{"E00023845": {"ChIJd8CFjdQadkgR0uKuEfVzWj4": {"geometry": {"location": {"lat": 51.51691465060948, "lng": -0.1456004505399487}, "viewport": {"northeast": {"lat": 51.51826363029151, "lng": -0.144251469708498}, "southwest": {"lat": 51.51556566970851, "lng": -0.146949430291502}}}, "name": "16-14 A5204", "place_id": "ChIJd8CFjdQadkgR0uKuEfVzWj4", "types": ["route"]}, "ChIJB9hYiNQadkgRc0y3_eEuQac": {"geometry": {"location": {"lat": 51.5173923, "lng": -0.146089}, "viewport": {"northeast": {"lat": 51.51872953029149, "lng": -0.144803119708498}, "southwest": {"lat": 51.5160315697085, "lng": -0.147501080291502}}}, "name": "Ten Harley Street - Medical Consulting Rooms", "place_id": "ChIJB9hYiNQadkgRc0y3_eEuQac", "types": ["real_estate_agency", "health", "point_of_interest", "establishment"], "rating": 4.2, "user_ratings_total": 114}, "ChIJkfwUndQadkgRaWbMsk6-pbA": {"geometry": {"location": {"lat": 51.5169052, "lng": -0.1466781}, "viewport": {"northeast": {"lat": 51.5182001302915, "lng": -0.145388119708498}, "southwest": {"lat": 51.5155021697085, "lng": -0.1480860802915021}}}, "name": "2 Veneti", "place_id": "ChIJkfwUndQadkgRaWbMsk6-pbA", "types": ["meal_takeaway", "restaurant", "food", "point_of_interest", "establishment"], "rating": 4.4, "user_ratings_total": 314}, "ChIJX9u_iNQadkgR8doJK9sZDMg": {"geometry": {"location": {"lat": 51.5172315, "lng": -0.1460099}, "viewport": {"northeast": {"lat": 51.5185688802915, "lng": -0.1447273697084979}, "southwest": {"lat": 51.5158709197085, "lng": -0.147425330291502}}}, "name": "The Harley Medical Group", "place_id": "ChIJX9u_iNQadkgR8doJK9sZDMg", "types": ["doctor", "health", "point_of_interest", "establishment"], "rating": 3, "user_ratings_total": 75}, "ChIJ1x4diNQadkgRcruLOXj2hjk": {"geometry": {"location": {"lat": 51.5175659, "lng": -0.1460126}, "viewport": {"northeast": {"lat": 51.5188912802915, "lng": -0.144798719708498}, "southwest": {"lat": 51.51619331970851, "lng": -0.147496680291502}}}, "name": "Christianity Explored Ministries", "place_id": "ChIJ1x4diNQadkgRcruLOXj2hjk", "types": ["point_of_interest", "establishment"], "rating": 5, "user_ratings_total": 2}, "ChIJdcXtj9QadkgRUfFL1MptvtY": {"geometry": {"location": {"lat": 51.51691510000001, "lng": -0.1462555}, "viewport": {"northeast": {"lat": 51.5182830802915, "lng": -0.144792069708498}, "southwest": {"lat": 51.5155851197085, "lng": -0.147490030291502}}}, "name": "The Laser Treatment Clinic Harley St London", "place_id": "ChIJdcXtj9QadkgRUfFL1MptvtY", "types": ["beauty_salon", "hair_care", "health", "point_of_interest", "establishment"], "rating": 4.2, "user_ratings_total": 346}, "ChIJgzb-GdEadkgRiTnASXKEWdY": {"geometry": {"location": {"lat": 51.5170885, "lng": -0.1458369}, "viewport": {"northeast": {"lat": 51.5184167802915, "lng": -0.144604369708498}, "southwest": {"lat": 51.5157188197085, "lng": -0.147302330291502}}}, "name": "Harley Street Hearing", "place_id": "ChIJgzb-GdEadkgRiTnASXKEWdY", "types": ["doctor", "health", "point_of_interest", "store", "establishment"], "rating": 4.9, "user_ratings_total": 485}, "ChIJbxw_iNQadkgR7cb7WFkHEp4": {"geometry": {"location": {"lat": 51.516935, "lng": -0.146277}, "viewport": {"northeast": {"lat": 51.5183052302915, "lng": -0.144808419708498}, "southwest": {"lat": 51.5156072697085, "lng": -0.147506380291502}}}, "name": "Eating Disorder and Addiction Specialist", "place_id": "ChIJbxw_iNQadkgR7cb7WFkHEp4", "types": ["health", "point_of_interest", "establishment"], "rating": 5, "user_ratings_total": 4}, "ChIJLYWJhtQadkgR-joD4ylhaAI": {"geometry": {"location": {"lat": 51.51729, "lng": -0.1463942}, "viewport": {"northeast": {"lat": 51.5186563302915, "lng": -0.144945769708498}, "southwest": {"lat": 51.5159583697085, "lng": -0.147643730291502}}}, "name": "Harley Medical & Visa Services Ltd", "place_id": "ChIJLYWJhtQadkgR-joD4ylhaAI", "types": ["finance", "point_of_interest", "establishment"]}, "ChIJB9hYiNQadkgRjWe7mbXqEu8": {"geometry": {"location": {"lat": 51.51692800000001, "lng": -0.146158}, "viewport": {"northeast": {"lat": 51.5182887302915, "lng": -0.144742969708498}, "southwest": {"lat": 51.5155907697085, "lng": -0.147440930291502}}}, "name": "Clinic BeauCare", "place_id": "ChIJB9hYiNQadkgRjWe7mbXqEu8", "types": ["doctor", "health", "point_of_interest", "establishment"], "rating": 2.8, "user_ratings_total": 9}, "ChIJC3iiF9EadkgRtlEe-iuQiPQ": {"geometry": {"location": {"lat": 51.5173512, "lng": -0.1458776}, "viewport": {"northeast": {"lat": 51.5186734802915, "lng": -0.144681419708498}, "southwest": {"lat": 51.5159755197085, "lng": -0.147379380291502}}}, "name": "London Speech Therapy, Psychology and Allied Services", "place_id": "ChIJC3iiF9EadkgRtlEe-iuQiPQ", "types": ["doctor", "school", "health", "point_of_interest", "establishment"], "rating": 5, "user_ratings_total": 6}, "ChIJdcXtj9QadkgRcuNOw86cBQg": {"geometry": {"location": {"lat": 51.5169342, "lng": -0.1461721}, "viewport": {"northeast": {"lat": 51.5182958302915, "lng": -0.144751819708498}, "southwest": {"lat": 51.5155978697085, "lng": -0.147449780291502}}}, "name": "Harley Therapy - Psychotherapy & Counselling", "place_id": "ChIJdcXtj9QadkgRcuNOw86cBQg", "types": ["doctor", "health", "point_of_interest", "establishment"], "rating": 4.5, "user_ratings_total": 157}, "ChIJB9hYiNQadkgR5JKNhOJ5wMU": {"geometry": {"location": {"lat": 51.5173512, "lng": -0.1458776}, "viewport": {"northeast": {"lat": 51.5186734802915, "lng": -0.144681419708498}, "southwest": {"lat": 51.5159755197085, "lng": -0.147379380291502}}}, "name": "Efficacy", "place_id": "ChIJB9hYiNQadkgR5JKNhOJ5wMU", "types": ["health", "point_of_interest", "establishment"]}, "ChIJB9hYiNQadkgR1oIui6ksVi8": {"geometry": {"location": {"lat": 51.5173512, "lng": -0.1458776}, "viewport": {"northeast": {"lat": 51.5186734802915, "lng": -0.144681419708498}, "southwest": {"lat": 51.5159755197085, "lng": -0.147379380291502}}}, "name": "Harley Body Clinic", "place_id": "ChIJB9hYiNQadkgR1oIui6ksVi8", "types": ["hospital", "doctor", "health", "point_of_interest", "establishment"], "rating": 4.3, "user_ratings_total": 62}, "ChIJRQTZftQadkgRJLxHxjiR25g": {"geometry": {"location": {"lat": 51.5173512, "lng": -0.1458776}, "viewport": {"northeast": {"lat": 51.5186734802915, "lng": -0.144681419708498}, "southwest": {"lat": 51.5159755197085, "lng": -0.147379380291502}}}, "name": "Harley Street Nurses", "place_id": "ChIJRQTZftQadkgRJLxHxjiR25g", "types": ["health", "point_of_interest", "establishment"], "rating": 3.8, "user_ratings_total": 10}, "ChIJB9hYiNQadkgRX34ulUdy_H4": {"geometry": {"location": {"lat": 51.5173512, "lng": -0.1458776}, "viewport": {"northeast": {"lat": 51.5186734802915, "lng": -0.144681419708498}, "southwest": {"lat": 51.5159755197085, "lng": -0.147379380291502}}}, "name": "Harley Street Aesthetics", "place_id": "ChIJB9hYiNQadkgRX34ulUdy_H4", "types": ["doctor", "health", "point_of_interest", "establishment"], "rating": 5, "user_ratings_total": 2}, "ChIJLYWJhtQadkgRqmNwxrlGtFg": {"geometry": {"location": {"lat": 51.51729, "lng": -0.1463942}, "viewport": {"northeast": {"lat": 51.5186563302915, "lng": -0.144945769708498}, "southwest": {"lat": 51.5159583697085, "lng": -0.147643730291502}}}, "name": "Ultralase", "place_id": "ChIJLYWJhtQadkgRqmNwxrlGtFg", "types": ["doctor", "health", "point_of_interest", "establishment"], "rating": 3, "user_ratings_total": 4}, "ChIJYzr5GdcadkgRcx7nTzua-sM": {"geometry": {"location": {"lat": 51.5170089, "lng": -0.1458002}, "viewport": {"northeast": {"lat": 51.5182981802915, "lng": -0.144427819708498}, "southwest": {"lat": 51.5156002197085, "lng": -0.147125780291502}}}, "name": "Healing Healer", "place_id": "ChIJYzr5GdcadkgRcx7nTzua-sM", "types": ["school", "health", "point_of_interest", "establishment"], "rating": 5, "user_ratings_total": 3}, "ChIJJYbI7hQFdkgR9v-kryATrhg": {"geometry": {"location": {"lat": 51.5173512, "lng": -0.1458776}, "viewport": {"northeast": {"lat": 51.5186734802915, "lng": -0.144681419708498}, "southwest": {"lat": 51.5159755197085, "lng": -0.147379380291502}}}, "name": "maple psychological services", "place_id": "ChIJJYbI7hQFdkgR9v-kryATrhg", "types": ["doctor", "health", "point_of_interest", "establishment"]}, "ChIJqfDZldUEdkgROJkwncl3ZNQ": {"geometry": {"location": {"lat": 51.5173512, "lng": -0.1458776}, "viewport": {"northeast": {"lat": 51.5186734802915, "lng": -0.144681419708498}, "southwest": {"lat": 51.5159755197085, "lng": -0.147379380291502}}}, "name": "London Cosmetic Surgery Partners", "place_id": "ChIJqfDZldUEdkgROJkwncl3ZNQ", "types": ["doctor", "health", "point_of_interest", "establishment"], "rating": 1, "user_ratings_total": 1}, "ChIJ-0rKhNQadkgRTWbNzsorbJ4": {"geometry": {"location": {"lat": 51.5169905, "lng": -0.1463313}, "viewport": {"northeast": {"lat": 51.5183631302915, "lng": -0.144849419708498}, "southwest": {"lat": 51.5156651697085, "lng": -0.147547380291502}}}, "name": "Dominic Knight's Harley Street Clinic", "place_id": "ChIJ-0rKhNQadkgRTWbNzsorbJ4", "types": ["health", "point_of_interest", "establishment"], "rating": 4.3, "user_ratings_total": 24}, "ChIJ3ceZitMadkgRPwNF3xkvHT0": {"geometry": {"location": {"lat": 51.5173512, "lng": -0.1458776}, "viewport": {"northeast": {"lat": 51.5186734802915, "lng": -0.144681419708498}, "southwest": {"lat": 51.5159755197085, "lng": -0.147379380291502}}}, "name": "The London Obesity Clinic", "place_id": "ChIJ3ceZitMadkgRPwNF3xkvHT0", "types": ["health", "point_of_interest", "establishment"], "rating": 5, "user_ratings_total": 3}, "ChIJJctRjdMadkgRmJf-_UTfnh4": {"geometry": {"location": {"lat": 51.51735919999999, "lng": -0.1460614}, "viewport": {"northeast": {"lat": 51.5186960802915, "lng": -0.1447816697084979}, "southwest": {"lat": 51.5159981197085, "lng": -0.147479630291502}}}, "name": "Uk Hair Transplant Clinics London", "place_id": "ChIJJctRjdMadkgRmJf-_UTfnh4", "types": ["health", "point_of_interest", "establishment"], "rating": 1.3, "user_ratings_total": 3}, "ChIJTVD0jtQadkgRqWUC3ZBrM5U": {"geometry": {"location": {"lat": 51.5170322, "lng": -0.145826}, "viewport": {"northeast": {"lat": 51.5183085802915, "lng": -0.144444869708498}, "southwest": {"lat": 51.5156106197085, "lng": -0.1471428302915021}}}, "name": "Wish CACI Face Lift Clinic Hammersmith", "place_id": "ChIJTVD0jtQadkgRqWUC3ZBrM5U", "types": ["beauty_salon", "point_of_interest", "establishment"], "rating": 5, "user_ratings_total": 1}, "ChIJB9hYiNQadkgRqfDdl7Bj5xY": {"geometry": {"location": {"lat": 51.5173512, "lng": -0.1458776}, "viewport": {"northeast": {"lat": 51.5186734802915, "lng": -0.144681419708498}, "southwest": {"lat": 51.5159755197085, "lng": -0.147379380291502}}}, "name": "Exuberance", "place_id": "ChIJB9hYiNQadkgRqfDdl7Bj5xY", "types": ["health", "point_of_interest", "establishment"]}, "ChIJB9hYiNQadkgR98oflxGUxMY": {"geometry": {"location": {"lat": 51.5173512, "lng": -0.1458776}, "viewport": {"northeast": {"lat": 51.5186734802915, "lng": -0.144681419708498}, "southwest": {"lat": 51.5159755197085, "lng": -0.147379380291502}}}, "name": "Stephen Hedger \u00ae", "place_id": "ChIJB9hYiNQadkgR98oflxGUxMY", "types": ["health", "point_of_interest", "establishment"]}, "ChIJYzr5GdcadkgR9wVnaa40hnc": {"geometry": {"location": {"lat": 51.51714699999999, "lng": -0.1459784}, "viewport": {"northeast": {"lat": 51.51848493029149, "lng": -0.144692769708498}, "southwest": {"lat": 51.51578696970849, "lng": -0.147390730291502}}}, "name": "Helen Claire Gardiner BSc Herb.Med. B.Nat", "place_id": "ChIJYzr5GdcadkgR9wVnaa40hnc", "types": ["health", "point_of_interest", "establishment"]}, "ChIJ89NthdQadkgR5OCJCW37yg0": {"geometry": {"location": {"lat": 51.517002, "lng": -0.1461951}, "viewport": {"northeast": {"lat": 51.51836298029149, "lng": -0.144778619708498}, "southwest": {"lat": 51.51566501970849, "lng": -0.147476580291502}}}, "name": "Dr Simon Darfoor", "place_id": "ChIJ89NthdQadkgR5OCJCW37yg0", "types": ["dentist", "health", "point_of_interest", "establishment"], "rating": 3.9, "user_ratings_total": 11}, "ChIJdcXtj9QadkgR0pC5lMvOq5c": {"geometry": {"location": {"lat": 51.5169127, "lng": -0.146252}, "viewport": {"northeast": {"lat": 51.5182817302915, "lng": -0.144790269708498}, "southwest": {"lat": 51.5155837697085, "lng": -0.147488230291502}}}, "name": "Franky Kossy - Health Kinesiology", "place_id": "ChIJdcXtj9QadkgR0pC5lMvOq5c", "types": ["doctor", "health", "point_of_interest", "establishment"], "rating": 5, "user_ratings_total": 14}, "ChIJB9hYiNQadkgRqLO1Z4DIDgU": {"geometry": {"location": {"lat": 51.5173512, "lng": -0.1458776}, "viewport": {"northeast": {"lat": 51.5186734802915, "lng": -0.144681419708498}, "southwest": {"lat": 51.5159755197085, "lng": -0.147379380291502}}}, "name": "Joe Shotbolt Physiotherapy", "place_id": "ChIJB9hYiNQadkgRqLO1Z4DIDgU", "types": ["physiotherapist", "hospital", "health", "point_of_interest", "establishment"]}, "ChIJDVFp4dAadkgRu_i1flhE9Yk": {"geometry": {"location": {"lat": 51.5170542, "lng": -0.1464641}, "viewport": {"northeast": {"lat": 51.5184348302915, "lng": -0.144933969708498}, "southwest": {"lat": 51.5157368697085, "lng": -0.147631930291502}}}, "name": "Charles East F.R.C.S. Facial Plastic Surgeon", "place_id": "ChIJDVFp4dAadkgRu_i1flhE9Yk", "types": ["doctor", "health", "point_of_interest", "establishment"], "rating": 5, "user_ratings_total": 6}, "ChIJRQTZftQadkgRIA42T37rUzA": {"geometry": {"location": {"lat": 51.5170776, "lng": -0.1462495}, "viewport": {"northeast": {"lat": 51.5184399302915, "lng": -0.144823569708498}, "southwest": {"lat": 51.5157419697085, "lng": -0.1475215302915021}}}, "name": "Spinal Healthcare", "place_id": "ChIJRQTZftQadkgRIA42T37rUzA", "types": ["health", "point_of_interest", "establishment"]}, "ChIJB9hYiNQadkgRMbua_dpB2F4": {"geometry": {"location": {"lat": 51.5173512, "lng": -0.1458776}, "viewport": {"northeast": {"lat": 51.5186734802915, "lng": -0.144681419708498}, "southwest": {"lat": 51.5159755197085, "lng": -0.147379380291502}}}, "name": "Release Hypnotherapy", "place_id": "ChIJB9hYiNQadkgRMbua_dpB2F4", "types": ["health", "point_of_interest", "establishment"], "rating": 5, "user_ratings_total": 1}, "ChIJdcXtj9QadkgRr2mczRbY128": {"geometry": {"location": {"lat": 51.5169905, "lng": -0.1463313}, "viewport": {"northeast": {"lat": 51.5183631302915, "lng": -0.144849419708498}, "southwest": {"lat": 51.5156651697085, "lng": -0.147547380291502}}}, "name": "Mind Harmony Coaching / Training", "place_id": "ChIJdcXtj9QadkgRr2mczRbY128", "types": ["health", "point_of_interest", "establishment"]}, "ChIJbxw_iNQadkgRS87vMU36lKo": {"geometry": {"location": {"lat": 51.5173512, "lng": -0.1458776}, "viewport": {"northeast": {"lat": 51.5186734802915, "lng": -0.144681419708498}, "southwest": {"lat": 51.5159755197085, "lng": -0.147379380291502}}}, "name": "Walton Associates (EU)", "place_id": "ChIJbxw_iNQadkgRS87vMU36lKo", "types": ["health", "point_of_interest", "establishment"]}, "ChIJw_OKhdQadkgRkDJuULWX6nQ": {"geometry": {"location": {"lat": 51.5173512, "lng": -0.1458776}, "viewport": {"northeast": {"lat": 51.5186734802915, "lng": -0.144681419708498}, "southwest": {"lat": 51.5159755197085, "lng": -0.147379380291502}}}, "name": "Hypnotherapy for Anxiety, Panic Attacks, Addictions & Phobias by Chris Meaden", "place_id": "ChIJw_OKhdQadkgRkDJuULWX6nQ", "types": ["health", "point_of_interest", "establishment"], "rating": 4.6, "user_ratings_total": 20}, "ChIJd15gj9QadkgRDRm52Ijt3oA": {"geometry": {"location": {"lat": 51.5173512, "lng": -0.1458776}, "viewport": {"northeast": {"lat": 51.5186734802915, "lng": -0.144681419708498}, "southwest": {"lat": 51.5159755197085, "lng": -0.147379380291502}}}, "name": "Phoenix Medical Cosmetics", "place_id": "ChIJd15gj9QadkgRDRm52Ijt3oA", "types": ["doctor", "health", "point_of_interest", "establishment"]}, "ChIJy7G9xzUgdkgRKICC-g7lUxw": {"geometry": {"location": {"lat": 51.5170731, "lng": -0.1458546}, "viewport": {"northeast": {"lat": 51.51840343029149, "lng": -0.1446105697084979}, "southwest": {"lat": 51.5157054697085, "lng": -0.147308530291502}}}, "name": "Keyajee Ayurvedic Clinic", "place_id": "ChIJy7G9xzUgdkgRKICC-g7lUxw", "types": ["health", "point_of_interest", "establishment"], "rating": 5, "user_ratings_total": 5}, "ChIJL8zI_dMadkgRrxmOmhIVzCM": {"geometry": {"location": {"lat": 51.5173512, "lng": -0.1458776}, "viewport": {"northeast": {"lat": 51.5186734802915, "lng": -0.144681419708498}, "southwest": {"lat": 51.5159755197085, "lng": -0.147379380291502}}}, "name": "Business Book - Entrepreneurs Always Drive On Empty", "place_id": "ChIJL8zI_dMadkgRrxmOmhIVzCM", "types": ["university", "point_of_interest", "establishment"]}, "ChIJdcXtj9QadkgROPpv2UMnuqQ": {"geometry": {"location": {"lat": 51.5169127, "lng": -0.146252}, "viewport": {"northeast": {"lat": 51.5182817302915, "lng": -0.144790269708498}, "southwest": {"lat": 51.5155837697085, "lng": -0.147488230291502}}}, "name": "Central London Japanese Doctor", "place_id": "ChIJdcXtj9QadkgROPpv2UMnuqQ", "types": ["health", "point_of_interest", "establishment"]}, "ChIJw_OKhdQadkgRWxW645YMa6A": {"geometry": {"location": {"lat": 51.5173512, "lng": -0.1458776}, "viewport": {"northeast": {"lat": 51.5186734802915, "lng": -0.144681419708498}, "southwest": {"lat": 51.5159755197085, "lng": -0.147379380291502}}}, "name": "HITE Limited", "place_id": "ChIJw_OKhdQadkgRWxW645YMa6A", "types": ["health", "point_of_interest", "establishment"]}, "ChIJ3ceZitMadkgR5nz258N7EGg": {"geometry": {"location": {"lat": 51.5173709, "lng": -0.1460748}, "viewport": {"northeast": {"lat": 51.51870843029149, "lng": -0.144791319708498}, "southwest": {"lat": 51.5160104697085, "lng": -0.147489280291502}}}, "name": "Dr Dan Dhunna London Harley Street Clinic", "place_id": "ChIJ3ceZitMadkgR5nz258N7EGg", "types": ["doctor", "health", "point_of_interest", "establishment"], "rating": 4.6, "user_ratings_total": 34}, "ChIJVzJ8h1cbdkgRh1juxkg56cs": {"geometry": {"location": {"lat": 51.5169586, "lng": -0.1463472}, "viewport": {"northeast": {"lat": 51.5183337302915, "lng": -0.144851169708498}, "southwest": {"lat": 51.5156357697085, "lng": -0.147549130291502}}}, "name": "Rachel Moore Therapy", "place_id": "ChIJVzJ8h1cbdkgRh1juxkg56cs", "types": ["health", "point_of_interest", "establishment"]}, "ChIJbXXT7dEadkgRKhCGJEHuW8g": {"geometry": {"location": {"lat": 51.5173512, "lng": -0.1458776}, "viewport": {"northeast": {"lat": 51.5186734802915, "lng": -0.144681419708498}, "southwest": {"lat": 51.5159755197085, "lng": -0.147379380291502}}}, "name": "Private Psychiatrist Dr Lalitha de Silva", "place_id": "ChIJbXXT7dEadkgRKhCGJEHuW8g", "types": ["doctor", "health", "point_of_interest", "establishment"], "rating": 5, "user_ratings_total": 1}, "ChIJdcXtj9QadkgRD7i3DDCNdTg": {"geometry": {"location": {"lat": 51.5169905, "lng": -0.1463313}, "viewport": {"northeast": {"lat": 51.5183631302915, "lng": -0.144849419708498}, "southwest": {"lat": 51.5156651697085, "lng": -0.147547380291502}}}, "name": "EFT London Clinic", "place_id": "ChIJdcXtj9QadkgRD7i3DDCNdTg", "types": ["health", "point_of_interest", "establishment"]}, "ChIJB9hYiNQadkgR3jx2idgt7TM": {"geometry": {"location": {"lat": 51.5173512, "lng": -0.1458776}, "viewport": {"northeast": {"lat": 51.5186734802915, "lng": -0.144681419708498}, "southwest": {"lat": 51.5159755197085, "lng": -0.147379380291502}}}, "name": "Cosmetic & Plastic Surgery - Mr S Patel", "place_id": "ChIJB9hYiNQadkgR3jx2idgt7TM", "types": ["doctor", "health", "point_of_interest", "establishment"]}, "ChIJQUgOhtQadkgR96LAsut9m6k": {"geometry": {"location": {"lat": 51.5173512, "lng": -0.1458776}, "viewport": {"northeast": {"lat": 51.5186734802915, "lng": -0.144681419708498}, "southwest": {"lat": 51.5159755197085, "lng": -0.147379380291502}}}, "name": "Deansgate Clinic Hair Restoration Specialists", "place_id": "ChIJQUgOhtQadkgR96LAsut9m6k", "types": ["health", "point_of_interest", "establishment"]}, "ChIJEylshdQadkgRgpLwzhZGrgM": {"geometry": {"location": {"lat": 51.5169905, "lng": -0.1463313}, "viewport": {"northeast": {"lat": 51.5183631302915, "lng": -0.144849419708498}, "southwest": {"lat": 51.5156651697085, "lng": -0.147547380291502}}}, "name": "Mark Dempster Counselling", "place_id": "ChIJEylshdQadkgRgpLwzhZGrgM", "types": ["health", "point_of_interest", "establishment"], "rating": 4.6, "user_ratings_total": 19}, "ChIJB9hYiNQadkgRApkUOU0URAw": {"geometry": {"location": {"lat": 51.5173512, "lng": -0.1458776}, "viewport": {"northeast": {"lat": 51.5186734802915, "lng": -0.144681419708498}, "southwest": {"lat": 51.5159755197085, "lng": -0.147379380291502}}}, "name": "Prywatny Gabinet Lekarski Iwona Dzitko", "place_id": "ChIJB9hYiNQadkgRApkUOU0URAw", "types": ["doctor", "health", "point_of_interest", "establishment"]}, "ChIJN1OjhysbdkgRJbRar40JpfQ": {"geometry": {"location": {"lat": 51.51692389999999, "lng": -0.1463451}, "viewport": {"northeast": {"lat": 51.5183001802915, "lng": -0.144842669708498}, "southwest": {"lat": 51.5156022197085, "lng": -0.147540630291502}}}, "name": "Martin Jelfs", "place_id": "ChIJN1OjhysbdkgRJbRar40JpfQ", "types": ["health", "point_of_interest", "establishment"]}, "ChIJXR-xhtQadkgRwno6p3a-eFA": {"geometry": {"location": {"lat": 51.51729, "lng": -0.1463942}, "viewport": {"northeast": {"lat": 51.5186563302915, "lng": -0.144945769708498}, "southwest": {"lat": 51.5159583697085, "lng": -0.147643730291502}}}, "name": "McLellan Practice", "place_id": "ChIJXR-xhtQadkgRwno6p3a-eFA", "types": ["point_of_interest", "establishment"]}, "ChIJyUqGiNQadkgRPmMlD7deBkk": {"geometry": {"location": {"lat": 51.5173512, "lng": -0.1458776}, "viewport": {"northeast": {"lat": 51.5186734802915, "lng": -0.144681419708498}, "southwest": {"lat": 51.5159755197085, "lng": -0.147379380291502}}}, "name": "COSMEDOCS", "place_id": "ChIJyUqGiNQadkgRPmMlD7deBkk", "types": ["dentist", "doctor", "health", "point_of_interest", "store", "establishment"], "rating": 4.7, "user_ratings_total": 157}, "ChIJDeIBkNQadkgRrNiooT0ymT8": {"geometry": {"location": {"lat": 51.5169905, "lng": -0.1463313}, "viewport": {"northeast": {"lat": 51.5183631302915, "lng": -0.144849419708498}, "southwest": {"lat": 51.5156651697085, "lng": -0.147547380291502}}}, "name": "London Consulting Room", "place_id": "ChIJDeIBkNQadkgRrNiooT0ymT8", "types": ["real_estate_agency", "health", "point_of_interest", "establishment"], "rating": 1, "user_ratings_total": 1}, "ChIJB9hYiNQadkgRem3sfdHpG6o": {"geometry": {"location": {"lat": 51.5173512, "lng": -0.1458776}, "viewport": {"northeast": {"lat": 51.5186734802915, "lng": -0.144681419708498}, "southwest": {"lat": 51.5159755197085, "lng": -0.147379380291502}}}, "name": "Priest Medical Services Ltd", "place_id": "ChIJB9hYiNQadkgRem3sfdHpG6o", "types": ["hospital", "health", "point_of_interest", "establishment"]}, "ChIJB9hYiNQadkgRWHRDRaYOShk": {"geometry": {"location": {"lat": 51.5174017, "lng": -0.1459658}, "viewport": {"northeast": {"lat": 51.5187292802915, "lng": -0.144739269708498}, "southwest": {"lat": 51.5160313197085, "lng": -0.147437230291502}}}, "name": "Rubicon Medical Ltd", "place_id": "ChIJB9hYiNQadkgRWHRDRaYOShk", "types": ["doctor", "health", "point_of_interest", "establishment"], "rating": 1, "user_ratings_total": 1}, "ChIJ7--viNQadkgRtsYF5u63Jxk": {"geometry": {"location": {"lat": 51.5173512, "lng": -0.1458776}, "viewport": {"northeast": {"lat": 51.5186734802915, "lng": -0.144681419708498}, "southwest": {"lat": 51.5159755197085, "lng": -0.147379380291502}}}, "name": "The London Trauma Centre", "place_id": "ChIJ7--viNQadkgRtsYF5u63Jxk", "types": ["health", "point_of_interest", "establishment"]}, "ChIJbxw_iNQadkgRjLTljNtbnQU": {"geometry": {"location": {"lat": 51.5173512, "lng": -0.1458776}, "viewport": {"northeast": {"lat": 51.5186734802915, "lng": -0.144681419708498}, "southwest": {"lat": 51.5159755197085, "lng": -0.147379380291502}}}, "name": "Oliver St James", "place_id": "ChIJbxw_iNQadkgRjLTljNtbnQU", "types": ["point_of_interest", "establishment"]}, "ChIJB9hYiNQadkgR7t3e63WBsfM": {"geometry": {"location": {"lat": 51.5173512, "lng": -0.1458776}, "viewport": {"northeast": {"lat": 51.5186734802915, "lng": -0.144681419708498}, "southwest": {"lat": 51.5159755197085, "lng": -0.147379380291502}}}, "name": "Dr Caroline McGee", "place_id": "ChIJB9hYiNQadkgR7t3e63WBsfM", "types": ["health", "point_of_interest", "establishment"]}, "ChIJq0AbQdEadkgRfAPNOEdpXtY": {"geometry": {"location": {"lat": 51.51732620000001, "lng": -0.1465632}, "viewport": {"northeast": {"lat": 51.51870493029151, "lng": -0.145044019708498}, "southwest": {"lat": 51.51600696970851, "lng": -0.147741980291502}}}, "name": "Prof Bhik Kotecha at 17 The Harley Street ENT", "place_id": "ChIJq0AbQdEadkgRfAPNOEdpXtY", "types": ["doctor", "health", "point_of_interest", "establishment"], "rating": 5, "user_ratings_total": 1}, "ChIJw80Mu9QadkgR3fN9Bbm2yAk": {"geometry": {"location": {"lat": 51.51582415014438, "lng": -0.1459466001547658}, "viewport": {"northeast": {"lat": 51.5171731302915, "lng": -0.144597619708498}, "southwest": {"lat": 51.5144751697085, "lng": -0.147295580291502}}}, "name": "Henrietta Place", "place_id": "ChIJw80Mu9QadkgR3fN9Bbm2yAk", "types": ["route"]}, "ChIJ32vSvdQadkgRklx-ItB3C2A": {"geometry": {"location": {"lat": 51.5158395, "lng": -0.1463767}, "viewport": {"northeast": {"lat": 51.5171432802915, "lng": -0.145006619708498}, "southwest": {"lat": 51.5144453197085, "lng": -0.1477045802915021}}}, "name": "Royal College of Nursing", "place_id": "ChIJ32vSvdQadkgRklx-ItB3C2A", "types": ["university", "point_of_interest", "establishment"], "rating": 4.1, "user_ratings_total": 10}, "ChIJKelpmtQadkgR24E7r_Xb-I0": {"geometry": {"location": {"lat": 51.5161481, "lng": -0.1467636}, "viewport": {"northeast": {"lat": 51.5172773302915, "lng": -0.145312069708498}, "southwest": {"lat": 51.5145793697085, "lng": -0.148010030291502}}}, "name": "Russell Partnership Collection", "place_id": "ChIJKelpmtQadkgR24E7r_Xb-I0", "types": ["point_of_interest", "establishment"]}, "ChIJXzpuvdQadkgRK3YWcqpysgk": {"geometry": {"location": {"lat": 51.5162015, "lng": -0.1459968}, "viewport": {"northeast": {"lat": 51.5175873302915, "lng": -0.144481569708498}, "southwest": {"lat": 51.5148893697085, "lng": -0.147179530291502}}}, "name": "sohrabi dental practice", "place_id": "ChIJXzpuvdQadkgRK3YWcqpysgk", "types": ["dentist", "health", "point_of_interest", "establishment"]}, "ChIJfw0Cl9QadkgR36dzJ3qda90": {"geometry": {"location": {"lat": 51.51631329999999, "lng": -0.146029}, "viewport": {"northeast": {"lat": 51.51769598029149, "lng": -0.144527869708498}, "southwest": {"lat": 51.51499801970849, "lng": -0.147225830291502}}}, "name": "Hensher Robert", "place_id": "ChIJfw0Cl9QadkgR36dzJ3qda90", "types": ["doctor", "health", "point_of_interest", "establishment"], "rating": 3, "user_ratings_total": 2}, "ChIJfw0Cl9QadkgRBsPQENrNIK0": {"geometry": {"location": {"lat": 51.5162015, "lng": -0.1459968}, "viewport": {"northeast": {"lat": 51.5175873302915, "lng": -0.144481569708498}, "southwest": {"lat": 51.5148893697085, "lng": -0.147179530291502}}}, "name": "D M Zane", "place_id": "ChIJfw0Cl9QadkgRBsPQENrNIK0", "types": ["dentist", "health", "point_of_interest", "establishment"]}, "ChIJh1p2vdQadkgR1gk-ePnlh84": {"geometry": {"location": {"lat": 51.5161773, "lng": -0.1459457}, "viewport": {"northeast": {"lat": 51.5175594802915, "lng": -0.1444469697084979}, "southwest": {"lat": 51.5148615197085, "lng": -0.147144930291502}}}, "name": "Builder & Architect Cavendish Sq", "place_id": "ChIJh1p2vdQadkgR1gk-ePnlh84", "types": ["general_contractor", "point_of_interest", "establishment"]}, "ChIJw1P2ldQadkgRAXHmbrSBkWk": {"geometry": {"location": {"lat": 51.5160199, "lng": -0.1459275}, "viewport": {"northeast": {"lat": 51.5172703302915, "lng": -0.144751319708498}, "southwest": {"lat": 51.5145723697085, "lng": -0.147449280291502}}}, "name": "The Royal College Of Nursing Library And Heritage Centre", "place_id": "ChIJw1P2ldQadkgRAXHmbrSBkWk", "types": ["library", "point_of_interest", "establishment"], "rating": 4.6, "user_ratings_total": 12}, "ChIJ704hltQadkgR4-pxxjhrO5Y": {"geometry": {"location": {"lat": 51.51631329999999, "lng": -0.146029}, "viewport": {"northeast": {"lat": 51.51769598029149, "lng": -0.144527869708498}, "southwest": {"lat": 51.51499801970849, "lng": -0.147225830291502}}}, "name": "Lowy Group", "place_id": "ChIJ704hltQadkgR4-pxxjhrO5Y", "types": ["lodging", "point_of_interest", "establishment"], "rating": 5, "user_ratings_total": 1}, "ChIJnftxvtQadkgRsmWcLaixOpM": {"geometry": {"location": {"lat": 51.51631329999999, "lng": -0.146029}, "viewport": {"northeast": {"lat": 51.51769598029149, "lng": -0.144527869708498}, "southwest": {"lat": 51.51499801970849, "lng": -0.147225830291502}}}, "name": "McNeil & Barrett", "place_id": "ChIJnftxvtQadkgRsmWcLaixOpM", "types": ["dentist", "health", "point_of_interest", "establishment"]}, "ChIJ0XMVvtQadkgRp2a-AD0Ujq0": {"geometry": {"location": {"lat": 51.516046, "lng": -0.145766}, "viewport": {"northeast": {"lat": 51.5172833802915, "lng": -0.144678419708498}, "southwest": {"lat": 51.5145854197085, "lng": -0.147376380291502}}}, "name": "20 Cavendish Square", "place_id": "ChIJ0XMVvtQadkgRp2a-AD0Ujq0", "types": ["point_of_interest", "establishment"], "rating": 4.4, "user_ratings_total": 26}, "ChIJnU-4rFoxcEERSWcVEe_AJag": {"geometry": {"location": {"lat": 51.51588109999999, "lng": -0.1461642}, "viewport": {"northeast": {"lat": 51.5171841302915, "lng": -0.144790619708498}, "southwest": {"lat": 51.5144861697085, "lng": -0.1474885802915021}}}, "name": "The Queen's Nursing Institute", "place_id": "ChIJnU-4rFoxcEERSWcVEe_AJag", "types": ["point_of_interest", "establishment"], "rating": 5, "user_ratings_total": 2}, "ChIJ16aFp9QadkgRoLwO1HyDAmg": {"geometry": {"location": {"lat": 51.5158753, "lng": -0.1462105}, "viewport": {"northeast": {"lat": 51.5171764302915, "lng": -0.144839169708498}, "southwest": {"lat": 51.5144784697085, "lng": -0.147537130291502}}}, "name": "RSM, Members' Entrance", "place_id": "ChIJ16aFp9QadkgRoLwO1HyDAmg", "types": ["cafe", "food", "point_of_interest", "establishment"], "rating": 4.6, "user_ratings_total": 14}, "ChIJWYeCl9QadkgR8xygsvhE4gE": {"geometry": {"location": {"lat": 51.5163939, "lng": -0.1460869}, "viewport": {"northeast": {"lat": 51.5177846302915, "lng": -0.144588069708498}, "southwest": {"lat": 51.5150866697085, "lng": -0.147286030291502}}}, "name": "Lonnee Hamilton", "place_id": "ChIJWYeCl9QadkgR8xygsvhE4gE", "types": ["point_of_interest", "establishment"]}, "ChIJ__9vl9QadkgRFd9dfO4ZOw8": {"geometry": {"location": {"lat": 51.5164365, "lng": -0.1460756}, "viewport": {"northeast": {"lat": 51.5178189302915, "lng": -0.144591119708498}, "southwest": {"lat": 51.51512096970851, "lng": -0.147289080291502}}}, "name": "London Implant Dentist", "place_id": "ChIJ__9vl9QadkgRFd9dfO4ZOw8", "types": ["dentist", "health", "point_of_interest", "establishment"]}, "ChIJBQBeoNQadkgRTCY0uCvOkJg": {"geometry": {"location": {"lat": 51.5160864, "lng": -0.1467631}, "viewport": {"northeast": {"lat": 51.51724463029149, "lng": -0.145322269708498}, "southwest": {"lat": 51.51454666970849, "lng": -0.148020230291502}}}, "name": "markthehypnotherapist", "place_id": "ChIJBQBeoNQadkgRTCY0uCvOkJg", "types": ["health", "point_of_interest", "establishment"]}, "ChIJo4hgoNQadkgRreiOmUmBz7k": {"geometry": {"location": {"lat": 51.5160773, "lng": -0.1467662}, "viewport": {"northeast": {"lat": 51.5172397802915, "lng": -0.145325219708498}, "southwest": {"lat": 51.5145418197085, "lng": -0.148023180291502}}}, "name": "Honest", "place_id": "ChIJo4hgoNQadkgRreiOmUmBz7k", "types": ["point_of_interest", "establishment"]}, "ChIJ8zSi3dQadkgR5ToUgSk_Ju8": {"geometry": {"location": {"lat": 51.5165802, "lng": -0.1460994}, "viewport": {"northeast": {"lat": 51.51795053029149, "lng": -0.144635769708498}, "southwest": {"lat": 51.51525256970849, "lng": -0.147333730291502}}}, "name": "Confetti", "place_id": "ChIJ8zSi3dQadkgR5ToUgSk_Ju8", "types": ["point_of_interest", "establishment"]}, "ChIJ31vwHysFdkgRwauDlgj6OjA": {"geometry": {"location": {"lat": 51.51658519999999, "lng": -0.1461364}, "viewport": {"northeast": {"lat": 51.5179584802915, "lng": -0.144656869708498}, "southwest": {"lat": 51.5152605197085, "lng": -0.147354830291502}}}, "name": "Hochschild Mining Plc", "place_id": "ChIJ31vwHysFdkgRwauDlgj6OjA", "types": ["point_of_interest", "establishment"]}, "ChIJxcQjoNQadkgRWa15eGztEgo": {"geometry": {"location": {"lat": 51.5161481, "lng": -0.1467636}, "viewport": {"northeast": {"lat": 51.5172773302915, "lng": -0.145312069708498}, "southwest": {"lat": 51.5145793697085, "lng": -0.148010030291502}}}, "name": "1 Wimpole Street", "place_id": "ChIJxcQjoNQadkgRWa15eGztEgo", "types": ["point_of_interest", "establishment"], "rating": 4.3, "user_ratings_total": 76}, "ChIJh7Io1KIEdkgRiHK-DCmQ8t4": {"geometry": {"location": {"lat": 51.516177, "lng": -0.145986}, "viewport": {"northeast": {"lat": 51.51756313029149, "lng": -0.144469319708498}, "southwest": {"lat": 51.5148651697085, "lng": -0.147167280291502}}}, "name": "StGeorge's@CavendishSquare", "place_id": "ChIJh7Io1KIEdkgRiHK-DCmQ8t4", "types": ["dentist", "health", "point_of_interest", "establishment"]}, "ChIJVyUPnNQadkgRIQavDzrEfcI": {"geometry": {"location": {"lat": 51.516611, "lng": -0.146455}, "viewport": {"northeast": {"lat": 51.5180336802915, "lng": -0.145138169708498}, "southwest": {"lat": 51.5153357197085, "lng": -0.147836130291502}}}, "name": "Neville Johnson", "place_id": "ChIJVyUPnNQadkgRIQavDzrEfcI", "types": ["furniture_store", "home_goods_store", "point_of_interest", "store", "establishment"], "rating": 4.1, "user_ratings_total": 23}, "ChIJ89hintQadkgRzdF1ih2016Y": {"geometry": {"location": {"lat": 51.5165145, "lng": -0.1466846}, "viewport": {"northeast": {"lat": 51.5179643802915, "lng": -0.145377969708498}, "southwest": {"lat": 51.5152664197085, "lng": -0.148075930291502}}}, "name": "TK Law Limited", "place_id": "ChIJ89hintQadkgRzdF1ih2016Y", "types": ["point_of_interest", "establishment"]}, "ChIJH4aTkNQadkgR-KPwh-4ukuM": {"geometry": {"location": {"lat": 51.51666299999999, "lng": -0.146045}, "viewport": {"northeast": {"lat": 51.5180252802915, "lng": -0.144624569708498}, "southwest": {"lat": 51.5153273197085, "lng": -0.147322530291502}}}, "name": "The Total Simulator Company (HOTS)", "place_id": "ChIJH4aTkNQadkgR-KPwh-4ukuM", "types": ["point_of_interest", "establishment"]}, "ChIJH4aTkNQadkgRNdYXfr5jkcY": {"geometry": {"location": {"lat": 51.5166634, "lng": -0.1460452}, "viewport": {"northeast": {"lat": 51.51802568029149, "lng": -0.144624769708498}, "southwest": {"lat": 51.5153277197085, "lng": -0.147322730291502}}}, "name": "Cura-Medical Ltd", "place_id": "ChIJH4aTkNQadkgRNdYXfr5jkcY", "types": ["point_of_interest", "establishment"]}, "ChIJH9gKYNMadkgRs7Tkmr7dOeA": {"geometry": {"location": {"lat": 51.51624, "lng": -0.146945}, "viewport": {"northeast": {"lat": 51.5173127302915, "lng": -0.145458219708498}, "southwest": {"lat": 51.5146147697085, "lng": -0.148156180291502}}}, "name": "Reiki Master London", "place_id": "ChIJH9gKYNMadkgRs7Tkmr7dOeA", "types": ["health", "point_of_interest", "establishment"]}, "ChIJ9TpuvdQadkgRY4Ykg3tuWNo": {"geometry": {"location": {"lat": 51.516177, "lng": -0.1459859}, "viewport": {"northeast": {"lat": 51.51756313029149, "lng": -0.1444692697084979}, "southwest": {"lat": 51.5148651697085, "lng": -0.147167230291502}}}, "name": "Capital Auto Wash", "place_id": "ChIJ9TpuvdQadkgRY4Ykg3tuWNo", "types": ["car_wash", "point_of_interest", "establishment"], "rating": 5, "user_ratings_total": 1}, "ChIJq6pavdQadkgR1q6ItDml3MY": {"geometry": {"location": {"lat": 51.5162015, "lng": -0.1459968}, "viewport": {"northeast": {"lat": 51.5175873302915, "lng": -0.144481569708498}, "southwest": {"lat": 51.5148893697085, "lng": -0.147179530291502}}}, "name": "Baker J", "place_id": "ChIJq6pavdQadkgR1q6ItDml3MY", "types": ["dentist", "health", "point_of_interest", "establishment"]}, "ChIJVdhkvdQadkgR4kCR-ah6aCE": {"geometry": {"location": {"lat": 51.516201, "lng": -0.145986}, "viewport": {"northeast": {"lat": 51.5175857802915, "lng": -0.144475419708498}, "southwest": {"lat": 51.51488781970851, "lng": -0.147173380291502}}}, "name": "Chargemaster Charging Station", "place_id": "ChIJVdhkvdQadkgR4kCR-ah6aCE", "types": ["point_of_interest", "establishment"]}, "ChIJRewhSpAbdkgRedX6_ibTtts": {"geometry": {"location": {"lat": 51.5160104, "lng": -0.1459739}, "viewport": {"northeast": {"lat": 51.51726558029149, "lng": -0.144774469708498}, "southwest": {"lat": 51.5145676197085, "lng": -0.147472430291502}}}, "name": "National Association of Primary Care (NAPC)", "place_id": "ChIJRewhSpAbdkgRedX6_ibTtts", "types": ["point_of_interest", "establishment"]}, "ChIJJZbxvNQadkgRXwRoOJ0S42U": {"geometry": {"location": {"lat": 51.5160104, "lng": -0.1459738}, "viewport": {"northeast": {"lat": 51.51726558029149, "lng": -0.144774469708498}, "southwest": {"lat": 51.5145676197085, "lng": -0.147472430291502}}}, "name": "Commonwealth Nurses and Midwives Federation", "place_id": "ChIJJZbxvNQadkgRXwRoOJ0S42U", "types": ["point_of_interest", "establishment"], "rating": 5, "user_ratings_total": 2}, "ChIJkw2WUhMbdkgRT9XdY6XqgVU": {"geometry": {"location": {"lat": 51.51631329999999, "lng": -0.146029}, "viewport": {"northeast": {"lat": 51.51769598029149, "lng": -0.144527869708498}, "southwest": {"lat": 51.51499801970849, "lng": -0.147225830291502}}}, "name": "The Royal Marsden Private Care at Cavendish Square", "place_id": "ChIJkw2WUhMbdkgRT9XdY6XqgVU", "types": ["health", "point_of_interest", "establishment"]}, "ChIJq6pavdQadkgRQYRoMVmZyS0": {"geometry": {"location": {"lat": 51.51631329999999, "lng": -0.146029}, "viewport": {"northeast": {"lat": 51.51769598029149, "lng": -0.144527869708498}, "southwest": {"lat": 51.51499801970849, "lng": -0.147225830291502}}}, "name": "Professor Nigel Hunt", "place_id": "ChIJq6pavdQadkgRQYRoMVmZyS0", "types": ["dentist", "health", "point_of_interest", "establishment"]}, "ChIJU1wXw9QadkgRGqSv-3dKj88": {"geometry": {"location": {"lat": 51.51631329999999, "lng": -0.146029}, "viewport": {"northeast": {"lat": 51.51769598029149, "lng": -0.144527869708498}, "southwest": {"lat": 51.51499801970849, "lng": -0.147225830291502}}}, "name": "J Levy", "place_id": "ChIJU1wXw9QadkgRGqSv-3dKj88", "types": ["dentist", "health", "point_of_interest", "establishment"]}, "ChIJfw0Cl9QadkgR2KeHI5141ls": {"geometry": {"location": {"lat": 51.5162109, "lng": -0.1457949}, "viewport": {"northeast": {"lat": 51.5175763302915, "lng": -0.144371619708498}, "southwest": {"lat": 51.5148783697085, "lng": -0.147069580291502}}}, "name": "The Lease Partners", "place_id": "ChIJfw0Cl9QadkgR2KeHI5141ls", "types": ["dentist", "health", "point_of_interest", "establishment"]}, "ChIJRTWmv9QadkgRzfJttv7-y_o": {"geometry": {"location": {"lat": 51.5160782, "lng": -0.1457752}, "viewport": {"northeast": {"lat": 51.5172994802915, "lng": -0.144675969708498}, "southwest": {"lat": 51.5146015197085, "lng": -0.147373930291502}}}, "name": "Blue Plaque: Herbert Henry Asquith", "place_id": "ChIJRTWmv9QadkgRzfJttv7-y_o", "types": ["point_of_interest", "establishment"], "rating": 5, "user_ratings_total": 2}, "ChIJnW30ncgbdkgRQb2Wn3YDVyA": {"geometry": {"location": {"lat": 51.51593279999999, "lng": -0.1459325}, "viewport": {"northeast": {"lat": 51.5172342302915, "lng": -0.144558019708498}, "southwest": {"lat": 51.51453626970851, "lng": -0.147255980291502}}}, "name": "Royal College of Nursing Cafe and Library Entrance", "place_id": "ChIJnW30ncgbdkgRQb2Wn3YDVyA", "types": ["cafe", "food", "point_of_interest", "establishment"]}, "ChIJjYEYvNQadkgRxpZEQXWJ8Dg": {"geometry": {"location": {"lat": 51.51598469999999, "lng": -0.1457847}, "viewport": {"northeast": {"lat": 51.5172527302915, "lng": -0.144699869708498}, "southwest": {"lat": 51.5145547697085, "lng": -0.147397830291502}}}, "name": "RCNi Learning", "place_id": "ChIJjYEYvNQadkgRxpZEQXWJ8Dg", "types": ["point_of_interest", "establishment"], "rating": 4.5, "user_ratings_total": 2}, "ChIJuYP6ldQadkgRBHWoepcw6kY": {"geometry": {"location": {"lat": 51.5163939, "lng": -0.146087}, "viewport": {"northeast": {"lat": 51.51778468029151, "lng": -0.144588119708498}, "southwest": {"lat": 51.51508671970851, "lng": -0.147286080291502}}}, "name": "MW Realty", "place_id": "ChIJuYP6ldQadkgRBHWoepcw6kY", "types": ["real_estate_agency", "point_of_interest", "establishment"]}, "ChIJWYeCl9QadkgR0OoWwv6EbnU": {"geometry": {"location": {"lat": 51.5163939, "lng": -0.1460869}, "viewport": {"northeast": {"lat": 51.5177846302915, "lng": -0.144588069708498}, "southwest": {"lat": 51.5150866697085, "lng": -0.147286030291502}}}, "name": "Centreland", "place_id": "ChIJWYeCl9QadkgR0OoWwv6EbnU", "types": ["finance", "point_of_interest", "establishment"]}, "ChIJb4kJl9QadkgRc9vZXAIAec4": {"geometry": {"location": {"lat": 51.5164037, "lng": -0.1459804}, "viewport": {"northeast": {"lat": 51.5177812802915, "lng": -0.144528869708498}, "southwest": {"lat": 51.5150833197085, "lng": -0.147226830291502}}}, "name": "Impress Your Ears Ltd", "place_id": "ChIJb4kJl9QadkgRc9vZXAIAec4", "types": ["health", "point_of_interest", "store", "establishment"]}, "ChIJ-7HoltQadkgRuprrfeGxSss": {"geometry": {"location": {"lat": 51.5164586, "lng": -0.1458889}, "viewport": {"northeast": {"lat": 51.5178149802915, "lng": -0.1444895697084979}, "southwest": {"lat": 51.51511701970851, "lng": -0.147187530291502}}}, "name": "T & B Interiors", "place_id": "ChIJ-7HoltQadkgRuprrfeGxSss", "types": ["point_of_interest", "establishment"]}, "ChIJJQE-kdQadkgRvBhWM8t74D8": {"geometry": {"location": {"lat": 51.5165802, "lng": -0.1460994}, "viewport": {"northeast": {"lat": 51.51795053029149, "lng": -0.144635769708498}, "southwest": {"lat": 51.51525256970849, "lng": -0.147333730291502}}}, "name": "J. Goldberg & Sons (Solicitors)", "place_id": "ChIJJQE-kdQadkgRvBhWM8t74D8", "types": ["lawyer", "point_of_interest", "establishment"]}, "ChIJAQBAoNQadkgRaEiTSWpeJS0": {"geometry": {"location": {"lat": 51.5161481, "lng": -0.1467635}, "viewport": {"northeast": {"lat": 51.5172773302915, "lng": -0.145311969708498}, "southwest": {"lat": 51.5145793697085, "lng": -0.148009930291502}}}, "name": "London Rhinoplasty Course", "place_id": "ChIJAQBAoNQadkgRaEiTSWpeJS0", "types": ["point_of_interest", "establishment"], "rating": 4.7, "user_ratings_total": 15}, "ChIJq6pqoNQadkgR1YO20_v1VEo": {"geometry": {"location": {"lat": 51.5161481, "lng": -0.1467636}, "viewport": {"northeast": {"lat": 51.5172773302915, "lng": -0.145312069708498}, "southwest": {"lat": 51.5145793697085, "lng": -0.148010030291502}}}, "name": "Human Equity", "place_id": "ChIJq6pqoNQadkgR1YO20_v1VEo", "types": ["point_of_interest", "establishment"]}, "ChIJq_sEg6wbdkgR3Hg3-tluHvg": {"geometry": {"location": {"lat": 51.5160819, "lng": -0.1467652}, "viewport": {"northeast": {"lat": 51.5172420802915, "lng": -0.145324719708498}, "southwest": {"lat": 51.5145441197085, "lng": -0.148022680291502}}}, "name": "London College of Oral Implantology (LCOI), Venue address", "place_id": "ChIJq_sEg6wbdkgR3Hg3-tluHvg", "types": ["university", "point_of_interest", "establishment"]}, "ChIJt9KKoNQadkgR1Lfhg5Jewm4": {"geometry": {"location": {"lat": 51.516058, "lng": -0.1467632}, "viewport": {"northeast": {"lat": 51.5172297302915, "lng": -0.145325819708498}, "southwest": {"lat": 51.5145317697085, "lng": -0.148023780291502}}}, "name": "OBMEC", "place_id": "ChIJt9KKoNQadkgR1Lfhg5Jewm4", "types": ["point_of_interest", "establishment"]}, "ChIJ9SuWOEAbdkgR8pvxUfMhMXk": {"geometry": {"location": {"lat": 51.51619059999999, "lng": -0.1467698}, "viewport": {"northeast": {"lat": 51.51729973029149, "lng": -0.145308919708498}, "southwest": {"lat": 51.5146017697085, "lng": -0.1480068802915021}}}, "name": "Biamp", "place_id": "ChIJ9SuWOEAbdkgR8pvxUfMhMXk", "types": ["point_of_interest", "establishment"]}, "ChIJK3awgdMadkgRj-SoyB5bpYs": {"geometry": {"location": {"lat": 51.5165802, "lng": -0.1460994}, "viewport": {"northeast": {"lat": 51.51795053029149, "lng": -0.144635769708498}, "southwest": {"lat": 51.51525256970849, "lng": -0.147333730291502}}}, "name": "RIAA Barker Gillette (UK) LLP", "place_id": "ChIJK3awgdMadkgRj-SoyB5bpYs", "types": ["lawyer", "point_of_interest", "establishment"], "rating": 4.7, "user_ratings_total": 10}, "ChIJm5MXlNQadkgR0GLvO54J2cQ": {"geometry": {"location": {"lat": 51.5164839, "lng": -0.1457041}, "viewport": {"northeast": {"lat": 51.51783558029149, "lng": -0.144304669708498}, "southwest": {"lat": 51.5151376197085, "lng": -0.147002630291502}}}, "name": "Vodacom Shop", "place_id": "ChIJm5MXlNQadkgR0GLvO54J2cQ", "types": ["point_of_interest", "store", "establishment"]}, "ChIJhZMXlNQadkgRO7uJYvfVZ5M": {"geometry": {"location": {"lat": 51.5164839, "lng": -0.145704}, "viewport": {"northeast": {"lat": 51.51783558029149, "lng": -0.144304669708498}, "southwest": {"lat": 51.5151376197085, "lng": -0.147002630291502}}}, "name": "Carver Executive", "place_id": "ChIJhZMXlNQadkgRO7uJYvfVZ5M", "types": ["point_of_interest", "establishment"]}, "ChIJCzgCmtQadkgRzJRRTjJyJ10": {"geometry": {"location": {"lat": 51.51656699999999, "lng": -0.146151}, "viewport": {"northeast": {"lat": 51.51794228029149, "lng": -0.144660769708498}, "southwest": {"lat": 51.51524431970849, "lng": -0.147358730291502}}}, "name": "Sofetti", "place_id": "ChIJCzgCmtQadkgRzJRRTjJyJ10", "types": ["point_of_interest", "establishment"]}, "ChIJ3z2qkNQadkgRunf_iVYNqJc": {"geometry": {"location": {"lat": 51.5165763, "lng": -0.1461162}, "viewport": {"northeast": {"lat": 51.5179482302915, "lng": -0.144643969708498}, "southwest": {"lat": 51.5152502697085, "lng": -0.147341930291502}}}, "name": "Mad Manners Ltd", "place_id": "ChIJ3z2qkNQadkgRunf_iVYNqJc", "types": ["point_of_interest", "establishment"]}, "ChIJVVWpkNQadkgRO9ANLKarUgk": {"geometry": {"location": {"lat": 51.5165802, "lng": -0.1460994}, "viewport": {"northeast": {"lat": 51.51795053029149, "lng": -0.144635769708498}, "southwest": {"lat": 51.51525256970849, "lng": -0.147333730291502}}}, "name": "OJ Brands", "place_id": "ChIJVVWpkNQadkgRO9ANLKarUgk", "types": ["point_of_interest", "establishment"]}, "ChIJVVWpkNQadkgRgh7HPfrHn0g": {"geometry": {"location": {"lat": 51.5165802, "lng": -0.1460994}, "viewport": {"northeast": {"lat": 51.51795053029149, "lng": -0.144635769708498}, "southwest": {"lat": 51.51525256970849, "lng": -0.147333730291502}}}, "name": "Imperium11", "place_id": "ChIJVVWpkNQadkgRgh7HPfrHn0g", "types": ["point_of_interest", "establishment"]}, "ChIJVVWpkNQadkgRwTtcZgyfwRk": {"geometry": {"location": {"lat": 51.5165802, "lng": -0.1460994}, "viewport": {"northeast": {"lat": 51.5179291802915, "lng": -0.1447504197084979}, "southwest": {"lat": 51.5152312197085, "lng": -0.147448380291502}}}, "name": "Patrick Okoh & Company", "place_id": "ChIJVVWpkNQadkgRwTtcZgyfwRk", "types": ["point_of_interest", "establishment"]}, "ChIJE8dqeVwbdkgR1Nx7AmXlcxM": {"geometry": {"location": {"lat": 51.5165802, "lng": -0.1460994}, "viewport": {"northeast": {"lat": 51.51795053029149, "lng": -0.144635769708498}, "southwest": {"lat": 51.51525256970849, "lng": -0.147333730291502}}}, "name": "Kally Sleep", "place_id": "ChIJE8dqeVwbdkgR1Nx7AmXlcxM", "types": ["point_of_interest", "establishment"], "rating": 3.8, "user_ratings_total": 25}, "ChIJyVHTkNQadkgRvhnZaxKmyt0": {"geometry": {"location": {"lat": 51.51658519999999, "lng": -0.1461364}, "viewport": {"northeast": {"lat": 51.5179584802915, "lng": -0.144656869708498}, "southwest": {"lat": 51.5152605197085, "lng": -0.147354830291502}}}, "name": "Cavendish House", "place_id": "ChIJyVHTkNQadkgRvhnZaxKmyt0", "types": ["point_of_interest", "establishment"], "rating": 4.5, "user_ratings_total": 2}, "ChIJ3SHZkNQadkgRj_alDk4t-as": {"geometry": {"location": {"lat": 51.5166141, "lng": -0.1459955}, "viewport": {"northeast": {"lat": 51.5179741802915, "lng": -0.144587019708498}, "southwest": {"lat": 51.5152762197085, "lng": -0.147284980291502}}}, "name": "Josef Dallos Plaque", "place_id": "ChIJ3SHZkNQadkgRj_alDk4t-as", "types": ["point_of_interest", "establishment"], "rating": 4.5, "user_ratings_total": 2}, "ChIJ0YUFTSsFdkgRY-jWS1eehAw": {"geometry": {"location": {"lat": 51.51476695006776, "lng": -0.1460946500425443}, "viewport": {"northeast": {"lat": 51.51611593029149, "lng": -0.144745669708498}, "southwest": {"lat": 51.51341796970849, "lng": -0.147443630291502}}}, "name": "318 A40", "place_id": "ChIJ0YUFTSsFdkgRY-jWS1eehAw", "types": ["route"]}, "ChIJ18nsUisFdkgRMZ_2yCubYAE": {"geometry": {"location": {"lat": 51.5150689, "lng": -0.1463406}, "viewport": {"northeast": {"lat": 51.5165624802915, "lng": -0.144816319708498}, "southwest": {"lat": 51.5138645197085, "lng": -0.147514280291502}}}, "name": "House of Fraser", "place_id": "ChIJ18nsUisFdkgRMZ_2yCubYAE", "types": ["clothing_store", "shoe_store", "home_goods_store", "point_of_interest", "store", "establishment"], "rating": 4.1, "user_ratings_total": 3913}, "ChIJG670VNMadkgRyDiOfHQZd-E": {"geometry": {"location": {"lat": 51.5150283, "lng": -0.146742}, "viewport": {"northeast": {"lat": 51.5163236302915, "lng": -0.145638369708498}, "southwest": {"lat": 51.5136256697085, "lng": -0.148336330291502}}}, "name": "Maroush", "place_id": "ChIJG670VNMadkgRyDiOfHQZd-E", "types": ["bar", "restaurant", "food", "point_of_interest", "establishment"], "rating": 4, "user_ratings_total": 1375}, "ChIJ9x4ZOisbdkgRgjuPk0bKRhc": {"geometry": {"location": {"lat": 51.5145957, "lng": -0.1463041}, "viewport": {"northeast": {"lat": 51.5160130302915, "lng": -0.144980469708498}, "southwest": {"lat": 51.5133150697085, "lng": -0.147678430291502}}}, "name": "Swarovski", "place_id": "ChIJ9x4ZOisbdkgRgjuPk0bKRhc", "types": ["jewelry_store", "point_of_interest", "store", "establishment"], "rating": 4.4, "user_ratings_total": 14}, "ChIJ18nsUisFdkgRP6Awkvc5eJU": {"geometry": {"location": {"lat": 51.51508049999999, "lng": -0.1463462}, "viewport": {"northeast": {"lat": 51.5165508802915, "lng": -0.1447871697084979}, "southwest": {"lat": 51.5138529197085, "lng": -0.147485130291502}}}, "name": "Diesel", "place_id": "ChIJ18nsUisFdkgRP6Awkvc5eJU", "types": ["point_of_interest", "clothing_store", "store", "establishment"], "rating": 3.4, "user_ratings_total": 14}, "ChIJA-zcTNMadkgRMIsmry4loU8": {"geometry": {"location": {"lat": 51.5148975, "lng": -0.1462109}, "viewport": {"northeast": {"lat": 51.51620518029149, "lng": -0.144739969708498}, "southwest": {"lat": 51.51350721970849, "lng": -0.147437930291502}}}, "name": "Nails inc", "place_id": "ChIJA-zcTNMadkgRMIsmry4loU8", "types": ["beauty_salon", "point_of_interest", "establishment"], "rating": 2.9, "user_ratings_total": 17}, "ChIJW_X2TCsFdkgReThwZpGSM3Q": {"geometry": {"location": {"lat": 51.51458760000001, "lng": -0.1456457}, "viewport": {"northeast": {"lat": 51.5160492802915, "lng": -0.144402269708498}, "southwest": {"lat": 51.5133513197085, "lng": -0.147100230291502}}}, "name": "Swatch London Oxford Street", "place_id": "ChIJW_X2TCsFdkgReThwZpGSM3Q", "types": ["jewelry_store", "point_of_interest", "store", "establishment"], "rating": 4.5, "user_ratings_total": 327}, "ChIJU_DX0tQadkgRnNcm7P_glq8": {"geometry": {"location": {"lat": 51.5148702, "lng": -0.1457795}, "viewport": {"northeast": {"lat": 51.5161878802915, "lng": -0.144420719708498}, "southwest": {"lat": 51.5134899197085, "lng": -0.147118680291502}}}, "name": "Serotonica Entertainment", "place_id": "ChIJU_DX0tQadkgRnNcm7P_glq8", "types": ["point_of_interest", "establishment"]}, "ChIJ847KUisFdkgRotEVmRKhXwM": {"geometry": {"location": {"lat": 51.51489300000001, "lng": -0.1461757}, "viewport": {"northeast": {"lat": 51.51620518029149, "lng": -0.144722569708498}, "southwest": {"lat": 51.51350721970849, "lng": -0.147420530291502}}}, "name": "The Tea Terrace Restaurant & Tea Room (London Oxford Street)", "place_id": "ChIJ847KUisFdkgRotEVmRKhXwM", "types": ["cafe", "restaurant", "food", "point_of_interest", "establishment"], "rating": 3.5, "user_ratings_total": 323}, "ChIJWUPaVCsFdkgR5f85TM9p0Fg": {"geometry": {"location": {"lat": 51.5148607, "lng": -0.1466364}, "viewport": {"northeast": {"lat": 51.5161314802915, "lng": -0.145259919708498}, "southwest": {"lat": 51.5134335197085, "lng": -0.147957880291502}}}, "name": "Shubhangi Beauty Spa", "place_id": "ChIJWUPaVCsFdkgR5f85TM9p0Fg", "types": ["beauty_salon", "point_of_interest", "establishment"], "rating": 1, "user_ratings_total": 1}, "ChIJi77sUisFdkgRYFa01gPlnSY": {"geometry": {"location": {"lat": 51.51493680000001, "lng": -0.1461019}, "viewport": {"northeast": {"lat": 51.5162086302915, "lng": -0.144685469708498}, "southwest": {"lat": 51.5135106697085, "lng": -0.147383430291502}}}, "name": "Catimini - Corner", "place_id": "ChIJi77sUisFdkgRYFa01gPlnSY", "types": ["point_of_interest", "clothing_store", "store", "establishment"], "rating": 4, "user_ratings_total": 1}, "ChIJ_SdLviwbdkgR-jXHHgr7NIw": {"geometry": {"location": {"lat": 51.514912, "lng": -0.146041}, "viewport": {"northeast": {"lat": 51.51620518029149, "lng": -0.144655019708498}, "southwest": {"lat": 51.51350721970849, "lng": -0.147352980291502}}}, "name": "Pull&Bear", "place_id": "ChIJ_SdLviwbdkgR-jXHHgr7NIw", "types": ["clothing_store", "point_of_interest", "store", "establishment"], "rating": 4.2, "user_ratings_total": 1045}, "ChIJX5bEUisFdkgRc32OHoqu-WY": {"geometry": {"location": {"lat": 51.5149209, "lng": -0.146201}, "viewport": {"northeast": {"lat": 51.51620518029149, "lng": -0.144735019708498}, "southwest": {"lat": 51.51350721970849, "lng": -0.147432980291502}}}, "name": "French Connection", "place_id": "ChIJX5bEUisFdkgRc32OHoqu-WY", "types": ["clothing_store", "point_of_interest", "store", "establishment"], "rating": 4.3, "user_ratings_total": 4}, "ChIJhbMfrNQadkgRIyKtW-naRjY": {"geometry": {"location": {"lat": 51.515081, "lng": -0.1462983}, "viewport": {"northeast": {"lat": 51.5165511302915, "lng": -0.144763219708498}, "southwest": {"lat": 51.5138531697085, "lng": -0.147461180291502}}}, "name": "BOSS Womenswear Shop", "place_id": "ChIJhbMfrNQadkgRIyKtW-naRjY", "types": ["shoe_store", "point_of_interest", "clothing_store", "store", "establishment"], "rating": 3.7, "user_ratings_total": 3}, "ChIJ2-DIUisFdkgRbFU4rart82Q": {"geometry": {"location": {"lat": 51.51488489999999, "lng": -0.146222}, "viewport": {"northeast": {"lat": 51.51620518029149, "lng": -0.1447455197084979}, "southwest": {"lat": 51.51350721970849, "lng": -0.147443480291502}}}, "name": "FURLA CORNER", "place_id": "ChIJ2-DIUisFdkgRbFU4rart82Q", "types": ["point_of_interest", "store", "establishment"], "rating": 5, "user_ratings_total": 2}, "ChIJ2-DIUisFdkgRxoDasbg9lDw": {"geometry": {"location": {"lat": 51.51488489999999, "lng": -0.146222}, "viewport": {"northeast": {"lat": 51.51620518029149, "lng": -0.1447455197084979}, "southwest": {"lat": 51.51350721970849, "lng": -0.147443480291502}}}, "name": "Lladr\u00f3", "place_id": "ChIJ2-DIUisFdkgRxoDasbg9lDw", "types": ["shopping_mall", "point_of_interest", "establishment"], "rating": 5, "user_ratings_total": 3}, "ChIJ18nsUisFdkgRb3Gu8c_3eJs": {"geometry": {"location": {"lat": 51.5148756, "lng": -0.1462667}, "viewport": {"northeast": {"lat": 51.5161454302915, "lng": -0.145031269708498}, "southwest": {"lat": 51.5134474697085, "lng": -0.1477292302915021}}}, "name": "Murad", "place_id": "ChIJ18nsUisFdkgRb3Gu8c_3eJs", "types": ["health", "point_of_interest", "establishment"], "rating": 3.4, "user_ratings_total": 5}, "ChIJ60StUisFdkgRfAaDZJcovDM": {"geometry": {"location": {"lat": 51.5149909, "lng": -0.1455952}, "viewport": {"northeast": {"lat": 51.51627463029151, "lng": -0.144107419708498}, "southwest": {"lat": 51.51357666970851, "lng": -0.146805380291502}}}, "name": "Ted Baker - John Lewis", "place_id": "ChIJ60StUisFdkgRfAaDZJcovDM", "types": ["clothing_store", "point_of_interest", "store", "establishment"], "rating": 4.2, "user_ratings_total": 5}, "ChIJO4pCVSsFdkgRhGWlKmvbkw8": {"geometry": {"location": {"lat": 51.5148548, "lng": -0.1465959}, "viewport": {"northeast": {"lat": 51.5161300802915, "lng": -0.145226519708498}, "southwest": {"lat": 51.5134321197085, "lng": -0.147924480291502}}}, "name": "Monsoon Children", "place_id": "ChIJO4pCVSsFdkgRhGWlKmvbkw8", "types": ["point_of_interest", "clothing_store", "store", "establishment"], "rating": 4.1, "user_ratings_total": 67}, "ChIJ7y8nVSsFdkgRuf3G4I4gdI0": {"geometry": {"location": {"lat": 51.5148607, "lng": -0.1466364}, "viewport": {"northeast": {"lat": 51.5161314802915, "lng": -0.145259919708498}, "southwest": {"lat": 51.5134335197085, "lng": -0.147957880291502}}}, "name": "Calzedonia", "place_id": "ChIJ7y8nVSsFdkgRuf3G4I4gdI0", "types": ["clothing_store", "point_of_interest", "store", "establishment"], "rating": 3.9, "user_ratings_total": 55}, "ChIJO4pCVSsFdkgRzdbLr-W_jA8": {"geometry": {"location": {"lat": 51.5148792, "lng": -0.1466706}, "viewport": {"northeast": {"lat": 51.5161389302915, "lng": -0.145290219708498}, "southwest": {"lat": 51.5134409697085, "lng": -0.147988180291502}}}, "name": "Accessorize", "place_id": "ChIJO4pCVSsFdkgRzdbLr-W_jA8", "types": ["jewelry_store", "point_of_interest", "clothing_store", "store", "establishment"], "rating": 3.7, "user_ratings_total": 34}, "ChIJ00qkU9MadkgRLkBUjbh0Dko": {"geometry": {"location": {"lat": 51.5150283, "lng": -0.146742}, "viewport": {"northeast": {"lat": 51.5163014802915, "lng": -0.145575269708498}, "southwest": {"lat": 51.5136035197085, "lng": -0.148273230291502}}}, "name": "Pret A Manger", "place_id": "ChIJ00qkU9MadkgRLkBUjbh0Dko", "types": ["cafe", "restaurant", "food", "point_of_interest", "store", "establishment"], "rating": 4.2, "user_ratings_total": 367}, "ChIJP0EgrNQadkgRpX0t2BOQJXM": {"geometry": {"location": {"lat": 51.514913, "lng": -0.146156}, "viewport": {"northeast": {"lat": 51.51620518029149, "lng": -0.144712519708498}, "southwest": {"lat": 51.51350721970849, "lng": -0.147410480291502}}}, "name": "Ted Baker", "place_id": "ChIJP0EgrNQadkgRpX0t2BOQJXM", "types": ["clothing_store", "point_of_interest", "store", "establishment"], "rating": 4.1, "user_ratings_total": 45}, "ChIJhbMfrNQadkgR6WOf10TrsZ8": {"geometry": {"location": {"lat": 51.5152932, "lng": -0.1466667}, "viewport": {"northeast": {"lat": 51.5168480802915, "lng": -0.145253419708498}, "southwest": {"lat": 51.5141501197085, "lng": -0.147951380291502}}}, "name": "Dune @ House of Fraser Oxford Street", "place_id": "ChIJhbMfrNQadkgR6WOf10TrsZ8", "types": ["shoe_store", "point_of_interest", "store", "establishment"], "rating": 4.8, "user_ratings_total": 4}, "ChIJWdQWzCwFdkgRqvNy0BpGNTU": {"geometry": {"location": {"lat": 51.5148545, "lng": -0.1467797}, "viewport": {"northeast": {"lat": 51.5161201802915, "lng": -0.145390119708498}, "southwest": {"lat": 51.5134222197085, "lng": -0.148088080291502}}}, "name": "Finance Behavior: Covering all aspects of personal finance.", "place_id": "ChIJWdQWzCwFdkgRqvNy0BpGNTU", "types": ["finance", "point_of_interest", "establishment"]}, "ChIJdyanLdUadkgR7llwrVt1uX0": {"geometry": {"location": {"lat": 51.51508949999999, "lng": -0.1453574}, "viewport": {"northeast": {"lat": 51.5163239302915, "lng": -0.143988519708498}, "southwest": {"lat": 51.5136259697085, "lng": -0.146686480291502}}}, "name": "PRECIS PETITE", "place_id": "ChIJdyanLdUadkgR7llwrVt1uX0", "types": ["clothing_store", "point_of_interest", "store", "establishment"]}, "ChIJ7aEWjywbdkgR9_QZCVVZk0g": {"geometry": {"location": {"lat": 51.51500960000001, "lng": -0.145335}, "viewport": {"northeast": {"lat": 51.5163204302915, "lng": -0.143992469708498}, "southwest": {"lat": 51.5136224697085, "lng": -0.146690430291502}}}, "name": "Kuoni at John Lewis", "place_id": "ChIJ7aEWjywbdkgR9_QZCVVZk0g", "types": ["travel_agency", "point_of_interest", "establishment"], "rating": 3.6, "user_ratings_total": 13}, "ChIJVVUVyNQadkgRXL1uIjhpNmU": {"geometry": {"location": {"lat": 51.51500679999999, "lng": -0.1453351}, "viewport": {"northeast": {"lat": 51.5162825802915, "lng": -0.143988369708498}, "southwest": {"lat": 51.5135846197085, "lng": -0.146686330291502}}}, "name": "White Stuff Oxford St John Lewis", "place_id": "ChIJVVUVyNQadkgRXL1uIjhpNmU", "types": ["clothing_store", "point_of_interest", "store", "establishment"], "rating": 3.1, "user_ratings_total": 9}, "ChIJ18nsUisFdkgRY5grG1etFf4": {"geometry": {"location": {"lat": 51.5154155, "lng": -0.1465417}, "viewport": {"northeast": {"lat": 51.5169092302915, "lng": -0.145209319708498}, "southwest": {"lat": 51.5142112697085, "lng": -0.147907280291502}}}, "name": "ALDO Shoes", "place_id": "ChIJ18nsUisFdkgRY5grG1etFf4", "types": ["shoe_store", "point_of_interest", "store", "establishment"], "rating": 3.8, "user_ratings_total": 4}, "ChIJO3RSstIadkgRbIzqmWza3yA": {"geometry": {"location": {"lat": 51.51486, "lng": -0.1468608}, "viewport": {"northeast": {"lat": 51.5161775802915, "lng": -0.145596519708498}, "southwest": {"lat": 51.51347961970851, "lng": -0.148294480291502}}}, "name": "Dunedin LLP", "place_id": "ChIJO3RSstIadkgRbIzqmWza3yA", "types": ["finance", "point_of_interest", "establishment"]}, "ChIJXeCmqiwFdkgRA05h-CWZ0vk": {"geometry": {"location": {"lat": 51.5148599, "lng": -0.1468608}, "viewport": {"northeast": {"lat": 51.51617753029149, "lng": -0.145596519708498}, "southwest": {"lat": 51.5134795697085, "lng": -0.148294480291502}}}, "name": "Greenbrook", "place_id": "ChIJXeCmqiwFdkgRA05h-CWZ0vk", "types": ["finance", "point_of_interest", "establishment"]}, "ChIJX-CmqiwFdkgRqCp3pkKNGgE": {"geometry": {"location": {"lat": 51.5148599, "lng": -0.1468609}, "viewport": {"northeast": {"lat": 51.51617753029149, "lng": -0.145596569708498}, "southwest": {"lat": 51.5134795697085, "lng": -0.148294530291502}}}, "name": "Dunedin LLP", "place_id": "ChIJX-CmqiwFdkgRqCp3pkKNGgE", "types": ["finance", "point_of_interest", "establishment"]}, "ChIJJ1tNVNMadkgRBt_pVjODtTc": {"geometry": {"location": {"lat": 51.5150283, "lng": -0.146742}, "viewport": {"northeast": {"lat": 51.5163014802915, "lng": -0.145575269708498}, "southwest": {"lat": 51.5136035197085, "lng": -0.148273230291502}}}, "name": "Consulado-Geral do Brasil em Londres", "place_id": "ChIJJ1tNVNMadkgRBt_pVjODtTc", "types": ["embassy", "point_of_interest", "establishment"], "rating": 3.8, "user_ratings_total": 262}, "ChIJ2YKOKy0FdkgRvFb5bfbBoXE": {"geometry": {"location": {"lat": 51.51538189999999, "lng": -0.1461728}, "viewport": {"northeast": {"lat": 51.5166851302915, "lng": -0.144700469708498}, "southwest": {"lat": 51.5139871697085, "lng": -0.147398430291502}}}, "name": "Mulberry", "place_id": "ChIJ2YKOKy0FdkgRvFb5bfbBoXE", "types": ["point_of_interest", "clothing_store", "store", "establishment"], "rating": 5, "user_ratings_total": 1}, "ChIJYWgN9WQddkgRQEVUUVMnc8E": {"geometry": {"location": {"lat": 51.51480350000001, "lng": -0.1468824}, "viewport": {"northeast": {"lat": 51.51615248029151, "lng": -0.145533419708498}, "southwest": {"lat": 51.51345451970851, "lng": -0.148231380291502}}}, "name": "Sunglass Hut", "place_id": "ChIJYWgN9WQddkgRQEVUUVMnc8E", "types": ["point_of_interest", "store", "establishment"], "rating": 3.4, "user_ratings_total": 33}, "ChIJl-MITSsFdkgRfMwJpDZQEaA": {"geometry": {"location": {"lat": 51.5145109, "lng": -0.1458102}, "viewport": {"northeast": {"lat": 51.5159998802915, "lng": -0.144505069708498}, "southwest": {"lat": 51.5133019197085, "lng": -0.147203030291502}}}, "name": "Potential U Style and Image consultancy", "place_id": "ChIJl-MITSsFdkgRfMwJpDZQEaA", "types": ["point_of_interest", "establishment"], "rating": 4.9, "user_ratings_total": 14}, "ChIJB3gyNy0FdkgRMSXBbxUT1nI": {"geometry": {"location": {"lat": 51.51490549999999, "lng": -0.1460669}, "viewport": {"northeast": {"lat": 51.51620518029149, "lng": -0.144667969708498}, "southwest": {"lat": 51.51350721970849, "lng": -0.147365930291502}}}, "name": "WHISTLES", "place_id": "ChIJB3gyNy0FdkgRMSXBbxUT1nI", "types": ["shoe_store", "point_of_interest", "clothing_store", "store", "establishment"], "rating": 3.8, "user_ratings_total": 4}, "ChIJtVJZUisFdkgRegkJH3aSEBA": {"geometry": {"location": {"lat": 51.51473429999999, "lng": -0.1462276}, "viewport": {"northeast": {"lat": 51.51608328029149, "lng": -0.144878619708498}, "southwest": {"lat": 51.5133853197085, "lng": -0.147576580291502}}}, "name": "Old Cavendish Street", "place_id": "ChIJtVJZUisFdkgRegkJH3aSEBA", "types": ["transit_station", "point_of_interest", "establishment"]}, "ChIJTz_7stQadkgR5GQm1yIqgkE": {"geometry": {"location": {"lat": 51.5149917, "lng": -0.1459907}, "viewport": {"northeast": {"lat": 51.51623608029149, "lng": -0.144643969708498}, "southwest": {"lat": 51.51353811970849, "lng": -0.147341930291502}}}, "name": "The Big Brand", "place_id": "ChIJTz_7stQadkgR5GQm1yIqgkE", "types": ["clothing_store", "point_of_interest", "store", "establishment"]}, "ChIJ6YsOk8obdkgRLoUTXATX4zw": {"geometry": {"location": {"lat": 51.51496989999999, "lng": -0.1461973}, "viewport": {"northeast": {"lat": 51.5162251802915, "lng": -0.144733169708498}, "southwest": {"lat": 51.5135272197085, "lng": -0.147431130291502}}}, "name": "sofa.com in House of Fraser Oxford Street", "place_id": "ChIJ6YsOk8obdkgRLoUTXATX4zw", "types": ["furniture_store", "home_goods_store", "point_of_interest", "store", "establishment"]}, "ChIJgSvQstQadkgR4-wp8tdRAp0": {"geometry": {"location": {"lat": 51.51495440000001, "lng": -0.1459912}, "viewport": {"northeast": {"lat": 51.5162174302915, "lng": -0.144643969708498}, "southwest": {"lat": 51.5135194697085, "lng": -0.147341930291502}}}, "name": "Barbour Womenswear", "place_id": "ChIJgSvQstQadkgR4-wp8tdRAp0", "types": ["clothing_store", "point_of_interest", "store", "establishment"], "rating": 5, "user_ratings_total": 2}, "ChIJxTFiduAbdkgRqNd9f5yGEmo": {"geometry": {"location": {"lat": 51.515081, "lng": -0.1462983}, "viewport": {"northeast": {"lat": 51.5165511302915, "lng": -0.144763219708498}, "southwest": {"lat": 51.5138531697085, "lng": -0.147461180291502}}}, "name": "Clarins in House Of Fraser", "place_id": "ChIJxTFiduAbdkgRqNd9f5yGEmo", "types": ["point_of_interest", "store", "establishment"]}, "ChIJ6b0EKAIbdkgRzLKLb_qTdnY": {"geometry": {"location": {"lat": 51.515081, "lng": -0.1462983}, "viewport": {"northeast": {"lat": 51.5165511302915, "lng": -0.144763219708498}, "southwest": {"lat": 51.5138531697085, "lng": -0.147461180291502}}}, "name": "Belong London (Oxford St)", "place_id": "ChIJ6b0EKAIbdkgRzLKLb_qTdnY", "types": ["point_of_interest", "establishment"], "rating": 4.8, "user_ratings_total": 25}, "ChIJVdNpy_cbdkgRYmOafwQ32CY": {"geometry": {"location": {"lat": 51.515081, "lng": -0.1462983}, "viewport": {"northeast": {"lat": 51.5165511302915, "lng": -0.144763219708498}, "southwest": {"lat": 51.5138531697085, "lng": -0.147461180291502}}}, "name": "GAME Oxford Street inside House of Frasers", "place_id": "ChIJVdNpy_cbdkgRYmOafwQ32CY", "types": ["point_of_interest", "store", "establishment"], "rating": 4.5, "user_ratings_total": 91}, "ChIJ03vLsbMbdkgRx13zmg_lErc": {"geometry": {"location": {"lat": 51.515081, "lng": -0.1462983}, "viewport": {"northeast": {"lat": 51.5165470802915, "lng": -0.144787169708498}, "southwest": {"lat": 51.5138491197085, "lng": -0.147485130291502}}}, "name": "Acai Sisters London", "place_id": "ChIJ03vLsbMbdkgRx13zmg_lErc", "types": ["restaurant", "food", "gym", "health", "point_of_interest", "establishment"], "rating": 4.6, "user_ratings_total": 11}, "ChIJSfiGS_kbdkgRz6I2PQ8Oy7o": {"geometry": {"location": {"lat": 51.515081, "lng": -0.1462983}, "viewport": {"northeast": {"lat": 51.5165511302915, "lng": -0.144763219708498}, "southwest": {"lat": 51.5138531697085, "lng": -0.147461180291502}}}, "name": "CurrentBody", "place_id": "ChIJSfiGS_kbdkgRz6I2PQ8Oy7o", "types": ["point_of_interest", "establishment"], "rating": 4.1, "user_ratings_total": 30}, "ChIJ870fz78bdkgR_afg3whjkZw": {"geometry": {"location": {"lat": 51.515081, "lng": -0.1462983}, "viewport": {"northeast": {"lat": 51.5165511302915, "lng": -0.144763219708498}, "southwest": {"lat": 51.5138531697085, "lng": -0.147461180291502}}}, "name": "Barre 50", "place_id": "ChIJ870fz78bdkgR_afg3whjkZw", "types": ["gym", "health", "point_of_interest", "establishment"], "rating": 5, "user_ratings_total": 9}, "ChIJM-hIKMgbdkgRIITLeRIVTgc": {"geometry": {"location": {"lat": 51.5151623, "lng": -0.1461801}, "viewport": {"northeast": {"lat": 51.5165917802915, "lng": -0.144704119708498}, "southwest": {"lat": 51.5138938197085, "lng": -0.147402080291502}}}, "name": "Longchamp", "place_id": "ChIJM-hIKMgbdkgRIITLeRIVTgc", "types": ["shoe_store", "point_of_interest", "clothing_store", "store", "establishment"]}, "ChIJ2-DIUisFdkgR0t44JQJS63c": {"geometry": {"location": {"lat": 51.51488489999999, "lng": -0.146222}, "viewport": {"northeast": {"lat": 51.51620518029149, "lng": -0.1447455197084979}, "southwest": {"lat": 51.51350721970849, "lng": -0.147443480291502}}}, "name": "LXRandCo House of Fraser Oxford", "place_id": "ChIJ2-DIUisFdkgR0t44JQJS63c", "types": ["point_of_interest", "clothing_store", "store", "establishment"], "rating": 5, "user_ratings_total": 1}, "ChIJ2-DIUisFdkgRSYFvXdpYtUs": {"geometry": {"location": {"lat": 51.51488489999999, "lng": -0.146222}, "viewport": {"northeast": {"lat": 51.51620518029149, "lng": -0.1447455197084979}, "southwest": {"lat": 51.51350721970849, "lng": -0.147443480291502}}}, "name": "Grenada Catering", "place_id": "ChIJ2-DIUisFdkgRSYFvXdpYtUs", "types": ["store", "point_of_interest", "establishment"]}, "ChIJPYBjVCsFdkgRDFf19jZKAaY": {"geometry": {"location": {"lat": 51.5148163, "lng": -0.1461758}, "viewport": {"northeast": {"lat": 51.5161367302915, "lng": -0.144818169708498}, "southwest": {"lat": 51.5134387697085, "lng": -0.147516130291502}}}, "name": "New Bond Street (Stop OE)", "place_id": "ChIJPYBjVCsFdkgRDFf19jZKAaY", "types": ["bus_station", "transit_station", "point_of_interest", "establishment"], "rating": 4.5, "user_ratings_total": 2}, "ChIJyX0nvAIFdkgR7KJxW2c1njY": {"geometry": {"location": {"lat": 51.5149098, "lng": -0.1457771}, "viewport": {"northeast": {"lat": 51.5162097302915, "lng": -0.144402569708498}, "southwest": {"lat": 51.5135117697085, "lng": -0.1471005302915021}}}, "name": "Italian Street Kitchen", "place_id": "ChIJyX0nvAIFdkgR7KJxW2c1njY", "types": ["grocery_or_supermarket", "food", "point_of_interest", "store", "establishment"]}, "ChIJ-QXas9QadkgRUj84IIsk65U": {"geometry": {"location": {"lat": 51.5152227, "lng": -0.1458839}, "viewport": {"northeast": {"lat": 51.5165796302915, "lng": -0.144485969708498}, "southwest": {"lat": 51.5138816697085, "lng": -0.147183930291502}}}, "name": "300 Oxford St Loading Bay", "place_id": "ChIJ-QXas9QadkgRUj84IIsk65U", "types": ["clothing_store", "point_of_interest", "store", "establishment"], "rating": 5, "user_ratings_total": 1}, "ChIJ1TI9rNQadkgRR-x7qWnvpSA": {"geometry": {"location": {"lat": 51.515204, "lng": -0.146383}, "viewport": {"northeast": {"lat": 51.5166126302915, "lng": -0.144805569708498}, "southwest": {"lat": 51.51391466970851, "lng": -0.147503530291502}}}, "name": "Aspinal of London (House of Fraser)", "place_id": "ChIJ1TI9rNQadkgRR-x7qWnvpSA", "types": ["point_of_interest", "store", "establishment"], "rating": 4.3, "user_ratings_total": 7}, "ChIJwRUnrNQadkgRKzxrh6tr-jc": {"geometry": {"location": {"lat": 51.515239, "lng": -0.146362}, "viewport": {"northeast": {"lat": 51.5166301302915, "lng": -0.144795069708498}, "southwest": {"lat": 51.5139321697085, "lng": -0.147493030291502}}}, "name": "Shiseido", "place_id": "ChIJwRUnrNQadkgRKzxrh6tr-jc", "types": ["point_of_interest", "store", "establishment"]}, "ChIJhbMfrNQadkgRK0Y_RBRjR_o": {"geometry": {"location": {"lat": 51.5152386, "lng": -0.1464017}, "viewport": {"northeast": {"lat": 51.5166299302915, "lng": -0.144814919708498}, "southwest": {"lat": 51.5139319697085, "lng": -0.147512880291502}}}, "name": "Stefanel", "place_id": "ChIJhbMfrNQadkgRK0Y_RBRjR_o", "types": ["point_of_interest", "clothing_store", "store", "establishment"]}, "ChIJT33ZfVgFdkgRHodEcr1-3P4": {"geometry": {"location": {"lat": 51.5149002, "lng": -0.1456138}, "viewport": {"northeast": {"lat": 51.5162129802915, "lng": -0.144253669708498}, "southwest": {"lat": 51.5135150197085, "lng": -0.146951630291502}}}, "name": "Sala giochi", "place_id": "ChIJT33ZfVgFdkgRHodEcr1-3P4", "types": ["electronics_store", "point_of_interest", "store", "establishment"]}, "ChIJ5aROqG8FdkgRe17mK8nbhZ8": {"geometry": {"location": {"lat": 51.5148588, "lng": -0.1465652}, "viewport": {"northeast": {"lat": 51.5161337302915, "lng": -0.145195719708498}, "southwest": {"lat": 51.5134357697085, "lng": -0.147893680291502}}}, "name": "Jump Start Car, Van, Motorcycle Oxford Street", "place_id": "ChIJ5aROqG8FdkgRe17mK8nbhZ8", "types": ["car_repair", "point_of_interest", "establishment"]}, "ChIJ9QwzqtQadkgRddjInE-BXoQ": {"geometry": {"location": {"lat": 51.51518889999999, "lng": -0.1466762}, "viewport": {"northeast": {"lat": 51.51654628029149, "lng": -0.145278419708498}, "southwest": {"lat": 51.51384831970849, "lng": -0.147976380291502}}}, "name": "Players Publishing", "place_id": "ChIJ9QwzqtQadkgRddjInE-BXoQ", "types": ["point_of_interest", "establishment"]}, "ChIJL2X6QisFdkgRyX5Dn3Jhewg": {"geometry": {"location": {"lat": 51.51380910014143, "lng": -0.1460284992900617}, "viewport": {"northeast": {"lat": 51.51515808029151, "lng": -0.144679519708498}, "southwest": {"lat": 51.51246011970851, "lng": -0.147377480291502}}}, "name": "107-97 New Bond St", "place_id": "ChIJL2X6QisFdkgRyX5Dn3Jhewg", "types": ["route"]}, "ChIJwZ9ERisFdkgRA26PtVlwlgQ": {"geometry": {"location": {"lat": 51.5141641, "lng": -0.1454575}, "viewport": {"northeast": {"lat": 51.5154900302915, "lng": -0.144180119708498}, "southwest": {"lat": 51.5127920697085, "lng": -0.146878080291502}}}, "name": "The Loop Bar", "place_id": "ChIJwZ9ERisFdkgRA26PtVlwlgQ", "types": ["bar", "night_club", "restaurant", "food", "point_of_interest", "establishment"], "rating": 3.7, "user_ratings_total": 1082}, "ChIJK81iRCsFdkgRAtJZRynMGcQ": {"geometry": {"location": {"lat": 51.5140919, "lng": -0.1457462}, "viewport": {"northeast": {"lat": 51.5154687302915, "lng": -0.144442469708498}, "southwest": {"lat": 51.5127707697085, "lng": -0.147140430291502}}}, "name": "Bonds, Mayfair", "place_id": "ChIJK81iRCsFdkgRAtJZRynMGcQ", "types": ["bar", "restaurant", "food", "point_of_interest", "establishment"], "rating": 4.1, "user_ratings_total": 829}, "ChIJF2MW-jgFdkgROvvPnVvyVLA": {"geometry": {"location": {"lat": 51.5140895, "lng": -0.146747}, "viewport": {"northeast": {"lat": 51.51550193029149, "lng": -0.145250969708498}, "southwest": {"lat": 51.51280396970849, "lng": -0.147948930291502}}}, "name": "Pronovias", "place_id": "ChIJF2MW-jgFdkgROvvPnVvyVLA", "types": ["shoe_store", "point_of_interest", "clothing_store", "store", "establishment"], "rating": 3.8, "user_ratings_total": 287}, "ChIJz6rNQisFdkgRDhmxg3PRrQg": {"geometry": {"location": {"lat": 51.513728, "lng": -0.146134}, "viewport": {"northeast": {"lat": 51.5151039802915, "lng": -0.144717669708498}, "southwest": {"lat": 51.5124060197085, "lng": -0.147415630291502}}}, "name": "R.M.Williams New Bond Street London", "place_id": "ChIJz6rNQisFdkgRDhmxg3PRrQg", "types": ["clothing_store", "shoe_store", "point_of_interest", "store", "establishment"], "rating": 4.4, "user_ratings_total": 68}, "ChIJZSdeOEcFdkgRWpOXnxEiG8c": {"geometry": {"location": {"lat": 51.51369469999999, "lng": -0.1466511}, "viewport": {"northeast": {"lat": 51.5151482802915, "lng": -0.145039569708498}, "southwest": {"lat": 51.5124503197085, "lng": -0.1477375302915021}}}, "name": "Bonhams", "place_id": "ChIJZSdeOEcFdkgRWpOXnxEiG8c", "types": ["point_of_interest", "establishment"], "rating": 4.5, "user_ratings_total": 61}, "ChIJ2X2sRisFdkgRt_tgl4ZnOSU": {"geometry": {"location": {"lat": 51.5138679, "lng": -0.1459486}, "viewport": {"northeast": {"lat": 51.5151970802915, "lng": -0.1446489697084979}, "southwest": {"lat": 51.5124991197085, "lng": -0.147346930291502}}}, "name": "Basler", "place_id": "ChIJ2X2sRisFdkgRt_tgl4ZnOSU", "types": ["point_of_interest", "clothing_store", "store", "establishment"], "rating": 5, "user_ratings_total": 1}, "ChIJCyq5RSsFdkgRqMS5jf0nui0": {"geometry": {"location": {"lat": 51.514192, "lng": -0.145901}, "viewport": {"northeast": {"lat": 51.5155180802915, "lng": -0.1445266197084979}, "southwest": {"lat": 51.5128201197085, "lng": -0.147224580291502}}}, "name": "Duke Of York", "place_id": "ChIJCyq5RSsFdkgRqMS5jf0nui0", "types": ["bar", "point_of_interest", "establishment"], "rating": 4, "user_ratings_total": 436}, "ChIJjVBqRSsFdkgRw3_BV2E_oHY": {"geometry": {"location": {"lat": 51.51415420000001, "lng": -0.1459452}, "viewport": {"northeast": {"lat": 51.5155031802915, "lng": -0.144596219708498}, "southwest": {"lat": 51.5128052197085, "lng": -0.147294180291502}}}, "name": "Postcard Teas", "place_id": "ChIJjVBqRSsFdkgRw3_BV2E_oHY", "types": ["cafe", "food", "point_of_interest", "establishment"], "rating": 4.7, "user_ratings_total": 87}, "ChIJcWIDUioFdkgRfuXscqo_538": {"geometry": {"location": {"lat": 51.514119, "lng": -0.14612}, "viewport": {"northeast": {"lat": 51.5154379302915, "lng": -0.144732319708498}, "southwest": {"lat": 51.51273996970851, "lng": -0.147430280291502}}}, "name": "Anne Fontaine", "place_id": "ChIJcWIDUioFdkgRfuXscqo_538", "types": ["point_of_interest", "clothing_store", "store", "establishment"], "rating": 4.8, "user_ratings_total": 6}, "ChIJpaPVRysFdkgRW9UEFEFa4Nw": {"geometry": {"location": {"lat": 51.5141641, "lng": -0.1454575}, "viewport": {"northeast": {"lat": 51.5154874802915, "lng": -0.144177669708498}, "southwest": {"lat": 51.5127895197085, "lng": -0.146875630291502}}}, "name": "Deluxe Digital Cinema", "place_id": "ChIJpaPVRysFdkgRW9UEFEFa4Nw", "types": ["point_of_interest", "establishment"], "rating": 5, "user_ratings_total": 5}, "ChIJfyMtWisFdkgRfnHsSlzOd8Q": {"geometry": {"location": {"lat": 51.5139491, "lng": -0.1467216}, "viewport": {"northeast": {"lat": 51.51529808029149, "lng": -0.145372619708498}, "southwest": {"lat": 51.5126001197085, "lng": -0.148070580291502}}}, "name": "Eleven Mayfair", "place_id": "ChIJfyMtWisFdkgRfnHsSlzOd8Q", "types": ["hair_care", "point_of_interest", "establishment"], "rating": 4.6, "user_ratings_total": 65}, "ChIJCbWATSsFdkgRgLHj6tT9tmc": {"geometry": {"location": {"lat": 51.513977, "lng": -0.145226}, "viewport": {"northeast": {"lat": 51.51532598029149, "lng": -0.143877019708498}, "southwest": {"lat": 51.51262801970849, "lng": -0.146574980291502}}}, "name": "Massimo Dutti", "place_id": "ChIJCbWATSsFdkgRgLHj6tT9tmc", "types": ["clothing_store", "point_of_interest", "store", "establishment"], "rating": 4.2, "user_ratings_total": 232}, "ChIJa2_oTysFdkgRSZUBZqq8bP8": {"geometry": {"location": {"lat": 51.5143364, "lng": -0.1460146}, "viewport": {"northeast": {"lat": 51.5156853802915, "lng": -0.144665619708498}, "southwest": {"lat": 51.5129874197085, "lng": -0.1473635802915021}}}, "name": "Mayfair Tanning & Waxing", "place_id": "ChIJa2_oTysFdkgRSZUBZqq8bP8", "types": ["beauty_salon", "point_of_interest", "establishment"], "rating": 4.8, "user_ratings_total": 419}, "ChIJ2X2sRisFdkgRRxmNMlKAst8": {"geometry": {"location": {"lat": 51.5138837, "lng": -0.1458705}, "viewport": {"northeast": {"lat": 51.5151995302915, "lng": -0.144604219708498}, "southwest": {"lat": 51.5125015697085, "lng": -0.147302180291502}}}, "name": "Saffronart", "place_id": "ChIJ2X2sRisFdkgRRxmNMlKAst8", "types": ["art_gallery", "point_of_interest", "establishment"], "rating": 3, "user_ratings_total": 2}, "ChIJWzUDQysFdkgRibA11RKi5IM": {"geometry": {"location": {"lat": 51.5138291, "lng": -0.1457633}, "viewport": {"northeast": {"lat": 51.51513773029149, "lng": -0.144514969708498}, "southwest": {"lat": 51.5124397697085, "lng": -0.147212930291502}}}, "name": "SLL", "place_id": "ChIJWzUDQysFdkgRibA11RKi5IM", "types": ["roofing_contractor", "general_contractor", "point_of_interest", "establishment"]}, "ChIJM3sLQysFdkgRizF0HPeOJkg": {"geometry": {"location": {"lat": 51.5138291, "lng": -0.1457633}, "viewport": {"northeast": {"lat": 51.51513773029149, "lng": -0.144514969708498}, "southwest": {"lat": 51.5124397697085, "lng": -0.147212930291502}}}, "name": "Flamingo Salt LLC.", "place_id": "ChIJM3sLQysFdkgRizF0HPeOJkg", "types": ["point_of_interest", "establishment"]}, "ChIJOfnHzTobdkgRwW0yFJQdqo4": {"geometry": {"location": {"lat": 51.5137875, "lng": -0.1462226}, "viewport": {"northeast": {"lat": 51.51516728029149, "lng": -0.1447967197084979}, "southwest": {"lat": 51.5124693197085, "lng": -0.147494680291502}}}, "name": "Deliciae Catering", "place_id": "ChIJOfnHzTobdkgRwW0yFJQdqo4", "types": ["point_of_interest", "establishment"]}, "ChIJGcXcXCsFdkgRMTS355RjLMQ": {"geometry": {"location": {"lat": 51.5137875, "lng": -0.1462226}, "viewport": {"northeast": {"lat": 51.51516728029149, "lng": -0.1447967197084979}, "southwest": {"lat": 51.5124693197085, "lng": -0.147494680291502}}}, "name": "VP-FS Vehicle Printing Fitting Services", "place_id": "ChIJGcXcXCsFdkgRMTS355RjLMQ", "types": ["point_of_interest", "store", "establishment"]}, "ChIJpVhDQSsFdkgRYm7MQVqEVFU": {"geometry": {"location": {"lat": 51.5137867, "lng": -0.1458789}, "viewport": {"northeast": {"lat": 51.5151179302915, "lng": -0.144574169708498}, "southwest": {"lat": 51.5124199697085, "lng": -0.147272130291502}}}, "name": "Graphic Design & CAD training, cells, blocks", "place_id": "ChIJpVhDQSsFdkgRYm7MQVqEVFU", "types": ["electronics_store", "point_of_interest", "store", "establishment"]}, "ChIJ2X2sRisFdkgRQtRi7Lv3Xv4": {"geometry": {"location": {"lat": 51.5138701, "lng": -0.1458554}, "viewport": {"northeast": {"lat": 51.5151857802915, "lng": -0.144589519708498}, "southwest": {"lat": 51.5124878197085, "lng": -0.147287480291502}}}, "name": "Secure Plasterers Westminster", "place_id": "ChIJ2X2sRisFdkgRQtRi7Lv3Xv4", "types": ["point_of_interest", "establishment"]}, "ChIJpVhDQSsFdkgRP47f94yM_z4": {"geometry": {"location": {"lat": 51.5138291, "lng": -0.1457633}, "viewport": {"northeast": {"lat": 51.51513773029149, "lng": -0.144514969708498}, "southwest": {"lat": 51.5124397697085, "lng": -0.147212930291502}}}, "name": "Oxygen Business Services Limited", "place_id": "ChIJpVhDQSsFdkgRP47f94yM_z4", "types": ["point_of_interest", "store", "establishment"]}, "ChIJpVhDQSsFdkgRiSNv-aw4mXg": {"geometry": {"location": {"lat": 51.5138291, "lng": -0.1457633}, "viewport": {"northeast": {"lat": 51.51513773029149, "lng": -0.144514969708498}, "southwest": {"lat": 51.5124397697085, "lng": -0.147212930291502}}}, "name": "Volunteering Abroad", "place_id": "ChIJpVhDQSsFdkgRiSNv-aw4mXg", "types": ["point_of_interest", "establishment"]}, "ChIJWa_PuCwbdkgRIhnHWoTjO_M": {"geometry": {"location": {"lat": 51.5142392, "lng": -0.146225}, "viewport": {"northeast": {"lat": 51.5155512802915, "lng": -0.1449615697084979}, "southwest": {"lat": 51.5128533197085, "lng": -0.147659530291502}}}, "name": "London's Surveyors and Valuers Limited", "place_id": "ChIJWa_PuCwbdkgRIhnHWoTjO_M", "types": ["point_of_interest", "establishment"], "rating": 1, "user_ratings_total": 1}, "ChIJx95gQysFdkgRi7vcDS1frZs": {"geometry": {"location": {"lat": 51.513915, "lng": -0.146006}, "viewport": {"northeast": {"lat": 51.51524543029151, "lng": -0.144703319708498}, "southwest": {"lat": 51.51254746970851, "lng": -0.147401280291502}}}, "name": "Rich Diamonds", "place_id": "ChIJx95gQysFdkgRi7vcDS1frZs", "types": ["jewelry_store", "point_of_interest", "store", "establishment"], "rating": 4.5, "user_ratings_total": 124}, "ChIJI6wiBysFdkgR-yFfZgiIvs0": {"geometry": {"location": {"lat": 51.5141186, "lng": -0.1461196}, "viewport": {"northeast": {"lat": 51.51543618029149, "lng": -0.1447357197084979}, "southwest": {"lat": 51.5127382197085, "lng": -0.147433680291502}}}, "name": "John Miles & Company", "place_id": "ChIJI6wiBysFdkgR-yFfZgiIvs0", "types": ["point_of_interest", "establishment"]}, "ChIJQ8XcXCsFdkgR3pbWysgtGGI": {"geometry": {"location": {"lat": 51.5137875, "lng": -0.1462226}, "viewport": {"northeast": {"lat": 51.51516728029149, "lng": -0.1447967197084979}, "southwest": {"lat": 51.5124693197085, "lng": -0.147494680291502}}}, "name": "RMD Security Services Ltd.", "place_id": "ChIJQ8XcXCsFdkgR3pbWysgtGGI", "types": ["point_of_interest", "establishment"]}, "ChIJp1hDQSsFdkgRZfrXuOAx2oo": {"geometry": {"location": {"lat": 51.5138046, "lng": -0.1457877}, "viewport": {"northeast": {"lat": 51.5151202802915, "lng": -0.144521769708498}, "southwest": {"lat": 51.51242231970851, "lng": -0.147219730291502}}}, "name": "The Online Coach Limited", "place_id": "ChIJp1hDQSsFdkgRZfrXuOAx2oo", "types": ["school", "point_of_interest", "establishment"]}, "ChIJHyqjRCsFdkgR28JvmamaJlw": {"geometry": {"location": {"lat": 51.51397129999999, "lng": -0.1460286}, "viewport": {"northeast": {"lat": 51.5152966802915, "lng": -0.144738519708498}, "southwest": {"lat": 51.51259871970851, "lng": -0.147436480291502}}}, "name": "STUART WILSON", "place_id": "ChIJHyqjRCsFdkgR28JvmamaJlw", "types": ["point_of_interest", "establishment"]}, "ChIJHyqjRCsFdkgRQW5jIEmQ-lY": {"geometry": {"location": {"lat": 51.51397129999999, "lng": -0.1460286}, "viewport": {"northeast": {"lat": 51.5152966802915, "lng": -0.144738519708498}, "southwest": {"lat": 51.51259871970851, "lng": -0.147436480291502}}}, "name": "Allen Planning Ltd", "place_id": "ChIJHyqjRCsFdkgRQW5jIEmQ-lY", "types": ["point_of_interest", "establishment"]}, "ChIJISqjRCsFdkgRLjFX3oSglfU": {"geometry": {"location": {"lat": 51.514003, "lng": -0.145983}, "viewport": {"northeast": {"lat": 51.51531728029149, "lng": -0.144720619708498}, "southwest": {"lat": 51.51261931970849, "lng": -0.147418580291502}}}, "name": "Artefact London / Bespoke Tailor / Made to Measure Suits", "place_id": "ChIJISqjRCsFdkgRLjFX3oSglfU", "types": ["point_of_interest", "establishment"], "rating": 5, "user_ratings_total": 68}, "ChIJIQi6RCsFdkgRU8BVh9etd_s": {"geometry": {"location": {"lat": 51.5139521, "lng": -0.1459477}, "viewport": {"northeast": {"lat": 51.5152688302915, "lng": -0.144679169708498}, "southwest": {"lat": 51.5125708697085, "lng": -0.147377130291502}}}, "name": "Jade Jagger Ltd", "place_id": "ChIJIQi6RCsFdkgRU8BVh9etd_s", "types": ["jewelry_store", "point_of_interest", "store", "establishment"]}, "ChIJHTJRoSwFdkgRfhx-oidU-pg": {"geometry": {"location": {"lat": 51.5138916, "lng": -0.1459508}, "viewport": {"northeast": {"lat": 51.5152176302915, "lng": -0.144659469708498}, "southwest": {"lat": 51.5125196697085, "lng": -0.147357430291502}}}, "name": "MGG Real Estate", "place_id": "ChIJHTJRoSwFdkgRfhx-oidU-pg", "types": ["real_estate_agency", "point_of_interest", "establishment"]}, "ChIJD1WUXCsFdkgRTzJyyaWOU1E": {"geometry": {"location": {"lat": 51.5138598, "lng": -0.1462121}, "viewport": {"northeast": {"lat": 51.5152275302915, "lng": -0.1448163697084979}, "southwest": {"lat": 51.5125295697085, "lng": -0.147514330291502}}}, "name": "Loriblu London Ltd", "place_id": "ChIJD1WUXCsFdkgRTzJyyaWOU1E", "types": ["shoe_store", "point_of_interest", "clothing_store", "store", "establishment"], "rating": 4.7, "user_ratings_total": 7}, "ChIJrUWQQysFdkgRqelfFMu25jI": {"geometry": {"location": {"lat": 51.5138837, "lng": -0.1458705}, "viewport": {"northeast": {"lat": 51.5151995302915, "lng": -0.144604219708498}, "southwest": {"lat": 51.5125015697085, "lng": -0.147302180291502}}}, "name": "Dr. Christian Guenin", "place_id": "ChIJrUWQQysFdkgRqelfFMu25jI", "types": ["dentist", "health", "point_of_interest", "establishment"]}, "ChIJrUWQQysFdkgRpf8Rsdd5UOE": {"geometry": {"location": {"lat": 51.5138837, "lng": -0.1458705}, "viewport": {"northeast": {"lat": 51.5151995302915, "lng": -0.144604219708498}, "southwest": {"lat": 51.5125015697085, "lng": -0.147302180291502}}}, "name": "TASCHIERI & WEINSTEIN", "place_id": "ChIJrUWQQysFdkgRpf8Rsdd5UOE", "types": ["dentist", "health", "point_of_interest", "establishment"]}, "ChIJ2__d6dMadkgRH5a5OHI23fA": {"geometry": {"location": {"lat": 51.5138701, "lng": -0.1458554}, "viewport": {"northeast": {"lat": 51.5151857802915, "lng": -0.144589519708498}, "southwest": {"lat": 51.5124878197085, "lng": -0.147287480291502}}}, "name": "Art Align Orthodontics by Dr Hanna Reinartz", "place_id": "ChIJ2__d6dMadkgRH5a5OHI23fA", "types": ["dentist", "health", "point_of_interest", "establishment"], "rating": 5, "user_ratings_total": 35}, "ChIJ2X2sRisFdkgRRexS39_0cU0": {"geometry": {"location": {"lat": 51.5138701, "lng": -0.1458554}, "viewport": {"northeast": {"lat": 51.5151857802915, "lng": -0.144589519708498}, "southwest": {"lat": 51.5124878197085, "lng": -0.147287480291502}}}, "name": "Addiction Counsellor: Simon Leigh MSc, FDAP Accredited, UKRC Reg.", "place_id": "ChIJ2X2sRisFdkgRRexS39_0cU0", "types": ["health", "point_of_interest", "establishment"]}, "ChIJB7VyQysFdkgRsvWWh7FG-O0": {"geometry": {"location": {"lat": 51.5138701, "lng": -0.1458554}, "viewport": {"northeast": {"lat": 51.5151857802915, "lng": -0.144589519708498}, "southwest": {"lat": 51.5124878197085, "lng": -0.147287480291502}}}, "name": "Hypnostic", "place_id": "ChIJB7VyQysFdkgRsvWWh7FG-O0", "types": ["health", "point_of_interest", "establishment"]}, "ChIJ-XnTWisFdkgRgwd3ep6OYUg": {"geometry": {"location": {"lat": 51.5141186, "lng": -0.1461196}, "viewport": {"northeast": {"lat": 51.51543618029149, "lng": -0.1447357197084979}, "southwest": {"lat": 51.5127382197085, "lng": -0.147433680291502}}}, "name": "Hedios", "place_id": "ChIJ-XnTWisFdkgRgwd3ep6OYUg", "types": ["finance", "point_of_interest", "establishment"]}, "ChIJN6VYGCoFdkgRGY_jiewkaJ8": {"geometry": {"location": {"lat": 51.5137875, "lng": -0.1462226}, "viewport": {"northeast": {"lat": 51.51516728029149, "lng": -0.1447967197084979}, "southwest": {"lat": 51.5124693197085, "lng": -0.147494680291502}}}, "name": "Barnaby Stewart", "place_id": "ChIJN6VYGCoFdkgRGY_jiewkaJ8", "types": ["point_of_interest", "establishment"]}, "ChIJfyj9XCsFdkgRyuFTsRnQu9U": {"geometry": {"location": {"lat": 51.51377659999999, "lng": -0.1462484}, "viewport": {"northeast": {"lat": 51.51516163029149, "lng": -0.1448094197084979}, "southwest": {"lat": 51.5124636697085, "lng": -0.147507380291502}}}, "name": "Weingrow Partners", "place_id": "ChIJfyj9XCsFdkgRyuFTsRnQu9U", "types": ["point_of_interest", "establishment"]}, "ChIJfyj9XCsFdkgR7dYc0HvRFqo": {"geometry": {"location": {"lat": 51.51377659999999, "lng": -0.1462484}, "viewport": {"northeast": {"lat": 51.51516163029149, "lng": -0.1448094197084979}, "southwest": {"lat": 51.5124636697085, "lng": -0.147507380291502}}}, "name": "Fusion Estates", "place_id": "ChIJfyj9XCsFdkgR7dYc0HvRFqo", "types": ["point_of_interest", "establishment"]}, "ChIJ1Sf9XCsFdkgRbcSRjNRsNk8": {"geometry": {"location": {"lat": 51.5137766, "lng": -0.1462485}, "viewport": {"northeast": {"lat": 51.5151616802915, "lng": -0.144809469708498}, "southwest": {"lat": 51.51246371970851, "lng": -0.147507430291502}}}, "name": "i-tec Flat Roofing", "place_id": "ChIJ1Sf9XCsFdkgRbcSRjNRsNk8", "types": ["point_of_interest", "store", "establishment"], "rating": 2.8, "user_ratings_total": 6}, "ChIJVVVKcIQadkgRQND-9VbFgJE": {"geometry": {"location": {"lat": 51.5137766, "lng": -0.1462485}, "viewport": {"northeast": {"lat": 51.5151616802915, "lng": -0.144809469708498}, "southwest": {"lat": 51.51246371970851, "lng": -0.147507430291502}}}, "name": "Oliver Isaacs", "place_id": "ChIJVVVKcIQadkgRQND-9VbFgJE", "types": ["finance", "point_of_interest", "establishment"], "rating": 5, "user_ratings_total": 1}, "ChIJMR3HWisFdkgRqTT5yscY4cM": {"geometry": {"location": {"lat": 51.5141405, "lng": -0.1462154}, "viewport": {"northeast": {"lat": 51.51548948029151, "lng": -0.144866419708498}, "southwest": {"lat": 51.51279151970851, "lng": -0.147564380291502}}}, "name": "Johnstons of Elgin", "place_id": "ChIJMR3HWisFdkgRqTT5yscY4cM", "types": ["clothing_store", "point_of_interest", "store", "establishment"], "rating": 4.2, "user_ratings_total": 43}, "ChIJfbr9XCsFdkgRjK16t060Zy4": {"geometry": {"location": {"lat": 51.5137745, "lng": -0.1462607}, "viewport": {"northeast": {"lat": 51.5151615802915, "lng": -0.144816619708498}, "southwest": {"lat": 51.5124636197085, "lng": -0.147514580291502}}}, "name": "Signature Natural Rugs", "place_id": "ChIJfbr9XCsFdkgRjK16t060Zy4", "types": ["point_of_interest", "establishment"]}, "ChIJcbr9XCsFdkgR5JUBak6xm7s": {"geometry": {"location": {"lat": 51.5137745, "lng": -0.1462608}, "viewport": {"northeast": {"lat": 51.51516163029149, "lng": -0.144816669708498}, "southwest": {"lat": 51.5124636697085, "lng": -0.147514630291502}}}, "name": "Primary Industries UK Ltd", "place_id": "ChIJcbr9XCsFdkgR5JUBak6xm7s", "types": ["primary_school", "school", "point_of_interest", "establishment"]}, "ChIJqdyqXSsFdkgRLdKcryXUgrw": {"geometry": {"location": {"lat": 51.5137745, "lng": -0.1462608}, "viewport": {"northeast": {"lat": 51.51516163029149, "lng": -0.144816669708498}, "southwest": {"lat": 51.5124636697085, "lng": -0.147514630291502}}}, "name": "Sense My Baby", "place_id": "ChIJqdyqXSsFdkgRLdKcryXUgrw", "types": ["health", "point_of_interest", "establishment"]}, "ChIJf2JAXCsFdkgRdvE1ekf7Yrg": {"geometry": {"location": {"lat": 51.51383870000001, "lng": -0.1463801}, "viewport": {"northeast": {"lat": 51.5152383802915, "lng": -0.144922669708498}, "southwest": {"lat": 51.5125404197085, "lng": -0.147620630291502}}}, "name": "Philipp Plein", "place_id": "ChIJf2JAXCsFdkgRdvE1ekf7Yrg", "types": ["point_of_interest", "clothing_store", "store", "establishment"], "rating": 4.8, "user_ratings_total": 41}, "ChIJr-bPQysFdkgRrGv7bj5U54Q": {"geometry": {"location": {"lat": 51.5138046, "lng": -0.1457877}, "viewport": {"northeast": {"lat": 51.5151202802915, "lng": -0.144521769708498}, "southwest": {"lat": 51.51242231970851, "lng": -0.147219730291502}}}, "name": "INTELLIGENCE CORPORATE SERVICES LTD.", "place_id": "ChIJr-bPQysFdkgRrGv7bj5U54Q", "types": ["point_of_interest", "establishment"]}, "ChIJr-bPQysFdkgRcvU3L4vhNsY": {"geometry": {"location": {"lat": 51.5138046, "lng": -0.1457877}, "viewport": {"northeast": {"lat": 51.5151202802915, "lng": -0.144521769708498}, "southwest": {"lat": 51.51242231970851, "lng": -0.147219730291502}}}, "name": "I3CAS Ltd.", "place_id": "ChIJr-bPQysFdkgRcvU3L4vhNsY", "types": ["point_of_interest", "establishment"]}, "ChIJD45zoywFdkgRufHoMOsJAEk": {"geometry": {"location": {"lat": 51.51396390000001, "lng": -0.1464657}, "viewport": {"northeast": {"lat": 51.51534073029151, "lng": -0.145006369708498}, "southwest": {"lat": 51.51264276970851, "lng": -0.147704330291502}}}, "name": "Barnes Card", "place_id": "ChIJD45zoywFdkgRufHoMOsJAEk", "types": ["point_of_interest", "establishment"]}, "ChIJpVhDQSsFdkgRQ89NYOe0jm0": {"geometry": {"location": {"lat": 51.5139013, "lng": -0.1455315}, "viewport": {"northeast": {"lat": 51.5153265802915, "lng": -0.1441497697084979}, "southwest": {"lat": 51.5126286197085, "lng": -0.146847730291502}}}, "name": "Kubota Corporation", "place_id": "ChIJpVhDQSsFdkgRQ89NYOe0jm0", "types": ["point_of_interest", "store", "establishment"], "rating": 5, "user_ratings_total": 1}, "ChIJs9I5WSsFdkgRjLVrIDhXOUo": {"geometry": {"location": {"lat": 51.5139742, "lng": -0.1465798}, "viewport": {"northeast": {"lat": 51.5153770302915, "lng": -0.145095369708498}, "southwest": {"lat": 51.5126790697085, "lng": -0.147793330291502}}}, "name": "Victorinox Flagship Store London", "place_id": "ChIJs9I5WSsFdkgRjLVrIDhXOUo", "types": ["store", "point_of_interest", "clothing_store", "establishment"], "rating": 4.5, "user_ratings_total": 159}, "ChIJGVsDaCsFdkgRi2Su5EPubOM": {"geometry": {"location": {"lat": 51.51358459999999, "lng": -0.1460644}, "viewport": {"northeast": {"lat": 51.5149717302915, "lng": -0.1446202197084979}, "southwest": {"lat": 51.5122737697085, "lng": -0.147318180291502}}}, "name": "Vincom Ventures Group", "place_id": "ChIJGVsDaCsFdkgRi2Su5EPubOM", "types": ["point_of_interest", "establishment"]}, "ChIJVferXCsFdkgRiej3mw5ZNJ4": {"geometry": {"location": {"lat": 51.5135791, "lng": -0.146058}, "viewport": {"northeast": {"lat": 51.5149661302915, "lng": -0.144614069708498}, "southwest": {"lat": 51.5122681697085, "lng": -0.147312030291502}}}, "name": "Galerie Bartoux, London", "place_id": "ChIJVferXCsFdkgRiej3mw5ZNJ4", "types": ["art_gallery", "point_of_interest", "establishment"], "rating": 4.8, "user_ratings_total": 111}, "ChIJlUWZUCsFdkgRYFm7CtgsZqM": {"geometry": {"location": {"lat": 51.51428300000001, "lng": -0.146367}, "viewport": {"northeast": {"lat": 51.5156086302915, "lng": -0.145072069708498}, "southwest": {"lat": 51.5129106697085, "lng": -0.147770030291502}}}, "name": "VECTRYSS", "place_id": "ChIJlUWZUCsFdkgRYFm7CtgsZqM", "types": ["point_of_interest", "establishment"]}, "ChIJ92glvSwFdkgR0blewgmbOOM": {"geometry": {"location": {"lat": 51.5139422, "lng": -0.1467159}, "viewport": {"northeast": {"lat": 51.5153142802915, "lng": -0.145390669708498}, "southwest": {"lat": 51.5126163197085, "lng": -0.148088630291502}}}, "name": "Yourun International (UK) Investment & Management Ltd", "place_id": "ChIJ92glvSwFdkgR0blewgmbOOM", "types": ["finance", "point_of_interest", "establishment"]}, "ChIJxdPvZCsFdkgRLP4mWkSypvM": {"geometry": {"location": {"lat": 51.51308255007862, "lng": -0.1462730000891166}, "viewport": {"northeast": {"lat": 51.5144315302915, "lng": -0.1449240197084979}, "southwest": {"lat": 51.5117335697085, "lng": -0.147621980291502}}}, "name": "30-28 Brook St", "place_id": "ChIJxdPvZCsFdkgRLP4mWkSypvM", "types": ["route"]}, "ChIJQSRDZCsFdkgR0iSyUr8WInA": {"geometry": {"location": {"lat": 51.5131563, "lng": -0.1462974}, "viewport": {"northeast": {"lat": 51.5144700802915, "lng": -0.144928469708498}, "southwest": {"lat": 51.5117721197085, "lng": -0.147626430291502}}}, "name": "JOSEPH", "place_id": "ChIJQSRDZCsFdkgR0iSyUr8WInA", "types": ["clothing_store", "point_of_interest", "store", "establishment"], "rating": 4.5, "user_ratings_total": 13}, "ChIJ6VakbysFdkgR0Fb-hxSHE5I": {"geometry": {"location": {"lat": 51.5130804, "lng": -0.1459796}, "viewport": {"northeast": {"lat": 51.5144583302915, "lng": -0.144645819708498}, "southwest": {"lat": 51.5117603697085, "lng": -0.147343780291502}}}, "name": "Blue Plaque: George Frideric Handel", "place_id": "ChIJ6VakbysFdkgR0Fb-hxSHE5I", "types": ["point_of_interest", "establishment"], "rating": 5, "user_ratings_total": 1}, "ChIJJcP7ZCsFdkgRYseEJBuBKiQ": {"geometry": {"location": {"lat": 51.51313700000001, "lng": -0.1463523}, "viewport": {"northeast": {"lat": 51.5144540302915, "lng": -0.144985219708498}, "southwest": {"lat": 51.51175606970851, "lng": -0.147683180291502}}}, "name": "Sawa Petroleum", "place_id": "ChIJJcP7ZCsFdkgRYseEJBuBKiQ", "types": ["point_of_interest", "establishment"]}, "ChIJudRdZCsFdkgRVQXUQCcJTtw": {"geometry": {"location": {"lat": 51.5131325, "lng": -0.1463695}, "viewport": {"northeast": {"lat": 51.5144498302915, "lng": -0.145002619708498}, "southwest": {"lat": 51.5117518697085, "lng": -0.147700580291502}}}, "name": "McIntyre Partners", "place_id": "ChIJudRdZCsFdkgRVQXUQCcJTtw", "types": ["finance", "point_of_interest", "establishment"]}, "ChIJeU6yg4MadkgRyaGkD-m9NzU": {"geometry": {"location": {"lat": 51.5131491, "lng": -0.1463555}, "viewport": {"northeast": {"lat": 51.51446043029151, "lng": -0.144985169708498}, "southwest": {"lat": 51.51176246970851, "lng": -0.147683130291502}}}, "name": "Martsang Kagyu London Buddhist Centre", "place_id": "ChIJeU6yg4MadkgRyaGkD-m9NzU", "types": ["place_of_worship", "point_of_interest", "establishment"], "rating": 4.7, "user_ratings_total": 13}, "ChIJR1qrbisFdkgRqdR3iJM95Jc": {"geometry": {"location": {"lat": 51.51327180000001, "lng": -0.1457585}, "viewport": {"northeast": {"lat": 51.5146613802915, "lng": -0.144308019708498}, "southwest": {"lat": 51.5119634197085, "lng": -0.147005980291502}}}, "name": "Abbott & Jones", "place_id": "ChIJR1qrbisFdkgRqdR3iJM95Jc", "types": ["point_of_interest", "clothing_store", "store", "establishment"], "rating": 5, "user_ratings_total": 1}, "ChIJSwpbZCsFdkgRe4uSBd3GNuM": {"geometry": {"location": {"lat": 51.5131416, "lng": -0.1464133}, "viewport": {"northeast": {"lat": 51.5145051302915, "lng": -0.145296069708498}, "southwest": {"lat": 51.5118071697085, "lng": -0.147994030291502}}}, "name": "Ikeda", "place_id": "ChIJSwpbZCsFdkgRe4uSBd3GNuM", "types": ["restaurant", "food", "point_of_interest", "establishment"], "rating": 4.3, "user_ratings_total": 142},