{"E00024105": {"ChIJwf-8WK4adkgRg7ePnKc0N8c": {"geometry": {"location": {"lat": 51.5218601887815, "lng": -0.1791789414376244}, "viewport": {"northeast": {"lat": 51.52320598029151, "lng": -0.177825019708498}, "southwest": {"lat": 51.52050801970851, "lng": -0.180522980291502}}}, "name": "10-2 Howley Pl", "place_id": "ChIJwf-8WK4adkgRg7ePnKc0N8c", "types": ["route"]}, "ChIJ0V-WXK4adkgRQdk7Ff9w7TM": {"geometry": {"location": {"lat": 51.52171519999999, "lng": -0.1786265}, "viewport": {"northeast": {"lat": 51.5229259802915, "lng": -0.177151069708498}, "southwest": {"lat": 51.5202280197085, "lng": -0.179849030291502}}}, "name": "SHEN TING ACUPUNCTURE", "place_id": "ChIJ0V-WXK4adkgRQdk7Ff9w7TM", "types": ["hospital", "health", "point_of_interest", "establishment"], "rating": 5, "user_ratings_total": 1}, "ChIJ85KrJ7EbdkgRQv7dxrFePt4": {"geometry": {"location": {"lat": 51.5216423, "lng": -0.1795607}, "viewport": {"northeast": {"lat": 51.5230052802915, "lng": -0.178234119708498}, "southwest": {"lat": 51.5203073197085, "lng": -0.180932080291502}}}, "name": "Lokamanya Tilak Blue Plaque", "place_id": "ChIJ85KrJ7EbdkgRQv7dxrFePt4", "types": ["point_of_interest", "establishment"], "rating": 4, "user_ratings_total": 1}, "ChIJC6rksQIbdkgR116ahESJ7Ss": {"geometry": {"location": {"lat": 51.52171519999999, "lng": -0.1786265}, "viewport": {"northeast": {"lat": 51.5229259802915, "lng": -0.177151069708498}, "southwest": {"lat": 51.5202280197085, "lng": -0.179849030291502}}}, "name": "Gino Ward Fashion Photographer", "place_id": "ChIJC6rksQIbdkgR116ahESJ7Ss", "types": ["point_of_interest", "establishment"]}, "ChIJH-Il864adkgRM0Vh8DRsUhs": {"geometry": {"location": {"lat": 51.5214861, "lng": -0.1797868}, "viewport": {"northeast": {"lat": 51.5228608802915, "lng": -0.178476219708498}, "southwest": {"lat": 51.5201629197085, "lng": -0.181174180291502}}}, "name": "Faith Savill-Smith Make-up Artist", "place_id": "ChIJH-Il864adkgRM0Vh8DRsUhs", "types": ["point_of_interest", "establishment"]}, "ChIJ-cpdkv4bdkgRDn5GyVP8kcs": {"geometry": {"location": {"lat": 51.5215323, "lng": -0.1798534}, "viewport": {"northeast": {"lat": 51.5228641802915, "lng": -0.178479019708498}, "southwest": {"lat": 51.5201662197085, "lng": -0.181176980291502}}}, "name": "William Hanna", "place_id": "ChIJ-cpdkv4bdkgRDn5GyVP8kcs", "types": ["lodging", "point_of_interest", "establishment"]}, "ChIJ7bEB2K0adkgRp2lrOjDTtxc": {"geometry": {"location": {"lat": 51.5201375594304, "lng": -0.179367423450689}, "viewport": {"northeast": {"lat": 51.52148238029149, "lng": -0.178018469708498}, "southwest": {"lat": 51.5187844197085, "lng": -0.180716430291502}}}, "name": "Westway", "place_id": "ChIJ7bEB2K0adkgRp2lrOjDTtxc", "types": ["route"]}, "ChIJadU9hK4adkgRiFG6YBsLngc": {"geometry": {"location": {"lat": 51.52084199999999, "lng": -0.1798288}, "viewport": {"northeast": {"lat": 51.5223201302915, "lng": -0.178763719708498}, "southwest": {"lat": 51.5196221697085, "lng": -0.181461680291502}}}, "name": "Bill Kenwright Ltd", "place_id": "ChIJadU9hK4adkgRiFG6YBsLngc", "types": ["point_of_interest", "establishment"], "rating": 4.3, "user_ratings_total": 7}, "ChIJ7Qmcj64adkgReOjmFot9qFU": {"geometry": {"location": {"lat": 51.52084199999999, "lng": -0.1798287}, "viewport": {"northeast": {"lat": 51.5223201302915, "lng": -0.178763719708498}, "southwest": {"lat": 51.5196221697085, "lng": -0.181461680291502}}}, "name": "Mane Chance Sanctuary", "place_id": "ChIJ7Qmcj64adkgReOjmFot9qFU", "types": ["point_of_interest", "establishment"], "rating": 4, "user_ratings_total": 1}, "ChIJrxy2nyobdkgRkQtLNt4CMhM": {"geometry": {"location": {"lat": 51.5206626, "lng": -0.1792182}, "viewport": {"northeast": {"lat": 51.5220502302915, "lng": -0.177821419708498}, "southwest": {"lat": 51.5193522697085, "lng": -0.180519380291502}}}, "name": "VolPets", "place_id": "ChIJrxy2nyobdkgRkQtLNt4CMhM", "types": ["point_of_interest", "establishment"]}, "ChIJK11-fK4adkgRurerdBsHCfE": {"geometry": {"location": {"lat": 51.52061339999999, "lng": -0.1789011}, "viewport": {"northeast": {"lat": 51.52200423029149, "lng": -0.177578219708498}, "southwest": {"lat": 51.5193062697085, "lng": -0.180276180291502}}}, "name": "Qubists", "place_id": "ChIJK11-fK4adkgRurerdBsHCfE", "types": ["point_of_interest", "establishment"]}, "ChIJ1Vx-fK4adkgRx7itquBi_2s": {"geometry": {"location": {"lat": 51.52061339999999, "lng": -0.178901}, "viewport": {"northeast": {"lat": 51.52200423029149, "lng": -0.177578119708498}, "southwest": {"lat": 51.5193062697085, "lng": -0.180276080291502}}}, "name": "startup dna", "place_id": "ChIJ1Vx-fK4adkgRx7itquBi_2s", "types": ["point_of_interest", "establishment"]}, "ChIJATczhK4adkgRzpwxQHDu7Ts": {"geometry": {"location": {"lat": 51.520366, "lng": -0.179155}, "viewport": {"northeast": {"lat": 51.5216812802915, "lng": -0.177835619708498}, "southwest": {"lat": 51.5189833197085, "lng": -0.180533580291502}}}, "name": "Bishops Bridge Road / Little Venice", "place_id": "ChIJATczhK4adkgRzpwxQHDu7Ts", "types": ["transit_station", "point_of_interest", "establishment"], "rating": 4.7, "user_ratings_total": 3}, "ChIJ5epM5q4adkgR76EPbNMbyw8": {"geometry": {"location": {"lat": 51.5207716, "lng": -0.1785795}, "viewport": {"northeast": {"lat": 51.52215613029149, "lng": -0.177283419708498}, "southwest": {"lat": 51.5194581697085, "lng": -0.179981380291502}}}, "name": "\uc560\ud50c\ubbfc\ubc15", "place_id": "ChIJ5epM5q4adkgR76EPbNMbyw8", "types": ["lodging", "point_of_interest", "establishment"]}, "ChIJEdGdf64adkgRslTw8y5_GFo": {"geometry": {"location": {"lat": 51.52018789999999, "lng": -0.1790753}, "viewport": {"northeast": {"lat": 51.5215138802915, "lng": -0.177727419708498}, "southwest": {"lat": 51.5188159197085, "lng": -0.180425380291502}}}, "name": "Bishops Bridge Little Venice", "place_id": "ChIJEdGdf64adkgRslTw8y5_GFo", "types": ["transit_station", "point_of_interest", "establishment"]}, "ChIJR458b64adkgRAR-3xv84JG0": {"geometry": {"location": {"lat": 51.5209833, "lng": -0.1784997}, "viewport": {"northeast": {"lat": 51.52233723029151, "lng": -0.177158119708498}, "southwest": {"lat": 51.51963926970851, "lng": -0.179856080291502}}}, "name": "\ud328\ub529\ud134 \ubbfc\ubc15 \ub7f0\ub358", "place_id": "ChIJR458b64adkgRAR-3xv84JG0", "types": ["lodging", "point_of_interest", "establishment"], "rating": 4.1, "user_ratings_total": 8}, "ChIJxQpId64adkgR4Q70W_JALmE": {"geometry": {"location": {"lat": 51.52041699999999, "lng": -0.1784288}, "viewport": {"northeast": {"lat": 51.52179763029149, "lng": -0.1771145197084979}, "southwest": {"lat": 51.5190996697085, "lng": -0.179812480291502}}}, "name": "Amilcar Cabral Court", "place_id": "ChIJxQpId64adkgR4Q70W_JALmE", "types": ["point_of_interest", "establishment"]}, "ChIJZ26-1a0adkgR_Ih2z5378ik": {"geometry": {"location": {"lat": 51.52006110510877, "lng": -0.1790699441969288}, "viewport": {"northeast": {"lat": 51.5214099802915, "lng": -0.177720969708498}, "southwest": {"lat": 51.5187120197085, "lng": -0.180418930291502}}}, "name": "Westway", "place_id": "ChIJZ26-1a0adkgR_Ih2z5378ik", "types": ["route"]}, "ChIJ842oMKwadkgRmqEiMrCGSQY": {"geometry": {"location": {"lat": 51.5194106, "lng": -0.1793009}, "viewport": {"northeast": {"lat": 51.52055988029149, "lng": -0.177955019708498}, "southwest": {"lat": 51.51786191970849, "lng": -0.180652980291502}}}, "name": "Zizzi", "place_id": "ChIJ842oMKwadkgRmqEiMrCGSQY", "types": ["restaurant", "food", "point_of_interest", "store", "establishment"], "rating": 3.9, "user_ratings_total": 961}, "ChIJJ_aKO6wadkgRx0Gy1o6Etak": {"geometry": {"location": {"lat": 51.51950009999999, "lng": -0.1797865}, "viewport": {"northeast": {"lat": 51.52085153029149, "lng": -0.178786569708498}, "southwest": {"lat": 51.5181535697085, "lng": -0.181484530291502}}}, "name": "The Union Paddington", "place_id": "ChIJJ_aKO6wadkgRx0Gy1o6Etak", "types": ["cafe", "bar", "restaurant", "food", "point_of_interest", "establishment"], "rating": 4.1, "user_ratings_total": 1319}, "ChIJA7sJMqwadkgR24t804XGd9M": {"geometry": {"location": {"lat": 51.519433, "lng": -0.179539}, "viewport": {"northeast": {"lat": 51.5205935302915, "lng": -0.178272619708498}, "southwest": {"lat": 51.5178955697085, "lng": -0.180970580291502}}}, "name": "Starbucks Coffee", "place_id": "ChIJA7sJMqwadkgR24t804XGd9M", "types": ["cafe", "restaurant", "food", "point_of_interest", "store", "establishment"], "rating": 3.9, "user_ratings_total": 373}, "ChIJ14SuzK0adkgRwgAStdBbSk0": {"geometry": {"location": {"lat": 51.51922099999999, "lng": -0.1790959}, "viewport": {"northeast": {"lat": 51.5204438802915, "lng": -0.177904119708498}, "southwest": {"lat": 51.5177459197085, "lng": -0.180602080291502}}}, "name": "Smith's Bar & Grill", "place_id": "ChIJ14SuzK0adkgRwgAStdBbSk0", "types": ["restaurant", "meal_takeaway", "bar", "food", "point_of_interest", "establishment"], "rating": 3.8, "user_ratings_total": 977}, "ChIJ8aN7MKwadkgR5ghqchrbXlQ": {"geometry": {"location": {"lat": 51.5198968, "lng": -0.1793644}, "viewport": {"northeast": {"lat": 51.5213309302915, "lng": -0.178010819708498}, "southwest": {"lat": 51.51863296970851, "lng": -0.180708780291502}}}, "name": "Paddington Central - Sheldon Square", "place_id": "ChIJ8aN7MKwadkgR5ghqchrbXlQ", "types": ["point_of_interest", "establishment"], "rating": 4.5, "user_ratings_total": 481}, "ChIJ45quzK0adkgR-JYm9TAZAG4": {"geometry": {"location": {"lat": 51.5191831, "lng": -0.1792893}, "viewport": {"northeast": {"lat": 51.5204382302915, "lng": -0.178031619708498}, "southwest": {"lat": 51.5177402697085, "lng": -0.180729580291502}}}, "name": "Facelift-pedia", "place_id": "ChIJ45quzK0adkgR-JYm9TAZAG4", "types": ["health", "point_of_interest", "establishment"]}, "ChIJ14SuzK0adkgR4X7rasmbEe4": {"geometry": {"location": {"lat": 51.51917049999999, "lng": -0.1792181}, "viewport": {"northeast": {"lat": 51.5204264802915, "lng": -0.177981469708498}, "southwest": {"lat": 51.5177285197085, "lng": -0.180679430291502}}}, "name": "Videos about our family", "place_id": "ChIJ14SuzK0adkgR4X7rasmbEe4", "types": ["health", "point_of_interest", "establishment"]}, "ChIJaYrWPqwadkgRLFy3tvuf87c": {"geometry": {"location": {"lat": 51.51917049999999, "lng": -0.1792182}, "viewport": {"northeast": {"lat": 51.52042648029149, "lng": -0.177981519708498}, "southwest": {"lat": 51.51772851970849, "lng": -0.180679480291502}}}, "name": "Julian Cowan Hill", "place_id": "ChIJaYrWPqwadkgRLFy3tvuf87c", "types": ["health", "point_of_interest", "establishment"], "rating": 5, "user_ratings_total": 6}, "ChIJt2kdKqwadkgR_k_qgEttv64": {"geometry": {"location": {"lat": 51.519626, "lng": -0.178676}, "viewport": {"northeast": {"lat": 51.5210961302915, "lng": -0.177242519708498}, "southwest": {"lat": 51.5183981697085, "lng": -0.179940480291502}}}, "name": "Travis Perkins Paddington", "place_id": "ChIJt2kdKqwadkgR_k_qgEttv64", "types": ["home_goods_store", "point_of_interest", "store", "establishment"], "rating": 4, "user_ratings_total": 68}, "ChIJC37077MbdkgRCPt88oNPsvA": {"geometry": {"location": {"lat": 51.51956759999999, "lng": -0.1792735}, "viewport": {"northeast": {"lat": 51.5206494802915, "lng": -0.178087669708498}, "southwest": {"lat": 51.5179515197085, "lng": -0.180785630291502}}}, "name": "The grand duchess", "place_id": "ChIJC37077MbdkgRCPt88oNPsvA", "types": ["restaurant", "food", "point_of_interest", "establishment"]}, "ChIJL5dqGYUbdkgRQ7cwcCeg_zw": {"geometry": {"location": {"lat": 51.5193656, "lng": -0.1791734}, "viewport": {"northeast": {"lat": 51.5205355302915, "lng": -0.177990119708498}, "southwest": {"lat": 51.5178375697085, "lng": -0.180688080291502}}}, "name": "London Shell Co.", "place_id": "ChIJL5dqGYUbdkgRQ7cwcCeg_zw", "types": ["restaurant", "food", "point_of_interest", "establishment"], "rating": 4.7, "user_ratings_total": 302}, "ChIJSUpIyEAbdkgRRj5PgAxTHCE": {"geometry": {"location": {"lat": 51.5193319, "lng": -0.1789226}, "viewport": {"northeast": {"lat": 51.52049403029149, "lng": -0.177806519708498}, "southwest": {"lat": 51.5177960697085, "lng": -0.180504480291502}}}, "name": "The Cheese Barge", "place_id": "ChIJSUpIyEAbdkgRRj5PgAxTHCE", "types": ["restaurant", "food", "point_of_interest", "establishment"], "rating": 4.8, "user_ratings_total": 28}, "ChIJGRwcv60adkgRT7BQX9moi5Y": {"geometry": {"location": {"lat": 51.51971819999999, "lng": -0.1786589}, "viewport": {"northeast": {"lat": 51.52112698029149, "lng": -0.177230169708498}, "southwest": {"lat": 51.5184290197085, "lng": -0.179928130291502}}}, "name": "Benchmarx Kitchen Showroom Paddington", "place_id": "ChIJGRwcv60adkgRT7BQX9moi5Y", "types": ["furniture_store", "home_goods_store", "point_of_interest", "store", "establishment"], "rating": 5, "user_ratings_total": 1}, "ChIJy_q03-wbdkgRd0bc_tQ-utw": {"geometry": {"location": {"lat": 51.5192825, "lng": -0.1794797}, "viewport": {"northeast": {"lat": 51.5204523302915, "lng": -0.178020769708498}, "southwest": {"lat": 51.51775436970851, "lng": -0.180718730291502}}}, "name": "12x3 HEALTHY CAFE/ meal ticket", "place_id": "ChIJy_q03-wbdkgRd0bc_tQ-utw", "types": ["cafe", "food", "point_of_interest", "establishment"], "rating": 4.4, "user_ratings_total": 30}, "ChIJE7K3zK0adkgR1U5zNcJkFuI": {"geometry": {"location": {"lat": 51.5192168, "lng": -0.1792079}, "viewport": {"northeast": {"lat": 51.52044963029149, "lng": -0.177976369708498}, "southwest": {"lat": 51.5177516697085, "lng": -0.180674330291502}}}, "name": "Ayllu", "place_id": "ChIJE7K3zK0adkgR1U5zNcJkFuI", "types": ["point_of_interest", "establishment"]}, "ChIJl2XsiqQbdkgRKtVy7HlX6JQ": {"geometry": {"location": {"lat": 51.5192168, "lng": -0.1792079}, "viewport": {"northeast": {"lat": 51.52044963029149, "lng": -0.177976369708498}, "southwest": {"lat": 51.5177516697085, "lng": -0.180674330291502}}}, "name": "Ayllu", "place_id": "ChIJl2XsiqQbdkgRKtVy7HlX6JQ", "types": ["restaurant", "food", "point_of_interest", "establishment"], "rating": 3.8, "user_ratings_total": 63}, "ChIJDSd6VR4bdkgRBERGp_oGfpY": {"geometry": {"location": {"lat": 51.5192168, "lng": -0.1792079}, "viewport": {"northeast": {"lat": 51.52044963029149, "lng": -0.177976369708498}, "southwest": {"lat": 51.5177516697085, "lng": -0.180674330291502}}}, "name": "The Paddington Lunchtime Talks", "place_id": "ChIJDSd6VR4bdkgRBERGp_oGfpY", "types": ["church", "place_of_worship", "point_of_interest", "establishment"]}, "ChIJE7K3zK0adkgRmyUCQz08DTY": {"geometry": {"location": {"lat": 51.5192168, "lng": -0.1792079}, "viewport": {"northeast": {"lat": 51.52044963029149, "lng": -0.177976369708498}, "southwest": {"lat": 51.5177516697085, "lng": -0.180674330291502}}}, "name": "Londonswedes", "place_id": "ChIJE7K3zK0adkgRmyUCQz08DTY", "types": ["point_of_interest", "establishment"]}, "ChIJeWCmSXQbdkgR38xVpLbxqVY": {"geometry": {"location": {"lat": 51.5192105, "lng": -0.1792637}, "viewport": {"northeast": {"lat": 51.52045208029149, "lng": -0.178019169708498}, "southwest": {"lat": 51.5177541197085, "lng": -0.180717130291502}}}, "name": "Website Design Today", "place_id": "ChIJeWCmSXQbdkgR38xVpLbxqVY", "types": ["point_of_interest", "establishment"]}, "ChIJAzoFNawadkgRmmwCtp3LQjU": {"geometry": {"location": {"lat": 51.51920630000001, "lng": -0.1792648}, "viewport": {"northeast": {"lat": 51.5204495802915, "lng": -0.1780186197084979}, "southwest": {"lat": 51.5177516197085, "lng": -0.180716580291502}}}, "name": "THRONE CIRCUS No.1 WHISPER CLUB", "place_id": "ChIJAzoFNawadkgRmmwCtp3LQjU", "types": ["point_of_interest", "establishment"]}, "ChIJ55Sc5gQbdkgRU1NfXG3H8fg": {"geometry": {"location": {"lat": 51.5199763, "lng": -0.1794939}, "viewport": {"northeast": {"lat": 51.52137108029149, "lng": -0.178145269708498}, "southwest": {"lat": 51.5186731197085, "lng": -0.180843230291502}}}, "name": "Coco di Mama Delivery Kitchen", "place_id": "ChIJ55Sc5gQbdkgRU1NfXG3H8fg", "types": ["meal_delivery", "food", "point_of_interest", "establishment"]}, "ChIJJxAT2q0adkgRtrGWSniEoPw": {"geometry": {"location": {"lat": 51.5197504, "lng": -0.1784544}, "viewport": {"northeast": {"lat": 51.52113238029149, "lng": -0.177058219708498}, "southwest": {"lat": 51.51843441970849, "lng": -0.179756180291502}}}, "name": "Bishops Bridge Road / Little Venice (Stop S)", "place_id": "ChIJJxAT2q0adkgRtrGWSniEoPw", "types": ["transit_station", "point_of_interest", "establishment"]}, "ChIJQaGHVbsbdkgRmlCdJg9Jk50": {"geometry": {"location": {"lat": 51.51917049999999, "lng": -0.1792181}, "viewport": {"northeast": {"lat": 51.5205194802915, "lng": -0.177869119708498}, "southwest": {"lat": 51.5178215197085, "lng": -0.180567080291502}}}, "name": "Pall Mall Barbers Paddington", "place_id": "ChIJQaGHVbsbdkgRmlCdJg9Jk50", "types": ["hair_care", "health", "point_of_interest", "establishment"], "rating": 5, "user_ratings_total": 1}, "ChIJiU-dL3EbdkgRWOdNj_3DBKo": {"geometry": {"location": {"lat": 51.51917049999999, "lng": -0.1792181}, "viewport": {"northeast": {"lat": 51.5204264802915, "lng": -0.177981469708498}, "southwest": {"lat": 51.5177285197085, "lng": -0.180679430291502}}}, "name": "Debbie Charles", "place_id": "ChIJiU-dL3EbdkgRWOdNj_3DBKo", "types": ["health", "point_of_interest", "establishment"]}, "ChIJ5-ODV0QbdkgRQ5jcgqugnXw": {"geometry": {"location": {"lat": 51.51917049999999, "lng": -0.1792181}, "viewport": {"northeast": {"lat": 51.5204318802915, "lng": -0.177995869708498}, "southwest": {"lat": 51.5177339197085, "lng": -0.180693830291502}}}, "name": "Pall Mall Barbers Paddington, Barber Shop, Barbers West London, Mens Haircut", "place_id": "ChIJ5-ODV0QbdkgRQ5jcgqugnXw", "types": ["hair_care", "health", "point_of_interest", "establishment"], "rating": 4.8, "user_ratings_total": 337}, "ChIJPWiWGKwadkgRkiKVAvJLzoI": {"geometry": {"location": {"lat": 51.5196827, "lng": -0.1799153}, "viewport": {"northeast": {"lat": 51.5209632302915, "lng": -0.178850819708498}, "southwest": {"lat": 51.5182652697085, "lng": -0.181548780291502}}}, "name": "Seabass", "place_id": "ChIJPWiWGKwadkgRkiKVAvJLzoI", "types": ["transit_station", "point_of_interest", "establishment"]}, "ChIJ5wN7L6wadkgRgCrVi5DxJPM": {"geometry": {"location": {"lat": 51.51966609999999, "lng": -0.179949}, "viewport": {"northeast": {"lat": 51.5209549302915, "lng": -0.178867669708498}, "southwest": {"lat": 51.5182569697085, "lng": -0.181565630291502}}}, "name": "\ud574\ubc14\ub77c\uae30\ubbfc\ubc15\ub7f0\ub358", "place_id": "ChIJ5wN7L6wadkgRgCrVi5DxJPM", "types": ["lodging", "point_of_interest", "establishment"]}, "ChIJjcZ2UxYbdkgReq49ZE_-2HY": {"geometry": {"location": {"lat": 51.51982809999999, "lng": -0.1799012}, "viewport": {"northeast": {"lat": 51.52101468029149, "lng": -0.178821519708498}, "southwest": {"lat": 51.51831671970849, "lng": -0.181519480291502}}}, "name": "Paddington Central footbridge", "place_id": "ChIJjcZ2UxYbdkgReq49ZE_-2HY", "types": ["point_of_interest", "establishment"], "rating": 5, "user_ratings_total": 2}, "ChIJ7cpOT_8bdkgRW0u9iqPRy-s": {"geometry": {"location": {"lat": 51.519783, "lng": -0.1799302}, "viewport": {"northeast": {"lat": 51.52101388029149, "lng": -0.178858269708498}, "southwest": {"lat": 51.5183159197085, "lng": -0.181556230291502}}}, "name": "Vagabond Paddington", "place_id": "ChIJ7cpOT_8bdkgRW0u9iqPRy-s", "types": ["bar", "restaurant", "food", "point_of_interest", "establishment"], "rating": 4.2, "user_ratings_total": 132}, "ChIJz2yi0K0adkgRNvfMiS341u0": {"geometry": {"location": {"lat": 51.5197387, "lng": -0.1785339}, "viewport": {"northeast": {"lat": 51.52107058014668, "lng": -0.1771906783056631}, "southwest": {"lat": 51.51837261956368, "lng": -0.1798886388886671}}}, "name": "Parking lot", "place_id": "ChIJz2yi0K0adkgRNvfMiS341u0", "types": ["parking", "premise", "point_of_interest", "establishment"]}, "ChIJWdViS6wadkgRWfX9L12-MtM": {"geometry": {"location": {"lat": 51.51849494365196, "lng": -0.1793764057343929}, "viewport": {"northeast": {"lat": 51.5198440802915, "lng": -0.178027669708498}, "southwest": {"lat": 51.51714611970851, "lng": -0.180725630291502}}}, "name": "Bishop's Bridge Road", "place_id": "ChIJWdViS6wadkgRWfX9L12-MtM", "types": ["route"]}, "ChIJ48aByq0adkgRVUbYt7D8TIU": {"geometry": {"location": {"lat": 51.5186985, "lng": -0.1787964}, "viewport": {"northeast": {"lat": 51.5200756802915, "lng": -0.177421869708498}, "southwest": {"lat": 51.5173777197085, "lng": -0.1801198302915021}}}, "name": "Westminster Edgware Road Apartments", "place_id": "ChIJ48aByq0adkgRVUbYt7D8TIU", "types": ["lodging", "point_of_interest", "establishment"], "rating": 5, "user_ratings_total": 1}, "ChIJA0Bzta0adkgRnBO_8QlEoB0": {"geometry": {"location": {"lat": 51.5187368, "lng": -0.1790851}, "viewport": {"northeast": {"lat": 51.52007923029151, "lng": -0.177724319708498}, "southwest": {"lat": 51.51738126970851, "lng": -0.180422280291502}}}, "name": "Bishops Bridge", "place_id": "ChIJA0Bzta0adkgRnBO_8QlEoB0", "types": ["transit_station", "point_of_interest", "establishment"]}, "ChIJsQFRS6wadkgRvuHNCZgNrYI": {"geometry": {"location": {"lat": 51.5185191, "lng": -0.1792432}, "viewport": {"northeast": {"lat": 51.5198744802915, "lng": -0.177904169708498}, "southwest": {"lat": 51.5171765197085, "lng": -0.180602130291502}}}, "name": "Bishops Bridge / Paddington Station (Stop J)", "place_id": "ChIJsQFRS6wadkgRvuHNCZgNrYI", "types": ["transit_station", "point_of_interest", "establishment"], "rating": 3.3, "user_ratings_total": 15}, "ChIJo_xSS6wadkgRSlXthJUBX3Y": {"geometry": {"location": {"lat": 51.518517, "lng": -0.179248}, "viewport": {"northeast": {"lat": 51.51988258029149, "lng": -0.177917469708498}, "southwest": {"lat": 51.51718461970849, "lng": -0.180615430291502}}}, "name": "Bishops Bridge Paddington Station (Stop J)", "place_id": "ChIJo_xSS6wadkgRSlXthJUBX3Y", "types": ["bus_station", "transit_station", "point_of_interest", "establishment"], "rating": 2.1, "user_ratings_total": 9}, "ChIJVV8VJKwadkgRObzTje7Wkuk": {"geometry": {"location": {"lat": 51.518915, "lng": -0.1790455}, "viewport": {"northeast": {"lat": 51.5202273802915, "lng": -0.177737169708498}, "southwest": {"lat": 51.5175294197085, "lng": -0.180435130291502}}}, "name": "Living Wall", "place_id": "ChIJVV8VJKwadkgRObzTje7Wkuk", "types": ["park", "point_of_interest", "establishment"], "rating": 5, "user_ratings_total": 1}, "ChIJRzyql6sbdkgRgiu-AavapHA": {"geometry": {"location": {"lat": 51.5185378, "lng": -0.178457}, "viewport": {"northeast": {"lat": 51.51990033029151, "lng": -0.177097569708498}, "southwest": {"lat": 51.51720236970851, "lng": -0.1797955302915021}}}, "name": "The Savanna Paddington Cart", "place_id": "ChIJRzyql6sbdkgRgiu-AavapHA", "types": ["food", "health", "point_of_interest", "store", "establishment"], "rating": 4.8, "user_ratings_total": 5}, "ChIJzdKj8v0bdkgRDLxGhEkY80w": {"geometry": {"location": {"lat": 51.5190231, "lng": -0.1793166}, "viewport": {"northeast": {"lat": 51.5203410302915, "lng": -0.178006319708498}, "southwest": {"lat": 51.5176430697085, "lng": -0.180704280291502}}}, "name": "Brompton Bike Hire", "place_id": "ChIJzdKj8v0bdkgRDLxGhEkY80w", "types": ["point_of_interest", "establishment"]}, "ChIJZydCxq4adkgRbEhbPr73tDE": {"geometry": {"location": {"lat": 51.52157560004345, "lng": -0.1812067998414898}, "viewport": {"northeast": {"lat": 51.52292458029149, "lng": -0.179857819708498}, "southwest": {"lat": 51.5202266197085, "lng": -0.182555780291502}}}, "name": "3 Warwick Ave", "place_id": "ChIJZydCxq4adkgRbEhbPr73tDE", "types": ["route"]}, "ChIJK5kHGRUbdkgRLR7aKNLIu84": {"geometry": {"location": {"lat": 51.52211539999999, "lng": -0.180809}, "viewport": {"northeast": {"lat": 51.5235148302915, "lng": -0.179533719708498}, "southwest": {"lat": 51.5208168697085, "lng": -0.182231680291502}}}, "name": "John Masefield Blue Plaque", "place_id": "ChIJK5kHGRUbdkgRLR7aKNLIu84", "types": ["point_of_interest", "establishment"], "rating": 5, "user_ratings_total": 1}, "ChIJXSiyuK4adkgRz-86lwvdc3o": {"geometry": {"location": {"lat": 51.521385, "lng": -0.1810940000000001}, "viewport": {"northeast": {"lat": 51.5227583302915, "lng": -0.179700769708498}, "southwest": {"lat": 51.5200603697085, "lng": -0.1823987302915021}}}, "name": "Blomfield Road (Stop J)", "place_id": "ChIJXSiyuK4adkgRz-86lwvdc3o", "types": ["transit_station", "point_of_interest", "establishment"]}, "ChIJTYdouK4adkgRB9nCEwWMwmA": {"geometry": {"location": {"lat": 51.52138890000001, "lng": -0.1813889}, "viewport": {"northeast": {"lat": 51.5228067802915, "lng": -0.179914219708498}, "southwest": {"lat": 51.5201088197085, "lng": -0.182612180291502}}}, "name": "Rembrandt Gardens Little Venice", "place_id": "ChIJTYdouK4adkgRB9nCEwWMwmA", "types": ["park", "tourist_attraction", "point_of_interest", "establishment"], "rating": 4.5, "user_ratings_total": 1334}, "ChIJLeXTvK4adkgRHHxNzY1GH_c": {"geometry": {"location": {"lat": 51.52079520890926, "lng": -0.1809438770347387}, "viewport": {"northeast": {"lat": 51.5221457802915, "lng": -0.179597069708498}, "southwest": {"lat": 51.5194478197085, "lng": -0.182295030291502}}}, "name": "Harrow Road", "place_id": "ChIJLeXTvK4adkgRHHxNzY1GH_c", "types": ["route"]}, "ChIJgwg9oa4adkgR7UG60ZgEMXE": {"geometry": {"location": {"lat": 51.5204183, "lng": -0.1808170000000001}, "viewport": {"northeast": {"lat": 51.5220069302915, "lng": -0.179426119708498}, "southwest": {"lat": 51.5193089697085, "lng": -0.182124080291502}}}, "name": "Nissan Design Europe", "place_id": "ChIJgwg9oa4adkgR7UG60ZgEMXE", "types": ["point_of_interest", "establishment"], "rating": 4.4, "user_ratings_total": 7}, "ChIJpSRbra4adkgR0gcCN9JBgtI": {"geometry": {"location": {"lat": 51.5208021, "lng": -0.1813928}, "viewport": {"northeast": {"lat": 51.52210443029149, "lng": -0.180113019708498}, "southwest": {"lat": 51.51940646970849, "lng": -0.182810980291502}}}, "name": "Steven Curic", "place_id": "ChIJpSRbra4adkgR0gcCN9JBgtI", "types": ["health", "point_of_interest", "establishment"]}, "ChIJAQC0uq4adkgRntv0Xbmdp3M": {"geometry": {"location": {"lat": 51.5208021, "lng": -0.1813928}, "viewport": {"northeast": {"lat": 51.52210443029149, "lng": -0.180113019708498}, "southwest": {"lat": 51.51940646970849, "lng": -0.182810980291502}}}, "name": "Sarah Walker", "place_id": "ChIJAQC0uq4adkgRntv0Xbmdp3M", "types": ["health", "point_of_interest", "establishment"]}, "ChIJAQC0uq4adkgRXfWguBigHLI": {"geometry": {"location": {"lat": 51.5208021, "lng": -0.1813928}, "viewport": {"northeast": {"lat": 51.52210443029149, "lng": -0.180113019708498}, "southwest": {"lat": 51.51940646970849, "lng": -0.182810980291502}}}, "name": "Nicholas Opyrchal", "place_id": "ChIJAQC0uq4adkgRXfWguBigHLI", "types": ["health", "point_of_interest", "establishment"]}, "ChIJAQC0uq4adkgR6nKMS9kJP64": {"geometry": {"location": {"lat": 51.5208021, "lng": -0.1813928}, "viewport": {"northeast": {"lat": 51.52210443029149, "lng": -0.180113019708498}, "southwest": {"lat": 51.51940646970849, "lng": -0.182810980291502}}}, "name": "Nurse The Soul", "place_id": "ChIJAQC0uq4adkgR6nKMS9kJP64", "types": ["health", "point_of_interest", "establishment"]}, "ChIJs-gEoa4adkgR25m_z-MneGY": {"geometry": {"location": {"lat": 51.5203175, "lng": -0.1809455}, "viewport": {"northeast": {"lat": 51.5219056802915, "lng": -0.179533669708498}, "southwest": {"lat": 51.5192077197085, "lng": -0.182231630291502}}}, "name": "The Rotunda", "place_id": "ChIJs-gEoa4adkgR25m_z-MneGY", "types": ["restaurant", "food", "point_of_interest", "establishment"], "rating": 3.3, "user_ratings_total": 8}, "ChIJW7iTr64adkgRByRbLh6EP84": {"geometry": {"location": {"lat": 51.5208322, "lng": -0.1813831}, "viewport": {"northeast": {"lat": 51.5221212802915, "lng": -0.180111719708498}, "southwest": {"lat": 51.5194233197085, "lng": -0.182809680291502}}}, "name": "Dwight Turner Counselling", "place_id": "ChIJW7iTr64adkgRByRbLh6EP84", "types": ["health", "point_of_interest", "establishment"]}, "ChIJpSRbra4adkgRFEyAbNPMDXA": {"geometry": {"location": {"lat": 51.5208322, "lng": -0.1813831}, "viewport": {"northeast": {"lat": 51.5221212802915, "lng": -0.180111719708498}, "southwest": {"lat": 51.5194233197085, "lng": -0.182809680291502}}}, "name": "Psychology 'Outside The Box'", "place_id": "ChIJpSRbra4adkgRFEyAbNPMDXA", "types": ["health", "point_of_interest", "establishment"]}, "ChIJ_eTMKpcPdkgRpjEjbYtrXG0": {"geometry": {"location": {"lat": 51.5208322, "lng": -0.1813831}, "viewport": {"northeast": {"lat": 51.5221212802915, "lng": -0.180111719708498}, "southwest": {"lat": 51.5194233197085, "lng": -0.182809680291502}}}, "name": "Rosie Dashwood Dipl. Psych, Adv Dipl. Psych, UKCP.", "place_id": "ChIJ_eTMKpcPdkgRpjEjbYtrXG0", "types": ["health", "point_of_interest", "establishment"]}, "ChIJqzdjm7MadkgR8igIG32uGeo": {"geometry": {"location": {"lat": 51.5205322, "lng": -0.1802238}, "viewport": {"northeast": {"lat": 51.5219689302915, "lng": -0.178730369708498}, "southwest": {"lat": 51.5192709697085, "lng": -0.181428330291502}}}, "name": "Bespoke Boating Solutions Ltd", "place_id": "ChIJqzdjm7MadkgR8igIG32uGeo", "types": ["storage", "point_of_interest", "establishment"]}, "ChIJAQC0uq4adkgRHO75DT4BAIo": {"geometry": {"location": {"lat": 51.5202047, "lng": -0.1811019}, "viewport": {"northeast": {"lat": 51.5215600302915, "lng": -0.179743719708498}, "southwest": {"lat": 51.5188620697085, "lng": -0.182441680291502}}}, "name": "Richard Turner", "place_id": "ChIJAQC0uq4adkgRHO75DT4BAIo", "types": ["health", "point_of_interest", "establishment"]}, "ChIJB1lEpa4adkgRH-3izMoQs9o": {"geometry": {"location": {"lat": 51.5208322, "lng": -0.1813831}, "viewport": {"northeast": {"lat": 51.5221212802915, "lng": -0.180111719708498}, "southwest": {"lat": 51.5194233197085, "lng": -0.182809680291502}}}, "name": "Maida Vale Counselling", "place_id": "ChIJB1lEpa4adkgRH-3izMoQs9o", "types": ["health", "point_of_interest", "establishment"]}, "ChIJdybLUakadkgRgsPjCnGEddU": {"geometry": {"location": {"lat": 51.52083270000001, "lng": -0.1813728}, "viewport": {"northeast": {"lat": 51.5221200802915, "lng": -0.1801036697084979}, "southwest": {"lat": 51.5194221197085, "lng": -0.182801630291502}}}, "name": "Ulla Andrews Counselling & Psychotherapy Practice", "place_id": "ChIJdybLUakadkgRgsPjCnGEddU", "types": ["health", "point_of_interest", "establishment"]}, "ChIJy43c3AYbdkgRkmtHzhUyRkw": {"geometry": {"location": {"lat": 51.5206297, "lng": -0.1813673}, "viewport": {"northeast": {"lat": 51.52199298029149, "lng": -0.179996819708498}, "southwest": {"lat": 51.5192950197085, "lng": -0.182694780291502}}}, "name": "Bogdan Micu", "place_id": "ChIJy43c3AYbdkgRkmtHzhUyRkw", "types": ["health", "point_of_interest", "establishment"], "rating": 5, "user_ratings_total": 1}, "ChIJ__9Lpa4adkgRrKC6hUXq7dU": {"geometry": {"location": {"lat": 51.52076109999999, "lng": -0.1813925}, "viewport": {"northeast": {"lat": 51.52207458029149, "lng": -0.180096869708498}, "southwest": {"lat": 51.5193766197085, "lng": -0.182794830291502}}}, "name": "Counselling and psychotherapy", "place_id": "ChIJ__9Lpa4adkgRrKC6hUXq7dU", "types": ["health", "point_of_interest", "establishment"]}, "ChIJ__9Lpa4adkgRj_7QInGtvyg": {"geometry": {"location": {"lat": 51.52076109999999, "lng": -0.1813925}, "viewport": {"northeast": {"lat": 51.52207458029149, "lng": -0.180096869708498}, "southwest": {"lat": 51.5193766197085, "lng": -0.182794830291502}}}, "name": "Michelle Matthews", "place_id": "ChIJ__9Lpa4adkgRj_7QInGtvyg", "types": ["health", "point_of_interest", "establishment"]}, "ChIJ__9Lpa4adkgRHqPp2FXi6jg": {"geometry": {"location": {"lat": 51.52076109999999, "lng": -0.1813925}, "viewport": {"northeast": {"lat": 51.52207458029149, "lng": -0.180096869708498}, "southwest": {"lat": 51.5193766197085, "lng": -0.182794830291502}}}, "name": "Viviana Esse", "place_id": "ChIJ__9Lpa4adkgRHqPp2FXi6jg", "types": ["health", "point_of_interest", "establishment"]}, "ChIJ__9Lpa4adkgRTaCpzakh3DM": {"geometry": {"location": {"lat": 51.52076109999999, "lng": -0.1813925}, "viewport": {"northeast": {"lat": 51.52207458029149, "lng": -0.180096869708498}, "southwest": {"lat": 51.5193766197085, "lng": -0.182794830291502}}}, "name": "The Sacred Voice Therapy", "place_id": "ChIJ__9Lpa4adkgRTaCpzakh3DM", "types": ["health", "point_of_interest", "establishment"]}, "ChIJu6RDLvsbdkgRqHbDdem52v0": {"geometry": {"location": {"lat": 51.52076109999999, "lng": -0.1813925}, "viewport": {"northeast": {"lat": 51.52207458029149, "lng": -0.180096869708498}, "southwest": {"lat": 51.5193766197085, "lng": -0.182794830291502}}}, "name": "CCPE", "place_id": "ChIJu6RDLvsbdkgRqHbDdem52v0", "types": ["health", "point_of_interest", "establishment"]}, "ChIJ0diRq-XVdUgRGvcmURTJW48": {"geometry": {"location": {"lat": 51.52076109999999, "lng": -0.1813925}, "viewport": {"northeast": {"lat": 51.52207458029149, "lng": -0.180096869708498}, "southwest": {"lat": 51.5193766197085, "lng": -0.182794830291502}}}, "name": "Tony Boorman Psychotherapist", "place_id": "ChIJ0diRq-XVdUgRGvcmURTJW48", "types": ["health", "point_of_interest", "establishment"]}, "ChIJtabWniIbdkgRRhMv5Bjlgls": {"geometry": {"location": {"lat": 51.52076109999999, "lng": -0.1813925}, "viewport": {"northeast": {"lat": 51.52207458029149, "lng": -0.180096869708498}, "southwest": {"lat": 51.5193766197085, "lng": -0.182794830291502}}}, "name": "The Trauma Practice", "place_id": "ChIJtabWniIbdkgRRhMv5Bjlgls", "types": ["health", "point_of_interest", "establishment"]}, "ChIJ__9Lpa4adkgRG-3EDQOzULE": {"geometry": {"location": {"lat": 51.52076109999999, "lng": -0.1813925}, "viewport": {"northeast": {"lat": 51.52207458029149, "lng": -0.180096869708498}, "southwest": {"lat": 51.5193766197085, "lng": -0.182794830291502}}}, "name": "Abigail Peters", "place_id": "ChIJ__9Lpa4adkgRG-3EDQOzULE", "types": ["health", "point_of_interest", "establishment"]}, "ChIJCeoziNQadkgRxCsNSH2xd3k": {"geometry": {"location": {"lat": 51.52076109999999, "lng": -0.1813925}, "viewport": {"northeast": {"lat": 51.52207458029149, "lng": -0.180096869708498}, "southwest": {"lat": 51.5193766197085, "lng": -0.182794830291502}}}, "name": "Feel Supported", "place_id": "ChIJCeoziNQadkgRxCsNSH2xd3k", "types": ["health", "point_of_interest", "establishment"]}, "ChIJAQC0uq4adkgR8iM2hOSYG8g": {"geometry": {"location": {"lat": 51.5208021, "lng": -0.1813928}, "viewport": {"northeast": {"lat": 51.52210443029149, "lng": -0.180113019708498}, "southwest": {"lat": 51.51940646970849, "lng": -0.182810980291502}}}, "name": "Edward Hammond", "place_id": "ChIJAQC0uq4adkgR8iM2hOSYG8g", "types": ["health", "point_of_interest", "establishment"]}, "ChIJAQC0uq4adkgRuDteDjXiqzg": {"geometry": {"location": {"lat": 51.5208021, "lng": -0.1813928}, "viewport": {"northeast": {"lat": 51.52210443029149, "lng": -0.180113019708498}, "southwest": {"lat": 51.51940646970849, "lng": -0.182810980291502}}}, "name": "Graham Mummery", "place_id": "ChIJAQC0uq4adkgRuDteDjXiqzg", "types": ["health", "point_of_interest", "establishment"]}, "ChIJAQC0uq4adkgR_ko2sPBuDec": {"geometry": {"location": {"lat": 51.5208021, "lng": -0.1813928}, "viewport": {"northeast": {"lat": 51.52210443029149, "lng": -0.180113019708498}, "southwest": {"lat": 51.51940646970849, "lng": -0.182810980291502}}}, "name": "Fiona Llewellyn", "place_id": "ChIJAQC0uq4adkgR_ko2sPBuDec", "types": ["health", "point_of_interest", "establishment"]}, "ChIJT-K9o8gbdkgRvpkoy6FH7Jw": {"geometry": {"location": {"lat": 51.52081279999999, "lng": -0.1813871}, "viewport": {"northeast": {"lat": 51.52210978029149, "lng": -0.180110169708498}, "southwest": {"lat": 51.51941181970849, "lng": -0.182808130291502}}}, "name": "Lynn Somerfield", "place_id": "ChIJT-K9o8gbdkgRvpkoy6FH7Jw", "types": ["health", "point_of_interest", "establishment"]}, "ChIJmSMxrOQbdkgRNpVW8XfTKu0": {"geometry": {"location": {"lat": 51.52091469999999, "lng": -0.1812912}, "viewport": {"northeast": {"lat": 51.52216478029149, "lng": -0.1800703197084979}, "southwest": {"lat": 51.5194668197085, "lng": -0.182768280291502}}}, "name": "CCPE", "place_id": "ChIJmSMxrOQbdkgRNpVW8XfTKu0", "types": ["health", "point_of_interest", "establishment"]}, "ChIJvSRbra4adkgRbtTqNgCgots": {"geometry": {"location": {"lat": 51.5208283, "lng": -0.1813872}, "viewport": {"northeast": {"lat": 51.5221191802915, "lng": -0.180113519708498}, "southwest": {"lat": 51.5194212197085, "lng": -0.182811480291502}}}, "name": "Jared Green Psychotherapy", "place_id": "ChIJvSRbra4adkgRbtTqNgCgots", "types": ["health", "point_of_interest", "establishment"]}, "ChIJLat62U8bdkgRkqnPOCwJxUo": {"geometry": {"location": {"lat": 51.5210143, "lng": -0.1805349}, "viewport": {"northeast": {"lat": 51.5223728302915, "lng": -0.179228119708498}, "southwest": {"lat": 51.5196748697085, "lng": -0.181926080291502}}}, "name": "\u05d5\u05e0\u05e6\u05d9\u05d4 \u05d4\u05e7\u05d8\u05e0\u05d4", "place_id": "ChIJLat62U8bdkgRkqnPOCwJxUo", "types": ["point_of_interest", "establishment"], "rating": 4.5, "user_ratings_total": 4}, "ChIJ-SHGTeEbdkgRqyqk6ZIv3l0": {"geometry": {"location": {"lat": 51.520847, "lng": -0.181423}, "viewport": {"northeast": {"lat": 51.5221376302915, "lng": -0.180149619708498}, "southwest": {"lat": 51.5194396697085, "lng": -0.182847580291502}}}, "name": "Karen J Williams, MA, Dipl Psych, MBACP, UKCP Reg", "place_id": "ChIJ-SHGTeEbdkgRqyqk6ZIv3l0", "types": ["health", "point_of_interest", "establishment"]}, "ChIJi1qT-vMbdkgR57GjSkcrToM": {"geometry": {"location": {"lat": 51.520798, "lng": -0.181456}, "viewport": {"northeast": {"lat": 51.52210853029149, "lng": -0.180156869708498}, "southwest": {"lat": 51.5194105697085, "lng": -0.182854830291502}}}, "name": "Mandy Gosling", "place_id": "ChIJi1qT-vMbdkgR57GjSkcrToM", "types": ["health", "point_of_interest", "establishment"]}, "ChIJIcCXm64adkgR-QmB8CpRzPg": {"geometry": {"location": {"lat": 51.5205322, "lng": -0.1802238}, "viewport": {"northeast": {"lat": 51.5219689302915, "lng": -0.178730369708498}, "southwest": {"lat": 51.5192709697085, "lng": -0.181428330291502}}}, "name": "Stone Wharf", "place_id": "ChIJIcCXm64adkgR-QmB8CpRzPg", "types": ["park", "tourist_attraction", "point_of_interest", "establishment"], "rating": 4.7, "user_ratings_total": 6}, "ChIJidebVusbdkgRyQzChSEu2kU": {"geometry": {"location": {"lat": 51.5209983, "lng": -0.1814034}, "viewport": {"northeast": {"lat": 51.5222363302915, "lng": -0.180187169708498}, "southwest": {"lat": 51.5195383697085, "lng": -0.182885130291502}}}, "name": "The BoAt Pod", "place_id": "ChIJidebVusbdkgRyQzChSEu2kU", "types": ["electronics_store", "home_goods_store", "point_of_interest", "store", "establishment"]}, "ChIJyyCl0wEbdkgRr8UefHDhv-8": {"geometry": {"location": {"lat": 51.52028240000001, "lng": -0.1803594}, "viewport": {"northeast": {"lat": 51.52163138029151, "lng": -0.179010419708498}, "southwest": {"lat": 51.51893341970851, "lng": -0.181708380291502}}}, "name": "The Floating Classroom - Barge", "place_id": "ChIJyyCl0wEbdkgRr8UefHDhv-8", "types": ["point_of_interest", "establishment"]}, "ChIJGxXHDhAbdkgRzbUGhxMbFAI": {"geometry": {"location": {"lat": 51.5202092, "lng": -0.1804461}, "viewport": {"northeast": {"lat": 51.52155818029149, "lng": -0.179097119708498}, "southwest": {"lat": 51.5188602197085, "lng": -0.181795080291502}}}, "name": "London Paddington Under the Bridge", "place_id": "ChIJGxXHDhAbdkgRzbUGhxMbFAI", "types": ["point_of_interest", "establishment"]}, "ChIJm1zqHKwadkgReoa0NuSHJhU": {"geometry": {"location": {"lat": 51.51993875585998, "lng": -0.1814019183039169}, "viewport": {"northeast": {"lat": 51.5212593802915, "lng": -0.1791544}, "southwest": {"lat": 51.5185614197085, "lng": -0.1836316}}}, "name": "Westway", "place_id": "ChIJm1zqHKwadkgReoa0NuSHJhU", "types": ["route"]}, "ChIJJ_aKO6wadkgR7MnZKyXovk0": {"geometry": {"location": {"lat": 51.51929699999999, "lng": -0.180438}, "viewport": {"northeast": {"lat": 51.5206459302915, "lng": -0.179087619708498}, "southwest": {"lat": 51.5179479697085, "lng": -0.181785580291502}}}, "name": "Pearl Liang", "place_id": "ChIJJ_aKO6wadkgR7MnZKyXovk0", "types": ["bar", "restaurant", "food", "point_of_interest", "establishment"], "rating": 4.1, "user_ratings_total": 958}, "ChIJcXpCN6wadkgR5_jBnvyiSHY": {"geometry": {"location": {"lat": 51.5198271, "lng": -0.1804949}, "viewport": {"northeast": {"lat": 51.5210361802915, "lng": -0.179185919708498}, "southwest": {"lat": 51.5183382197085, "lng": -0.181883880291502}}}, "name": "Kingfisher Plc", "place_id": "ChIJcXpCN6wadkgR5_jBnvyiSHY", "types": ["point_of_interest", "establishment"], "rating": 4.2, "user_ratings_total": 33}, "ChIJF2iWGKwadkgRSZ6nIDwjaOg": {"geometry": {"location": {"lat": 51.519735, "lng": -0.1801371}, "viewport": {"northeast": {"lat": 51.5209705802915, "lng": -0.178962419708498}, "southwest": {"lat": 51.5182726197085, "lng": -0.181660380291502}}}, "name": "Massis", "place_id": "ChIJF2iWGKwadkgRSZ6nIDwjaOg", "types": ["bar", "restaurant", "food", "point_of_interest", "establishment"], "rating": 4, "user_ratings_total": 429}, "ChIJWUFkPKwadkgRrcbeMpixQuc": {"geometry": {"location": {"lat": 51.5196371, "lng": -0.1807757}, "viewport": {"northeast": {"lat": 51.52094118029149, "lng": -0.179281019708498}, "southwest": {"lat": 51.51824321970849, "lng": -0.181978980291502}}}, "name": "Sainsbury's Local", "place_id": "ChIJWUFkPKwadkgRrcbeMpixQuc", "types": ["supermarket", "convenience_store", "grocery_or_supermarket", "food", "point_of_interest", "store", "establishment"], "rating": 3.8, "user_ratings_total": 29}, "ChIJK95jIqwadkgRmehltfSamdQ": {"geometry": {"location": {"lat": 51.5196482, "lng": -0.1806501}, "viewport": {"northeast": {"lat": 51.5209467302915, "lng": -0.179218219708498}, "southwest": {"lat": 51.5182487697085, "lng": -0.181916180291502}}}, "name": "L&T infotech Ltd", "place_id": "ChIJK95jIqwadkgRmehltfSamdQ", "types": ["point_of_interest", "establishment"], "rating": 5, "user_ratings_total": 1}, "ChIJ__-_GKwadkgRKFycCTy-GPM": {"geometry": {"location": {"lat": 51.5196482, "lng": -0.1806501}, "viewport": {"northeast": {"lat": 51.52099718029149, "lng": -0.179301119708498}, "southwest": {"lat": 51.5182992197085, "lng": -0.181999080291502}}}, "name": "Splunk", "place_id": "ChIJ__-_GKwadkgRKFycCTy-GPM", "types": ["point_of_interest", "establishment"], "rating": 4.9, "user_ratings_total": 40}, "ChIJ3cMhN6wadkgRoTDuBQLh1sQ": {"geometry": {"location": {"lat": 51.5196482, "lng": -0.1806501}, "viewport": {"northeast": {"lat": 51.5209467302915, "lng": -0.179218219708498}, "southwest": {"lat": 51.5182487697085, "lng": -0.181916180291502}}}, "name": "Blenheim Capital Services", "place_id": "ChIJ3cMhN6wadkgRoTDuBQLh1sQ", "types": ["finance", "point_of_interest", "establishment"]}, "ChIJ3cMhN6wadkgRDKSb6LFyE7k": {"geometry": {"location": {"lat": 51.5194339, "lng": -0.1807331}, "viewport": {"northeast": {"lat": 51.5207823302915, "lng": -0.179260369708498}, "southwest": {"lat": 51.5180843697085, "lng": -0.181958330291502}}}, "name": "Wipro London", "place_id": "ChIJ3cMhN6wadkgRDKSb6LFyE7k", "types": ["point_of_interest", "establishment"], "rating": 4.4, "user_ratings_total": 49}, "ChIJSy-E-qsadkgRTMC4K3AbNuk": {"geometry": {"location": {"lat": 51.5196418, "lng": -0.18054}, "viewport": {"northeast": {"lat": 51.52080188029149, "lng": -0.1791862197084979}, "southwest": {"lat": 51.5181039197085, "lng": -0.181884180291502}}}, "name": "Sasol UK", "place_id": "ChIJSy-E-qsadkgRTMC4K3AbNuk", "types": ["point_of_interest", "establishment"], "rating": 4, "user_ratings_total": 2}, "ChIJWUFkPKwadkgR5F8dwT2TCyc": {"geometry": {"location": {"lat": 51.5194535, "lng": -0.1804245}, "viewport": {"northeast": {"lat": 51.5208025302915, "lng": -0.179085819708498}, "southwest": {"lat": 51.5181045697085, "lng": -0.181783780291502}}}, "name": "Poncho 8", "place_id": "ChIJWUFkPKwadkgR5F8dwT2TCyc", "types": ["restaurant", "food", "point_of_interest", "establishment"], "rating": 3.7, "user_ratings_total": 102}, "ChIJkXHeFqwadkgRj34BC0tvM6g": {"geometry": {"location": {"lat": 51.5192853, "lng": -0.1809994}, "viewport": {"northeast": {"lat": 51.5206397802915, "lng": -0.179650519708498}, "southwest": {"lat": 51.5179418197085, "lng": -0.182348480291502}}}, "name": "Time2Work London Office", "place_id": "ChIJkXHeFqwadkgRj34BC0tvM6g", "types": ["point_of_interest", "establishment"]}, "ChIJ3e2TxqcEdkgRFiPB_xP9uOw": {"geometry": {"location": {"lat": 51.519543, "lng": -0.1814819}, "viewport": {"northeast": {"lat": 51.52074983029149, "lng": -0.180298319708498}, "southwest": {"lat": 51.5180518697085, "lng": -0.182996280291502}}}, "name": "SwiftKey", "place_id": "ChIJ3e2TxqcEdkgRFiPB_xP9uOw", "types": ["point_of_interest", "establishment"], "rating": 4.5, "user_ratings_total": 12}, "ChIJrR3PBawadkgRVexbjsabaI8": {"geometry": {"location": {"lat": 51.5194444, "lng": -0.1813889}, "viewport": {"northeast": {"lat": 51.5207004802915, "lng": -0.180251819708498}, "southwest": {"lat": 51.5180025197085, "lng": -0.182949780291502}}}, "name": "Microsoft London", "place_id": "ChIJrR3PBawadkgRVexbjsabaI8", "types": ["point_of_interest", "establishment"], "rating": 4.5, "user_ratings_total": 502}, "ChIJN70AD6wadkgRlLY2eK1iu8I": {"geometry": {"location": {"lat": 51.5194486, "lng": -0.1814292}, "viewport": {"northeast": {"lat": 51.52070263029149, "lng": -0.180271969708498}, "southwest": {"lat": 51.5180046697085, "lng": -0.182969930291502}}}, "name": "Kaspersky Lab UK", "place_id": "ChIJN70AD6wadkgRlLY2eK1iu8I", "types": ["point_of_interest", "establishment"], "rating": 3.1, "user_ratings_total": 28}, "ChIJx78EP6wadkgRpAlWJP_Igrk": {"geometry": {"location": {"lat": 51.51945549999999, "lng": -0.1814409}, "viewport": {"northeast": {"lat": 51.5207060802915, "lng": -0.180277819708498}, "southwest": {"lat": 51.5180081197085, "lng": -0.182975780291502}}}, "name": "V-Nova Ltd", "place_id": "ChIJx78EP6wadkgRpAlWJP_Igrk", "types": ["point_of_interest", "establishment"], "rating": 4.4, "user_ratings_total": 10}, "ChIJAYSxrlEbdkgRTh5WZuC-JyE": {"geometry": {"location": {"lat": 51.5194517, "lng": -0.1814489}, "viewport": {"northeast": {"lat": 51.5207041802915, "lng": -0.180281819708498}, "southwest": {"lat": 51.5180062197085, "lng": -0.182979780291502}}}, "name": "TTM Healthcare", "place_id": "ChIJAYSxrlEbdkgRTh5WZuC-JyE", "types": ["point_of_interest", "establishment"], "rating": 4.2, "user_ratings_total": 5}, "ChIJBUWckX0QdkgRqqjRfyFeraI": {"geometry": {"location": {"lat": 51.5195132, "lng": -0.1815902}, "viewport": {"northeast": {"lat": 51.5207349302915, "lng": -0.180352469708498}, "southwest": {"lat": 51.5180369697085, "lng": -0.183050430291502}}}, "name": "RMF Studio", "place_id": "ChIJBUWckX0QdkgRqqjRfyFeraI", "types": ["point_of_interest", "establishment"]}, "ChIJMThTrrIadkgRiuUjevEiQkE": {"geometry": {"location": {"lat": 51.5194852, "lng": -0.1816408}, "viewport": {"northeast": {"lat": 51.52072098029149, "lng": -0.180377769708498}, "southwest": {"lat": 51.51802301970849, "lng": -0.183075730291502}}}, "name": "Morison KSi Limited", "place_id": "ChIJMThTrrIadkgRiuUjevEiQkE", "types": ["point_of_interest", "establishment"], "rating": 4.3, "user_ratings_total": 3}, "ChIJSXCQNqwadkgRZzuAQGZxCus": {"geometry": {"location": {"lat": 51.5194094, "lng": -0.1804329}, "viewport": {"northeast": {"lat": 51.52075833029151, "lng": -0.179086319708498}, "southwest": {"lat": 51.51806036970851, "lng": -0.181784280291502}}}, "name": "Tossed Sheldon Square (Paddington)", "place_id": "ChIJSXCQNqwadkgRZzuAQGZxCus", "types": ["meal_takeaway", "restaurant", "food", "point_of_interest", "establishment"], "rating": 4.1, "user_ratings_total": 72}, "ChIJBcl3TGSo2EcRWvBstn0Bks8": {"geometry": {"location": {"lat": 51.5195792, "lng": -0.1817265}, "viewport": {"northeast": {"lat": 51.5207679802915, "lng": -0.180420619708498}, "southwest": {"lat": 51.5180700197085, "lng": -0.183118580291502}}}, "name": "Roofora Ltd", "place_id": "ChIJBcl3TGSo2EcRWvBstn0Bks8", "types": ["real_estate_agency", "lodging", "point_of_interest", "establishment"], "rating": 5, "user_ratings_total": 2}, "ChIJfeYVvdIadkgRTuXSWct53l0": {"geometry": {"location": {"lat": 51.519549, "lng": -0.1817297}, "viewport": {"northeast": {"lat": 51.5207528802915, "lng": -0.180422219708498}, "southwest": {"lat": 51.5180549197085, "lng": -0.183120180291502}}}, "name": "Zedra", "place_id": "ChIJfeYVvdIadkgRTuXSWct53l0", "types": ["finance", "point_of_interest", "establishment"]}, "ChIJNWPTitQadkgRyQb75253svA": {"geometry": {"location": {"lat": 51.519549, "lng": -0.1817297}, "viewport": {"northeast": {"lat": 51.5207528802915, "lng": -0.180422219708498}, "southwest": {"lat": 51.5180549197085, "lng": -0.183120180291502}}}, "name": "Healthcare at Home Ltd", "place_id": "ChIJNWPTitQadkgRyQb75253svA", "types": ["health", "point_of_interest", "establishment"], "rating": 2, "user_ratings_total": 25}, "ChIJ3zSK_rYbdkgR25T8YLK3xeo": {"geometry": {"location": {"lat": 51.519549, "lng": -0.1817297}, "viewport": {"northeast": {"lat": 51.5207528802915, "lng": -0.180422219708498}, "southwest": {"lat": 51.5180549197085, "lng": -0.183120180291502}}}, "name": "ThoughtSpark", "place_id": "ChIJ3zSK_rYbdkgR25T8YLK3xeo", "types": ["point_of_interest", "establishment"]}, "ChIJJb17UFkPdkgRN8GdAjPXTa4": {"geometry": {"location": {"lat": 51.519549, "lng": -0.18173}, "viewport": {"northeast": {"lat": 51.5207528802915, "lng": -0.180422369708498}, "southwest": {"lat": 51.5180549197085, "lng": -0.183120330291502}}}, "name": "StoreTech Ltd", "place_id": "ChIJJb17UFkPdkgRN8GdAjPXTa4", "types": ["point_of_interest", "establishment"]}, "ChIJcXpCN6wadkgRnCV4RM182Rk": {"geometry": {"location": {"lat": 51.51971469999999, "lng": -0.1808107}, "viewport": {"northeast": {"lat": 51.5209799802915, "lng": -0.179298519708498}, "southwest": {"lat": 51.5182820197085, "lng": -0.181996480291502}}}, "name": "Iranian Jewish Centre", "place_id": "ChIJcXpCN6wadkgRnCV4RM182Rk", "types": ["point_of_interest", "establishment"]}, "ChIJu1__oBgbdkgRM1Ag3G6YcU8": {"geometry": {"location": {"lat": 51.5196674, "lng": -0.1807363}, "viewport": {"northeast": {"lat": 51.5209563302915, "lng": -0.179261319708498}, "southwest": {"lat": 51.5182583697085, "lng": -0.181959280291502}}}, "name": "Sainsbury's Bank ATM", "place_id": "ChIJu1__oBgbdkgRM1Ag3G6YcU8", "types": ["atm", "finance", "point_of_interest", "establishment"]}, "ChIJY9yBIGQbdkgR4_nlqeQB-2Q": {"geometry": {"location": {"lat": 51.5196482, "lng": -0.1806501}, "viewport": {"northeast": {"lat": 51.5209467302915, "lng": -0.179218219708498}, "southwest": {"lat": 51.5182487697085, "lng": -0.181916180291502}}}, "name": "Nokia", "place_id": "ChIJY9yBIGQbdkgR4_nlqeQB-2Q", "types": ["point_of_interest", "establishment"], "rating": 3.7, "user_ratings_total": 3}, "ChIJt049I6wadkgRt1SrPr2NS8U": {"geometry": {"location": {"lat": 51.51955, "lng": -0.1806376}, "viewport": {"northeast": {"lat": 51.5208975802915, "lng": -0.179211969708498}, "southwest": {"lat": 51.5181996197085, "lng": -0.181909930291502}}}, "name": "Prudential Paddington", "place_id": "ChIJt049I6wadkgRt1SrPr2NS8U", "types": ["insurance_agency", "point_of_interest", "establishment"], "rating": 4.7, "user_ratings_total": 9}, "ChIJccloX6wadkgRmbLGaJ8rM7c": {"geometry": {"location": {"lat": 51.5194088, "lng": -0.1811503}, "viewport": {"northeast": {"lat": 51.5206828302915, "lng": -0.180132069708498}, "southwest": {"lat": 51.5179848697085, "lng": -0.182830030291502}}}, "name": "Mander Duffill", "place_id": "ChIJccloX6wadkgRmbLGaJ8rM7c", "types": ["accounting", "finance", "point_of_interest", "establishment"]}, "ChIJq6pq9KsadkgRNUl4bJepTW4": {"geometry": {"location": {"lat": 51.5194029, "lng": -0.1811742}, "viewport": {"northeast": {"lat": 51.5206798802915, "lng": -0.180144019708498}, "southwest": {"lat": 51.5179819197085, "lng": -0.182841980291502}}}, "name": "One Kingdom Street", "place_id": "ChIJq6pq9KsadkgRNUl4bJepTW4", "types": ["real_estate_agency", "point_of_interest", "establishment"], "rating": 4, "user_ratings_total": 1}, "ChIJ5dII8A8bdkgRkXos6fPtm98": {"geometry": {"location": {"lat": 51.5197741, "lng": -0.1804912}, "viewport": {"northeast": {"lat": 51.5210096802915, "lng": -0.179185919708498}, "southwest": {"lat": 51.5183117197085, "lng": -0.181883880291502}}}, "name": "wagamama", "place_id": "ChIJ5dII8A8bdkgRkXos6fPtm98", "types": ["restaurant", "food", "point_of_interest", "establishment"], "rating": 5, "user_ratings_total": 22}, "ChIJf0c5kA8bdkgRXK2ZwcRnEhA": {"geometry": {"location": {"lat": 51.5197299, "lng": -0.1804268}, "viewport": {"northeast": {"lat": 51.52098743029151, "lng": -0.179084719708498}, "southwest": {"lat": 51.51828946970851, "lng": -0.181782680291502}}}, "name": "digital company", "place_id": "ChIJf0c5kA8bdkgRXK2ZwcRnEhA", "types": ["point_of_interest", "establishment"]}, "ChIJ277rI6wadkgREvPZFB-j__Q": {"geometry": {"location": {"lat": 51.5197299, "lng": -0.1804268}, "viewport": {"northeast": {"lat": 51.52098743029151, "lng": -0.179084719708498}, "southwest": {"lat": 51.51828946970851, "lng": -0.181782680291502}}}, "name": "Macroswift", "place_id": "ChIJ277rI6wadkgREvPZFB-j__Q", "types": ["finance", "point_of_interest", "establishment"]}, "ChIJ1RGq5rgbdkgRwkwgIP8Y8Eo": {"geometry": {"location": {"lat": 51.5197299, "lng": -0.1804268}, "viewport": {"northeast": {"lat": 51.5209873302915, "lng": -0.179084719708498}, "southwest": {"lat": 51.5182893697085, "lng": -0.181782680291502}}}, "name": "Edenred Capital Partners", "place_id": "ChIJ1RGq5rgbdkgRwkwgIP8Y8Eo", "types": ["point_of_interest", "establishment"]}, "ChIJ3XZQZzUbdkgRl45hr4ZkWVs": {"geometry": {"location": {"lat": 51.5197299, "lng": -0.1804268}, "viewport": {"northeast": {"lat": 51.52098743029151, "lng": -0.179084719708498}, "southwest": {"lat": 51.51828946970851, "lng": -0.181782680291502}}}, "name": "PPS", "place_id": "ChIJ3XZQZzUbdkgRl45hr4ZkWVs", "types": ["finance", "point_of_interest", "establishment"]}, "ChIJATthIqwadkgRECj1wS3P-Wg": {"geometry": {"location": {"lat": 51.51982950000001, "lng": -0.1804878}, "viewport": {"northeast": {"lat": 51.52103738029151, "lng": -0.179185919708498}, "southwest": {"lat": 51.51833941970851, "lng": -0.181883880291502}}}, "name": "PrePay Solutions", "place_id": "ChIJATthIqwadkgRECj1wS3P-Wg", "types": ["point_of_interest", "establishment"], "rating": 1.4, "user_ratings_total": 21}, "ChIJmezkY2EbdkgRPgL4ZI3pr44": {"geometry": {"location": {"lat": 51.5194047, "lng": -0.1812962}, "viewport": {"northeast": {"lat": 51.5206806302915, "lng": -0.180205469708498}, "southwest": {"lat": 51.5179826697085, "lng": -0.1829034302915021}}}, "name": "Kool Stories", "place_id": "ChIJmezkY2EbdkgRPgL4ZI3pr44", "types": ["point_of_interest", "establishment"], "rating": 5, "user_ratings_total": 1}, "ChIJTZjaPqwadkgRzi70qreWLw0": {"geometry": {"location": {"lat": 51.51950970000001, "lng": -0.1803283}, "viewport": {"northeast": {"lat": 51.5208590302915, "lng": -0.179057519708498}, "southwest": {"lat": 51.5181610697085, "lng": -0.181755480291502}}}, "name": "ATM", "place_id": "ChIJTZjaPqwadkgRzi70qreWLw0", "types": ["atm", "finance", "point_of_interest", "establishment"], "rating": 2.3, "user_ratings_total": 3}, "ChIJSfG-PKwadkgRVKpcRhuvYEg": {"geometry": {"location": {"lat": 51.51939839999999, "lng": -0.1804252}, "viewport": {"northeast": {"lat": 51.52074743029149, "lng": -0.179086419708498}, "southwest": {"lat": 51.5180494697085, "lng": -0.181784380291502}}}, "name": "Protein Hut", "place_id": "ChIJSfG-PKwadkgRVKpcRhuvYEg", "types": ["restaurant", "food", "point_of_interest", "establishment"]}, "ChIJq6rqBawadkgR703SjP5Yem0": {"geometry": {"location": {"lat": 51.5194714, "lng": -0.181422}, "viewport": {"northeast": {"lat": 51.5207140302915, "lng": -0.180268369708498}, "southwest": {"lat": 51.5180160697085, "lng": -0.182966330291502}}}, "name": "Vertex Pharmaceuticals (U.K.) Limited", "place_id": "ChIJq6rqBawadkgR703SjP5Yem0", "types": ["health", "point_of_interest", "establishment"], "rating": 5, "user_ratings_total": 1}, "ChIJoarqBawadkgRP6bA6qjmHyM": {"geometry": {"location": {"lat": 51.51945549999999, "lng": -0.1814409}, "viewport": {"northeast": {"lat": 51.5207060802915, "lng": -0.180277819708498}, "southwest": {"lat": 51.5180081197085, "lng": -0.182975780291502}}}, "name": "Italian Gala", "place_id": "ChIJoarqBawadkgRP6bA6qjmHyM", "types": ["point_of_interest", "establishment"], "rating": 4.4, "user_ratings_total": 27}, "ChIJVSWXV00bdkgRqERrOb31SsA": {"geometry": {"location": {"lat": 51.5192516, "lng": -0.180645}, "viewport": {"northeast": {"lat": 51.5206002802915, "lng": -0.179216719708498}, "southwest": {"lat": 51.5179023197085, "lng": -0.181914680291502}}}, "name": "Capital Arrow", "place_id": "ChIJVSWXV00bdkgRqERrOb31SsA", "types": ["point_of_interest", "establishment"]}, "ChIJedsXmfkbdkgRv8bosXVhVB8": {"geometry": {"location": {"lat": 51.51928789999999, "lng": -0.1812884}, "viewport": {"northeast": {"lat": 51.5206390802915, "lng": -0.179939419708498}, "southwest": {"lat": 51.5179411197085, "lng": -0.182637380291502}}}, "name": "Noxy Brothers", "place_id": "ChIJedsXmfkbdkgRv8bosXVhVB8", "types": ["cafe", "food", "point_of_interest", "establishment"], "rating": 5, "user_ratings_total": 3}, "ChIJ16yTFNwbdkgROgkGt2maFag": {"geometry": {"location": {"lat": 51.5192586, "lng": -0.1812917}, "viewport": {"northeast": {"lat": 51.5205760802915, "lng": -0.179942519708498}, "southwest": {"lat": 51.51787811970851, "lng": -0.182640480291502}}}, "name": "Paddington Central - Kingdom Street", "place_id": "ChIJ16yTFNwbdkgROgkGt2maFag", "types": ["restaurant", "food", "point_of_interest", "establishment"]}, "ChIJrx3PBawadkgRDcq-y-V7jRE": {"geometry": {"location": {"lat": 51.5195978, "lng": -0.1815842}, "viewport": {"northeast": {"lat": 51.5207772302915, "lng": -0.180349469708498}, "southwest": {"lat": 51.5180792697085, "lng": -0.1830474302915021}}}, "name": "Braant Accountants and Bookkeepers Paddington", "place_id": "ChIJrx3PBawadkgRDcq-y-V7jRE", "types": ["accounting", "finance", "point_of_interest", "establishment"], "rating": 5, "user_ratings_total": 1}, "ChIJEctuYaQbdkgRgilGHsR2ubw": {"geometry": {"location": {"lat": 51.51918500000001, "lng": -0.1810636}, "viewport": {"northeast": {"lat": 51.52057108029151, "lng": -0.179999269708498}, "southwest": {"lat": 51.51787311970851, "lng": -0.182697230291502}}}, "name": "Rahi Systems Limited - Global IT Solutions Provider", "place_id": "ChIJEctuYaQbdkgRgilGHsR2ubw", "types": ["point_of_interest", "establishment"]}, "ChIJkXHeFqwadkgRgVYVdgEAS4U": {"geometry": {"location": {"lat": 51.51918500000001, "lng": -0.1810636}, "viewport": {"northeast": {"lat": 51.52057108029151, "lng": -0.179999269708498}, "southwest": {"lat": 51.51787311970851, "lng": -0.182697230291502}}}, "name": "Share'n'Go", "place_id": "ChIJkXHeFqwadkgRgVYVdgEAS4U", "types": ["point_of_interest", "establishment"]}, "ChIJJcH2xOwbdkgR_R2C7d_1_40": {"geometry": {"location": {"lat": 51.5192779, "lng": -0.1804098}, "viewport": {"northeast": {"lat": 51.52062693029151, "lng": -0.179086619708498}, "southwest": {"lat": 51.51792896970851, "lng": -0.181784580291502}}}, "name": "Bradley Ferry", "place_id": "ChIJJcH2xOwbdkgR_R2C7d_1_40", "types": ["point_of_interest", "establishment"], "rating": 5, "user_ratings_total": 2}, "ChIJWUFkPKwadkgRt5CsyK8GuQc": {"geometry": {"location": {"lat": 51.5192779, "lng": -0.1804098}, "viewport": {"northeast": {"lat": 51.5206270302915, "lng": -0.179087819708498}, "southwest": {"lat": 51.5179290697085, "lng": -0.181785780291502}}}, "name": "Paddington Fitness & Wellbeing Centre", "place_id": "ChIJWUFkPKwadkgRt5CsyK8GuQc", "types": ["health", "point_of_interest", "establishment"]}, "ChIJeSrp4ysbdkgR0c19auA1Ebs": {"geometry": {"location": {"lat": 51.519549, "lng": -0.1817297}, "viewport": {"northeast": {"lat": 51.5207528802915, "lng": -0.180422219708498}, "southwest": {"lat": 51.5180549197085, "lng": -0.183120180291502}}}, "name": "GlobalWebPay", "place_id": "ChIJeSrp4ysbdkgR0c19auA1Ebs", "types": ["finance", "point_of_interest", "establishment"], "rating": 3.9, "user_ratings_total": 15}, "ChIJu9fjGkMbdkgRqXbooR4nKso": {"geometry": {"location": {"lat": 51.5194248, "lng": -0.1815918000000001}, "viewport": {"northeast": {"lat": 51.52069073029151, "lng": -0.180353269708498}, "southwest": {"lat": 51.51799276970851, "lng": -0.183051230291502}}}, "name": "Black Sheep Coffee", "place_id": "ChIJu9fjGkMbdkgRqXbooR4nKso", "types": ["cafe", "food", "point_of_interest", "store", "establishment"]}, "ChIJY3NhJKwadkgR-ZeqULoz_WI": {"geometry": {"location": {"lat": 51.5198244, "lng": -0.1801486}, "viewport": {"northeast": {"lat": 51.5208927302915, "lng": -0.178822519708498}, "southwest": {"lat": 51.5181947697085, "lng": -0.181520480291502}}}, "name": "The London Lebanese Catering Company", "place_id": "ChIJY3NhJKwadkgR-ZeqULoz_WI", "types": ["restaurant", "food", "point_of_interest", "establishment"], "rating": 5, "user_ratings_total": 1}, "ChIJV1eOcEcIdkgRtLlM7Lh-pG4": {"geometry": {"location": {"lat": 51.5191531, "lng": -0.1812404}, "viewport": {"northeast": {"lat": 51.5205548802915, "lng": -0.179891769708498}, "southwest": {"lat": 51.5178569197085, "lng": -0.1825897302915021}}}, "name": "BNA Consulting Services Ltd", "place_id": "ChIJV1eOcEcIdkgRtLlM7Lh-pG4", "types": ["accounting", "finance", "point_of_interest", "establishment"], "rating": 5, "user_ratings_total": 20}, "ChIJmdDhbTgbdkgReol8FvDM9YQ": {"geometry": {"location": {"lat": 51.5193926, "lng": -0.1801372}, "viewport": {"northeast": {"lat": 51.52074238029149, "lng": -0.178962669708498}, "southwest": {"lat": 51.5180444197085, "lng": -0.181660630291502}}}, "name": "Sheldon Square Amphitheatre", "place_id": "ChIJmdDhbTgbdkgReol8FvDM9YQ", "types": ["park", "point_of_interest", "establishment"], "rating": 4.5, "user_ratings_total": 6}, "ChIJFzu8BawadkgRKOH3eafMj_4": {"geometry": {"location": {"lat": 51.51956269999999, "lng": -0.1817035}, "viewport": {"northeast": {"lat": 51.5207597302915, "lng": -0.180409119708498}, "southwest": {"lat": 51.5180617697085, "lng": -0.183107080291502}}}, "name": "Neocase Software", "place_id": "ChIJFzu8BawadkgRKOH3eafMj_4", "types": ["point_of_interest", "establishment"]}, "ChIJ458BbMoEdkgRM7L4LTZxIUI": {"geometry": {"location": {"lat": 51.5190942, "lng": -0.1807861}, "viewport": {"northeast": {"lat": 51.5204595302915, "lng": -0.179285819708498}, "southwest": {"lat": 51.5177615697085, "lng": -0.1819837802915021}}}, "name": "Fraedom", "place_id": "ChIJ458BbMoEdkgRM7L4LTZxIUI", "types": ["point_of_interest", "establishment"], "rating": 4, "user_ratings_total": 2}, "ChIJy_O1D6wadkgRur8sBAra4Ag": {"geometry": {"location": {"lat": 51.51956979999999, "lng": -0.181721}, "viewport": {"northeast": {"lat": 51.52076328029149, "lng": -0.180417869708498}, "southwest": {"lat": 51.51806531970849, "lng": -0.183115830291502}}}, "name": "Homes Domus", "place_id": "ChIJy_O1D6wadkgRur8sBAra4Ag", "types": ["real_estate_agency", "point_of_interest", "establishment"], "rating": 4.9, "user_ratings_total": 27}, "ChIJK7nFBsALdkgRGS9rSoX5bGI": {"geometry": {"location": {"lat": 51.519549, "lng": -0.1817297}, "viewport": {"northeast": {"lat": 51.5207528802915, "lng": -0.180422219708498}, "southwest": {"lat": 51.5180549197085, "lng": -0.183120180291502}}}, "name": "M-BIZ Global Company", "place_id": "ChIJK7nFBsALdkgRGS9rSoX5bGI", "types": ["point_of_interest", "establishment"]}, "ChIJKZ-x52wQdkgRlAehABiY0ok": {"geometry": {"location": {"lat": 51.5189501, "lng": -0.1804416}, "viewport": {"northeast": {"lat": 51.5203452802915, "lng": -0.179058569708498}, "southwest": {"lat": 51.5176473197085, "lng": -0.181756530291502}}}, "name": "The Interior Design School", "place_id": "ChIJKZ-x52wQdkgRlAehABiY0ok", "types": ["general_contractor", "point_of_interest", "establishment"], "rating": 4.6, "user_ratings_total": 11}, "ChIJTZjaPqwadkgRL4FVFg77YZk": {"geometry": {"location": {"lat": 51.5189507, "lng": -0.1804892}, "viewport": {"northeast": {"lat": 51.5203494802915, "lng": -0.179095219708498}, "southwest": {"lat": 51.5176515197085, "lng": -0.181793180291502}}}, "name": "Sumco Europe Sales Plc", "place_id": "ChIJTZjaPqwadkgRL4FVFg77YZk", "types": ["point_of_interest", "establishment"]}, "ChIJScu1F_QbdkgR9Xna5MKc-iM": {"geometry": {"location": {"lat": 51.51892729999999, "lng": -0.1813521}, "viewport": {"northeast": {"lat": 51.5204419302915, "lng": -0.180002919708498}, "southwest": {"lat": 51.5177439697085, "lng": -0.182700880291502}}}, "name": "Olexacon Ltd", "place_id": "ChIJScu1F_QbdkgR9Xna5MKc-iM", "types": ["point_of_interest", "establishment"]}, "ChIJq9pELKkadkgREix0lO0Yqpg": {"geometry": {"location": {"lat": 51.52230493941442, "lng": -0.1824231462626769}, "viewport": {"northeast": {"lat": 51.5236537802915, "lng": -0.181074369708498}, "southwest": {"lat": 51.5209558197085, "lng": -0.183772330291502}}}, "name": "9 Warwick Ave", "place_id": "ChIJq9pELKkadkgREix0lO0Yqpg", "types": ["route"]}, "ChIJI1dKNqkadkgRNOM5o7QtdMU": {"geometry": {"location": {"lat": 51.521527, "lng": -0.182742}, "viewport": {"northeast": {"lat": 51.5228759802915, "lng": -0.1813930197084979}, "southwest": {"lat": 51.5201780197085, "lng": -0.184090980291502}}}, "name": "I Am Your Cook", "place_id": "ChIJI1dKNqkadkgRNOM5o7QtdMU", "types": ["food", "point_of_interest", "establishment"]}, "ChIJo3VasZQcdkgRHYshAYTUu6g": {"geometry": {"location": {"lat": 51.52168700000001, "lng": -0.1823446}, "viewport": {"northeast": {"lat": 51.5230757302915, "lng": -0.181050469708498}, "southwest": {"lat": 51.5203777697085, "lng": -0.183748430291502}}}, "name": "Puppet Theatre Barge - Little Venice", "place_id": "ChIJo3VasZQcdkgRHYshAYTUu6g", "types": ["point_of_interest", "establishment"], "rating": 4.7, "user_ratings_total": 97}, "ChIJkYOenrMadkgRTu6y6ArKTJc": {"geometry": {"location": {"lat": 51.5217658, "lng": -0.1822028000000001}, "viewport": {"northeast": {"lat": 51.5231542802915, "lng": -0.180909369708498}, "southwest": {"lat": 51.5204563197085, "lng": -0.1836073302915021}}}, "name": "Canal and River Cruises Ltd", "place_id": "ChIJkYOenrMadkgRTu6y6ArKTJc", "types": ["travel_agency", "point_of_interest", "establishment"], "rating": 4.6, "user_ratings_total": 40}, "ChIJeahf3agadkgR7Dl-luDOz9E": {"geometry": {"location": {"lat": 51.5220436, "lng": -0.1823228}, "viewport": {"northeast": {"lat": 51.5234477802915, "lng": -0.180888069708498}, "southwest": {"lat": 51.5207498197085, "lng": -0.183586030291502}}}, "name": "Warwick Avenue Pay Phone", "place_id": "ChIJeahf3agadkgR7Dl-luDOz9E", "types": ["point_of_interest", "establishment"], "rating": 5, "user_ratings_total": 1}, "ChIJDSLiD38bdkgRTV1xDFxFenI": {"geometry": {"location": {"lat": 51.52140989999999, "lng": -0.1822789}, "viewport": {"northeast": {"lat": 51.52275888029149, "lng": -0.180929919708498}, "southwest": {"lat": 51.52006091970849, "lng": -0.183627880291502}}}, "name": "Little Venice Island Gardens", "place_id": "ChIJDSLiD38bdkgRTV1xDFxFenI", "types": ["park", "point_of_interest", "establishment"]}, "ChIJb-Wu0q4adkgRzZ96SzBTH_U": {"geometry": {"location": {"lat": 51.52212240000001, "lng": -0.1821746}, "viewport": {"northeast": {"lat": 51.5234723302915, "lng": -0.180824169708498}, "southwest": {"lat": 51.5207743697085, "lng": -0.1835221302915021}}}, "name": "Melbourne Court", "place_id": "ChIJb-Wu0q4adkgRzZ96SzBTH_U", "types": ["point_of_interest", "establishment"]}, "ChIJ1c21SqkadkgRlhefzJygB6E": {"geometry": {"location": {"lat": 51.5213643, "lng": -0.182221}, "viewport": {"northeast": {"lat": 51.5227132802915, "lng": -0.180872019708498}, "southwest": {"lat": 51.5200153197085, "lng": -0.183569980291502}}}, "name": "Robert Browning\u2019s Island", "place_id": "ChIJ1c21SqkadkgRlhefzJygB6E", "types": ["point_of_interest", "establishment"], "rating": 4.8, "user_ratings_total": 8}, "ChIJY11tTFAbdkgRkp6tmlZrH2I": {"geometry": {"location": {"lat": 51.5219044, "lng": -0.1818276}, "viewport": {"northeast": {"lat": 51.52327753029149, "lng": -0.180433819708498}, "southwest": {"lat": 51.5205795697085, "lng": -0.183131780291502}}}, "name": "Little Venice", "place_id": "ChIJY11tTFAbdkgRkp6tmlZrH2I", "types": ["tourist_attraction", "point_of_interest", "establishment"], "rating": 4.8, "user_ratings_total": 4}, "ChIJ8ea7q64adkgRHRl21NyG4HM": {"geometry": {"location": {"lat": 51.5202421564946, "lng": -0.1820974986164859}, "viewport": {"northeast": {"lat": 51.5216067302915, "lng": -0.180766169708498}, "southwest": {"lat": 51.5189087697085, "lng": -0.183464130291502}}}, "name": "Harrow Road", "place_id": "ChIJ8ea7q64adkgRHRl21NyG4HM", "types": ["route"]}, "ChIJdybLUakadkgROEdOiuZ2DGI": {"geometry": {"location": {"lat": 51.52088, "lng": -0.1828783}, "viewport": {"northeast": {"lat": 51.5221974802915, "lng": -0.181528069708498}, "southwest": {"lat": 51.5194995197085, "lng": -0.184226030291502}}}, "name": "rtaddictiontherapy", "place_id": "ChIJdybLUakadkgROEdOiuZ2DGI", "types": ["health", "point_of_interest", "establishment"], "rating": 4.1, "user_ratings_total": 7}, "ChIJdybLUakadkgRsKS2zCXmlTA": {"geometry": {"location": {"lat": 51.52074959999999, "lng": -0.18214}, "viewport": {"northeast": {"lat": 51.5221676302915, "lng": -0.180797869708498}, "southwest": {"lat": 51.5194696697085, "lng": -0.183495830291502}}}, "name": "Vitalis", "place_id": "ChIJdybLUakadkgRsKS2zCXmlTA", "types": ["health", "point_of_interest", "establishment"], "rating": 5, "user_ratings_total": 1}, "ChIJLSdIpa4adkgRKRWgKvp8f4E": {"geometry": {"location": {"lat": 51.520743, "lng": -0.1821374}, "viewport": {"northeast": {"lat": 51.52216438029149, "lng": -0.180795619708498}, "southwest": {"lat": 51.5194664197085, "lng": -0.183493580291502}}}, "name": "Mark Nuttall Psychotherapy", "place_id": "ChIJLSdIpa4adkgRKRWgKvp8f4E", "types": ["health", "point_of_interest", "establishment"]}, "ChIJ-ye7uq4adkgRj5VgJ2P2iis": {"geometry": {"location": {"lat": 51.5207206, "lng": -0.182757}, "viewport": {"northeast": {"lat": 51.52214883029149, "lng": -0.181406619708498}, "southwest": {"lat": 51.51945086970849, "lng": -0.184104580291502}}}, "name": "Noel Hargrave", "place_id": "ChIJ-ye7uq4adkgRj5VgJ2P2iis", "types": ["health", "point_of_interest", "establishment"]}, "ChIJKZbJXKkadkgRuy4XP_rIjdA": {"geometry": {"location": {"lat": 51.52068730000001, "lng": -0.1828336}, "viewport": {"northeast": {"lat": 51.5221324802915, "lng": -0.181482869708498}, "southwest": {"lat": 51.5194345197085, "lng": -0.184180830291502}}}, "name": "The Sufi Order", "place_id": "ChIJKZbJXKkadkgRuy4XP_rIjdA", "types": ["point_of_interest", "establishment"]}, "ChIJlUxAUKkadkgRCHQ2ASe46q4": {"geometry": {"location": {"lat": 51.520743, "lng": -0.1821374}, "viewport": {"northeast": {"lat": 51.52216438029149, "lng": -0.180795619708498}, "southwest": {"lat": 51.5194664197085, "lng": -0.183493580291502}}}, "name": "Dr Stella Papadakis", "place_id": "ChIJlUxAUKkadkgRCHQ2ASe46q4", "types": ["health", "point_of_interest", "establishment"]}, "ChIJpSRbra4adkgROfbVRyTKbVA": {"geometry": {"location": {"lat": 51.5207431, "lng": -0.1821373}, "viewport": {"northeast": {"lat": 51.5221644302915, "lng": -0.180795519708498}, "southwest": {"lat": 51.5194664697085, "lng": -0.183493480291502}}}, "name": "Derek Williams MBACP, UKCP", "place_id": "ChIJpSRbra4adkgROfbVRyTKbVA", "types": ["health", "point_of_interest", "establishment"]}, "ChIJpSRbra4adkgRK3hme99UA8I": {"geometry": {"location": {"lat": 51.5207431, "lng": -0.1821373}, "viewport": {"northeast": {"lat": 51.5221644302915, "lng": -0.180795519708498}, "southwest": {"lat": 51.5194664697085, "lng": -0.183493480291502}}}, "name": "Emanuela Roberti", "place_id": "ChIJpSRbra4adkgRK3hme99UA8I", "types": ["health", "point_of_interest", "establishment"]}, "ChIJpSRbra4adkgRZwxqpugbQFo": {"geometry": {"location": {"lat": 51.5207431, "lng": -0.1821373}, "viewport": {"northeast": {"lat": 51.5221644302915, "lng": -0.180795519708498}, "southwest": {"lat": 51.5194664697085, "lng": -0.183493480291502}}}, "name": "Couple Psychotherapy", "place_id": "ChIJpSRbra4adkgRZwxqpugbQFo", "types": ["health", "point_of_interest", "establishment"]}, "ChIJpSRbra4adkgRhHSl8tYs_ec": {"geometry": {"location": {"lat": 51.5207431, "lng": -0.1821373}, "viewport": {"northeast": {"lat": 51.5221644302915, "lng": -0.180795519708498}, "southwest": {"lat": 51.5194664697085, "lng": -0.183493480291502}}}, "name": "Andrew Lockhart", "place_id": "ChIJpSRbra4adkgRhHSl8tYs_ec", "types": ["health", "point_of_interest", "establishment"]}, "ChIJpSRbra4adkgR375ugeccv2g": {"geometry": {"location": {"lat": 51.5207431, "lng": -0.1821373}, "viewport": {"northeast": {"lat": 51.5221644302915, "lng": -0.180795519708498}, "southwest": {"lat": 51.5194664697085, "lng": -0.183493480291502}}}, "name": "Robert Bramwell-Jones", "place_id": "ChIJpSRbra4adkgR375ugeccv2g", "types": ["health", "point_of_interest", "establishment"]}, "ChIJpSRbra4adkgRUxiKGipql0U": {"geometry": {"location": {"lat": 51.5207431, "lng": -0.1821373}, "viewport": {"northeast": {"lat": 51.5221644302915, "lng": -0.180795519708498}, "southwest": {"lat": 51.5194664697085, "lng": -0.183493480291502}}}, "name": "Eva Riegler", "place_id": "ChIJpSRbra4adkgRUxiKGipql0U", "types": ["health", "point_of_interest", "establishment"]}, "ChIJpSRbra4adkgRr3iUiG0zAV4": {"geometry": {"location": {"lat": 51.5207431, "lng": -0.1821373}, "viewport": {"northeast": {"lat": 51.5221644302915, "lng": -0.180795519708498}, "southwest": {"lat": 51.5194664697085, "lng": -0.183493480291502}}}, "name": "DRI", "place_id": "ChIJpSRbra4adkgRr3iUiG0zAV4", "types": ["point_of_interest", "establishment"]}, "ChIJdybLUakadkgRuTVJ58cubss": {"geometry": {"location": {"lat": 51.52074959999999, "lng": -0.18214}, "viewport": {"northeast": {"lat": 51.5221676302915, "lng": -0.180797869708498}, "southwest": {"lat": 51.5194696697085, "lng": -0.183495830291502}}}, "name": "Amanda Baker-Psychotherapist and Counsellor", "place_id": "ChIJdybLUakadkgRuTVJ58cubss", "types": ["physiotherapist", "health", "point_of_interest", "establishment"]}, "ChIJdybLUakadkgRXScz04ADlTo": {"geometry": {"location": {"lat": 51.520743, "lng": -0.1821374}, "viewport": {"northeast": {"lat": 51.52216438029149, "lng": -0.180795619708498}, "southwest": {"lat": 51.5194664197085, "lng": -0.183493580291502}}}, "name": "Elizabeth Heren", "place_id": "ChIJdybLUakadkgRXScz04ADlTo", "types": ["health", "point_of_interest", "establishment"]}, "ChIJed4ShokbdkgR9ZsrJcz28lA": {"geometry": {"location": {"lat": 51.5206931, "lng": -0.1827617}, "viewport": {"northeast": {"lat": 51.5221351302915, "lng": -0.181411069708498}, "southwest": {"lat": 51.5194371697085, "lng": -0.184109030291502}}}, "name": "Louise King counselling and psychotherapyherapy", "place_id": "ChIJed4ShokbdkgR9ZsrJcz28lA", "types": ["health", "point_of_interest", "establishment"]}, "ChIJUdfqTakadkgRt3v9UKHFjvw": {"geometry": {"location": {"lat": 51.520853, "lng": -0.1824770000000001}, "viewport": {"northeast": {"lat": 51.5221980802915, "lng": -0.181127769708498}, "southwest": {"lat": 51.5195001197085, "lng": -0.183825730291502}}}, "name": "ubitricity Charging Station", "place_id": "ChIJUdfqTakadkgRt3v9UKHFjvw", "types": ["point_of_interest", "establishment"]}, "ChIJgW_ETakadkgR2m43mLGXEcE": {"geometry": {"location": {"lat": 51.52088570000001, "lng": -0.182506}, "viewport": {"northeast": {"lat": 51.5222003802915, "lng": -0.181155219708498}, "southwest": {"lat": 51.51950241970851, "lng": -0.183853180291502}}}, "name": "\u200bSandra Hughes MA, Dip.Psych., MBACP, UKCP", "place_id": "ChIJgW_ETakadkgR2m43mLGXEcE", "types": ["health", "point_of_interest", "establishment"]}, "ChIJdybLUakadkgR1OkMxpJZXJ4": {"geometry": {"location": {"lat": 51.520743, "lng": -0.1821374}, "viewport": {"northeast": {"lat": 51.52216438029149, "lng": -0.180795619708498}, "southwest": {"lat": 51.5194664197085, "lng": -0.183493580291502}}}, "name": "Peters Abigail", "place_id": "ChIJdybLUakadkgR1OkMxpJZXJ4", "types": ["health", "point_of_interest", "establishment"]}, "ChIJsdZaVagadkgRwv0tTUQS-C4": {"geometry": {"location": {"lat": 51.520743, "lng": -0.182137}, "viewport": {"northeast": {"lat": 51.52216438029149, "lng": -0.180795219708498}, "southwest": {"lat": 51.51946641970849, "lng": -0.183493180291502}}}, "name": "Hon Amanda", "place_id": "ChIJsdZaVagadkgRwv0tTUQS-C4", "types": ["health", "point_of_interest", "establishment"], "rating": 4, "user_ratings_total": 1}, "ChIJT1tpRakadkgRRc9fip3lwK0": {"geometry": {"location": {"lat": 51.5208781, "lng": -0.1830007}, "viewport": {"northeast": {"lat": 51.5222024302915, "lng": -0.181654269708498}, "southwest": {"lat": 51.5195044697085, "lng": -0.1843522302915021}}}, "name": "Infinisys Future Solutions", "place_id": "ChIJT1tpRakadkgRRc9fip3lwK0", "types": ["point_of_interest", "establishment"]}, "ChIJj2OGrK4adkgRKtTCcUu75YA": {"geometry": {"location": {"lat": 51.520484, "lng": -0.182031}, "viewport": {"northeast": {"lat": 51.52177053029149, "lng": -0.180599619708498}, "southwest": {"lat": 51.51907256970849, "lng": -0.183297580291502}}}, "name": "LoveBites and Bruises", "place_id": "ChIJj2OGrK4adkgRKtTCcUu75YA", "types": ["jewelry_store", "point_of_interest", "store", "establishment"]}, "ChIJRRxnVqkadkgRqJ0asCP78V4": {"geometry": {"location": {"lat": 51.5202458, "lng": -0.1826083}, "viewport": {"northeast": {"lat": 51.52160842837065, "lng": -0.1812947504677496}, "southwest": {"lat": 51.51891046778765, "lng": -0.1839927110507536}}}, "name": "Parking lot", "place_id": "ChIJRRxnVqkadkgRqJ0asCP78V4", "types": ["parking", "premise", "point_of_interest", "establishment"]}, "ChIJgfPa36sadkgRO85Wh8qZQ3M": {"geometry": {"location": {"lat": 51.5201621, "lng": -0.1836198}, "viewport": {"northeast": {"lat": 51.52148081970447, "lng": -0.1822128115201098}, "southwest": {"lat": 51.51878285912148, "lng": -0.1849107721031138}}}, "name": "Parking lot", "place_id": "ChIJgfPa36sadkgRO85Wh8qZQ3M", "types": ["parking", "premise", "point_of_interest", "establishment"]}, "ChIJ33sL-6sadkgRE6rzojpsAI8": {"geometry": {"location": {"lat": 51.51972471022135, "lng": -0.1828055878069236}, "viewport": {"northeast": {"lat": 51.5210748802915, "lng": -0.181457069708498}, "southwest": {"lat": 51.5183769197085, "lng": -0.184155030291502}}}, "name": "Westway", "place_id": "ChIJ33sL-6sadkgRE6rzojpsAI8", "types": ["route"]}, "ChIJW59uX6wadkgRwwKg6WjDYAE": {"geometry": {"location": {"lat": 51.5195185, "lng": -0.1827029}, "viewport": {"northeast": {"lat": 51.5207362302915, "lng": -0.181266519708498}, "southwest": {"lat": 51.5180382697085, "lng": -0.183964480291502}}}, "name": "HMD Global - The Home of Nokia phones", "place_id": "ChIJW59uX6wadkgRwwKg6WjDYAE", "types": ["point_of_interest", "establishment"], "rating": 3.5, "user_ratings_total": 17}, "ChIJBXV8PFAbdkgROc7fyoHJcZo": {"geometry": {"location": {"lat": 51.5195062, "lng": -0.1828794}, "viewport": {"northeast": {"lat": 51.52073018029149, "lng": -0.181374869708498}, "southwest": {"lat": 51.5180322197085, "lng": -0.184072830291502}}}, "name": "Nominet", "place_id": "ChIJBXV8PFAbdkgROc7fyoHJcZo", "types": ["point_of_interest", "establishment"]}, "ChIJASWpHSsFdkgRG_2tSqTBlpg": {"geometry": {"location": {"lat": 51.5195062, "lng": -0.1828794}, "viewport": {"northeast": {"lat": 51.52073018029149, "lng": -0.181374869708498}, "southwest": {"lat": 51.5180322197085, "lng": -0.184072830291502}}}, "name": "ElecLink Limited", "place_id": "ChIJASWpHSsFdkgRG_2tSqTBlpg", "types": ["point_of_interest", "establishment"]}, "ChIJAe1N9qsadkgRhdYTJHjvAIw": {"geometry": {"location": {"lat": 51.51937549999999, "lng": -0.1823667}, "viewport": {"northeast": {"lat": 51.52066433029149, "lng": -0.181018519708498}, "southwest": {"lat": 51.51796636970849, "lng": -0.183716480291502}}}, "name": "Astrazen pharmaceutical Company", "place_id": "ChIJAe1N9qsadkgRhdYTJHjvAIw", "types": ["point_of_interest", "establishment"]}, "ChIJN70AD6wadkgRr5cw6eabbeE": {"geometry": {"location": {"lat": 51.5194167, "lng": -0.1821052}, "viewport": {"northeast": {"lat": 51.5206868302915, "lng": -0.180753619708498}, "southwest": {"lat": 51.5179888697085, "lng": -0.183451580291502}}}, "name": "Trend Micro UK Ltd", "place_id": "ChIJN70AD6wadkgRr5cw6eabbeE", "types": ["point_of_interest", "establishment"], "rating": 4.6, "user_ratings_total": 24}, "ChIJrx3PBawadkgR74zOqWO4R5E": {"geometry": {"location": {"lat": 51.5195193, "lng": -0.1818046}, "viewport": {"northeast": {"lat": 51.5207380302915, "lng": -0.180459669708498}, "southwest": {"lat": 51.5180400697085, "lng": -0.183157630291502}}}, "name": "Domestic Cleaning Paddington", "place_id": "ChIJrx3PBawadkgR74zOqWO4R5E", "types": ["laundry", "general_contractor", "point_of_interest", "establishment"], "rating": 3, "user_ratings_total": 3}, "ChIJyefq9qsadkgRrF35rCaYBY0": {"geometry": {"location": {"lat": 51.51944810000001, "lng": -0.1828226}, "viewport": {"northeast": {"lat": 51.5207011302915, "lng": -0.181346469708498}, "southwest": {"lat": 51.5180031697085, "lng": -0.184044430291502}}}, "name": "Finastra", "place_id": "ChIJyefq9qsadkgRrF35rCaYBY0", "types": ["point_of_interest", "establishment"], "rating": 4.5, "user_ratings_total": 39}, "ChIJR-5PcbqMdUgRNIDJ1xJYJME": {"geometry": {"location": {"lat": 51.5196, "lng": -0.181761}, "viewport": {"northeast": {"lat": 51.52077838029149, "lng": -0.180437869708498}, "southwest": {"lat": 51.5180804197085, "lng": -0.183135830291502}}}, "name": "Insight Consultancy UK Ltd", "place_id": "ChIJR-5PcbqMdUgRNIDJ1xJYJME", "types": ["point_of_interest", "establishment"]}, "ChIJCY8smyobdkgRKJOFJCHNsNk": {"geometry": {"location": {"lat": 51.5196, "lng": -0.181761}, "viewport": {"northeast": {"lat": 51.52077838029149, "lng": -0.180437869708498}, "southwest": {"lat": 51.5180804197085, "lng": -0.183135830291502}}}, "name": "Conway Consulting", "place_id": "ChIJCY8smyobdkgRKJOFJCHNsNk", "types": ["point_of_interest", "establishment"]}, "ChIJcx3PBawadkgRJmNaPJ_Ioek": {"geometry": {"location": {"lat": 51.5196, "lng": -0.181761}, "viewport": {"northeast": {"lat": 51.52077838029149, "lng": -0.180437869708498}, "southwest": {"lat": 51.5180804197085, "lng": -0.183135830291502}}}, "name": "Pepper Consultants", "place_id": "ChIJcx3PBawadkgRJmNaPJ_Ioek", "types": ["point_of_interest", "establishment"]}, "ChIJN70AD6wadkgRJIU13HO7R3E": {"geometry": {"location": {"lat": 51.5195998, "lng": -0.1817608}, "viewport": {"northeast": {"lat": 51.52077828029149, "lng": -0.180437769708498}, "southwest": {"lat": 51.5180803197085, "lng": -0.183135730291502}}}, "name": "Storage Maida Vale", "place_id": "ChIJN70AD6wadkgRJIU13HO7R3E", "types": ["moving_company", "storage", "point_of_interest", "establishment"]}, "ChIJrx3PBawadkgRPd6IaTAgIGQ": {"geometry": {"location": {"lat": 51.5195998, "lng": -0.1817608}, "viewport": {"northeast": {"lat": 51.52077828029149, "lng": -0.180437769708498}, "southwest": {"lat": 51.5180803197085, "lng": -0.183135730291502}}}, "name": "PANACEA VENTURES LTD", "place_id": "ChIJrx3PBawadkgRPd6IaTAgIGQ", "types": ["point_of_interest", "establishment"], "rating": 1, "user_ratings_total": 1}, "ChIJrx3PBawadkgRRK7MJnhLRSw": {"geometry": {"location": {"lat": 51.5195998, "lng": -0.1817608}, "viewport": {"northeast": {"lat": 51.52077828029149, "lng": -0.180437769708498}, "southwest": {"lat": 51.5180803197085, "lng": -0.183135730291502}}}, "name": "Nympay Ltd", "place_id": "ChIJrx3PBawadkgRRK7MJnhLRSw", "types": ["point_of_interest", "establishment"]}, "ChIJrR3PBawadkgRSNq5FX-ymeU": {"geometry": {"location": {"lat": 51.5195997, "lng": -0.1817608}, "viewport": {"northeast": {"lat": 51.5207782302915, "lng": -0.180437769708498}, "southwest": {"lat": 51.5180802697085, "lng": -0.183135730291502}}}, "name": "Graybox IT Solutions", "place_id": "ChIJrR3PBawadkgRSNq5FX-ymeU", "types": ["point_of_interest", "establishment"]}, "ChIJrR3PBawadkgRPJdYob1Cpt8": {"geometry": {"location": {"lat": 51.5195997, "lng": -0.1817608}, "viewport": {"northeast": {"lat": 51.5207782302915, "lng": -0.180437769708498}, "southwest": {"lat": 51.5180802697085, "lng": -0.183135730291502}}}, "name": "Globant", "place_id": "ChIJrR3PBawadkgRPJdYob1Cpt8", "types": ["point_of_interest", "establishment"]}, "ChIJrR3PBawadkgR_4LGjlj2MbY": {"geometry": {"location": {"lat": 51.5195997, "lng": -0.1817608}, "viewport": {"northeast": {"lat": 51.5207782302915, "lng": -0.180437769708498}, "southwest": {"lat": 51.5180802697085, "lng": -0.183135730291502}}}, "name": "Loqski International Ltd", "place_id": "ChIJrR3PBawadkgR_4LGjlj2MbY", "types": ["store", "point_of_interest", "establishment"]}, "ChIJrR3PBawadkgRiFpBC3rs6qw": {"geometry": {"location": {"lat": 51.5195997, "lng": -0.1817608}, "viewport": {"northeast": {"lat": 51.5207782302915, "lng": -0.180437769708498}, "southwest": {"lat": 51.5180802697085, "lng": -0.183135730291502}}}, "name": "AppraiseMe LTD", "place_id": "ChIJrR3PBawadkgRiFpBC3rs6qw", "types": ["health", "point_of_interest", "establishment"]}, "ChIJ1XHGBawadkgR-ovEnu7AnrQ": {"geometry": {"location": {"lat": 51.519583, "lng": -0.1817501}, "viewport": {"northeast": {"lat": 51.5207698802915, "lng": -0.180432419708498}, "southwest": {"lat": 51.5180719197085, "lng": -0.183130380291502}}}, "name": "Procurement PeopleCloud\u00ae", "place_id": "ChIJ1XHGBawadkgR-ovEnu7AnrQ", "types": ["point_of_interest", "establishment"], "rating": 4.3, "user_ratings_total": 6}, "ChIJrx3PBawadkgRHstHxgYoqRQ": {"geometry": {"location": {"lat": 51.5194118, "lng": -0.1817788}, "viewport": {"northeast": {"lat": 51.52068428029149, "lng": -0.180446769708498}, "southwest": {"lat": 51.51798631970849, "lng": -0.183144730291502}}}, "name": "Avasa AI", "place_id": "ChIJrx3PBawadkgRHstHxgYoqRQ", "types": ["moving_company", "real_estate_agency", "local_government_office", "point_of_interest", "establishment"], "rating": 5, "user_ratings_total": 13}, "ChIJuUmf8tsbdkgRD9mxBwAT3tg": {"geometry": {"location": {"lat": 51.5195081, "lng": -0.1826304}, "viewport": {"northeast": {"lat": 51.5207305802915, "lng": -0.181144869708498}, "southwest": {"lat": 51.5180326197085, "lng": -0.183842830291502}}}, "name": "HUCKSTER London", "place_id": "ChIJuUmf8tsbdkgRD9mxBwAT3tg", "types": ["bar", "restaurant", "food", "point_of_interest", "establishment"], "rating": 3.9, "user_ratings_total": 385}, "ChIJq6q6-qsadkgR1gWHzy5IEhQ": {"geometry": {"location": {"lat": 51.5195062, "lng": -0.1828794}, "viewport": {"northeast": {"lat": 51.52073018029149, "lng": -0.181374869708498}, "southwest": {"lat": 51.5180322197085, "lng": -0.184072830291502}}}, "name": "Finastra", "place_id": "ChIJq6q6-qsadkgR1gWHzy5IEhQ", "types": ["point_of_interest", "establishment"]}, "ChIJq6q6-qsadkgR49qLiFiKH70": {"geometry": {"location": {"lat": 51.5195062, "lng": -0.1828794}, "viewport": {"northeast": {"lat": 51.52073018029149, "lng": -0.181374869708498}, "southwest": {"lat": 51.5180322197085, "lng": -0.184072830291502}}}, "name": "Kl\u00f6ckner Pentaplast Group", "place_id": "ChIJq6q6-qsadkgR49qLiFiKH70", "types": ["point_of_interest", "establishment"]}, "ChIJkU4T39QbdkgRFg6uHdswIVI": {"geometry": {"location": {"lat": 51.5195062, "lng": -0.1828794}, "viewport": {"northeast": {"lat": 51.52073018029149, "lng": -0.181435819708498}, "southwest": {"lat": 51.5180322197085, "lng": -0.184133780291502}}}, "name": "Nokia UK Sweepstakes", "place_id": "ChIJkU4T39QbdkgRFg6uHdswIVI", "types": ["point_of_interest", "establishment"]}, "ChIJbdldQxgbdkgRP4Pb58IImgQ": {"geometry": {"location": {"lat": 51.5195062, "lng": -0.1828794}, "viewport": {"northeast": {"lat": 51.52073018029149, "lng": -0.181374869708498}, "southwest": {"lat": 51.5180322197085, "lng": -0.184072830291502}}}, "name": "Galvanize Europe & Middle East", "place_id": "ChIJbdldQxgbdkgRP4Pb58IImgQ", "types": ["point_of_interest", "establishment"]}, "ChIJlydfzwMbdkgRvav-3wOY0n0": {"geometry": {"location": {"lat": 51.5194493, "lng": -0.182817}, "viewport": {"northeast": {"lat": 51.52070133029149, "lng": -0.181265919708498}, "southwest": {"lat": 51.5180033697085, "lng": -0.183963880291502}}}, "name": "Skylark Roof Garden", "place_id": "ChIJlydfzwMbdkgRvav-3wOY0n0", "types": ["bar", "restaurant", "food", "point_of_interest", "establishment"], "rating": 3.3, "user_ratings_total": 75}, "ChIJ__ZBmiAFdkgR88z26etKaW8": {"geometry": {"location": {"lat": 51.51943199999999, "lng": -0.1828447}, "viewport": {"northeast": {"lat": 51.52069308029149, "lng": -0.181357519708498}, "southwest": {"lat": 51.51799511970849, "lng": -0.184055480291502}}}, "name": "BAI Communications UK", "place_id": "ChIJ__ZBmiAFdkgR88z26etKaW8", "types": ["point_of_interest", "establishment"]}, "ChIJ-73v5ksbdkgRw_FoptEc_7I": {"geometry": {"location": {"lat": 51.5194378, "lng": -0.1828562}, "viewport": {"northeast": {"lat": 51.5206959802915, "lng": -0.181363269708498}, "southwest": {"lat": 51.5179980197085, "lng": -0.184061230291502}}}, "name": "Mars Office Paddington", "place_id": "ChIJ-73v5ksbdkgRw_FoptEc_7I", "types": ["point_of_interest", "establishment"], "rating": 3.3, "user_ratings_total": 3}, "ChIJAe1N9qsadkgRwwYSP5eC0eI": {"geometry": {"location": {"lat": 51.51937549999999, "lng": -0.1823667}, "viewport": {"northeast": {"lat": 51.52066433029149, "lng": -0.181018519708498}, "southwest": {"lat": 51.51796636970849, "lng": -0.183716480291502}}}, "name": "Costain-skanska", "place_id": "ChIJAe1N9qsadkgRwwYSP5eC0eI", "types": ["general_contractor", "point_of_interest", "establishment"], "rating": 4, "user_ratings_total": 7}, "ChIJxZ0q96sadkgRpeF5c7w5Dkc": {"geometry": {"location": {"lat": 51.5193018, "lng": -0.1825487}, "viewport": {"northeast": {"lat": 51.5206365802915, "lng": -0.181199919708498}, "southwest": {"lat": 51.5179386197085, "lng": -0.183897880291502}}}, "name": "Digital Switch", "place_id": "ChIJxZ0q96sadkgRpeF5c7w5Dkc", "types": ["electronics_store", "point_of_interest", "store", "establishment"]}, "ChIJdV9IML4bdkgRDcD3gm-lxH4": {"geometry": {"location": {"lat": 51.51937059999999, "lng": -0.1829153}, "viewport": {"northeast": {"lat": 51.5206623802915, "lng": -0.181435819708498}, "southwest": {"lat": 51.5179644197085, "lng": -0.184133780291502}}}, "name": "Storey", "place_id": "ChIJdV9IML4bdkgRDcD3gm-lxH4", "types": ["real_estate_agency", "point_of_interest", "establishment"], "rating": 4.7, "user_ratings_total": 3}, "ChIJY-rU9qsadkgRCYPEBHnaITU": {"geometry": {"location": {"lat": 51.5192866, "lng": -0.18255}, "viewport": {"northeast": {"lat": 51.5206365802915, "lng": -0.1812010197084979}, "southwest": {"lat": 51.5179386197085, "lng": -0.183898980291502}}}, "name": "Twinlight Logistics Express", "place_id": "ChIJY-rU9qsadkgRCYPEBHnaITU", "types": ["point_of_interest", "establishment"]}, "ChIJdcfe9qsadkgRVQPqY1nACxg": {"geometry": {"location": {"lat": 51.5192863, "lng": -0.1824833}, "viewport": {"northeast": {"lat": 51.5206362802915, "lng": -0.181134319708498}, "southwest": {"lat": 51.5179383197085, "lng": -0.183832280291502}}}, "name": "Surest Global Logistics Express", "place_id": "ChIJdcfe9qsadkgRVQPqY1nACxg", "types": ["point_of_interest", "establishment"]}, "ChIJLz_2SfUbdkgR4kbElXOGwA4": {"geometry": {"location": {"lat": 51.5194079, "lng": -0.1821318}, "viewport": {"northeast": {"lat": 51.52068243029149, "lng": -0.180767019708498}, "southwest": {"lat": 51.51798446970849, "lng": -0.183464980291502}}}, "name": "Hyve Group", "place_id": "ChIJLz_2SfUbdkgR4kbElXOGwA4", "types": ["point_of_interest", "establishment"], "rating": 3.9, "user_ratings_total": 7}, "ChIJp6QtHAsbdkgR18GS4wgEVkE": {"geometry": {"location": {"lat": 51.5194232, "lng": -0.1820485}, "viewport": {"northeast": {"lat": 51.52069008029149, "lng": -0.180725369708498}, "southwest": {"lat": 51.5179921197085, "lng": -0.183423330291502}}}, "name": "Lords of Pok\u00e9", "place_id": "ChIJp6QtHAsbdkgR18GS4wgEVkE", "types": ["restaurant", "food", "point_of_interest", "establishment"], "rating": 4.4, "user_ratings_total": 29}, "ChIJjWezCawadkgRA-A3-oRnRco": {"geometry": {"location": {"lat": 51.5192968, "lng": -0.1820706}, "viewport": {"northeast": {"lat": 51.5206378802915, "lng": -0.180721469708498}, "southwest": {"lat": 51.5179399197085, "lng": -0.183419430291502}}}, "name": "DRUGSCOPE KEEPING YOU SAFE", "place_id": "ChIJjWezCawadkgRA-A3-oRnRco", "types": ["point_of_interest", "establishment"]}, "ChIJzQ8Ru3IbdkgRX9zmYCA48CA": {"geometry": {"location": {"lat": 51.5194578, "lng": -0.1819059}, "viewport": {"northeast": {"lat": 51.5207072802915, "lng": -0.180510319708498}, "southwest": {"lat": 51.5180093197085, "lng": -0.183208280291502}}}, "name": "Pure", "place_id": "ChIJzQ8Ru3IbdkgRX9zmYCA48CA", "types": ["cafe", "restaurant", "food", "point_of_interest", "store", "establishment"], "rating": 4.4, "user_ratings_total": 12}, "ChIJmyUbtyAbdkgRKUOhgj8Nfx4": {"geometry": {"location": {"lat": 51.5195053, "lng": -0.1818516}, "viewport": {"northeast": {"lat": 51.52073103029149, "lng": -0.180483319708498}, "southwest": {"lat": 51.51803306970849, "lng": -0.183181280291502}}}, "name": "Anais and Co", "place_id": "ChIJmyUbtyAbdkgRKUOhgj8Nfx4", "types": ["point_of_interest", "establishment"], "rating": 5, "user_ratings_total": 108}, "ChIJ5yGhArkbdkgR59XFihn-BIM": {"geometry": {"location": {"lat": 51.52001809999999, "lng": -0.1821734}, "viewport": {"northeast": {"lat": 51.52131688029149, "lng": -0.180800219708498}, "southwest": {"lat": 51.5186189197085, "lng": -0.183498180291502}}}, "name": "Lower Roundabout - LOADING BAYS PADDINGTON", "place_id": "ChIJ5yGhArkbdkgR59XFihn-BIM", "types": ["point_of_interest", "establishment"]}, "ChIJrx3PBawadkgRV7U7ZozGYhA": {"geometry": {"location": {"lat": 51.5195193, "lng": -0.1818046}, "viewport": {"northeast": {"lat": 51.5207380302915, "lng": -0.180459669708498}, "southwest": {"lat": 51.5180400697085, "lng": -0.183157630291502}}}, "name": "Airplus1", "place_id": "ChIJrx3PBawadkgRV7U7ZozGYhA", "types": ["point_of_interest", "establishment"]}, "ChIJrx3PBawadkgRn0uAN1nyFCc": {"geometry": {"location": {"lat": 51.5195193, "lng": -0.1818046}, "viewport": {"northeast": {"lat": 51.5207380302915, "lng": -0.180459669708498}, "southwest": {"lat": 51.5180400697085, "lng": -0.183157630291502}}}, "name": "Stynite International Headquarters", "place_id": "ChIJrx3PBawadkgRn0uAN1nyFCc", "types": ["point_of_interest", "establishment"], "rating": 3, "user_ratings_total": 4}, "ChIJrx3PBawadkgRsCydWJch9Fg": {"geometry": {"location": {"lat": 51.5195193, "lng": -0.1818046}, "viewport": {"northeast": {"lat": 51.5207380302915, "lng": -0.180459669708498}, "southwest": {"lat": 51.5180400697085, "lng": -0.183157630291502}}}, "name": "Oaktree I.T Solutions", "place_id": "ChIJrx3PBawadkgRsCydWJch9Fg", "types": ["point_of_interest", "establishment"]}, "ChIJrx3PBawadkgRGlZe2dFWWYA": {"geometry": {"location": {"lat": 51.5195193, "lng": -0.1818046}, "viewport": {"northeast": {"lat": 51.5207380302915, "lng": -0.180459669708498}, "southwest": {"lat": 51.5180400697085, "lng": -0.183157630291502}}}, "name": "AUTHENTIC HALAL", "place_id": "ChIJrx3PBawadkgRGlZe2dFWWYA", "types": ["point_of_interest", "establishment"]}, "ChIJcx3PBawadkgRs9Pm_QHuWmY": {"geometry": {"location": {"lat": 51.5196, "lng": -0.181761}, "viewport": {"northeast": {"lat": 51.52077838029149, "lng": -0.180437869708498}, "southwest": {"lat": 51.5180804197085, "lng": -0.183135830291502}}}, "name": "Paddington Serviced Apartments", "place_id": "ChIJcx3PBawadkgRs9Pm_QHuWmY", "types": ["lodging", "point_of_interest", "establishment"]}, "ChIJrx3PBawadkgRDWCjdVACnzQ": {"geometry": {"location": {"lat": 51.5195998, "lng": -0.1817608}, "viewport": {"northeast": {"lat": 51.52077828029149, "lng": -0.180437769708498}, "southwest": {"lat": 51.5180803197085, "lng": -0.183135730291502}}}, "name": "Zhappy International", "place_id": "ChIJrx3PBawadkgRDWCjdVACnzQ", "types": ["moving_company", "general_contractor", "point_of_interest", "establishment"], "rating": 5, "user_ratings_total": 1}, "ChIJrx3PBawadkgRDFAoKKRzGtM": {"geometry": {"location": {"lat": 51.5195998, "lng": -0.1817608}, "viewport": {"northeast": {"lat": 51.52077828029149, "lng": -0.180437769708498}, "southwest": {"lat": 51.5180803197085, "lng": -0.183135730291502}}}, "name": "Savoir Faire", "place_id": "ChIJrx3PBawadkgRDFAoKKRzGtM", "types": ["point_of_interest", "establishment"]}, "ChIJrx3PBawadkgRi9cZ5T6ykrw": {"geometry": {"location": {"lat": 51.5195998, "lng": -0.1817608}, "viewport": {"northeast": {"lat": 51.52077828029149, "lng": -0.180437769708498}, "southwest": {"lat": 51.5180803197085, "lng": -0.183135730291502}}}, "name": "InAllMedia", "place_id": "ChIJrx3PBawadkgRi9cZ5T6ykrw", "types": ["point_of_interest", "establishment"]}, "ChIJrx3PBawadkgRrt118EbdPF4": {"geometry": {"location": {"lat": 51.5195998, "lng": -0.1817608}, "viewport": {"northeast": {"lat": 51.52077828029149, "lng": -0.180437769708498}, "southwest": {"lat": 51.5180803197085, "lng": -0.183135730291502}}}, "name": "CDPQ London", "place_id": "ChIJrx3PBawadkgRrt118EbdPF4", "types": ["point_of_interest", "establishment"]}, "ChIJrx3PBawadkgR-qLH26mmwpE": {"geometry": {"location": {"lat": 51.5195998, "lng": -0.1817608}, "viewport": {"northeast": {"lat": 51.52077828029149, "lng": -0.180437769708498}, "southwest": {"lat": 51.5180803197085, "lng": -0.183135730291502}}}, "name": "Mantle Corporate Finance Ltd", "place_id": "ChIJrx3PBawadkgR-qLH26mmwpE", "types": ["point_of_interest", "establishment"]}, "ChIJrx3PBawadkgRXOLUq7Sfm08": {"geometry": {"location": {"lat": 51.5195998, "lng": -0.1817608}, "viewport": {"northeast": {"lat": 51.52077828029149, "lng": -0.180437769708498}, "southwest": {"lat": 51.5180803197085, "lng": -0.183135730291502}}}, "name": "Current Electrical & Audio", "place_id": "ChIJrx3PBawadkgRXOLUq7Sfm08", "types": ["point_of_interest", "establishment"], "rating": 5, "user_ratings_total": 11}, "ChIJwxrCBawadkgRW7gUG1pc9jo": {"geometry": {"location": {"lat": 51.5195518, "lng": -0.1817551}, "viewport": {"northeast": {"lat": 51.52075428029149, "lng": -0.180434919708498}, "southwest": {"lat": 51.5180563197085, "lng": -0.183132880291502}}}, "name": "Magnum Hunt Executive Search", "place_id": "ChIJwxrCBawadkgRW7gUG1pc9jo", "types": ["point_of_interest", "establishment"]}, "ChIJq6qqqu8adkgRzfLaBZiEq5U": {"geometry": {"location": {"lat": 51.5195035, "lng": -0.1817493}, "viewport": {"northeast": {"lat": 51.5207301302915, "lng": -0.180432019708498}, "southwest": {"lat": 51.5180321697085, "lng": -0.183129980291502}}}, "name": "Every Cloud", "place_id": "ChIJq6qqqu8adkgRzfLaBZiEq5U", "types": ["point_of_interest", "establishment"]}, "ChIJzVoqDqwadkgRXwHUrKKKqW0": {"geometry": {"location": {"lat": 51.51902829999999, "lng": -0.182539}, "viewport": {"northeast": {"lat": 51.52049118029149, "lng": -0.181196969708498}, "southwest": {"lat": 51.51779321970849, "lng": -0.183894930291502}}}, "name": "Novotel London Paddington", "place_id": "ChIJzVoqDqwadkgRXwHUrKKKqW0", "types": ["lodging", "point_of_interest", "establishment"], "rating": 4.3, "user_ratings_total": 1401}, "ChIJuU3EYP0bdkgR4bitGdhkYm0": {"geometry": {"location": {"lat": 51.51904469999999, "lng": -0.1825545}, "viewport": {"northeast": {"lat": 51.5204993802915, "lng": -0.181204319708498}, "southwest": {"lat": 51.5178014197085, "lng": -0.183902280291502}}}, "name": "Snaeder Engineering Design Center", "place_id": "ChIJuU3EYP0bdkgR4bitGdhkYm0", "types": ["point_of_interest", "establishment"]}, "ChIJx2cphasadkgRgPHr8wggXxQ": {"geometry": {"location": {"lat": 51.5190443, "lng": -0.1825093}, "viewport": {"northeast": {"lat": 51.5204990802915, "lng": -0.181180469708498}, "southwest": {"lat": 51.5178011197085, "lng": -0.183878430291502}}}, "name": "Elements Restaurant", "place_id": "ChIJx2cphasadkgRgPHr8wggXxQ", "types": ["restaurant", "food", "point_of_interest", "establishment"], "rating": 4.4, "user_ratings_total": 20}, "ChIJq6pq9KsadkgRto_LyJNZXQg": {"geometry": {"location": {"lat": 51.51905499999999, "lng": -0.1824625}, "viewport": {"northeast": {"lat": 51.52050428029149, "lng": -0.181157169708498}, "southwest": {"lat": 51.51780631970849, "lng": -0.183855130291502}}}, "name": "Multilingual SEM", "place_id": "ChIJq6pq9KsadkgRto_LyJNZXQg", "types": ["point_of_interest", "establishment"]}, "ChIJKZ-8_b4bdkgRRO7q4t7GSzI": {"geometry": {"location": {"lat": 51.51905499999999, "lng": -0.1824625}, "viewport": {"northeast": {"lat": 51.52050428029149, "lng": -0.181157169708498}, "southwest": {"lat": 51.51780631970849, "lng": -0.183855130291502}}}, "name": "Kirby Security", "place_id": "ChIJKZ-8_b4bdkgRRO7q4t7GSzI", "types": ["point_of_interest", "establishment"], "rating": 5, "user_ratings_total": 1}, "ChIJwQiCCakadkgRonQruwb5GXA": {"geometry": {"location": {"lat": 51.52180892644829, "lng": -0.1849638855688898},