{"E00023467": {"ChIJ94cFDgEQdkgReaFsAnc-D3k": {"geometry": {"location": {"lat": 51.51814133413244, "lng": -0.1920471775242135}, "viewport": {"northeast": {"lat": 51.5194316302915, "lng": -0.1901944000000001}, "southwest": {"lat": 51.5167336697085, "lng": -0.1939291999999999}}}, "name": "64-32 Westbourne Park Rd", "place_id": "ChIJ94cFDgEQdkgReaFsAnc-D3k", "types": ["route"]}, "ChIJwZ5qbgEQdkgRC2MoxrbHblc": {"geometry": {"location": {"lat": 51.518223, "lng": -0.192945}, "viewport": {"northeast": {"lat": 51.5195400802915, "lng": -0.191591319708498}, "southwest": {"lat": 51.51684211970851, "lng": -0.194289280291502}}}, "name": "ubitricity Charging Station", "place_id": "ChIJwZ5qbgEQdkgRC2MoxrbHblc", "types": ["point_of_interest", "establishment"]}, "ChIJ__87DQEQdkgRijHGGo4tCcE": {"geometry": {"location": {"lat": 51.518033, "lng": -0.1924157}, "viewport": {"northeast": {"lat": 51.5194500802915, "lng": -0.191057669708498}, "southwest": {"lat": 51.51675211970851, "lng": -0.193755630291502}}}, "name": "Swanleys", "place_id": "ChIJ__87DQEQdkgRijHGGo4tCcE", "types": ["point_of_interest", "establishment"]}, "ChIJafIZEgEQdkgRuSFmnBulfvI": {"geometry": {"location": {"lat": 51.5182, "lng": -0.192159}, "viewport": {"northeast": {"lat": 51.5195257802915, "lng": -0.190815419708498}, "southwest": {"lat": 51.5168278197085, "lng": -0.193513380291502}}}, "name": "Chargemaster Charging Station", "place_id": "ChIJafIZEgEQdkgRuSFmnBulfvI", "types": ["point_of_interest", "establishment"]}, "ChIJJ2PvEQEQdkgR6NwZBOPrlS8": {"geometry": {"location": {"lat": 51.5181902, "lng": -0.1920517}, "viewport": {"northeast": {"lat": 51.5195236302915, "lng": -0.190709069708498}, "southwest": {"lat": 51.5168256697085, "lng": -0.193407030291502}}}, "name": "ubitricity Charging Station", "place_id": "ChIJJ2PvEQEQdkgR6NwZBOPrlS8", "types": ["point_of_interest", "establishment"]}, "ChIJSf67nwEQdkgRRpRQf-Z7LIY": {"geometry": {"location": {"lat": 51.51735475004501, "lng": -0.1925659993368074}, "viewport": {"northeast": {"lat": 51.51870373029151, "lng": -0.191217019708498}, "southwest": {"lat": 51.51600576970851, "lng": -0.193914980291502}}}, "name": "37-30 Alexander St", "place_id": "ChIJSf67nwEQdkgRRpRQf-Z7LIY", "types": ["route"]}, "ChIJKYi-oQEQdkgReUcrsb5tTGw": {"geometry": {"location": {"lat": 51.5170314, "lng": -0.1923429}, "viewport": {"northeast": {"lat": 51.51837243029149, "lng": -0.191047719708498}, "southwest": {"lat": 51.51567446970849, "lng": -0.193745680291502}}}, "name": "Hodgkinson Design", "place_id": "ChIJKYi-oQEQdkgReUcrsb5tTGw", "types": ["point_of_interest", "establishment"], "rating": 5, "user_ratings_total": 1}, "ChIJ8y-zlwEQdkgRh-A7Dvlsz7k": {"geometry": {"location": {"lat": 51.5166864, "lng": -0.192602}, "viewport": {"northeast": {"lat": 51.51805468029151, "lng": -0.191122019708498}, "southwest": {"lat": 51.51535671970851, "lng": -0.193819980291502}}}, "name": "Philippa Holland Fine Jewellery", "place_id": "ChIJ8y-zlwEQdkgRh-A7Dvlsz7k", "types": ["jewelry_store", "point_of_interest", "store", "establishment"]}, "ChIJJZmWmQEQdkgRtRn8lhUsS-0": {"geometry": {"location": {"lat": 51.5169545, "lng": -0.1926958}, "viewport": {"northeast": {"lat": 51.5183222302915, "lng": -0.1912196697084979}, "southwest": {"lat": 51.5156242697085, "lng": -0.193917630291502}}}, "name": "London Water Filters", "place_id": "ChIJJZmWmQEQdkgRtRn8lhUsS-0", "types": ["point_of_interest", "establishment"]}, "ChIJ5TLTkHkbdkgRQnk2dIJkxmk": {"geometry": {"location": {"lat": 51.5169942, "lng": -0.1922615}, "viewport": {"northeast": {"lat": 51.5183311802915, "lng": -0.190996569708498}, "southwest": {"lat": 51.5156332197085, "lng": -0.193694530291502}}}, "name": "scrap my car", "place_id": "ChIJ5TLTkHkbdkgRQnk2dIJkxmk", "types": ["car_dealer", "point_of_interest", "store", "establishment"], "rating": 5, "user_ratings_total": 1}, "ChIJKYi-oQEQdkgRKOZwG7VcY4Y": {"geometry": {"location": {"lat": 51.51738039999999, "lng": -0.192463}, "viewport": {"northeast": {"lat": 51.51872283029149, "lng": -0.191166119708498}, "southwest": {"lat": 51.5160248697085, "lng": -0.1938640802915021}}}, "name": "Bayswater Referral Clinic", "place_id": "ChIJKYi-oQEQdkgRKOZwG7VcY4Y", "types": ["veterinary_care", "point_of_interest", "establishment"], "rating": 4.5, "user_ratings_total": 39}, "ChIJP9r5nwEQdkgRj6BQEcwYI08": {"geometry": {"location": {"lat": 51.51743889999999, "lng": -0.1924954}, "viewport": {"northeast": {"lat": 51.5187826302915, "lng": -0.1911881197084979}, "southwest": {"lat": 51.5160846697085, "lng": -0.193886080291502}}}, "name": "Veterinary Clinic", "place_id": "ChIJP9r5nwEQdkgRj6BQEcwYI08", "types": ["veterinary_care", "point_of_interest", "establishment"]}, "ChIJ00AbFwcRdkgRacMEDJiMEM0": {"geometry": {"location": {"lat": 51.5174855, "lng": -0.1925067}, "viewport": {"northeast": {"lat": 51.5188288302915, "lng": -0.1912030197084979}, "southwest": {"lat": 51.5161308697085, "lng": -0.193900980291502}}}, "name": "Westbourne girl beauty and Lipofirm pro clinic", "place_id": "ChIJ00AbFwcRdkgRacMEDJiMEM0", "types": ["beauty_salon", "hair_care", "spa", "point_of_interest", "establishment"], "rating": 5, "user_ratings_total": 10}, "ChIJXdgDtIMRdkgRI_lAr6b8y5I": {"geometry": {"location": {"lat": 51.5174855, "lng": -0.1925067}, "viewport": {"northeast": {"lat": 51.5188288302915, "lng": -0.1912030197084979}, "southwest": {"lat": 51.5161308697085, "lng": -0.193900980291502}}}, "name": "Namaste Holistic Sanctuary", "place_id": "ChIJXdgDtIMRdkgRI_lAr6b8y5I", "types": ["beauty_salon", "point_of_interest", "establishment"], "rating": 5, "user_ratings_total": 4}, "ChIJMdI_DIsRdkgRtcZuArCrOBs": {"geometry": {"location": {"lat": 51.51749, "lng": -0.1928368}, "viewport": {"northeast": {"lat": 51.5188534302915, "lng": -0.191381219708498}, "southwest": {"lat": 51.5161554697085, "lng": -0.194079180291502}}}, "name": "Rapid EICR Report Service", "place_id": "ChIJMdI_DIsRdkgRtcZuArCrOBs", "types": ["point_of_interest", "establishment"]}, "ChIJhSQwqT4PdkgRwrS3MSvfFkk": {"geometry": {"location": {"lat": 51.5175137, "lng": -0.1929377}, "viewport": {"northeast": {"lat": 51.5188831302915, "lng": -0.191437919708498}, "southwest": {"lat": 51.5161851697085, "lng": -0.1941358802915021}}}, "name": "Harper Fine Dining Recruitment", "place_id": "ChIJhSQwqT4PdkgRwrS3MSvfFkk", "types": ["point_of_interest", "establishment"], "rating": 5, "user_ratings_total": 13}, "ChIJ5c-QxwEQdkgRDHtqu1BV8Wg": {"geometry": {"location": {"lat": 51.51601360022107, "lng": -0.1925226501542062}, "viewport": {"northeast": {"lat": 51.5173625802915, "lng": -0.191173669708498}, "southwest": {"lat": 51.5146646197085, "lng": -0.193871630291502}}}, "name": "33-41 Newton Rd", "place_id": "ChIJ5c-QxwEQdkgRDHtqu1BV8Wg", "types": ["route"]}, "ChIJi3i_6gEQdkgRvGPc_Ate-HY": {"geometry": {"location": {"lat": 51.5161102, "lng": -0.1925616}, "viewport": {"northeast": {"lat": 51.51741053029151, "lng": -0.191195669708498}, "southwest": {"lat": 51.51471256970851, "lng": -0.193893630291502}}}, "name": "Melanie Boissevain", "place_id": "ChIJi3i_6gEQdkgRvGPc_Ate-HY", "types": ["general_contractor", "point_of_interest", "establishment"]}, "ChIJb_JPwAEQdkgRmhRtQtzbBGs": {"geometry": {"location": {"lat": 51.516039, "lng": -0.1923377}, "viewport": {"northeast": {"lat": 51.5173569802915, "lng": -0.190977919708498}, "southwest": {"lat": 51.5146590197085, "lng": -0.193675880291502}}}, "name": "TV Broadcast Service", "place_id": "ChIJb_JPwAEQdkgRmhRtQtzbBGs", "types": ["point_of_interest", "establishment"]}, "ChIJFXQtxQEQdkgRoOfwX50zb9I": {"geometry": {"location": {"lat": 51.5155551, "lng": -0.1928308}, "viewport": {"northeast": {"lat": 51.5167759302915, "lng": -0.191444219708498}, "southwest": {"lat": 51.51407796970851, "lng": -0.194142180291502}}}, "name": "A M Investments", "place_id": "ChIJFXQtxQEQdkgRoOfwX50zb9I", "types": ["general_contractor", "point_of_interest", "establishment"], "rating": 5, "user_ratings_total": 3}, "ChIJ0wiWxwEQdkgRvom15NlkuHQ": {"geometry": {"location": {"lat": 51.5160095, "lng": -0.1918399}, "viewport": {"northeast": {"lat": 51.5174044802915, "lng": -0.190506969708498}, "southwest": {"lat": 51.5147065197085, "lng": -0.193204930291502}}}, "name": "Virginia Ashton Lamps", "place_id": "ChIJ0wiWxwEQdkgRvom15NlkuHQ", "types": ["home_goods_store", "point_of_interest", "store", "establishment"]}, "ChIJoQ6r7QEQdkgR7chenFO00Rw": {"geometry": {"location": {"lat": 51.51598510000001, "lng": -0.1930324}, "viewport": {"northeast": {"lat": 51.51732288029151, "lng": -0.191668469708498}, "southwest": {"lat": 51.51462491970851, "lng": -0.194366430291502}}}, "name": "Zipcar", "place_id": "ChIJoQ6r7QEQdkgR7chenFO00Rw", "types": ["car_rental", "point_of_interest", "establishment"]}, "ChIJX6F0wAEQdkgRUGpgi-xaqi4": {"geometry": {"location": {"lat": 51.5161452, "lng": -0.192375}, "viewport": {"northeast": {"lat": 51.51744088029149, "lng": -0.1910074197084979}, "southwest": {"lat": 51.51474291970849, "lng": -0.193705380291502}}}, "name": "ANALYSIS24 LIMITED", "place_id": "ChIJX6F0wAEQdkgRUGpgi-xaqi4", "types": ["point_of_interest", "establishment"]}, "ChIJwbtojQEQdkgRnzk7NQBJg1Y": {"geometry": {"location": {"lat": 51.5162817, "lng": -0.1932489}, "viewport": {"northeast": {"lat": 51.51763888029149, "lng": -0.191832519708498}, "southwest": {"lat": 51.5149409197085, "lng": -0.194530480291502}}}, "name": "Kildare Gardens", "place_id": "ChIJwbtojQEQdkgRnzk7NQBJg1Y", "types": ["park", "point_of_interest", "establishment"], "rating": 4.5, "user_ratings_total": 24}, "ChIJ69YLvgEQdkgRHo_dp1qLSGw": {"geometry": {"location": {"lat": 51.5164811, "lng": -0.1924039}, "viewport": {"northeast": {"lat": 51.5178403802915, "lng": -0.190981919708498}, "southwest": {"lat": 51.5151424197085, "lng": -0.193679880291502}}}, "name": "ubitricity Charging Station", "place_id": "ChIJ69YLvgEQdkgRHo_dp1qLSGw", "types": ["point_of_interest", "establishment"]}, "ChIJ___b7wEQdkgRaUBK3xVkXAk": {"geometry": {"location": {"lat": 51.51560879999999, "lng": -0.193181}, "viewport": {"northeast": {"lat": 51.51696758029149, "lng": -0.1917358697084979}, "southwest": {"lat": 51.5142696197085, "lng": -0.194433830291502}}}, "name": "Evolve Search Ltd.", "place_id": "ChIJ___b7wEQdkgRaUBK3xVkXAk", "types": ["point_of_interest", "establishment"]}, "ChIJLQJ05wEQdkgRR65Ofld_w0s": {"geometry": {"location": {"lat": 51.51532380050832, "lng": -0.1925357002983514}, "viewport": {"northeast": {"lat": 51.51667278029149, "lng": -0.191186719708498}, "southwest": {"lat": 51.51397481970849, "lng": -0.193884680291502}}}, "name": "76-64 A4206", "place_id": "ChIJLQJ05wEQdkgRR65Ofld_w0s", "types": ["route"]}, "ChIJO30D2QEQdkgRQuLUmVzx9jo": {"geometry": {"location": {"lat": 51.51506, "lng": -0.192105}, "viewport": {"northeast": {"lat": 51.5164230802915, "lng": -0.190625269708498}, "southwest": {"lat": 51.5137251197085, "lng": -0.193323230291502}}}, "name": "Bridgeman Images", "place_id": "ChIJO30D2QEQdkgRQuLUmVzx9jo", "types": ["point_of_interest", "establishment"], "rating": 5, "user_ratings_total": 6}, "ChIJyzHZ3QEQdkgRCY4oi4U7fBo": {"geometry": {"location": {"lat": 51.5152727, "lng": -0.1920733}, "viewport": {"northeast": {"lat": 51.51667158029149, "lng": -0.190737819708498}, "southwest": {"lat": 51.51397361970849, "lng": -0.193435780291502}}}, "name": "Al Waha", "place_id": "ChIJyzHZ3QEQdkgRCY4oi4U7fBo", "types": ["restaurant", "food", "point_of_interest", "establishment"], "rating": 4.2, "user_ratings_total": 412}, "ChIJlXMtxQEQdkgROobJcsHOHTk": {"geometry": {"location": {"lat": 51.51519940000001, "lng": -0.1923961}, "viewport": {"northeast": {"lat": 51.5166162302915, "lng": -0.191067019708498}, "southwest": {"lat": 51.5139182697085, "lng": -0.193764980291502}}}, "name": "Robin Monotti Architects", "place_id": "ChIJlXMtxQEQdkgROobJcsHOHTk", "types": ["general_contractor", "point_of_interest", "establishment"]}, "ChIJRT-6MvwPdkgRub2tgMCBRjQ": {"geometry": {"location": {"lat": 51.51518489999999, "lng": -0.1927858999999999}, "viewport": {"northeast": {"lat": 51.5165873302915, "lng": -0.191452619708498}, "southwest": {"lat": 51.5138893697085, "lng": -0.194150580291502}}}, "name": "Jack Nadel International Ltd", "place_id": "ChIJRT-6MvwPdkgRub2tgMCBRjQ", "types": ["point_of_interest", "establishment"], "rating": 5, "user_ratings_total": 1}, "ChIJFysa4QEQdkgRaqU6LHpegOs": {"geometry": {"location": {"lat": 51.51512229999999, "lng": -0.1926967}, "viewport": {"northeast": {"lat": 51.5164642302915, "lng": -0.191416969708498}, "southwest": {"lat": 51.5137662697085, "lng": -0.194114930291502}}}, "name": "Kingdom Hall of Jehovah's Witnesses - Bayswater", "place_id": "ChIJFysa4QEQdkgRaqU6LHpegOs", "types": ["church", "place_of_worship", "point_of_interest", "establishment"], "rating": 4.3, "user_ratings_total": 21}, "ChIJJeZ74wEQdkgRRaSxXA9ggsM": {"geometry": {"location": {"lat": 51.5151529, "lng": -0.1930118}, "viewport": {"northeast": {"lat": 51.5165591302915, "lng": -0.191678469708498}, "southwest": {"lat": 51.5138611697085, "lng": -0.194376430291502}}}, "name": "Cocotte", "place_id": "ChIJJeZ74wEQdkgRRaSxXA9ggsM", "types": ["restaurant", "food", "point_of_interest", "establishment"], "rating": 4.4, "user_ratings_total": 357}, "ChIJy1ZC-wEQdkgRFnfudBVFEMo": {"geometry": {"location": {"lat": 51.5152526, "lng": -0.1921845}, "viewport": {"northeast": {"lat": 51.5166554802915, "lng": -0.190849969708498}, "southwest": {"lat": 51.5139575197085, "lng": -0.193547930291502}}}, "name": "Devon&Devon", "place_id": "ChIJy1ZC-wEQdkgRFnfudBVFEMo", "types": ["home_goods_store", "general_contractor", "point_of_interest", "store", "establishment"], "rating": 3.9, "user_ratings_total": 11}, "ChIJv436-gEQdkgRav-yNfl9jYs": {"geometry": {"location": {"lat": 51.51535399999999, "lng": -0.193159}, "viewport": {"northeast": {"lat": 51.5166566802915, "lng": -0.191780119708498}, "southwest": {"lat": 51.5139587197085, "lng": -0.194478080291502}}}, "name": "BENS", "place_id": "ChIJv436-gEQdkgRav-yNfl9jYs", "types": ["grocery_or_supermarket", "food", "point_of_interest", "store", "establishment"], "rating": 4.6, "user_ratings_total": 120}, "ChIJMZWk4wEQdkgRj2afJEMbBP8": {"geometry": {"location": {"lat": 51.5150877, "lng": -0.1929417}, "viewport": {"northeast": {"lat": 51.5164422302915, "lng": -0.191538219708498}, "southwest": {"lat": 51.5137442697085, "lng": -0.194236180291502}}}, "name": "Westmont Court", "place_id": "ChIJMZWk4wEQdkgRj2afJEMbBP8", "types": ["point_of_interest", "establishment"]}, "ChIJs_xB3QEQdkgRjgBMBMJZNV8": {"geometry": {"location": {"lat": 51.5151722, "lng": -0.1927161000000001}, "viewport": {"northeast": {"lat": 51.5165846302915, "lng": -0.191385719708498}, "southwest": {"lat": 51.5138866697085, "lng": -0.194083680291502}}}, "name": "Westboure dry cleaners", "place_id": "ChIJs_xB3QEQdkgRjgBMBMJZNV8", "types": ["laundry", "point_of_interest", "establishment"]}, "ChIJawAluXoRdkgRlBGcoynvUow": {"geometry": {"location": {"lat": 51.515183, "lng": -0.1926191}, "viewport": {"northeast": {"lat": 51.5165955302915, "lng": -0.191288769708498}, "southwest": {"lat": 51.5138975697085, "lng": -0.193986730291502}}}, "name": "Prezzemolo & Vitale", "place_id": "ChIJawAluXoRdkgRlBGcoynvUow", "types": ["grocery_or_supermarket", "food", "point_of_interest", "store", "establishment"], "rating": 4.4, "user_ratings_total": 192}, "ChIJGXwT3gEQdkgRm3sIgo8y7b8": {"geometry": {"location": {"lat": 51.5151183, "lng": -0.1923825}, "viewport": {"northeast": {"lat": 51.5164950802915, "lng": -0.190775919708498}, "southwest": {"lat": 51.5137971197085, "lng": -0.193473880291502}}}, "name": "Artists\u2019 Collecting Society", "place_id": "ChIJGXwT3gEQdkgRm3sIgo8y7b8", "types": ["point_of_interest", "establishment"]}, "ChIJq45e3gEQdkgRrkRJd5GckqU": {"geometry": {"location": {"lat": 51.5151174, "lng": -0.1923496}, "viewport": {"northeast": {"lat": 51.5163866802915, "lng": -0.190977769708498}, "southwest": {"lat": 51.5136887197085, "lng": -0.193675730291502}}}, "name": "Fifty50art Llp", "place_id": "ChIJq45e3gEQdkgRrkRJd5GckqU", "types": ["point_of_interest", "establishment"]}, "ChIJJeZ74wEQdkgRw0G1-C3jmKY": {"geometry": {"location": {"lat": 51.515153, "lng": -0.1930426}, "viewport": {"northeast": {"lat": 51.5165575802915, "lng": -0.191708819708498}, "southwest": {"lat": 51.5138596197085, "lng": -0.194406780291502}}}, "name": "Neds Noodle Bar", "place_id": "ChIJJeZ74wEQdkgRw0G1-C3jmKY", "types": ["restaurant", "food", "point_of_interest", "establishment"], "rating": 5, "user_ratings_total": 1}, "ChIJu7Ii5wEQdkgRmTH9XRD4gto": {"geometry": {"location": {"lat": 51.51523169999999, "lng": -0.1926474}, "viewport": {"northeast": {"lat": 51.5166190802915, "lng": -0.191309719708498}, "southwest": {"lat": 51.5139211197085, "lng": -0.194007680291502}}}, "name": "Jump Gbs Ltd.", "place_id": "ChIJu7Ii5wEQdkgRmTH9XRD4gto", "types": ["point_of_interest", "establishment"]}, "ChIJqeyy0k8RdkgR9UISRdbJp7A": {"geometry": {"location": {"lat": 51.5151449, "lng": -0.1931353}, "viewport": {"northeast": {"lat": 51.5165486302915, "lng": -0.191801319708498}, "southwest": {"lat": 51.5138506697085, "lng": -0.194499280291502}}}, "name": "Parkside -architectural tiles Notting Hill", "place_id": "ChIJqeyy0k8RdkgR9UISRdbJp7A", "types": ["home_goods_store", "point_of_interest", "store", "establishment"]}, "ChIJX27c2wEQdkgRYtlB-4Pmjzo": {"geometry": {"location": {"lat": 51.5151371, "lng": -0.1922617}, "viewport": {"northeast": {"lat": 51.5165072802915, "lng": -0.190716319708498}, "southwest": {"lat": 51.51380931970851, "lng": -0.193414280291502}}}, "name": "Media Incorporated Ltd", "place_id": "ChIJX27c2wEQdkgRYtlB-4Pmjzo", "types": ["point_of_interest", "establishment"]}, "ChIJi-ww_AEQdkgR4Q6_q9TlPzY": {"geometry": {"location": {"lat": 51.515179, "lng": -0.1931689}, "viewport": {"northeast": {"lat": 51.5165644302915, "lng": -0.191829919708498}, "southwest": {"lat": 51.5138664697085, "lng": -0.194527880291502}}}, "name": "99 Dry Cleaners", "place_id": "ChIJi-ww_AEQdkgR4Q6_q9TlPzY", "types": ["laundry", "point_of_interest", "establishment"], "rating": 3.8, "user_ratings_total": 10}, "ChIJyzHZ3QEQdkgRfXebfPti5Cs": {"geometry": {"location": {"lat": 51.51523630000001, "lng": -0.1923908}, "viewport": {"northeast": {"lat": 51.51663558029151, "lng": -0.191056569708498}, "southwest": {"lat": 51.51393761970851, "lng": -0.193754530291502}}}, "name": "J H Kenyon / J Hemp Funeral Directors", "place_id": "ChIJyzHZ3QEQdkgRfXebfPti5Cs", "types": ["funeral_home", "point_of_interest", "establishment"], "rating": 5, "user_ratings_total": 2}, "ChIJ1XrF3QEQdkgRfOdnr8Sh_Ag": {"geometry": {"location": {"lat": 51.5152278, "lng": -0.1923295}, "viewport": {"northeast": {"lat": 51.5166345802915, "lng": -0.190997469708498}, "southwest": {"lat": 51.5139366197085, "lng": -0.193695430291502}}}, "name": "Racil C Limited", "place_id": "ChIJ1XrF3QEQdkgRfOdnr8Sh_Ag", "types": ["point_of_interest", "establishment"]}, "ChIJl9dKH2QRdkgRpDjjLCwsrZk": {"geometry": {"location": {"lat": 51.515245, "lng": -0.192362}, "viewport": {"northeast": {"lat": 51.5166416802915, "lng": -0.191027019708498}, "southwest": {"lat": 51.5139437197085, "lng": -0.193724980291502}}}, "name": "Craig & Rose Showroom Notting Hill", "place_id": "ChIJl9dKH2QRdkgRpDjjLCwsrZk", "types": ["home_goods_store", "point_of_interest", "store", "establishment"], "rating": 4, "user_ratings_total": 8}, "ChIJSwic8LMRdkgRQ74r2xrtNig": {"geometry": {"location": {"lat": 51.5151515, "lng": -0.1921954}, "viewport": {"northeast": {"lat": 51.5165179802915, "lng": -0.1906841197084979}, "southwest": {"lat": 51.5138200197085, "lng": -0.193382080291502}}}, "name": "Tank Top Media Ltd", "place_id": "ChIJSwic8LMRdkgRQ74r2xrtNig", "types": ["point_of_interest", "establishment"]}, "ChIJ5VxITD8RdkgRgmJIm8bKt3s": {"geometry": {"location": {"lat": 51.51512549999999, "lng": -0.1933577}, "viewport": {"northeast": {"lat": 51.51652848029149, "lng": -0.192005369708498}, "southwest": {"lat": 51.51383051970849, "lng": -0.1947033302915021}}}, "name": "Beam", "place_id": "ChIJ5VxITD8RdkgRgmJIm8bKt3s", "types": ["cafe", "food", "point_of_interest", "establishment"], "rating": 4.8, "user_ratings_total": 100}, "ChIJXRVe3T4RdkgRWJ_Ts-33kf0": {"geometry": {"location": {"lat": 51.5151543, "lng": -0.1933517}, "viewport": {"northeast": {"lat": 51.5165423302915, "lng": -0.192010819708498}, "southwest": {"lat": 51.5138443697085, "lng": -0.194708780291502}}}, "name": "Saxbury", "place_id": "ChIJXRVe3T4RdkgRWJ_Ts-33kf0", "types": ["real_estate_agency", "point_of_interest", "establishment"]}, "ChIJrdGqFLkPdkgRC3Gpq2GxEUg": {"geometry": {"location": {"lat": 51.5148214, "lng": -0.1919703}, "viewport": {"northeast": {"lat": 51.5161939302915, "lng": -0.190526919708498}, "southwest": {"lat": 51.5134959697085, "lng": -0.193224880291502}}}, "name": "College Park School", "place_id": "ChIJrdGqFLkPdkgRC3Gpq2GxEUg", "types": ["school", "point_of_interest", "establishment"]}, "ChIJZTqD3QEQdkgRSGIrZ1_iDy4": {"geometry": {"location": {"lat": 51.5153883, "lng": -0.1926967}, "viewport": {"northeast": {"lat": 51.5166972302915, "lng": -0.191335869708498}, "southwest": {"lat": 51.5139992697085, "lng": -0.194033830291502}}}, "name": "247 Detectives & Private Investigators", "place_id": "ChIJZTqD3QEQdkgRSGIrZ1_iDy4", "types": ["point_of_interest", "establishment"]}, "ChIJ989c3gEQdkgRMAzbCFEJxkM": {"geometry": {"location": {"lat": 51.5151869, "lng": -0.1920573}, "viewport": {"northeast": {"lat": 51.5165456302915, "lng": -0.190617869708498}, "southwest": {"lat": 51.5138476697085, "lng": -0.193315830291502}}}, "name": "Tappin Removal & Storage", "place_id": "ChIJ989c3gEQdkgRMAzbCFEJxkM", "types": ["moving_company", "storage", "point_of_interest", "establishment"]}, "ChIJASliqw0RdkgRC0oWGdFNFrQ": {"geometry": {"location": {"lat": 51.51515680000001, "lng": -0.1934089}, "viewport": {"northeast": {"lat": 51.5165406302915, "lng": -0.192069519708498}, "southwest": {"lat": 51.51384266970851, "lng": -0.194767480291502}}}, "name": "Molecule | Wellness | CBD London", "place_id": "ChIJASliqw0RdkgRC0oWGdFNFrQ", "types": ["cafe", "food", "gym", "health", "point_of_interest", "store", "establishment"], "rating": 5, "user_ratings_total": 20}, "ChIJm8jT5AEQdkgRV5QPW9EmyV8": {"geometry": {"location": {"lat": 51.5153135, "lng": -0.1931838}, "viewport": {"northeast": {"lat": 51.51663423029149, "lng": -0.191827119708498}, "southwest": {"lat": 51.51393626970849, "lng": -0.194525080291502}}}, "name": "Zenildo Filho", "place_id": "ChIJm8jT5AEQdkgRV5QPW9EmyV8", "types": ["point_of_interest", "establishment"]}, "ChIJ5Wv-5AEQdkgRrUrE-A4_keg": {"geometry": {"location": {"lat": 51.51536489999999, "lng": -0.1930694999999999}, "viewport": {"northeast": {"lat": 51.51666513029149, "lng": -0.191707169708498}, "southwest": {"lat": 51.51396716970849, "lng": -0.194405130291502}}}, "name": "Domus Nova", "place_id": "ChIJ5Wv-5AEQdkgRrUrE-A4_keg", "types": ["real_estate_agency", "point_of_interest", "establishment"], "rating": 4.9, "user_ratings_total": 61}, "ChIJFYbIIHcRdkgRgNZBrJUw8aM": {"geometry": {"location": {"lat": 51.5153206, "lng": -0.1931862}, "viewport": {"northeast": {"lat": 51.51663473029149, "lng": -0.191852219708498}, "southwest": {"lat": 51.51393676970849, "lng": -0.194550180291502}}}, "name": "Gustav Fouche", "place_id": "ChIJFYbIIHcRdkgRgNZBrJUw8aM", "types": ["hair_care", "point_of_interest", "establishment"], "rating": 4.9, "user_ratings_total": 34}, "ChIJm8jT5AEQdkgRqdYqYZNgC5k": {"geometry": {"location": {"lat": 51.5153206, "lng": -0.1931862}, "viewport": {"northeast": {"lat": 51.5166363302915, "lng": -0.191843119708498}, "southwest": {"lat": 51.5139383697085, "lng": -0.194541080291502}}}, "name": "Salon Contemporary", "place_id": "ChIJm8jT5AEQdkgRqdYqYZNgC5k", "types": ["point_of_interest", "establishment"]}, "ChIJIRtwIgAQdkgR8L-KEQXvTBk": {"geometry": {"location": {"lat": 51.5150744, "lng": -0.1934994}, "viewport": {"northeast": {"lat": 51.5164935802915, "lng": -0.192169769708498}, "southwest": {"lat": 51.5137956197085, "lng": -0.194867730291502}}}, "name": "UK Immigration & Property Solicitors", "place_id": "ChIJIRtwIgAQdkgR8L-KEQXvTBk", "types": ["lawyer", "point_of_interest", "establishment"]}, "ChIJl8Z05QEQdkgRjg1DQS0tPXQ": {"geometry": {"location": {"lat": 51.5153791, "lng": -0.1930575}, "viewport": {"northeast": {"lat": 51.51667303029149, "lng": -0.191693469708498}, "southwest": {"lat": 51.5139750697085, "lng": -0.194391430291502}}}, "name": "Domus Nova Investments", "place_id": "ChIJl8Z05QEQdkgRjg1DQS0tPXQ", "types": ["finance", "point_of_interest", "establishment"]}, "ChIJY120LIkRdkgRJq6J5Hnk1eU": {"geometry": {"location": {"lat": 51.5150744, "lng": -0.1934994}, "viewport": {"northeast": {"lat": 51.5164935802915, "lng": -0.192169769708498}, "southwest": {"lat": 51.5137956197085, "lng": -0.194867730291502}}}, "name": "Apogii Clinic Cryo + Wellness", "place_id": "ChIJY120LIkRdkgRJq6J5Hnk1eU", "types": ["beauty_salon", "spa", "health", "point_of_interest", "establishment"], "rating": 5, "user_ratings_total": 31}, "ChIJXUiAlfYRdkgRKyMS3_hcR7s": {"geometry": {"location": {"lat": 51.51533509999999, "lng": -0.1932089}, "viewport": {"northeast": {"lat": 51.51664263029149, "lng": -0.191852219708498}, "southwest": {"lat": 51.51394466970849, "lng": -0.194550180291502}}}, "name": "De Lesseps", "place_id": "ChIJXUiAlfYRdkgRKyMS3_hcR7s", "types": ["clothing_store", "point_of_interest", "store", "establishment"]}, "ChIJVxjf5QEQdkgRkv7DELI1zeQ": {"geometry": {"location": {"lat": 51.51543599999999, "lng": -0.1927123}, "viewport": {"northeast": {"lat": 51.5167945802915, "lng": -0.191464919708498}, "southwest": {"lat": 51.5140966197085, "lng": -0.194162880291502}}}, "name": "Farmacy", "place_id": "ChIJVxjf5QEQdkgRkv7DELI1zeQ", "types": ["restaurant", "food", "point_of_interest", "establishment"], "rating": 4.3, "user_ratings_total": 1563}, "ChIJvW_c2wEQdkgRceQ1gVKXulc": {"geometry": {"location": {"lat": 51.51522059999999, "lng": -0.1920313}, "viewport": {"northeast": {"lat": 51.5165774802915, "lng": -0.190609019708498}, "southwest": {"lat": 51.5138795197085, "lng": -0.193306980291502}}}, "name": "The Grove Media", "place_id": "ChIJvW_c2wEQdkgRceQ1gVKXulc", "types": ["point_of_interest", "establishment"], "rating": 4.5, "user_ratings_total": 8}, "ChIJOefR4mIFdkgRtZIYUQQiF84": {"geometry": {"location": {"lat": 51.5151, "lng": -0.193512}, "viewport": {"northeast": {"lat": 51.5165060802915, "lng": -0.192178769708498}, "southwest": {"lat": 51.5138081197085, "lng": -0.194876730291502}}}, "name": "Embassy of Guatemala", "place_id": "ChIJOefR4mIFdkgRtZIYUQQiF84", "types": ["embassy", "point_of_interest", "establishment"], "rating": 3.9, "user_ratings_total": 9}, "ChIJWXdbYgEQdkgRb9_Amw3EIWs": {"geometry": {"location": {"lat": 51.51829770740793, "lng": -0.1939122093549602}, "viewport": {"northeast": {"lat": 51.5196608302915, "lng": -0.192549169708498}, "southwest": {"lat": 51.51696286970851, "lng": -0.195247130291502}}}, "name": "65-67 Westbourne Park Rd", "place_id": "ChIJWXdbYgEQdkgRb9_Amw3EIWs", "types": ["route"]}, "ChIJJ7RTImwPdkgRla8Y4uRzB08": {"geometry": {"location": {"lat": 51.5183372, "lng": -0.1949129}, "viewport": {"northeast": {"lat": 51.5197633802915, "lng": -0.193599219708498}, "southwest": {"lat": 51.5170654197085, "lng": -0.196297180291502}}}, "name": "KitFit Personal Training", "place_id": "ChIJJ7RTImwPdkgRla8Y4uRzB08", "types": ["health", "point_of_interest", "establishment"]}, "ChIJyV2f2gMQdkgRCjH4oJYV4-k": {"geometry": {"location": {"lat": 51.5181842, "lng": -0.1945914}, "viewport": {"northeast": {"lat": 51.5195253302915, "lng": -0.193092669708498}, "southwest": {"lat": 51.5168273697085, "lng": -0.195790630291502}}}, "name": "Soubalt Ltd", "place_id": "ChIJyV2f2gMQdkgRCjH4oJYV4-k", "types": ["accounting", "finance", "point_of_interest", "establishment"]}, "ChIJ11Ys3AMQdkgRO9Iyv-RmFHE": {"geometry": {"location": {"lat": 51.5186139, "lng": -0.1943615}, "viewport": {"northeast": {"lat": 51.5199399802915, "lng": -0.192999969708498}, "southwest": {"lat": 51.5172420197085, "lng": -0.195697930291502}}}, "name": "Flyresearch Ltd", "place_id": "ChIJ11Ys3AMQdkgRO9Iyv-RmFHE", "types": ["point_of_interest", "establishment"]}, "ChIJd7aOwAMQdkgRl6yXNbAHcVU": {"geometry": {"location": {"lat": 51.5186882, "lng": -0.1946402}, "viewport": {"northeast": {"lat": 51.51997438029149, "lng": -0.1932625197084979}, "southwest": {"lat": 51.51727641970849, "lng": -0.195960480291502}}}, "name": "The Royal British Legion", "place_id": "ChIJd7aOwAMQdkgRl6yXNbAHcVU", "types": ["point_of_interest", "establishment"], "rating": 4, "user_ratings_total": 25}, "ChIJ73iNvKwadkgRBNRadGvosU0": {"geometry": {"location": {"lat": 51.51803599999999, "lng": -0.1942866}, "viewport": {"northeast": {"lat": 51.51938173029149, "lng": -0.192995119708498}, "southwest": {"lat": 51.5166837697085, "lng": -0.195693080291502}}}, "name": "Goditha Sings", "place_id": "ChIJ73iNvKwadkgRBNRadGvosU0", "types": ["point_of_interest", "establishment"]}, "ChIJIysO1gMQdkgRQdKwWK7xJGA": {"geometry": {"location": {"lat": 51.5178448, "lng": -0.1940135}, "viewport": {"northeast": {"lat": 51.5191977302915, "lng": -0.192666569708498}, "southwest": {"lat": 51.5164997697085, "lng": -0.195364530291502}}}, "name": "Zipcar", "place_id": "ChIJIysO1gMQdkgRQdKwWK7xJGA", "types": ["car_rental", "point_of_interest", "establishment"]}, "ChIJP492EigRdkgRqP7QHYGRbGo": {"geometry": {"location": {"lat": 51.51814779999999, "lng": -0.1937333}, "viewport": {"northeast": {"lat": 51.51954083029149, "lng": -0.192356219708498}, "southwest": {"lat": 51.51684286970849, "lng": -0.195054180291502}}}, "name": "St. Stephens Westbourne Park", "place_id": "ChIJP492EigRdkgRqP7QHYGRbGo", "types": ["church", "place_of_worship", "point_of_interest", "establishment"]}, "ChIJY-Vtp3wFdkgRxGVMt0X112w": {"geometry": {"location": {"lat": 51.5181335, "lng": -0.1936924}, "viewport": {"northeast": {"lat": 51.5196074802915, "lng": -0.192549819708498}, "southwest": {"lat": 51.51690951970851, "lng": -0.195247780291502}}}, "name": "Paint Pots Montessori School Bayswater & Creative Classes", "place_id": "ChIJY-Vtp3wFdkgRxGVMt0X112w", "types": ["school", "point_of_interest", "establishment"], "rating": 4.9, "user_ratings_total": 8}, "ChIJgeFgIQIQdkgR7pzqXEJHpxQ": {"geometry": {"location": {"lat": 51.51639991331525, "lng": -0.1942830681464777}, "viewport": {"northeast": {"lat": 51.51828815000007, "lng": -0.192948869708498}, "southwest": {"lat": 51.51450794999994, "lng": -0.195646830291502}}}, "name": "45-103 Hereford Rd", "place_id": "ChIJgeFgIQIQdkgR7pzqXEJHpxQ", "types": ["route"]}, "ChIJGyuNLgIQdkgRRlqLXkFXwH0": {"geometry": {"location": {"lat": 51.517065, "lng": -0.194467}, "viewport": {"northeast": {"lat": 51.51841408029149, "lng": -0.193117219708498}, "southwest": {"lat": 51.5157161197085, "lng": -0.195815180291502}}}, "name": "ubitricity Charging Station", "place_id": "ChIJGyuNLgIQdkgRRlqLXkFXwH0", "types": ["point_of_interest", "establishment"]}, "ChIJPz3gMQIQdkgRaJUahaeAWno": {"geometry": {"location": {"lat": 51.5170697, "lng": -0.1946896}, "viewport": {"northeast": {"lat": 51.5184293802915, "lng": -0.193259219708498}, "southwest": {"lat": 51.5157314197085, "lng": -0.195957180291502}}}, "name": "Danijela Cuk Interiors", "place_id": "ChIJPz3gMQIQdkgRaJUahaeAWno", "types": ["general_contractor", "point_of_interest", "establishment"]}, "ChIJTanNJAIQdkgRDRwtoFHnyHw": {"geometry": {"location": {"lat": 51.5173193, "lng": -0.1948596}, "viewport": {"northeast": {"lat": 51.5186842302915, "lng": -0.193388369708498}, "southwest": {"lat": 51.5159862697085, "lng": -0.196086330291502}}}, "name": "Portobello Psychic", "place_id": "ChIJTanNJAIQdkgRDRwtoFHnyHw", "types": ["general_contractor", "health", "point_of_interest", "establishment"], "rating": 2.8, "user_ratings_total": 6}, "ChIJXXLCEwIQdkgRGiMHQ_ynPfw": {"geometry": {"location": {"lat": 51.5158417, "lng": -0.1951265}, "viewport": {"northeast": {"lat": 51.5171801302915, "lng": -0.193847469708498}, "southwest": {"lat": 51.5144821697085, "lng": -0.196545430291502}}}, "name": "Tawana Oriental Supermarket", "place_id": "ChIJXXLCEwIQdkgRGiMHQ_ynPfw", "types": ["supermarket", "grocery_or_supermarket", "food", "point_of_interest", "store", "establishment"], "rating": 3.8, "user_ratings_total": 195}, "ChIJKccnIwAQdkgRtIF8_yqvvOM": {"geometry": {"location": {"lat": 51.51551430000001, "lng": -0.1942195}, "viewport": {"northeast": {"lat": 51.5168505802915, "lng": -0.192760119708498}, "southwest": {"lat": 51.5141526197085, "lng": -0.195458080291502}}}, "name": "Savana spa And Laser Hair Removal", "place_id": "ChIJKccnIwAQdkgRtIF8_yqvvOM", "types": ["beauty_salon", "hair_care", "spa", "health", "point_of_interest", "establishment"], "rating": 4.2, "user_ratings_total": 15}, "ChIJx3S5EwIQdkgRYwfbiCRrTZI": {"geometry": {"location": {"lat": 51.5157309, "lng": -0.1951293}, "viewport": {"northeast": {"lat": 51.5170891802915, "lng": -0.193835519708498}, "southwest": {"lat": 51.51439121970851, "lng": -0.196533480291502}}}, "name": "Om Thai Massage & Spa", "place_id": "ChIJx3S5EwIQdkgRYwfbiCRrTZI", "types": ["point_of_interest", "establishment"], "rating": 4.4, "user_ratings_total": 81}, "ChIJKfcPHgIQdkgRPdzfL1HDOBE": {"geometry": {"location": {"lat": 51.5158712, "lng": -0.1939893}, "viewport": {"northeast": {"lat": 51.51721313029149, "lng": -0.192699569708498}, "southwest": {"lat": 51.5145151697085, "lng": -0.1953975302915021}}}, "name": "B M E Consult", "place_id": "ChIJKfcPHgIQdkgRPdzfL1HDOBE", "types": ["point_of_interest", "establishment"]}, "ChIJ026GMpURdkgRRLYpOqNcssU": {"geometry": {"location": {"lat": 51.5157497, "lng": -0.1948307}, "viewport": {"northeast": {"lat": 51.51710783029149, "lng": -0.193396169708498}, "southwest": {"lat": 51.5144098697085, "lng": -0.196094130291502}}}, "name": "Float", "place_id": "ChIJ026GMpURdkgRRLYpOqNcssU", "types": ["doctor", "health", "point_of_interest", "establishment"]}, "ChIJHXTDIwIQdkgRGxkfKwhS6ZA": {"geometry": {"location": {"lat": 51.516391, "lng": -0.1943699}, "viewport": {"northeast": {"lat": 51.5177458302915, "lng": -0.192978019708498}, "southwest": {"lat": 51.5150478697085, "lng": -0.195675980291502}}}, "name": "ubitricity Charging Station", "place_id": "ChIJHXTDIwIQdkgRGxkfKwhS6ZA", "types": ["point_of_interest", "establishment"]}, "ChIJ-8yDHQIQdkgRMjElK8bcQa0": {"geometry": {"location": {"lat": 51.5156799, "lng": -0.1939674}, "viewport": {"northeast": {"lat": 51.5170249302915, "lng": -0.192651469708498}, "southwest": {"lat": 51.5143269697085, "lng": -0.195349430291502}}}, "name": "Hereford Road Development", "place_id": "ChIJ-8yDHQIQdkgRMjElK8bcQa0", "types": ["general_contractor", "point_of_interest", "establishment"]}, "ChIJ-U5uUdoRdkgRvBQrewUUcxo": {"geometry": {"location": {"lat": 51.51645660000001, "lng": -0.1945078}, "viewport": {"northeast": {"lat": 51.51781898029151, "lng": -0.193061219708498}, "southwest": {"lat": 51.51512101970851, "lng": -0.195759180291502}}}, "name": "Guglielmo Marconi Blue Plaque", "place_id": "ChIJ-U5uUdoRdkgRvBQrewUUcxo", "types": ["point_of_interest", "establishment"], "rating": 3, "user_ratings_total": 1}, "ChIJAQAs9gEQdkgRAzn3wwjSrYg": {"geometry": {"location": {"lat": 51.5156897, "lng": -0.1939177}, "viewport": {"northeast": {"lat": 51.5170307302915, "lng": -0.192635519708498}, "southwest": {"lat": 51.5143327697085, "lng": -0.195333480291502}}}, "name": "Cbn Solutions", "place_id": "ChIJAQAs9gEQdkgRAzn3wwjSrYg", "types": ["point_of_interest", "establishment"]}, "ChIJIyzN9wEQdkgRsxMn7B9m4MQ": {"geometry": {"location": {"lat": 51.5156897, "lng": -0.1939177}, "viewport": {"northeast": {"lat": 51.5170307302915, "lng": -0.192635519708498}, "southwest": {"lat": 51.5143327697085, "lng": -0.195333480291502}}}, "name": "B B B Reprographics", "place_id": "ChIJIyzN9wEQdkgRsxMn7B9m4MQ", "types": ["point_of_interest", "establishment"]}, "ChIJ5Zl-HQIQdkgRs_FFoXhxP70": {"geometry": {"location": {"lat": 51.515651, "lng": -0.1939565}, "viewport": {"northeast": {"lat": 51.5169958302915, "lng": -0.192642519708498}, "southwest": {"lat": 51.5142978697085, "lng": -0.195340480291502}}}, "name": "Lipinski Consulting Limited", "place_id": "ChIJ5Zl-HQIQdkgRs_FFoXhxP70", "types": ["real_estate_agency", "point_of_interest", "establishment"]}, "ChIJtVmHQjQRdkgR-Gr82UjZDIE": {"geometry": {"location": {"lat": 51.5158827, "lng": -0.1951497}, "viewport": {"northeast": {"lat": 51.5172235302915, "lng": -0.193866419708498}, "southwest": {"lat": 51.5145255697085, "lng": -0.196564380291502}}}, "name": "RE:NU DENTAL & MEDISPA - Aesthetics Clinic & Dentist Notting Hill, West London", "place_id": "ChIJtVmHQjQRdkgR-Gr82UjZDIE", "types": ["beauty_salon", "dentist", "spa", "doctor", "health", "point_of_interest", "establishment"], "rating": 5, "user_ratings_total": 39}, "ChIJyxYVTikRdkgRJIrEeu-KgUE": {"geometry": {"location": {"lat": 51.51575, "lng": -0.1951037}, "viewport": {"northeast": {"lat": 51.51709063029151, "lng": -0.193822119708498}, "southwest": {"lat": 51.51439266970851, "lng": -0.196520080291502}}}, "name": "Diesel Pro", "place_id": "ChIJyxYVTikRdkgRJIrEeu-KgUE", "types": ["school", "point_of_interest", "establishment"]}, "ChIJWZAGEwIQdkgRIgc7ZyTSojI": {"geometry": {"location": {"lat": 51.51571370000001, "lng": -0.19512}, "viewport": {"northeast": {"lat": 51.5170559802915, "lng": -0.193824969708498}, "southwest": {"lat": 51.5143580197085, "lng": -0.196522930291502}}}, "name": "Barrecore Notting Hill", "place_id": "ChIJWZAGEwIQdkgRIgc7ZyTSojI", "types": ["gym", "health", "point_of_interest", "establishment"], "rating": 4.4, "user_ratings_total": 37}, "ChIJ___QEwIQdkgRZUlx1Oi8cew": {"geometry": {"location": {"lat": 51.5156981, "lng": -0.1950794}, "viewport": {"northeast": {"lat": 51.5170382802915, "lng": -0.193801519708498}, "southwest": {"lat": 51.5143403197085, "lng": -0.196499480291502}}}, "name": "Legs", "place_id": "ChIJ___QEwIQdkgRZUlx1Oi8cew", "types": ["point_of_interest", "establishment"]}, "ChIJ70nGEwIQdkgR--hmYYtxFaE": {"geometry": {"location": {"lat": 51.5157136, "lng": -0.1951239}, "viewport": {"northeast": {"lat": 51.5170561302915, "lng": -0.193827019708498}, "southwest": {"lat": 51.5143581697085, "lng": -0.196524980291502}}}, "name": "Barre Toned", "place_id": "ChIJ70nGEwIQdkgR--hmYYtxFaE", "types": ["point_of_interest", "establishment"]}, "ChIJzRzsCAIQdkgRu4ZO20Tnihc": {"geometry": {"location": {"lat": 51.51508432629065, "lng": -0.1947665077090817}, "viewport": {"northeast": {"lat": 51.5164285302915, "lng": -0.193415319708498}, "southwest": {"lat": 51.51373056970851, "lng": -0.196113280291502}}}, "name": "112-110 A4206", "place_id": "ChIJzRzsCAIQdkgRu4ZO20Tnihc", "types": ["route"]}, "ChIJkxAoAgIQdkgRDKLAthaH8Tk": {"geometry": {"location": {"lat": 51.5152606, "lng": -0.1942716}, "viewport": {"northeast": {"lat": 51.5165549302915, "lng": -0.192866869708498}, "southwest": {"lat": 51.5138569697085, "lng": -0.195564830291502}}}, "name": "Clarendon Fine Art Westbourne Grove", "place_id": "ChIJkxAoAgIQdkgRDKLAthaH8Tk", "types": ["art_gallery", "point_of_interest", "establishment"], "rating": 3.9, "user_ratings_total": 14}, "ChIJ-ZstCAIQdkgRdRcFAICLpYU": {"geometry": {"location": {"lat": 51.5149094, "lng": -0.1947089}, "viewport": {"northeast": {"lat": 51.51615243029149, "lng": -0.193466369708498}, "southwest": {"lat": 51.5134544697085, "lng": -0.196164330291502}}}, "name": "Space NK Westbourne Grove", "place_id": "ChIJ-ZstCAIQdkgRdRcFAICLpYU", "types": ["point_of_interest", "store", "establishment"], "rating": 4.1, "user_ratings_total": 51}, "ChIJrUmc9v0PdkgRchHJX7aAFFI": {"geometry": {"location": {"lat": 51.514692, "lng": -0.1951163}, "viewport": {"northeast": {"lat": 51.5159745802915, "lng": -0.193673169708498}, "southwest": {"lat": 51.5132766197085, "lng": -0.1963711302915021}}}, "name": "Chepstow Cars Ltd", "place_id": "ChIJrUmc9v0PdkgRchHJX7aAFFI", "types": ["point_of_interest", "establishment"], "rating": 2.8, "user_ratings_total": 19}, "ChIJnaHK_wEQdkgRmPMHEg8q3Lw": {"geometry": {"location": {"lat": 51.51492040000001, "lng": -0.1936857}, "viewport": {"northeast": {"lat": 51.5162616302915, "lng": -0.192414769708498}, "southwest": {"lat": 51.5135636697085, "lng": -0.195112730291502}}}, "name": "Elegance Drycleaners", "place_id": "ChIJnaHK_wEQdkgRmPMHEg8q3Lw", "types": ["laundry", "point_of_interest", "establishment"], "rating": 4.5, "user_ratings_total": 8}, "ChIJUVN69_0PdkgRZv8vLfccKHk": {"geometry": {"location": {"lat": 51.51465289999999, "lng": -0.1947042}, "viewport": {"northeast": {"lat": 51.5160204802915, "lng": -0.193452469708498}, "southwest": {"lat": 51.5133225197085, "lng": -0.196150430291502}}}, "name": "The Baynards - Notting Hill Apartments", "place_id": "ChIJUVN69_0PdkgRZv8vLfccKHk", "types": ["point_of_interest", "establishment"], "rating": 4, "user_ratings_total": 3}, "ChIJx_U4BwIQdkgRRN7KlxewI4I": {"geometry": {"location": {"lat": 51.5149458, "lng": -0.1945795}, "viewport": {"northeast": {"lat": 51.5163729302915, "lng": -0.1932574697084979}, "southwest": {"lat": 51.5136749697085, "lng": -0.195955430291502}}}, "name": "Mark Alexander", "place_id": "ChIJx_U4BwIQdkgRRN7KlxewI4I", "types": ["point_of_interest", "establishment"], "rating": 5, "user_ratings_total": 1}, "ChIJxbERCAIQdkgRbwqJE082IQo": {"geometry": {"location": {"lat": 51.51489960000001, "lng": -0.1947257}, "viewport": {"northeast": {"lat": 51.5161563302915, "lng": -0.193501819708498}, "southwest": {"lat": 51.5134583697085, "lng": -0.196199780291502}}}, "name": "Margaret Dabbs London", "place_id": "ChIJxbERCAIQdkgRbwqJE082IQo", "types": ["beauty_salon", "doctor", "health", "point_of_interest", "establishment"], "rating": 4.6, "user_ratings_total": 16}, "ChIJx7yAAAIQdkgRayMcpdXTZ9c": {"geometry": {"location": {"lat": 51.51486380000001, "lng": -0.1941221}, "viewport": {"northeast": {"lat": 51.5162268802915, "lng": -0.192631319708498}, "southwest": {"lat": 51.5135289197085, "lng": -0.195329280291502}}}, "name": "RSTCPEEL", "place_id": "ChIJx7yAAAIQdkgRayMcpdXTZ9c", "types": ["point_of_interest", "establishment"]}, "ChIJfZjpAQIQdkgRw0k4LlrZrIw": {"geometry": {"location": {"lat": 51.5150802, "lng": -0.1940795}, "viewport": {"northeast": {"lat": 51.5164663302915, "lng": -0.192707519708498}, "southwest": {"lat": 51.5137683697085, "lng": -0.1954054802915021}}}, "name": "Caff\u00e8 Nero", "place_id": "ChIJfZjpAQIQdkgRw0k4LlrZrIw", "types": ["cafe", "food", "point_of_interest", "store", "establishment"], "rating": 4.1, "user_ratings_total": 245}, "ChIJh0fMDgIQdkgR4Bz4JuOAgKo": {"geometry": {"location": {"lat": 51.51519010000001, "lng": -0.1949183}, "viewport": {"northeast": {"lat": 51.51658288029151, "lng": -0.193650419708498}, "southwest": {"lat": 51.51388491970851, "lng": -0.196348380291502}}}, "name": "Maddox Gallery - Westbourne Grove", "place_id": "ChIJh0fMDgIQdkgR4Bz4JuOAgKo", "types": ["art_gallery", "point_of_interest", "establishment"], "rating": 4.5, "user_ratings_total": 53}, "ChIJwT3z_gEQdkgRICo8-cI-Op8": {"geometry": {"location": {"lat": 51.51507100000001, "lng": -0.1937687}, "viewport": {"northeast": {"lat": 51.5164778802915, "lng": -0.192435669708498}, "southwest": {"lat": 51.5137799197085, "lng": -0.195133630291502}}}, "name": "The Brazilian Wood Company", "place_id": "ChIJwT3z_gEQdkgRICo8-cI-Op8", "types": ["point_of_interest", "store", "establishment"]}, "ChIJQ8Id_wEQdkgRtXPQuP0ztM4": {"geometry": {"location": {"lat": 51.51507100000001, "lng": -0.193759}, "viewport": {"northeast": {"lat": 51.51641998029151, "lng": -0.1924100197084979}, "southwest": {"lat": 51.51372201970851, "lng": -0.195107980291502}}}, "name": "Franco Manca Westbourne Grove", "place_id": "ChIJQ8Id_wEQdkgRtXPQuP0ztM4", "types": ["restaurant", "food", "point_of_interest", "establishment"], "rating": 4.2, "user_ratings_total": 993}, "ChIJ01vU_f0PdkgRITLwjBjdu8M": {"geometry": {"location": {"lat": 51.51450550000001, "lng": -0.1941034}, "viewport": {"northeast": {"lat": 51.51587593029149, "lng": -0.1925766197084979}, "southwest": {"lat": 51.51317796970849, "lng": -0.195274580291502}}}, "name": "The Ascend Consultancy Group", "place_id": "ChIJ01vU_f0PdkgRITLwjBjdu8M", "types": ["point_of_interest", "establishment"]}, "ChIJ6cub4v0PdkgRtx2EYJhkOa8": {"geometry": {"location": {"lat": 51.5149012, "lng": -0.1940014}, "viewport": {"northeast": {"lat": 51.5162579802915, "lng": -0.192574169708498}, "southwest": {"lat": 51.5135600197085, "lng": -0.195272130291502}}}, "name": "Moroccan Sahara Restaurant", "place_id": "ChIJ6cub4v0PdkgRtx2EYJhkOa8", "types": ["restaurant", "food", "point_of_interest", "establishment"], "rating": 4.4, "user_ratings_total": 161}, "ChIJI18LDgIQdkgRP96HTPb8ml0": {"geometry": {"location": {"lat": 51.51538009999999, "lng": -0.1949047}, "viewport": {"northeast": {"lat": 51.5167158302915, "lng": -0.193658419708498}, "southwest": {"lat": 51.5140178697085, "lng": -0.196356380291502}}}, "name": "1st Call Detectives", "place_id": "ChIJI18LDgIQdkgRP96HTPb8ml0", "types": ["point_of_interest", "establishment"], "rating": 5, "user_ratings_total": 4}, "ChIJqYem9v0PdkgRhtF_t8qiFF0": {"geometry": {"location": {"lat": 51.51456899999999, "lng": -0.195016}, "viewport": {"northeast": {"lat": 51.5159093802915, "lng": -0.193601419708498}, "southwest": {"lat": 51.5132114197085, "lng": -0.196299380291502}}}, "name": "Sparkle Launderette & Dry Cleaners", "place_id": "ChIJqYem9v0PdkgRhtF_t8qiFF0", "types": ["laundry", "point_of_interest", "establishment"], "rating": 4.7, "user_ratings_total": 20}, "ChIJGwTaAf4PdkgRseEOPbIUGdA": {"geometry": {"location": {"lat": 51.5148654, "lng": -0.1936383}, "viewport": {"northeast": {"lat": 51.5162049802915, "lng": -0.192383619708498}, "southwest": {"lat": 51.5135070197085, "lng": -0.195081580291502}}}, "name": "Durbar Tandoori Restaurant", "place_id": "ChIJGwTaAf4PdkgRseEOPbIUGdA", "types": ["restaurant", "food", "point_of_interest", "establishment"], "rating": 4.3, "user_ratings_total": 291}, "ChIJUzUxAQIQdkgR3v4ZTKIf068": {"geometry": {"location": {"lat": 51.5149765, "lng": -0.1945764}, "viewport": {"northeast": {"lat": 51.51638913029149, "lng": -0.193249369708498}, "southwest": {"lat": 51.5136911697085, "lng": -0.195947330291502}}}, "name": "Lords Decorators Merchants", "place_id": "ChIJUzUxAQIQdkgR3v4ZTKIf068", "types": ["home_goods_store", "point_of_interest", "store", "establishment"], "rating": 4.5, "user_ratings_total": 8}, "ChIJ58HMBgIQdkgR7BbAdAKE2SI": {"geometry": {"location": {"lat": 51.51503510000001, "lng": -0.1943299}, "viewport": {"northeast": {"lat": 51.51643293029149, "lng": -0.192992919708498}, "southwest": {"lat": 51.5137349697085, "lng": -0.195690880291502}}}, "name": "Lords Builders Merchants", "place_id": "ChIJ58HMBgIQdkgR7BbAdAKE2SI", "types": ["home_goods_store", "point_of_interest", "store", "establishment"], "rating": 4.4, "user_ratings_total": 39}, "ChIJi-ww_AEQdkgREA4f6kYtyv0": {"geometry": {"location": {"lat": 51.5150843, "lng": -0.1942602}, "viewport": {"northeast": {"lat": 51.5164582302915, "lng": -0.192917369708498}, "southwest": {"lat": 51.5137602697085, "lng": -0.195615330291502}}}, "name": "Barley Chambers", "place_id": "ChIJi-ww_AEQdkgREA4f6kYtyv0", "types": ["point_of_interest", "establishment"], "rating": 3.7, "user_ratings_total": 3}, "ChIJnZNZNr8RdkgRVHIuL7PlBSE": {"geometry": {"location": {"lat": 51.5150425, "lng": -0.1941547}, "viewport": {"northeast": {"lat": 51.51644488029149, "lng": -0.192818869708498}, "southwest": {"lat": 51.5137469197085, "lng": -0.195516830291502}}}, "name": "NO-HI - Notting Hill Pok\u00e9 Bowls", "place_id": "ChIJnZNZNr8RdkgRVHIuL7PlBSE", "types": ["restaurant", "food", "point_of_interest", "establishment"], "rating": 4.6, "user_ratings_total": 8}, "ChIJL6vuwTYRdkgRUFmuRvyqt30": {"geometry": {"location": {"lat": 51.5150425, "lng": -0.1941547}, "viewport": {"northeast": {"lat": 51.51644488029149, "lng": -0.192818869708498}, "southwest": {"lat": 51.5137469197085, "lng": -0.195516830291502}}}, "name": "Charcoal Charlie - Rotisserie Chicken", "place_id": "ChIJL6vuwTYRdkgRUFmuRvyqt30", "types": ["restaurant", "food", "point_of_interest", "establishment"]}, "ChIJYx9-BgIQdkgRiREjZtY4ycI": {"geometry": {"location": {"lat": 51.5151644, "lng": -0.194495}, "viewport": {"northeast": {"lat": 51.5164920302915, "lng": -0.193133819708498}, "southwest": {"lat": 51.5137940697085, "lng": -0.1958317802915021}}}, "name": "Chepstow Road / Westbourne Grove (Stop PL)", "place_id": "ChIJYx9-BgIQdkgRiREjZtY4ycI", "types": ["transit_station", "point_of_interest", "establishment"], "rating": 3, "user_ratings_total": 2}, "ChIJ9ZHTQIIRdkgRZMpTQHfgPZQ": {"geometry": {"location": {"lat": 51.515226, "lng": -0.1945189}, "viewport": {"northeast": {"lat": 51.5165219802915, "lng": -0.193154919708498}, "southwest": {"lat": 51.5138240197085, "lng": -0.195852880291502}}}, "name": "Balfe's Bikes Notting Hill", "place_id": "ChIJ9ZHTQIIRdkgRZMpTQHfgPZQ", "types": ["bicycle_store", "point_of_interest", "store", "establishment"], "rating": 4.8, "user_ratings_total": 78}, "ChIJlXAzPQQRdkgR_hMBWMUztmQ": {"geometry": {"location": {"lat": 51.51525119999999, "lng": -0.1943762}, "viewport": {"northeast": {"lat": 51.5165413302915, "lng": -0.193012719708498}, "southwest": {"lat": 51.5138433697085, "lng": -0.195710680291502}}}, "name": "Or\u00e9e Notting Hill", "place_id": "ChIJlXAzPQQRdkgR_hMBWMUztmQ", "types": ["bakery", "food", "point_of_interest", "store", "establishment"], "rating": 4.2, "user_ratings_total": 34}, "ChIJ3wiOZ7YRdkgRKt0F0jJzSIw": {"geometry": {"location": {"lat": 51.5152303, "lng": -0.1946598}, "viewport": {"northeast": {"lat": 51.5165174302915, "lng": -0.193280519708498}, "southwest": {"lat": 51.5138194697085, "lng": -0.195978480291502}}}, "name": "Co-op Food - Westminster - Westbourne Grove", "place_id": "ChIJ3wiOZ7YRdkgRKt0F0jJzSIw", "types": ["convenience_store", "food", "point_of_interest", "store", "establishment"], "rating": 2.6, "user_ratings_total": 20}, "ChIJO7_cUCwRdkgRHB2UdEuwAYo": {"geometry": {"location": {"lat": 51.5152385, "lng": -0.1941382}, "viewport": {"northeast": {"lat": 51.5165458802915, "lng": -0.192778969708498}, "southwest": {"lat": 51.5138479197085, "lng": -0.195476930291502}}}, "name": "Sunday in Brooklyn", "place_id": "ChIJO7_cUCwRdkgRHB2UdEuwAYo", "types": ["restaurant", "food", "point_of_interest", "establishment"]}, "ChIJU9Gi8vkPdkgR13lkQIB4dzw": {"geometry": {"location": {"lat": 51.51465289999999, "lng": -0.1947042}, "viewport": {"northeast": {"lat": 51.5160204802915, "lng": -0.193452469708498}, "southwest": {"lat": 51.5133225197085, "lng": -0.196150430291502}}}, "name": "N.Y. Jones Photography", "place_id": "ChIJU9Gi8vkPdkgR13lkQIB4dzw", "types": ["point_of_interest", "establishment"], "rating": 5, "user_ratings_total": 2}, "ChIJh0fMDgIQdkgR2kgonV08_EE": {"geometry": {"location": {"lat": 51.51519010000001, "lng": -0.1949183}, "viewport": {"northeast": {"lat": 51.5165711302915, "lng": -0.193634369708498}, "southwest": {"lat": 51.5138731697085, "lng": -0.196332330291502}}}, "name": "Averys Property Management", "place_id": "ChIJh0fMDgIQdkgR2kgonV08_EE", "types": ["point_of_interest", "establishment"]}, "ChIJqbNOm6ARdkgRbSmVf7lTZe0": {"geometry": {"location": {"lat": 51.5152137, "lng": -0.1949305}, "viewport": {"northeast": {"lat": 51.51658323029149, "lng": -0.193644669708498}, "southwest": {"lat": 51.5138852697085, "lng": -0.196342630291502}}}, "name": "Maddox Gallery", "place_id": "ChIJqbNOm6ARdkgRbSmVf7lTZe0", "types": ["museum", "point_of_interest", "establishment"]}, "ChIJX0sCBQIQdkgR2BKA80ajaPI": {"geometry": {"location": {"lat": 51.5153666, "lng": -0.1945017}, "viewport": {"northeast": {"lat": 51.5167428302915, "lng": -0.192889269708498}, "southwest": {"lat": 51.5140448697085, "lng": -0.195587230291502}}}, "name": "R Whitham", "place_id": "ChIJX0sCBQIQdkgR2BKA80ajaPI", "types": ["point_of_interest", "establishment"]}, "ChIJz47FWMsFdkgR44l9erunuAA": {"geometry": {"location": {"lat": 51.5147413, "lng": -0.1950617}, "viewport": {"northeast": {"lat": 51.5159943802915, "lng": -0.193652369708498}, "southwest": {"lat": 51.5132964197085, "lng": -0.196350330291502}}}, "name": "Arcvelop", "place_id": "ChIJz47FWMsFdkgR44l9erunuAA", "types": ["finance", "point_of_interest", "establishment"], "rating": 5, "user_ratings_total": 7}, "ChIJm9UHMt0RdkgREEaVHZN3sBw": {"geometry": {"location": {"lat": 51.51504329999999, "lng": -0.1936717}, "viewport": {"northeast": {"lat": 51.5164686802915, "lng": -0.192343769708498}, "southwest": {"lat": 51.5137707197085, "lng": -0.195041730291502}}}, "name": "Little Greene Notting Hill Showroom", "place_id": "ChIJm9UHMt0RdkgREEaVHZN3sBw", "types": ["point_of_interest", "establishment"]}, "ChIJV2X40xcRdkgR4N1nMZ6XK9Y": {"geometry": {"location": {"lat": 51.5148688, "lng": -0.193636}, "viewport": {"northeast": {"lat": 51.5162082302915, "lng": -0.192382869708498}, "southwest": {"lat": 51.5135102697085, "lng": -0.195080830291502}}}, "name": "durbaronline.com", "place_id": "ChIJV2X40xcRdkgR4N1nMZ6XK9Y", "types": ["meal_takeaway", "restaurant", "food", "point_of_interest", "establishment"]}, "ChIJe3m9zmoRdkgROu87Uoe_Odc": {"geometry": {"location": {"lat": 51.5152873, "lng": -0.1938266}, "viewport": {"northeast": {"lat": 51.5165861302915, "lng": -0.192463819708498}, "southwest": {"lat": 51.5138881697085, "lng": -0.195161780291502}}}, "name": "Muskaan Bar", "place_id": "ChIJe3m9zmoRdkgROu87Uoe_Odc", "types": ["beauty_salon", "point_of_interest", "establishment"], "rating": 3.7, "user_ratings_total": 6}, "ChIJOys6Cq0PdkgR8xYnkVb3a2A": {"geometry": {"location": {"lat": 51.514692, "lng": -0.1951163}, "viewport": {"northeast": {"lat": 51.51605308029151, "lng": -0.193673169708498}, "southwest": {"lat": 51.51335511970851, "lng": -0.1963711302915021}}}, "name": "House of Saab", "place_id": "ChIJOys6Cq0PdkgR8xYnkVb3a2A", "types": ["health", "point_of_interest", "establishment"]}, "ChIJ8YA4DgIQdkgRYiv3ErU_NsA": {"geometry": {"location": {"lat": 51.515317, "lng": -0.194976}, "viewport": {"northeast": {"lat": 51.5166932302915, "lng": -0.193694819708498}, "southwest": {"lat": 51.5139952697085, "lng": -0.196392780291502}}}, "name": "STIL Salon", "place_id": "ChIJ8YA4DgIQdkgRYiv3ErU_NsA", "types": ["hair_care", "point_of_interest", "establishment"], "rating": 4.9, "user_ratings_total": 68}, "ChIJIW88mXQRdkgRVFypOJ2cmfo": {"geometry": {"location": {"lat": 51.5150408, "lng": -0.193581}, "viewport": {"northeast": {"lat": 51.51647283029149, "lng": -0.192247669708498}, "southwest": {"lat": 51.51377486970849, "lng": -0.194945630291502}}}, "name": "Boludo", "place_id": "ChIJIW88mXQRdkgRVFypOJ2cmfo", "types": ["restaurant", "food", "point_of_interest", "establishment"], "rating": 5, "user_ratings_total": 4}, "ChIJgRZBMT4RdkgR37pO8IdRRog": {"geometry": {"location": {"lat": 51.5150408, "lng": -0.193581}, "viewport": {"northeast": {"lat": 51.5164731302915, "lng": -0.192244569708498}, "southwest": {"lat": 51.5137751697085, "lng": -0.194942530291502}}}, "name": "Jack's Sprat", "place_id": "ChIJgRZBMT4RdkgR37pO8IdRRog", "types": ["restaurant", "food", "point_of_interest", "establishment"], "rating": 4.2, "user_ratings_total": 18}, "ChIJPQ_BugMQdkgRjO5prIfYdQo": {"geometry": {"location": {"lat": 51.51823110000173, "lng": -0.1960384499692521}, "viewport": {"northeast": {"lat": 51.5195800802915, "lng": -0.194689469708498}, "southwest": {"lat": 51.5168821197085, "lng": -0.197387430291502}}}, "name": "100 Chepstow Rd", "place_id": "ChIJPQ_BugMQdkgRjO5prIfYdQo", "types": ["route"]}, "ChIJjyhqvQMQdkgRtdhJUQN76aA": {"geometry": {"location": {"lat": 51.51838410000001, "lng": -0.1960868}, "viewport": {"northeast": {"lat": 51.5197330802915, "lng": -0.194737819708498}, "southwest": {"lat": 51.5170351197085, "lng": -0.197435780291502}}}, "name": "Modenature", "place_id": "ChIJjyhqvQMQdkgRtdhJUQN76aA", "types": ["point_of_interest", "establishment"]}, "ChIJJ8hAuAMQdkgRttwOn5NF5bE": {"geometry": {"location": {"lat": 51.5182332, "lng": -0.1955458}, "viewport": {"northeast": {"lat": 51.5196552302915, "lng": -0.194229619708498}, "southwest": {"lat": 51.51695726970851, "lng": -0.1969275802915021}}}, "name": "Tabs Cleaning Services", "place_id": "ChIJJ8hAuAMQdkgRttwOn5NF5bE", "types": ["point_of_interest", "establishment"]}, "ChIJjb7FZgQQdkgR9T-xYbD3c1Y": {"geometry": {"location": {"lat": 51.5186432, "lng": -0.1959971}, "viewport": {"northeast": {"lat": 51.5199921802915, "lng": -0.1946481197084979}, "southwest": {"lat": 51.5172942197085, "lng": -0.197346080291502}}}, "name": "Oro&Co", "place_id": "ChIJjb7FZgQQdkgR9T-xYbD3c1Y", "types": ["point_of_interest", "establishment"]}, "ChIJsb_eugMQdkgRA1AaIjRWC5s": {"geometry": {"location": {"lat": 51.518278, "lng": -0.196093}, "viewport": {"northeast": {"lat": 51.5196258802915, "lng": -0.194754119708498}, "southwest": {"lat": 51.5169279197085, "lng": -0.197452080291502}}}, "name": "St Stephen's Gardens", "place_id": "ChIJsb_eugMQdkgRA1AaIjRWC5s", "types": ["transit_station", "point_of_interest", "establishment"]}, "ChIJfUSpuwMQdkgRiih9jSha-WI": {"geometry": {"location": {"lat": 51.5183179, "lng": -0.1959647}, "viewport": {"northeast": {"lat": 51.5196365802915, "lng": -0.194601869708498}, "southwest": {"lat": 51.5169386197085, "lng": -0.197299830291502}}}, "name": "Therapia Touch", "place_id": "ChIJfUSpuwMQdkgRiih9jSha-WI", "types": ["health", "point_of_interest", "establishment"]}, "ChIJ36_QpwMQdkgRB16k7RP4GAU": {"geometry": {"location": {"lat": 51.5182112, "lng": -0.1964429}, "viewport": {"northeast": {"lat": 51.51961158029149, "lng": -0.195117019708498}, "southwest": {"lat": 51.5169136197085, "lng": -0.1978149802915021}}}, "name": "St Stephen's Gardens", "place_id": "ChIJ36_QpwMQdkgRB16k7RP4GAU", "types": ["park", "tourist_attraction", "point_of_interest", "establishment"], "rating": 4.4, "user_ratings_total": 87}, "ChIJ__-2sAMQdkgRb1Lmxlqk5bU": {"geometry": {"location": {"lat": 51.51805820000001, "lng": -0.1958321}, "viewport": {"northeast": {"lat": 51.5193979802915, "lng": -0.194556469708498}, "southwest": {"lat": 51.5167000197085, "lng": -0.197254430291502}}}, "name": "Mavex UK", "place_id": "ChIJ__-2sAMQdkgRb1Lmxlqk5bU", "types": ["point_of_interest", "establishment"], "rating": 5, "user_ratings_total": 3}, "ChIJmevjsAMQdkgR5Pmb4FAOlts": {"geometry": {"location": {"lat": 51.517982, "lng": -0.195917}, "viewport": {"northeast": {"lat": 51.5193319802915, "lng": -0.194559819708498}, "southwest": {"lat": 51.5166340197085, "lng": -0.197257780291502}}}, "name": "St Stephen's Gardens", "place_id": "ChIJmevjsAMQdkgR5Pmb4FAOlts", "types": ["transit_station", "point_of_interest", "establishment"], "rating": 5, "user_ratings_total": 1}, "ChIJSQUDY3sRdkgRz2AMVR8gKkI": {"geometry": {"location": {"lat": 51.5181578, "lng": -0.1965658}, "viewport": {"northeast": {"lat": 51.5194630802915, "lng": -0.1951965197084979}, "southwest": {"lat": 51.5167651197085, "lng": -0.197894480291502}}}, "name": "Bagpiper For Hire London", "place_id": "ChIJSQUDY3sRdkgRz2AMVR8gKkI", "types": ["electronics_store", "home_goods_store", "point_of_interest", "store", "establishment"], "rating": 5, "user_ratings_total": 6}, "ChIJ41LZpwMQdkgRfIzARHlpBI4": {"geometry": {"location": {"lat": 51.51836240000001, "lng": -0.1965603}, "viewport": {"northeast": {"lat": 51.51968318029151, "lng": -0.195198819708498}, "southwest": {"lat": 51.51698521970851, "lng": -0.197896780291502}}}, "name": "ubitricity Charging Station", "place_id": "ChIJ41LZpwMQdkgRfIzARHlpBI4", "types": ["point_of_interest", "establishment"]}, "ChIJS7oXowMQdkgRBrgUqrqJG5w": {"geometry": {"location": {"lat": 51.51857400000001, "lng": -0.196269}, "viewport": {"northeast": {"lat": 51.5199302802915, "lng": -0.194862469708498}, "southwest": {"lat": 51.5172323197085, "lng": -0.197560430291502}}}, "name": "St Stephen's Gardens", "place_id": "ChIJS7oXowMQdkgRBrgUqrqJG5w", "types": ["transit_station", "point_of_interest", "establishment"], "rating": 4.3, "user_ratings_total": 6}, "ChIJbdTiw2IRdkgRjX90g1WLnog": {"geometry": {"location": {"lat": 51.5183991, "lng": -0.1967259}, "viewport": {"northeast": {"lat": 51.5196895302915, "lng": -0.195350569708498}, "southwest": {"lat": 51.5169915697085, "lng": -0.198048530291502}}}, "name": "Boa Yoga", "place_id": "ChIJbdTiw2IRdkgRjX90g1WLnog", "types": ["school", "point_of_interest", "establishment"]}, "ChIJjyhqvQMQdkgRVEmrglvTz8k": {"geometry": {"location": {"lat": 51.5187018, "lng": -0.1960944}, "viewport": {"northeast": {"lat": 51.5200559302915, "lng": -0.194747969708498}, "southwest": {"lat": 51.5173579697085, "lng": -0.197445930291502}}}, "name": "Visa & Passport Services", "place_id": "ChIJjyhqvQMQdkgRVEmrglvTz8k", "types": ["local_government_office", "point_of_interest", "establishment"], "rating": 4.5, "user_ratings_total": 4}, "ChIJfaB5W2IRdkgRZVbGQsdR0l4": {"geometry": {"location": {"lat": 51.518064, "lng": -0.1969412}, "viewport": {"northeast": {"lat": 51.5193814302915, "lng": -0.195577569708498}, "southwest": {"lat": 51.5166834697085, "lng": -0.198275530291502}}}, "name": "W2 Boxing Personal Training.", "place_id": "ChIJfaB5W2IRdkgRZVbGQsdR0l4", "types": ["health", "point_of_interest", "establishment"], "rating": 4.9, "user_ratings_total": 38}, "ChIJWWWQrBIRdkgR384tuQS7lUs": {"geometry": {"location": {"lat": 51.5185595, "lng": -0.1955324}, "viewport": {"northeast": {"lat": 51.5198321302915, "lng": -0.1941485197084979}, "southwest": {"lat": 51.5171341697085, "lng": -0.196846480291502}}}, "name": "casa lore", "place_id": "ChIJWWWQrBIRdkgR384tuQS7lUs", "types": ["point_of_interest", "establishment"]}, "ChIJ__CVUgIQdkgRkNuZ_SvOWKI": {"geometry": {"location": {"lat": 51.51740080563486, "lng": -0.1962070790840005}, "viewport": {"northeast": {"lat": 51.5187498302915, "lng": -0.194858119708498}, "southwest": {"lat": 51.5160518697085, "lng": -0.197556080291502}}}, "name": "36-20 Talbot Rd", "place_id": "ChIJ__CVUgIQdkgRkNuZ_SvOWKI", "types": ["route"]}, "ChIJ20sQSwIQdkgRjG6i3vgKo1I": {"geometry": {"location": {"lat": 51.5173455, "lng": -0.1956023}, "viewport": {"northeast": {"lat": 51.5186854302915, "lng": -0.1943264697084979}, "southwest": {"lat": 51.5159874697085, "lng": -0.197024430291502}}}, "name": "The Prince Bonaparte", "place_id": "ChIJ20sQSwIQdkgRjG6i3vgKo1I", "types": ["bar", "point_of_interest", "establishment"], "rating": 4.2, "user_ratings_total": 306}, "ChIJ-xAcDAIQdkgR_kvuHVyg3bw": {"geometry": {"location": {"lat": 51.5171552, "lng": -0.1955497}, "viewport": {"northeast": {"lat": 51.5184985302915, "lng": -0.194270719708498}, "southwest": {"lat": 51.5158005697085, "lng": -0.196968680291502}}}, "name": "Vale Glass", "place_id": "ChIJ-xAcDAIQdkgR_kvuHVyg3bw", "types": ["point_of_interest", "establishment"], "rating": 4.9, "user_ratings_total": 15}, "ChIJ-cO5f4DRdUgRj1oV5fHyzV4": {"geometry": {"location": {"lat": 51.5170993, "lng": -0.1955316}, "viewport": {"northeast": {"lat": 51.5184396802915, "lng": -0.194251869708498}, "southwest": {"lat": 51.5157417197085, "lng": -0.196949830291502}}}, "name": "Borciani London", "place_id": "ChIJ-cO5f4DRdUgRj1oV5fHyzV4", "types": ["beauty_salon", "health", "point_of_interest", "establishment"], "rating": 4.8, "user_ratings_total": 34}, "ChIJUysDTAIQdkgRixkCtPGnKZg": {"geometry": {"location": {"lat": 51.51715799999999, "lng": -0.1958747}, "viewport": {"northeast": {"lat": 51.5185177302915, "lng": -0.1944390197084979}, "southwest": {"lat": 51.5158197697085, "lng": -0.197136980291502}}}, "name": "Phillo", "place_id": "ChIJUysDTAIQdkgRixkCtPGnKZg", "types": ["florist", "point_of_interest", "store", "establishment"], "rating": 4.8, "user_ratings_total": 30}, "ChIJoZyzdHwPdkgRnYu2kqYC-mg": {"geometry": {"location": {"lat": 51.51711299999999, "lng": -0.1959281}, "viewport": {"northeast": {"lat": 51.5184767802915, "lng": -0.194459819708498}, "southwest": {"lat": 51.5157788197085, "lng": -0.197157780291502}}}, "name": "Blue Studio Trading Ltd", "place_id": "ChIJoZyzdHwPdkgRnYu2kqYC-mg", "types": ["point_of_interest", "establishment"]}, "ChIJu9WaTgIQdkgRbt1fYvCbO7s": {"geometry": {"location": {"lat": 51.51711299999999, "lng": -0.1959281}, "viewport": {"northeast": {"lat": 51.5184767802915, "lng": -0.194459819708498}, "southwest": {"lat": 51.5157788197085, "lng": -0.197157780291502}}}, "name": "Artesian Tailoring", "place_id": "ChIJu9WaTgIQdkgRbt1fYvCbO7s", "types": ["point_of_interest", "establishment"], "rating": 4.9, "user_ratings_total": 141}, "ChIJj0QeUwIQdkgR0sVapWmfh54": {"geometry": {"location": {"lat": 51.51736580000001, "lng": -0.1963}, "viewport": {"northeast": {"lat": 51.5187008802915, "lng": -0.194944369708498}, "southwest": {"lat": 51.5160029197085, "lng": -0.197642330291502}}}, "name": "ubitricity Charging Station", "place_id": "ChIJj0QeUwIQdkgR0sVapWmfh54", "types": ["point_of_interest", "establishment"]}, "ChIJ5wrqSAIQdkgR6TojfGe4UUg": {"geometry": {"location": {"lat": 51.5169425, "lng": -0.195729}, "viewport": {"northeast": {"lat": 51.5182976302915, "lng": -0.194330219708498}, "southwest": {"lat": 51.5155996697085, "lng": -0.197028180291502}}}, "name": "ubitricity Charging Station", "place_id": "ChIJ5wrqSAIQdkgR6TojfGe4UUg", "types": ["point_of_interest", "establishment"]}, "ChIJab6xSwIQdkgRPP0DjEzXopY": {"geometry": {"location": {"lat": 51.5172524, "lng": -0.1955985}, "viewport": {"northeast": {"lat": 51.5185938802915, "lng": -0.194310169708498}, "southwest": {"lat": 51.5158959197085, "lng": -0.197008130291502}}}, "name": "Shanya", "place_id": "ChIJab6xSwIQdkgRPP0DjEzXopY", "types": ["laundry", "point_of_interest", "establishment"], "rating": 3.9, "user_ratings_total": 24}, "ChIJNVlWSgIQdkgRXSbGDUIXq7g": {"geometry": {"location": {"lat": 51.51729979999999, "lng": -0.195578}, "viewport": {"northeast": {"lat": 51.5186391302915, "lng": -0.194306819708498}, "southwest": {"lat": 51.5159411697085, "lng": -0.197004780291502}}}, "name": "Haminados", "place_id": "ChIJNVlWSgIQdkgRXSbGDUIXq7g", "types": ["point_of_interest", "establishment"]}, "ChIJPV-hSNoRdkgR8oNxjf38Iew": {"geometry": {"location": {"lat": 51.51729979999999, "lng": -0.195578}, "viewport": {"northeast": {"lat": 51.51863648029149, "lng": -0.194305969708498}, "southwest": {"lat": 51.5159385197085, "lng": -0.197003930291502}}}, "name": "Haminados", "place_id": "ChIJPV-hSNoRdkgR8oNxjf38Iew", "types": ["restaurant", "food", "point_of_interest", "establishment"], "rating": 5, "user_ratings_total": 34}, "ChIJgf6OVAIQdkgRYXe0DC1SQBY": {"geometry": {"location": {"lat": 51.51735050000001, "lng": -0.1967395}, "viewport": {"northeast": {"lat": 51.5186846802915, "lng": -0.195383219708498}, "southwest": {"lat": 51.5159867197085, "lng": -0.198081180291502}}}, "name": "ubitricity Charging Station", "place_id": "ChIJgf6OVAIQdkgRYXe0DC1SQBY", "types": ["point_of_interest", "establishment"]}, "ChIJ_yuksgMQdkgRRNbYiTGDTtQ": {"geometry": {"location": {"lat": 51.517525, "lng": -0.1961376}, "viewport": {"northeast": {"lat": 51.51882288029149, "lng": -0.194764169708498}, "southwest": {"lat": 51.5161249197085, "lng": -0.1974621302915021}}}, "name": "FREEFORM CURTAIN WALL", "place_id": "ChIJ_yuksgMQdkgRRNbYiTGDTtQ", "types": ["point_of_interest", "establishment"]}, "ChIJtd_qSQIQdkgRLpdaLuIQt5E": {"geometry": {"location": {"lat": 51.51711450000001, "lng": -0.1954340000000001}, "viewport": {"northeast": {"lat": 51.51845008029151, "lng": -0.194203969708498}, "southwest": {"lat": 51.51575211970851, "lng": -0.196901930291502}}}, "name": "Paddington Railway Club", "place_id": "ChIJtd_qSQIQdkgRLpdaLuIQt5E", "types": ["bar", "point_of_interest", "establishment"], "rating": 3.5, "user_ratings_total": 6}, "ChIJNQXUVAIQdkgR1pimyOygpC0": {"geometry": {"location": {"lat": 51.51745320000001, "lng": -0.1966934}, "viewport": {"northeast": {"lat": 51.51873688029151, "lng": -0.195312119708498}, "southwest": {"lat": 51.51603891970851, "lng": -0.198010080291502}}}, "name": "Richard Philo Associates", "place_id": "ChIJNQXUVAIQdkgR1pimyOygpC0", "types": ["point_of_interest", "establishment"]}, "ChIJm7CeZAIQdkgRTJeHr_4wSOQ": {"geometry": {"location": {"lat": 51.51559461585907, "lng": -0.1964794378546665}, "viewport": {"northeast": {"lat": 51.51694413029151, "lng": -0.195130519708498}, "southwest": {"lat": 51.51424616970851, "lng": -0.197828480291502}}}, "name": "24-14 Artesian Rd", "place_id": "ChIJm7CeZAIQdkgRTJeHr_4wSOQ", "types": ["route"]}, "ChIJOVdiYgIQdkgRTzFccPY_Nlw": {"geometry": {"location": {"lat": 51.5157184, "lng": -0.1966266}, "viewport": {"northeast": {"lat": 51.51700158029149, "lng": -0.195267069708498}, "southwest": {"lat": 51.51430361970849, "lng": -0.197965030291502}}}, "name": "Ana Ruivo", "place_id": "ChIJOVdiYgIQdkgRTzFccPY_Nlw", "types": ["point_of_interest", "establishment"], "rating": 5, "user_ratings_total": 10}, "ChIJn9iSbwIQdkgR1t0-iovv7cc": {"geometry": {"location": {"lat": 51.5155763, "lng": -0.196114}, "viewport": {"northeast": {"lat": 51.5169468302915, "lng": -0.194768219708498}, "southwest": {"lat": 51.5142488697085, "lng": -0.197466180291502}}}, "name": "ubitricity Charging Station", "place_id": "ChIJn9iSbwIQdkgR1t0-iovv7cc", "types": ["point_of_interest", "establishment"]}, "ChIJrWXMFAIQdkgREV3WZqF_fmw": {"geometry": {"location": {"lat": 51.5159637, "lng": -0.1954057}, "viewport": {"northeast": {"lat": 51.51731798029149, "lng": -0.194011669708498}, "southwest": {"lat": 51.5146200197085, "lng": -0.196709630291502}}}, "name": "ubitricity Charging Station", "place_id": "ChIJrWXMFAIQdkgREV3WZqF_fmw", "types": ["point_of_interest", "establishment"]}, "ChIJXWuqFAIQdkgRYLBqK5PHqCI": {"geometry": {"location": {"lat": 51.515835, "lng": -0.195397}, "viewport": {"northeast": {"lat": 51.5171866302915, "lng": -0.193985869708498}, "southwest": {"lat": 51.5144886697085, "lng": -0.196683830291502}}}, "name": "Artesian Road (Stop PC)", "place_id": "ChIJXWuqFAIQdkgRYLBqK5PHqCI", "types": ["transit_station", "point_of_interest", "establishment"]}, "ChIJN52ai_0PdkgRN8cs8JUeLDg": {"geometry": {"location": {"lat": 51.51458494593066, "lng": -0.1956490296411184}, "viewport": {"northeast": {"lat": 51.51592273029151, "lng": -0.1942844697084979}, "southwest": {"lat": 51.51322476970851, "lng": -0.196982430291502}}}, "name": "1-7 A4206", "place_id": "ChIJN52ai_0PdkgRN8cs8JUeLDg", "types": ["route"]}, "ChIJ8bckdgIQdkgRb1f7eGiCZeI": {"geometry": {"location": {"lat": 51.514834, "lng": -0.196085}, "viewport": {"northeast": {"lat": 51.5162245802915, "lng": -0.194748969708498}, "southwest": {"lat": 51.5135266197085, "lng": -0.197446930291502}}}, "name": "Taqueria", "place_id": "ChIJ8bckdgIQdkgRb1f7eGiCZeI", "types": ["restaurant", "food", "point_of_interest", "establishment"], "rating": 4.2, "user_ratings_total": 905}, "ChIJf-mTh_0PdkgRWL6zcdDXpmk": {"geometry": {"location": {"lat": 51.5147868, "lng": -0.1962535}, "viewport": {"northeast": {"lat": 51.51619033029149, "lng": -0.194921519708498}, "southwest": {"lat": 51.51349236970849, "lng": -0.197619480291502}}}, "name": "Nomad Collection", "place_id": "ChIJf-mTh_0PdkgRWL6zcdDXpmk", "types": ["point_of_interest", "establishment"]}, "ChIJf-mTh_0PdkgR_oX8zbzC3Bs": {"geometry": {"location": {"lat": 51.5147868, "lng": -0.1962535}, "viewport": {"northeast": {"lat": 51.51619033029149, "lng": -0.194921519708498}, "southwest": {"lat": 51.51349236970849, "lng": -0.197619480291502}}}, "name": "Midnight Lab", "place_id": "ChIJf-mTh_0PdkgR_oX8zbzC3Bs", "types": ["point_of_interest", "establishment"]}, "ChIJA24Giv0PdkgRlnqS01Vv7mQ": {"geometry": {"location": {"lat": 51.5148269, "lng": -0.1957363}, "viewport": {"northeast": {"lat": 51.51609393029149, "lng": -0.194274719708498}, "southwest": {"lat": 51.5133959697085, "lng": -0.196972680291502}}}, "name": "Miolabs", "place_id": "ChIJA24Giv0PdkgRlnqS01Vv7mQ", "types": ["point_of_interest", "establishment"]}, "ChIJ78welWjrcEgRHFsELpNvgUs": {"geometry": {"location": {"lat": 51.51456570000001, "lng": -0.1962329}, "viewport": {"northeast": {"lat": 51.51582493029149, "lng": -0.194754019708498}, "southwest": {"lat": 51.5131269697085, "lng": -0.197451980291502}}}, "name": "Phil M Jones", "place_id": "ChIJ78welWjrcEgRHFsELpNvgUs", "types": ["point_of_interest", "establishment"], "rating": 5, "user_ratings_total": 1}, "ChIJxTV8dQIQdkgRCSbh5yXq-0o": {"geometry": {"location": {"lat": 51.5148565, "lng": -0.1955629}, "viewport": {"northeast": {"lat": 51.5162665802915, "lng": -0.194232969708498}, "southwest": {"lat": 51.5135686197085, "lng": -0.196930930291502}}}, "name": "Form & Content Productions", "place_id": "ChIJxTV8dQIQdkgRCSbh5yXq-0o", "types": ["point_of_interest", "establishment"]}, "ChIJwwZ7dQIQdkgRAO6Fi_WPh_w": {"geometry": {"location": {"lat": 51.5148744, "lng": -0.1955558}, "viewport": {"northeast": {"lat": 51.51627628029149, "lng": -0.194223319708498}, "southwest": {"lat": 51.51357831970849, "lng": -0.196921280291502}}}, "name": "Keith Baugh", "place_id": "ChIJwwZ7dQIQdkgRAO6Fi_WPh_w", "types": ["point_of_interest", "establishment"]}, "ChIJs6o_h_0PdkgRk3Kq_cQBC6c": {"geometry": {"location": {"lat": 51.5147868, "lng": -0.1962535}, "viewport": {"northeast": {"lat": 51.51619033029149, "lng": -0.194921519708498}, "southwest": {"lat": 51.51349236970849, "lng": -0.197619480291502}}}, "name": "UBX Security Systems Ltd", "place_id": "ChIJs6o_h_0PdkgRk3Kq_cQBC6c", "types": ["point_of_interest", "establishment"]}, "ChIJzxQUeQIQdkgRxmwn8LA7KNA": {"geometry": {"location": {"lat": 51.51515199999999, "lng": -0.1957182}, "viewport": {"northeast": {"lat": 51.5164106302915, "lng": -0.194341069708498}, "southwest": {"lat": 51.5137126697085, "lng": -0.197039030291502}}}, "name": "Dexters Westbourne Grove Estate Agents", "place_id": "ChIJzxQUeQIQdkgRxmwn8LA7KNA", "types": ["finance", "real_estate_agency", "point_of_interest", "establishment"], "rating": 4.9, "user_ratings_total": 240}, "ChIJy3HvdwIQdkgRf2JImxvdudU": {"geometry": {"location": {"lat": 51.51488860000001, "lng": -0.1960834}, "viewport": {"northeast": {"lat": 51.5162373802915, "lng": -0.194734369708498}, "southwest": {"lat": 51.5135394197085, "lng": -0.197432330291502}}}, "name": "Zipcar", "place_id": "ChIJy3HvdwIQdkgRf2JImxvdudU", "types": ["car_rental", "point_of_interest", "establishment"]}, "ChIJJTNIdgIQdkgRtE1mpWm5I8U": {"geometry": {"location": {"lat": 51.51482889999999, "lng": -0.1961543}, "viewport": {"northeast": {"lat": 51.51621788029149, "lng": -0.194817769708498}, "southwest": {"lat": 51.51351991970849, "lng": -0.197515730291502}}}, "name": "Jusu Brothers", "place_id": "ChIJJTNIdgIQdkgRtE1mpWm5I8U", "types": ["cafe", "restaurant", "food", "point_of_interest", "store", "establishment"], "rating": 4.2, "user_ratings_total": 288}, "ChIJW6Oxu5EPdkgRb-w972JtetY": {"geometry": {"location": {"lat": 51.5147863, "lng": -0.1962477}, "viewport": {"northeast": {"lat": 51.51619038029149, "lng": -0.1949158697084979}, "southwest": {"lat": 51.5134924197085, "lng": -0.197613830291502}}}, "name": "Design Your Vision Photography Studio", "place_id": "ChIJW6Oxu5EPdkgRb-w972JtetY", "types": ["point_of_interest", "establishment"], "rating": 5, "user_ratings_total": 1}, "ChIJX3WqquUPdkgRPjqAXG_UaWw": {"geometry": {"location": {"lat": 51.5147863, "lng": -0.1962477}, "viewport": {"northeast": {"lat": 51.51619038029149, "lng": -0.1949158697084979}, "southwest": {"lat": 51.5134924197085, "lng": -0.197613830291502}}}, "name": "Design Your Vision", "place_id": "ChIJX3WqquUPdkgRPjqAXG_UaWw", "types": ["point_of_interest", "establishment"], "rating": 5, "user_ratings_total": 3}, "ChIJkcNCYWwPdkgRv9VriRQyFwU": {"geometry": {"location": {"lat": 51.5147868, "lng": -0.1962535}, "viewport": {"northeast": {"lat": 51.51619033029149, "lng": -0.194921519708498}, "southwest": {"lat": 51.51349236970849, "lng": -0.197619480291502}}}, "name": "Laboutik Studio", "place_id": "ChIJkcNCYWwPdkgRv9VriRQyFwU", "types": ["point_of_interest", "establishment"], "rating": 5, "user_ratings_total": 1}, "ChIJAxIJdgIQdkgRjz0Pg-AsUs0": {"geometry": {"location": {"lat": 51.51489600000001, "lng": -0.195794}, "viewport": {"northeast": {"lat": 51.51626943029151, "lng": -0.194460569708498}, "southwest": {"lat": 51.51357146970851, "lng": -0.197158530291502}}}, "name": "Chepstow Road (Stop PM)", "place_id": "ChIJAxIJdgIQdkgRjz0Pg-AsUs0", "types": ["bus_station", "transit_station", "point_of_interest", "establishment"]}, "ChIJg_QuXoIPdkgRUKcr8ZkfxgM": {"geometry": {"location": {"lat": 51.51474109999999, "lng": -0.1963954}, "viewport": {"northeast": {"lat": 51.51615838029149, "lng": -0.195067719708498}, "southwest": {"lat": 51.51346041970849, "lng": -0.197765680291502}}}, "name": "Monty", "place_id": "ChIJg_QuXoIPdkgRUKcr8ZkfxgM", "types": ["bar", "food", "point_of_interest", "establishment"], "rating": 5, "user_ratings_total": 20}, "ChIJo-tR7bgPdkgRrkO-fSQ3gGw": {"geometry": {"location": {"lat": 51.5147285, "lng": -0.1959231}, "viewport": {"northeast": {"lat": 51.5159973802915, "lng": -0.194451069708498}, "southwest": {"lat": 51.5132994197085, "lng": -0.197149030291502}}}, "name": "Amzolor Translation", "place_id": "ChIJo-tR7bgPdkgRrkO-fSQ3gGw", "types": ["point_of_interest", "establishment"]}, "ChIJO8vsdQIQdkgR4RWJwYT8r_4": {"geometry": {"location": {"lat": 51.5148733, "lng": -0.1956699}, "viewport": {"northeast": {"lat": 51.51626908029151, "lng": -0.194335469708498}, "southwest": {"lat": 51.51357111970851, "lng": -0.197033430291502}}}, "name": "Objects Of Desire", "place_id": "ChIJO8vsdQIQdkgR4RWJwYT8r_4", "types": ["art_gallery", "point_of_interest", "establishment"]}, "ChIJK0pYPVIPdkgRYVsAqpEMD6M": {"geometry": {"location": {"lat": 51.51465870000001, "lng": -0.1965329}, "viewport": {"northeast": {"lat": 51.5161076802915, "lng": -0.195215069708498}, "southwest": {"lat": 51.51340971970851, "lng": -0.197913030291502}}}, "name": "Sumi Restaurant", "place_id": "ChIJK0pYPVIPdkgRYVsAqpEMD6M", "types": ["restaurant", "food", "point_of_interest", "establishment"], "rating": 4.8, "user_ratings_total": 24}, "ChIJL7Z6dQIQdkgR3rZaSVMQ3Xo": {"geometry": {"location": {"lat": 51.5148812, "lng": -0.1955473}, "viewport": {"northeast": {"lat": 51.5162802802915, "lng": -0.1942139197084979}, "southwest": {"lat": 51.5135823197085, "lng": -0.196911880291502}}}, "name": "Opt Media", "place_id": "ChIJL7Z6dQIQdkgR3rZaSVMQ3Xo", "types": ["point_of_interest", "establishment"]}, "ChIJ77SjdAIQdkgRrBjy_aCdZcE": {"geometry": {"location": {"lat": 51.51513250000001, "lng": -0.1956053}, "viewport": {"northeast": {"lat": 51.5164071302915, "lng": -0.194233169708498}, "southwest": {"lat": 51.51370916970851, "lng": -0.1969311302915021}}}, "name": "West Grove Cafe", "place_id": "ChIJ77SjdAIQdkgRrBjy_aCdZcE", "types": ["cafe", "food", "point_of_interest", "establishment"], "rating": 3.8, "user_ratings_total": 86}, "ChIJPSnofQIQdkgRjwNRHDQfJXo": {"geometry": {"location": {"lat": 51.5151849, "lng": -0.1967121}, "viewport": {"northeast": {"lat": 51.51658973029151, "lng": -0.195455469708498}, "southwest": {"lat": 51.51389176970851, "lng": -0.198153430291502}}}, "name": "Alexander Hobbs Associates _ Architect", "place_id": "ChIJPSnofQIQdkgRjwNRHDQfJXo", "types": ["point_of_interest", "establishment"]}, "ChIJi5x7fwIQdkgRWe5FrFaXzz0": {"geometry": {"location": {"lat": 51.5149064, "lng": -0.1968826}, "viewport": {"northeast": {"lat": 51.5162160302915, "lng": -0.195518269708498}, "southwest": {"lat": 51.5135180697085, "lng": -0.198216230291502}}}, "name": "ubitricity Charging Station", "place_id": "ChIJi5x7fwIQdkgRWe5FrFaXzz0", "types": ["point_of_interest", "establishment"]}, "ChIJ3-rWjv0PdkgRBv_m4l_zqi8": {"geometry": {"location": {"lat": 51.51452570000001, "lng": -0.1959008}, "viewport": {"northeast": {"lat": 51.5158486802915, "lng": -0.194510019708498}, "southwest": {"lat": 51.51315071970851, "lng": -0.197207980291502}}}, "name": "Westbourne Grove (Stop PV)", "place_id": "ChIJ3-rWjv0PdkgRBv_m4l_zqi8", "types": ["bus_station", "transit_station", "point_of_interest", "establishment"], "rating": 3, "user_ratings_total": 1}, "ChIJnT3hhgIQdkgRD9GGL3nrJg4": {"geometry": {"location": {"lat": 51.51522130000001, "lng": -0.1967911}, "viewport": {"northeast": {"lat": 51.51660793029151, "lng": -0.195494969708498}, "southwest": {"lat": 51.51390996970851, "lng": -0.198192930291502}}}, "name": "The Doggy Room", "place_id": "ChIJnT3hhgIQdkgRD9GGL3nrJg4", "types": ["point_of_interest", "establishment"]}, "ChIJI-Aai_0PdkgRdkvbvf40Wu0": {"geometry": {"location": {"lat": 51.51464999999999, "lng": -0.1955375}, "viewport": {"northeast": {"lat": 51.51602233029149, "lng": -0.194220619708498}, "southwest": {"lat": 51.51332436970849, "lng": -0.196918580291502}}}, "name": "Pembridge VillasWestbourne Gr", "place_id": "ChIJI-Aai_0PdkgRdkvbvf40Wu0", "types": ["transit_station", "point_of_interest", "establishment"]}, "ChIJdVkkbgIQdkgR0fd0kfh-yWo": {"geometry": {"location": {"lat": 51.5154739, "lng": -0.1959959}, "viewport": {"northeast": {"lat": 51.5168994302915, "lng": -0.194658919708498}, "southwest": {"lat": 51.5142014697085, "lng": -0.197356880291502}}}, "name": "11 Artesian Road Ltd", "place_id": "ChIJdVkkbgIQdkgR0fd0kfh-yWo", "types": ["point_of_interest", "establishment"]}, "ChIJPxvsCAEQdkgRPm7nQo1lwWM": {"geometry": {"location": {"lat": 51.5174598, "lng": -0.1919523}, "viewport": {"northeast": {"lat": 51.5188569302915, "lng": -0.190582419708498}, "southwest": {"lat": 51.51615896970851, "lng": -0.193280380291502}}}, "name": "Susan Charles", "place_id": "ChIJPxvsCAEQdkgRPm7nQo1lwWM", "types": ["food", "point_of_interest", "establishment"]}, "ChIJO076pwEQdkgRxUn0EiiOag4": {"geometry": {"location": {"lat": 51.5173965, "lng": -0.1918695}, "viewport": {"northeast": {"lat": 51.51881668029149, "lng": -0.190489619708498}, "southwest": {"lat": 51.51611871970849, "lng": -0.193187580291502}}}, "name": "Rocket and Boost", "place_id": "ChIJO076pwEQdkgRxUn0EiiOag4", "types": ["point_of_interest", "establishment"]}, "ChIJsWjPvQEQdkgROziGh4k7l-Y": {"geometry": {"location": {"lat": 51.51656090000822, "lng": -0.1922794998833057}, "viewport": {"northeast": {"lat": 51.5179098802915, "lng": -0.1909305197084979}, "southwest": {"lat": 51.5152119197085, "lng": -0.193628480291502}}}, "name": "Alexander Street", "place_id": "ChIJsWjPvQEQdkgROziGh4k7l-Y", "types": ["route"]}, "ChIJY_J62wEQdkgRzUnhRkNkL-E": {"geometry": {"location": {"lat": 51.51537535007036, "lng": -0.1920612500345985}, "viewport": {"northeast": {"lat": 51.5167243302915, "lng": -0.1907122697084979}, "southwest": {"lat": 51.5140263697085, "lng": -0.193410230291502}}}, "name": "62-60 A4206", "place_id": "ChIJY_J62wEQdkgRzUnhRkNkL-E", "types": ["route"]}, "ChIJrYRa2wEQdkgRWTkUP9fnYE4": {"geometry": {"location": {"lat": 51.5154855, "lng": -0.1921883}, "viewport": {"northeast": {"lat": 51.5167784802915, "lng": -0.1907855697084979}, "southwest": {"lat": 51.5140805197085, "lng": -0.193483530291502}}}, "name": "Gina Conway Salon Spa", "place_id": "ChIJrYRa2wEQdkgRWTkUP9fnYE4", "types": ["beauty_salon", "hair_care", "spa", "health", "point_of_interest", "establishment"], "rating": 4.5, "user_ratings_total": 101}, "ChIJdXEd2wEQdkgRccUR0R3ba1A": {"geometry": {"location": {"lat": 51.5154629, "lng": -0.1919318}, "viewport": {"northeast": {"lat": 51.51677653029149, "lng": -0.190573119708498}, "southwest": {"lat": 51.5140785697085, "lng": -0.193271080291502}}}, "name": "Yogland Fit Frozen Dessert", "place_id": "ChIJdXEd2wEQdkgRccUR0R3ba1A", "types": ["food", "point_of_interest", "store", "establishment"], "rating": 4.1, "user_ratings_total": 90}, "ChIJF-sslfsPdkgR-2wK8VeSb5Y": {"geometry": {"location": {"lat": 51.5154422, "lng": -0.1922279}, "viewport": {"northeast": {"lat": 51.5167508302915, "lng": -0.190867069708498}, "southwest": {"lat": 51.5140528697085, "lng": -0.193565030291502}}}, "name": "Aderans Hair Centre", "place_id": "ChIJF-sslfsPdkgR-2wK8VeSb5Y", "types": ["hair_care", "health", "point_of_interest", "store", "establishment"], "rating": 5, "user_ratings_total": 3}, "ChIJD-sslfsPdkgRotGoBzc6DuY": {"geometry": {"location": {"lat": 51.51547799999999, "lng": -0.192339}, "viewport": {"northeast": {"lat": 51.5167631802915, "lng": -0.190978119708498}, "southwest": {"lat": 51.5140652197085, "lng": -0.193676080291502}}}, "name": "Trendco London", "place_id": "ChIJD-sslfsPdkgRotGoBzc6DuY", "types": ["hair_care", "health", "point_of_interest", "establishment"], "rating": 4.3, "user_ratings_total": 43}, "ChIJFXQtxQEQdkgRRW1_g57J-us": {"geometry": {"location": {"lat": 51.5154403, "lng": -0.1924811999999999}, "viewport": {"northeast": {"lat": 51.5167359302915, "lng": -0.1911165697084979}, "southwest": {"lat": 51.5140379697085, "lng": -0.193814530291502}}}, "name": "Kitchen Ideas", "place_id": "ChIJFXQtxQEQdkgRRW1_g57J-us", "types": ["furniture_store", "home_goods_store", "point_of_interest", "store", "establishment"], "rating": 4.8, "user_ratings_total": 23}, "ChIJFXQtxQEQdkgR1hcwGU5D5M8": {"geometry": {"location": {"lat": 51.5154291, "lng": -0.1923861}, "viewport": {"northeast": {"lat": 51.5167353802915, "lng": -0.191020369708498}, "southwest": {"lat": 51.5140374197085, "lng": -0.193718330291502}}}, "name": "Westbourne Dry Cleaners", "place_id": "ChIJFXQtxQEQdkgR1hcwGU5D5M8", "types": ["laundry", "point_of_interest", "establishment"], "rating": 3, "user_ratings_total": 10}, "ChIJ2WRY-_8PdkgRs2PNsxr_bqk": {"geometry": {"location": {"lat": 51.51550169999999, "lng": -0.1919499}, "viewport": {"northeast": {"lat": 51.51679558029149, "lng": -0.190585769708498}, "southwest": {"lat": 51.51409761970849, "lng": -0.193283730291502}}}, "name": "Reflexions The Reflexology Shop - BAYSWATER", "place_id": "ChIJ2WRY-_8PdkgRs2PNsxr_bqk", "types": ["health", "point_of_interest", "store", "establishment"], "rating": 4.2, "user_ratings_total": 33}, "ChIJWZbY2gEQdkgRn0PRtt7icAU": {"geometry": {"location": {"lat": 51.5154599, "lng": -0.1919429}, "viewport": {"northeast": {"lat": 51.5167744302915, "lng": -0.190584469708498}, "southwest": {"lat": 51.5140764697085, "lng": -0.193282430291502}}}, "name": "Yogland", "place_id": "ChIJWZbY2gEQdkgRn0PRtt7icAU", "types": ["point_of_interest", "establishment"], "rating": 5, "user_ratings_total": 1}, "ChIJ7_Sj3AEQdkgRxgbWEasoZB8": {"geometry": {"location": {"lat": 51.5155261, "lng": -0.1921043}, "viewport": {"northeast": {"lat": 51.51679943029151, "lng": -0.1907367197084979}, "southwest": {"lat": 51.51410146970851, "lng": -0.193434680291502}}}, "name": "Aveda", "place_id": "ChIJ7_Sj3AEQdkgRxgbWEasoZB8", "types": ["hair_care", "point_of_interest", "establishment"], "rating": 3.3, "user_ratings_total": 6}, "ChIJG_30-IIRdkgR2sYJElThp7Q": {"geometry": {"location": {"lat": 51.5154873, "lng": -0.1921681}, "viewport": {"northeast": {"lat": 51.51677703029149, "lng": -0.190803069708498}, "southwest": {"lat": 51.51407906970849, "lng": -0.193501030291502}}}, "name": "veubi.com, grocery delivery, wine delivery, alcohol delivery", "place_id": "ChIJG_30-IIRdkgR2sYJElThp7Q", "types": ["food", "point_of_interest", "establishment"], "rating": 5, "user_ratings_total": 2}, "ChIJz7ipQNcRdkgR_-nOLvEifuU": {"geometry": {"location": {"lat": 51.5154873, "lng": -0.1921681}, "viewport": {"northeast": {"lat": 51.51677703029149, "lng": -0.190803069708498}, "southwest": {"lat": 51.51407906970849, "lng": -0.193501030291502}}}, "name": "Yummy Desserts -- Desserts, Milkshakes, Waffles, Crepe, ice cream, Cakes", "place_id": "ChIJz7ipQNcRdkgR_-nOLvEifuU", "types": ["food", "point_of_interest", "store", "establishment"], "rating": 5, "user_ratings_total": 1}, "ChIJ__-vcQMQdkgRS3oCVrpIZ74": {"geometry": {"location": {"lat": 51.5154873, "lng": -0.1921681}, "viewport": {"northeast": {"lat": 51.51677703029149, "lng": -0.190803069708498}, "southwest": {"lat": 51.51407906970849, "lng": -0.193501030291502}}}, "name": "Westbourne Food & Wine , in4repairs, Computer repair, Phone Repairs", "place_id": "ChIJ__-vcQMQdkgRS3oCVrpIZ74", "types": ["liquor_store", "book_store", "point_of_interest", "store", "establishment"], "rating": 4.3, "user_ratings_total": 14}, "ChIJh4vE4eQFdkgRhGf6JzgqUFA": {"geometry": {"location": {"lat": 51.5154386, "lng": -0.1923516}, "viewport": {"northeast": {"lat": 51.5167421802915, "lng": -0.1909897697084979}, "southwest": {"lat": 51.5140442197085, "lng": -0.193687730291502}}}, "name": "Bayswater Dental Surgery", "place_id": "ChIJh4vE4eQFdkgRhGf6JzgqUFA", "types": ["dentist", "health", "point_of_interest", "establishment"], "rating": 4.6, "user_ratings_total": 18}, "ChIJzwk-3QEQdkgRmn3u9h9mcJ0": {"geometry": {"location": {"lat": 51.51542870000001, "lng": -0.1923519}, "viewport": {"northeast": {"lat": 51.5167370302915, "lng": -0.190990969708498}, "southwest": {"lat": 51.5140390697085, "lng": -0.1936889302915021}}}, "name": "Greek Farmer", "place_id": "ChIJzwk-3QEQdkgRmn3u9h9mcJ0", "types": ["restaurant", "food", "point_of_interest", "establishment"]}, "ChIJ63RFe3EPdkgRJtf7Nr1CyuY": {"geometry": {"location": {"lat": 51.51459269999999, "lng": -0.1918859}, "viewport": {"northeast": {"lat": 51.51595193029149, "lng": -0.190447069708498}, "southwest": {"lat": 51.51325396970849, "lng": -0.193145030291502}}}, "name": "ARYM Institute of Ayurvedic Yoga Massage", "place_id": "ChIJ63RFe3EPdkgRJtf7Nr1CyuY", "types": ["point_of_interest", "establishment"]}, "ChIJTSC_3gMQdkgRaPL2FRVaX8k": {"geometry": {"location": {"lat": 51.5184989482528, "lng": -0.1942185431760916}, "viewport": {"northeast": {"lat": 51.51984683029151, "lng": -0.192872319708498}, "southwest": {"lat": 51.51714886970851, "lng": -0.195570280291502}}}, "name": "92-86 Westbourne Park Rd", "place_id": "ChIJTSC_3gMQdkgRaPL2FRVaX8k", "types": ["route"]}, "ChIJ6wFvewEQdkgRIsKaH1qcpuE": {"geometry": {"location": {"lat": 51.51793468125325, "lng": -0.1934152323395076}, "viewport": {"northeast": {"lat": 51.5193596802915, "lng": -0.192204919708498}, "southwest": {"lat": 51.5166617197085, "lng": -0.194902880291502}}}, "name": "1-17 Talbot Rd", "place_id": "ChIJ6wFvewEQdkgRIsKaH1qcpuE", "types": ["route"]}, "ChIJZTbIewEQdkgR61CcmRUavvQ": {"geometry": {"location": {"lat": 51.5178597, "lng": -0.1934274000000001}, "viewport": {"northeast": {"lat": 51.5192417802915, "lng": -0.192095169708498}, "southwest": {"lat": 51.5165438197085, "lng": -0.1947931302915021}}}, "name": "ubitricity Charging Station", "place_id": "ChIJZTbIewEQdkgR61CcmRUavvQ", "types": ["point_of_interest", "establishment"]}, "ChIJM3Ob-wEQdkgRWU4xFzXGuBw": {"geometry": {"location": {"lat": 51.51523002645391, "lng": -0.1933953987526408}, "viewport": {"northeast": {"lat": 51.5165788302915, "lng": -0.192046369708498}, "southwest": {"lat": 51.5138808697085, "lng": -0.194744330291502}}}, "name": "93-111 A4206", "place_id": "ChIJM3Ob-wEQdkgRWU4xFzXGuBw", "types": ["route"]}, "ChIJVZEF-wEQdkgRfrPQUYYsCMs": {"geometry": {"location": {"lat": 51.5153228, "lng": -0.1934076}, "viewport": {"northeast": {"lat": 51.5166251802915, "lng": -0.192059269708498}, "southwest": {"lat": 51.5139272197085, "lng": -0.194757230291502}}}, "name": "Lords", "place_id": "ChIJVZEF-wEQdkgRfrPQUYYsCMs", "types": ["home_goods_store", "furniture_store", "point_of_interest", "store", "establishment"], "rating": 4.4, "user_ratings_total": 16}, "ChIJBVzfG2kbdkgRMKDDF1D01fg": {"geometry": {"location": {"lat": 51.51556189999999, "lng": -0.1939095}, "viewport": {"northeast": {"lat": 51.5169046802915, "lng": -0.192612269708498}, "southwest": {"lat": 51.5142067197085, "lng": -0.195310230291502}}}, "name": "Morgan Lockyer Photographers Agents", "place_id": "ChIJBVzfG2kbdkgRMKDDF1D01fg", "types": ["point_of_interest", "establishment"], "rating": 5, "user_ratings_total": 1}, "ChIJ3w8NzQEQdkgRaLWBG5H1e2c": {"geometry": {"location": {"lat": 51.5153528, "lng": -0.1934767}, "viewport": {"northeast": {"lat": 51.51663793029149, "lng": -0.192142919708498}, "southwest": {"lat": 51.5139399697085, "lng": -0.194840880291502}}}, "name": "Deliberate Public Relations", "place_id": "ChIJ3w8NzQEQdkgRaLWBG5H1e2c", "types": ["point_of_interest", "establishment"]}, "ChIJmVAp-wEQdkgRmgEtNIlruNc": {"geometry": {"location": {"lat": 51.5153204, "lng": -0.1936511}, "viewport": {"northeast": {"lat": 51.5166122302915, "lng": -0.192247719708498}, "southwest": {"lat": 51.5139142697085, "lng": -0.194945680291502}}}, "name": "ATM", "place_id": "ChIJmVAp-wEQdkgRmgEtNIlruNc", "types": ["atm", "finance", "point_of_interest", "establishment"]}, "ChIJgzoS-QEQdkgRQhIbS8kwoAk": {"geometry": {"location": {"lat": 51.5152923, "lng": -0.1936815}, "viewport": {"northeast": {"lat": 51.5166009802915, "lng": -0.192262919708498}, "southwest": {"lat": 51.5139030197085, "lng": -0.194960880291502}}}, "name": "Maximus (Maximise)", "place_id": "ChIJgzoS-QEQdkgRQhIbS8kwoAk", "types": ["point_of_interest", "establishment"]}, "ChIJd0FVD_4PdkgR0CKZ34-mGiI": {"geometry": {"location": {"lat": 51.51523100000001, "lng": -0.1934413}, "viewport": {"northeast": {"lat": 51.5165557302915, "lng": -0.192327219708498}, "southwest": {"lat": 51.51385776970851, "lng": -0.195025180291502}}}, "name": "Bective", "place_id": "ChIJd0FVD_4PdkgR0CKZ34-mGiI", "types": ["point_of_interest", "establishment"]}, "ChIJCUAvAwIQdkgRZ-2bPbWgb3A": {"geometry": {"location": {"lat": 51.51548299999999, "lng": -0.194283}, "viewport": {"northeast": {"lat": 51.5168486802915, "lng": -0.192793919708498}, "southwest": {"lat": 51.5141507197085, "lng": -0.195491880291502}}}, "name": "Notting Hill Dental Clinic", "place_id": "ChIJCUAvAwIQdkgRZ-2bPbWgb3A", "types": ["dentist", "health", "point_of_interest", "establishment"], "rating": 4.8, "user_ratings_total": 156}, "ChIJ_dsGr7IadkgRZL6s-DWnVMA": {"geometry": {"location": {"lat": 51.51534419999999, "lng": -0.193597}, "viewport": {"northeast": {"lat": 51.5166295302915, "lng": -0.192208969708498}, "southwest": {"lat": 51.5139315697085, "lng": -0.1949069302915021}}}, "name": "Sainsbury's Local", "place_id": "ChIJ_dsGr7IadkgRZL6s-DWnVMA", "types": ["supermarket", "convenience_store", "grocery_or_supermarket", "food", "point_of_interest", "store", "establishment"], "rating": 3.7, "user_ratings_total": 33}, "ChIJVWQV-AEQdkgRzy-VJiijVHI": {"geometry": {"location": {"lat": 51.5153664, "lng": -0.1938215}, "viewport": {"northeast": {"lat": 51.5167084302915, "lng": -0.192540019708498}, "southwest": {"lat": 51.51401046970851, "lng": -0.195237980291502}}}, "name": "District & Urban Group", "place_id": "ChIJVWQV-AEQdkgRzy-VJiijVHI", "types": ["finance", "point_of_interest", "establishment"]}, "ChIJJc7Mcz0RdkgRIDC00P5V1hU": {"geometry": {"location": {"lat": 51.515452, "lng": -0.19343}, "viewport": {"northeast": {"lat": 51.5166913802915, "lng": -0.192050819708498}, "southwest": {"lat": 51.5139934197085, "lng": -0.194748780291502}}}, "name": "Truck Mounted Crane Hire Kensington and Chelsea", "place_id": "ChIJJc7Mcz0RdkgRIDC00P5V1hU", "types": ["point_of_interest", "establishment"]}, "ChIJcWe28AEQdkgRS5YiM81wo8I": {"geometry": {"location": {"lat": 51.5155792, "lng": -0.1935434}, "viewport": {"northeast": {"lat": 51.5168862302915, "lng": -0.192203219708498}, "southwest": {"lat": 51.51418826970851, "lng": -0.194901180291502}}}, "name": "I & A Consulting Ltd", "place_id": "ChIJcWe28AEQdkgRS5YiM81wo8I", "types": ["point_of_interest", "establishment"]}, "ChIJN_uY-QEQdkgRVoTmeE3ebYA": {"geometry": {"location": {"lat": 51.5153694, "lng": -0.1936528}, "viewport": {"northeast": {"lat": 51.51663733029149, "lng": -0.192248569708498}, "southwest": {"lat": 51.5139393697085, "lng": -0.1949465302915021}}}, "name": "Old Clocks and Watches", "place_id": "ChIJN_uY-QEQdkgRVoTmeE3ebYA", "types": ["point_of_interest", "store", "establishment"]}, "ChIJAePngfYRdkgR8ztfXUzF9UY": {"geometry": {"location": {"lat": 51.51536919999999, "lng": -0.1936524}, "viewport": {"northeast": {"lat": 51.5166372802915, "lng": -0.192248369708498}, "southwest": {"lat": 51.5139393197085, "lng": -0.194946330291502}}}, "name": "Rubbish Capital Ltd", "place_id": "ChIJAePngfYRdkgR8ztfXUzF9UY", "types": ["point_of_interest", "establishment"], "rating": 5, "user_ratings_total": 45}, "ChIJqeSY-QEQdkgRplBHAnHhkso": {"geometry": {"location": {"lat": 51.51536919999999, "lng": -0.1936524}, "viewport": {"northeast": {"lat": 51.5166372802915, "lng": -0.192248369708498}, "southwest": {"lat": 51.5139393197085, "lng": -0.194946330291502}}}, "name": "The Week", "place_id": "ChIJqeSY-QEQdkgRplBHAnHhkso", "types": ["point_of_interest", "establishment"]}, "ChIJQfb-RQIRdkgR438ZLi9CiSE": {"geometry": {"location": {"lat": 51.51536919999999, "lng": -0.1936524}, "viewport": {"northeast": {"lat": 51.5166372802915, "lng": -0.192248369708498}, "southwest": {"lat": 51.5139393197085, "lng": -0.194946330291502}}}, "name": "Max Scaffolding Wraps", "place_id": "ChIJQfb-RQIRdkgR438ZLi9CiSE", "types": ["point_of_interest", "establishment"]}, "ChIJqeSY-QEQdkgRCCNY-bmE5LU": {"geometry": {"location": {"lat": 51.51536919999999, "lng": -0.1936524}, "viewport": {"northeast": {"lat": 51.5166372802915, "lng": -0.192248369708498}, "southwest": {"lat": 51.5139393197085, "lng": -0.194946330291502}}}, "name": "Articulate Ventures", "place_id": "ChIJqeSY-QEQdkgRCCNY-bmE5LU", "types": ["point_of_interest", "establishment"]}, "ChIJP0CD-QEQdkgRBVDQC--qYkI": {"geometry": {"location": {"lat": 51.5153569, "lng": -0.1936109}, "viewport": {"northeast": {"lat": 51.5166330802915, "lng": -0.192227619708498}, "southwest": {"lat": 51.5139351197085, "lng": -0.194925580291502}}}, "name": "King Media Ltd", "place_id": "ChIJP0CD-QEQdkgRBVDQC--qYkI", "types": ["point_of_interest", "establishment"]}, "ChIJS9wT-QEQdkgR7-f9dYT0YrE": {"geometry": {"location": {"lat": 51.5153253, "lng": -0.1936885}, "viewport": {"northeast": {"lat": 51.5166128302915, "lng": -0.192266419708498}, "southwest": {"lat": 51.5139148697085, "lng": -0.194964380291502}}}, "name": "Ninety", "place_id": "ChIJS9wT-QEQdkgR7-f9dYT0YrE", "types": ["point_of_interest", "establishment"]}, "ChIJdZkqkZMRdkgRvHsm1B1ERi8": {"geometry": {"location": {"lat": 51.5153287, "lng": -0.1933879}, "viewport": {"northeast": {"lat": 51.5166301302915, "lng": -0.192025819708498}, "southwest": {"lat": 51.5139321697085, "lng": -0.194723780291502}}}, "name": "Sainsbury's Bank ATM", "place_id": "ChIJdZkqkZMRdkgRvHsm1B1ERi8", "types": ["atm", "finance", "point_of_interest", "establishment"]}, "ChIJzU5xHaARdkgRlrt0UdTmMo8": {"geometry": {"location": {"lat": 51.5153099, "lng": -0.1934319}, "viewport": {"northeast": {"lat": 51.51661818029149, "lng": -0.192071719708498}, "southwest": {"lat": 51.5139202197085, "lng": -0.194769680291502}}}, "name": "ParcelShop Lords in Westbourne Grove Post Office", "place_id": "ChIJzU5xHaARdkgRlrt0UdTmMo8", "types": ["post_office", "finance", "point_of_interest", "establishment"]}, "ChIJZZ7oxKERdkgR9iEVFzhfCvA": {"geometry": {"location": {"lat": 51.5153239, "lng": -0.1932998}, "viewport": {"northeast": {"lat": 51.5166321802915, "lng": -0.191939669708498}, "southwest": {"lat": 51.5139342197085, "lng": -0.194637630291502}}}, "name": "Verderame", "place_id": "ChIJZZ7oxKERdkgR9iEVFzhfCvA", "types": ["restaurant", "food", "point_of_interest", "establishment"], "rating": 4.7, "user_ratings_total": 47}, "ChIJr9x89QEQdkgRdienQr4m83I": {"geometry": {"location": {"lat": 51.5153979, "lng": -0.1939}, "viewport": {"northeast": {"lat": 51.5167451302915, "lng": -0.192567869708498}, "southwest": {"lat": 51.5140471697085, "lng": -0.195265830291502}}}, "name": "Dolci Follie Lingerie Shop", "place_id": "ChIJr9x89QEQdkgRdienQr4m83I", "types": ["point_of_interest", "clothing_store", "store", "establishment"], "rating": 5, "user_ratings_total": 4}, "ChIJGztUAP4PdkgRlqXq26Tnkdk": {"geometry": {"location": {"lat": 51.51476072084534, "lng": -0.1938049986128274}, "viewport": {"northeast": {"lat": 51.5161102802915, "lng": -0.192450869708498}, "southwest": {"lat": 51.5134123197085, "lng": -0.195148830291502}}}, "name": "23-41 Hereford Rd", "place_id": "ChIJGztUAP4PdkgRlqXq26Tnkdk", "types": ["route"]}, "ChIJweFaB_4PdkgRdPKFhrKGnRc": {"geometry": {"location": {"lat": 51.51446829999999, "lng": -0.1938931}, "viewport": {"northeast": {"lat": 51.5158266802915, "lng": -0.1924642697084979}, "southwest": {"lat": 51.5131287197085, "lng": -0.195162230291502}}}, "name": "Peel&Co", "place_id": "ChIJweFaB_4PdkgRdPKFhrKGnRc", "types": ["point_of_interest", "establishment"]}, "ChIJnextBP4PdkgRNwDMZB7LBlY": {"geometry": {"location": {"lat": 51.51447520000001, "lng": -0.1934545}, "viewport": {"northeast": {"lat": 51.51580853029151, "lng": -0.192238419708498}, "southwest": {"lat": 51.51311056970851, "lng": -0.194936380291502}}},