{"E00024118": {"ChIJPTKgIywFdkgRvbGj-oF4cWg": {"geometry": {"location": {"lat": 51.51016050632394, "lng": -0.1486042983400652}, "viewport": {"northeast": {"lat": 51.5115288302915, "lng": -0.147260119708498}, "southwest": {"lat": 51.5088308697085, "lng": -0.149958080291502}}}, "name": "2-9 Mount St", "place_id": "ChIJPTKgIywFdkgRvbGj-oF4cWg", "types": ["route"]}, "ChIJ7WzgGywFdkgR5YstUXpbZEc": {"geometry": {"location": {"lat": 51.51020219999999, "lng": -0.1479098}, "viewport": {"northeast": {"lat": 51.51159013029149, "lng": -0.146583919708498}, "southwest": {"lat": 51.5088921697085, "lng": -0.149281880291502}}}, "name": "Lanvin Mount St.", "place_id": "ChIJ7WzgGywFdkgR5YstUXpbZEc", "types": ["point_of_interest", "clothing_store", "store", "establishment"], "rating": 4.5, "user_ratings_total": 10}, "ChIJFcwcIiwFdkgRAZgBoeaEBv8": {"geometry": {"location": {"lat": 51.510116, "lng": -0.148366}, "viewport": {"northeast": {"lat": 51.5114707302915, "lng": -0.146986119708498}, "southwest": {"lat": 51.5087727697085, "lng": -0.149684080291502}}}, "name": "Delfino Mayfair", "place_id": "ChIJFcwcIiwFdkgRAZgBoeaEBv8", "types": ["restaurant", "food", "point_of_interest", "establishment"], "rating": 4.4, "user_ratings_total": 587}, "ChIJFcwcIiwFdkgR0hRFOMqIKD4": {"geometry": {"location": {"lat": 51.510095, "lng": -0.1483348}, "viewport": {"northeast": {"lat": 51.5114961302915, "lng": -0.147013119708498}, "southwest": {"lat": 51.50879816970851, "lng": -0.149711080291502}}}, "name": "Fino's Wine Cellar", "place_id": "ChIJFcwcIiwFdkgR0hRFOMqIKD4", "types": ["bar", "restaurant", "food", "point_of_interest", "establishment"], "rating": 4.4, "user_ratings_total": 113}, "ChIJyYpDJiwFdkgRXtfTPQYZxEw": {"geometry": {"location": {"lat": 51.5100109, "lng": -0.1489234}, "viewport": {"northeast": {"lat": 51.5113921302915, "lng": -0.147617519708498}, "southwest": {"lat": 51.5086941697085, "lng": -0.150315480291502}}}, "name": "Goyard London", "place_id": "ChIJyYpDJiwFdkgRXtfTPQYZxEw", "types": ["point_of_interest", "store", "establishment"], "rating": 3.8, "user_ratings_total": 413}, "ChIJXQc1IiwFdkgRoPouB3Jzmdo": {"geometry": {"location": {"lat": 51.5100565, "lng": -0.1485105}, "viewport": {"northeast": {"lat": 51.5114612302915, "lng": -0.147186719708498}, "southwest": {"lat": 51.5087632697085, "lng": -0.149884680291502}}}, "name": "CH Carolina Herrera", "place_id": "ChIJXQc1IiwFdkgRoPouB3Jzmdo", "types": ["clothing_store", "point_of_interest", "store", "establishment"], "rating": 4.5, "user_ratings_total": 24}, "ChIJhTdqJSwFdkgRVmQbH7Xkt7o": {"geometry": {"location": {"lat": 51.510324, "lng": -0.148904}, "viewport": {"northeast": {"lat": 51.5115961302915, "lng": -0.147590769708498}, "southwest": {"lat": 51.5088981697085, "lng": -0.150288730291502}}}, "name": "Monopro Ltd", "place_id": "ChIJhTdqJSwFdkgRVmQbH7Xkt7o", "types": ["point_of_interest", "establishment"]}, "ChIJLdrSPCwFdkgR83Wx1mGlTes": {"geometry": {"location": {"lat": 51.5103315, "lng": -0.1484727}, "viewport": {"northeast": {"lat": 51.5116130802915, "lng": -0.147088419708498}, "southwest": {"lat": 51.5089151197085, "lng": -0.149786380291502}}}, "name": "Roksanda", "place_id": "ChIJLdrSPCwFdkgR83Wx1mGlTes", "types": ["point_of_interest", "clothing_store", "store", "establishment"], "rating": 5, "user_ratings_total": 5}, "ChIJmyw0PSwFdkgRTdpWlbA5OmU": {"geometry": {"location": {"lat": 51.51033400000001, "lng": -0.148399}, "viewport": {"northeast": {"lat": 51.5116212302915, "lng": -0.147017669708498}, "southwest": {"lat": 51.5089232697085, "lng": -0.1497156302915021}}}, "name": "Jamavar", "place_id": "ChIJmyw0PSwFdkgRTdpWlbA5OmU", "types": ["meal_takeaway", "restaurant", "food", "point_of_interest", "establishment"], "rating": 4.4, "user_ratings_total": 843}, "ChIJMQDNOiwFdkgRz3FUT_6wbO0": {"geometry": {"location": {"lat": 51.510324, "lng": -0.148904}, "viewport": {"northeast": {"lat": 51.5115961302915, "lng": -0.147590769708498}, "southwest": {"lat": 51.5088981697085, "lng": -0.150288730291502}}}, "name": "Exilarch's Foundation", "place_id": "ChIJMQDNOiwFdkgRz3FUT_6wbO0", "types": ["point_of_interest", "establishment"]}, "ChIJKz4CkdIadkgRebspZAvn9R4": {"geometry": {"location": {"lat": 51.5101551, "lng": -0.1480751}, "viewport": {"northeast": {"lat": 51.51126543029149, "lng": -0.1466331197084979}, "southwest": {"lat": 51.5085674697085, "lng": -0.149331080291502}}}, "name": "Copper Consultancy", "place_id": "ChIJKz4CkdIadkgRebspZAvn9R4", "types": ["point_of_interest", "establishment"], "rating": 5, "user_ratings_total": 1}, "ChIJoUzFKCwFdkgRZUQf1xa00dE": {"geometry": {"location": {"lat": 51.5101565, "lng": -0.1480682}, "viewport": {"northeast": {"lat": 51.5115514802915, "lng": -0.146738969708498}, "southwest": {"lat": 51.5088535197085, "lng": -0.149436930291502}}}, "name": "Landings", "place_id": "ChIJoUzFKCwFdkgRZUQf1xa00dE", "types": ["point_of_interest", "establishment"]}, "ChIJ6WzgGywFdkgRv4LV7zJ2sPo": {"geometry": {"location": {"lat": 51.51018329999999, "lng": -0.1479167}, "viewport": {"northeast": {"lat": 51.51157883029149, "lng": -0.146595369708498}, "southwest": {"lat": 51.50888086970849, "lng": -0.149293330291502}}}, "name": "Clutterbuck Palmer Schneider", "place_id": "ChIJ6WzgGywFdkgRv4LV7zJ2sPo", "types": ["point_of_interest", "establishment"]}, "ChIJGb2BGSwFdkgRra2SNNIKaTs": {"geometry": {"location": {"lat": 51.5101585, "lng": -0.1479435}, "viewport": {"northeast": {"lat": 51.51156223029149, "lng": -0.146627019708498}, "southwest": {"lat": 51.5088642697085, "lng": -0.149324980291502}}}, "name": "International Entertainment Corporation", "place_id": "ChIJGb2BGSwFdkgRra2SNNIKaTs", "types": ["point_of_interest", "establishment"], "rating": 1, "user_ratings_total": 1}, "ChIJYR1QGSwFdkgRJZGFPlTyjBc": {"geometry": {"location": {"lat": 51.510025, "lng": -0.147972}, "viewport": {"northeast": {"lat": 51.5113534302915, "lng": -0.146747269708498}, "southwest": {"lat": 51.5086554697085, "lng": -0.149445230291502}}}, "name": "CGTWORKS", "place_id": "ChIJYR1QGSwFdkgRJZGFPlTyjBc", "types": ["general_contractor", "point_of_interest", "establishment"], "rating": 5, "user_ratings_total": 2}, "ChIJrxEKECwFdkgRSWx7xP7YWQg": {"geometry": {"location": {"lat": 51.5102189, "lng": -0.1477804}, "viewport": {"northeast": {"lat": 51.5116125802915, "lng": -0.146457919708498}, "southwest": {"lat": 51.5089146197085, "lng": -0.149155880291502}}}, "name": "Valextra Boutique", "place_id": "ChIJrxEKECwFdkgRSWx7xP7YWQg", "types": ["point_of_interest", "store", "establishment"], "rating": 4.3, "user_ratings_total": 14}, "ChIJmxqIdEobdkgRMJ8_P4O_b9M": {"geometry": {"location": {"lat": 51.51047759999999, "lng": -0.1477311}, "viewport": {"northeast": {"lat": 51.5119209302915, "lng": -0.146184019708498}, "southwest": {"lat": 51.50922296970851, "lng": -0.148881980291502}}}, "name": "SUITCASE Magazine", "place_id": "ChIJmxqIdEobdkgRMJ8_P4O_b9M", "types": ["point_of_interest", "establishment"]}, "ChIJyYpDJiwFdkgRIwi0idtliOI": {"geometry": {"location": {"lat": 51.5099884, "lng": -0.1489958}, "viewport": {"northeast": {"lat": 51.5113738802915, "lng": -0.147666419708498}, "southwest": {"lat": 51.5086759197085, "lng": -0.150364380291502}}}, "name": "HSM Chartered Surveyors", "place_id": "ChIJyYpDJiwFdkgRIwi0idtliOI", "types": ["point_of_interest", "establishment"]}, "ChIJES_sGiwFdkgRX91RtKewgB4": {"geometry": {"location": {"lat": 51.5102436, "lng": -0.147702}, "viewport": {"northeast": {"lat": 51.5116343302915, "lng": -0.146377769708498}, "southwest": {"lat": 51.5089363697085, "lng": -0.149075730291502}}}, "name": "Oscar de la Renta", "place_id": "ChIJES_sGiwFdkgRX91RtKewgB4", "types": ["point_of_interest", "clothing_store", "store", "establishment"], "rating": 3.9, "user_ratings_total": 11}, "ChIJpZz9JSwFdkgR22z7O7b8VCo": {"geometry": {"location": {"lat": 51.5099884, "lng": -0.1489957}, "viewport": {"northeast": {"lat": 51.51137388029149, "lng": -0.147666319708498}, "southwest": {"lat": 51.50867591970849, "lng": -0.150364280291502}}}, "name": "Raspin Properties Ltd", "place_id": "ChIJpZz9JSwFdkgR22z7O7b8VCo", "types": ["finance", "point_of_interest", "establishment"]}, "ChIJ92e3ASwFdkgRBilf8GATHWI": {"geometry": {"location": {"lat": 51.5099062, "lng": -0.1480706}, "viewport": {"northeast": {"lat": 51.5111375802915, "lng": -0.146647919708498}, "southwest": {"lat": 51.5084396197085, "lng": -0.149345880291502}}}, "name": "Nightingale Partners", "place_id": "ChIJ92e3ASwFdkgRBilf8GATHWI", "types": ["real_estate_agency", "point_of_interest", "establishment"]}, "ChIJlf0pMCwFdkgR1RxOTrDJ1RI": {"geometry": {"location": {"lat": 51.5104042, "lng": -0.1492379}, "viewport": {"northeast": {"lat": 51.51171488029149, "lng": -0.147956769708498}, "southwest": {"lat": 51.50901691970849, "lng": -0.150654730291502}}}, "name": "Jessica McCormack", "place_id": "ChIJlf0pMCwFdkgR1RxOTrDJ1RI", "types": ["jewelry_store", "point_of_interest", "store", "establishment"], "rating": 4.4, "user_ratings_total": 17}, "ChIJNWza_zEFdkgR8H0aoW1PAqs": {"geometry": {"location": {"lat": 51.5099062, "lng": -0.1480707}, "viewport": {"northeast": {"lat": 51.5111375802915, "lng": -0.146647969708498}, "southwest": {"lat": 51.5084396197085, "lng": -0.1493459302915021}}}, "name": "JR Capital", "place_id": "ChIJNWza_zEFdkgR8H0aoW1PAqs", "types": ["finance", "point_of_interest", "establishment"], "rating": 5, "user_ratings_total": 1}, "ChIJ43-sFC4FdkgRaZCIzbVyulE": {"geometry": {"location": {"lat": 51.51081800000001, "lng": -0.148707}, "viewport": {"northeast": {"lat": 51.5121130302915, "lng": -0.147330619708498}, "southwest": {"lat": 51.5094150697085, "lng": -0.150028580291502}}}, "name": "Wedinitaly Ltd", "place_id": "ChIJ43-sFC4FdkgRaZCIzbVyulE", "types": ["point_of_interest", "establishment"]}, "ChIJxZIKFCwFdkgRlHqKPfzBk74": {"geometry": {"location": {"lat": 51.5107188, "lng": -0.1479353}, "viewport": {"northeast": {"lat": 51.5121270302915, "lng": -0.146614819708498}, "southwest": {"lat": 51.5094290697085, "lng": -0.149312780291502}}}, "name": "Chesterton Global Ltd", "place_id": "ChIJxZIKFCwFdkgRlHqKPfzBk74", "types": ["real_estate_agency", "point_of_interest", "establishment"], "rating": 3, "user_ratings_total": 2}, "ChIJ6WW_OSwFdkgRZE5DqeV2S6Q": {"geometry": {"location": {"lat": 51.5107387, "lng": -0.1489384}, "viewport": {"northeast": {"lat": 51.5120490802915, "lng": -0.147569769708498}, "southwest": {"lat": 51.5093511197085, "lng": -0.150267730291502}}}, "name": "Mount Row Capital", "place_id": "ChIJ6WW_OSwFdkgRZE5DqeV2S6Q", "types": ["finance", "point_of_interest", "establishment"]}, "ChIJ6WW_OSwFdkgRwWTO3HGzuTI": {"geometry": {"location": {"lat": 51.5107387, "lng": -0.1489384}, "viewport": {"northeast": {"lat": 51.5120490802915, "lng": -0.147569769708498}, "southwest": {"lat": 51.5093511197085, "lng": -0.150267730291502}}}, "name": "Revetas Capital", "place_id": "ChIJ6WW_OSwFdkgRwWTO3HGzuTI", "types": ["point_of_interest", "establishment"]}, "ChIJ6WW_OSwFdkgRsf10a8bOhO4": {"geometry": {"location": {"lat": 51.5107387, "lng": -0.1489384}, "viewport": {"northeast": {"lat": 51.5120490802915, "lng": -0.147569769708498}, "southwest": {"lat": 51.5093511197085, "lng": -0.150267730291502}}}, "name": "Compass Partners International", "place_id": "ChIJ6WW_OSwFdkgRsf10a8bOhO4", "types": ["finance", "point_of_interest", "establishment"]}, "ChIJ96r1EywFdkgRVTswdVGewnI": {"geometry": {"location": {"lat": 51.5107154, "lng": -0.147919}, "viewport": {"northeast": {"lat": 51.51187658029151, "lng": -0.146458569708498}, "southwest": {"lat": 51.50917861970851, "lng": -0.1491565302915021}}}, "name": "Naked Bulb Productions", "place_id": "ChIJ96r1EywFdkgRVTswdVGewnI", "types": ["point_of_interest", "establishment"]}, "ChIJu-8gVCkFdkgRQK4BpkuFpeg": {"geometry": {"location": {"lat": 51.51057369999999, "lng": -0.1477327}, "viewport": {"northeast": {"lat": 51.5120113302915, "lng": -0.146186719708498}, "southwest": {"lat": 51.5093133697085, "lng": -0.148884680291502}}}, "name": "Sovereign Centros Limited", "place_id": "ChIJu-8gVCkFdkgRQK4BpkuFpeg", "types": ["general_contractor", "point_of_interest", "establishment"], "rating": 5, "user_ratings_total": 1}, "ChIJ7YCKt48FdkgRe-dRB5yx0AE": {"geometry": {"location": {"lat": 51.51009149999999, "lng": -0.1483015}, "viewport": {"northeast": {"lat": 51.51149728029149, "lng": -0.146982269708498}, "southwest": {"lat": 51.50879931970849, "lng": -0.149680230291502}}}, "name": "Wine Unearthed - London Wine Tasting", "place_id": "ChIJ7YCKt48FdkgRe-dRB5yx0AE", "types": ["bar", "food", "point_of_interest", "establishment"], "rating": 4.9, "user_ratings_total": 21}, "ChIJNUPaECwFdkgR7tLkGhfIhnA": {"geometry": {"location": {"lat": 51.510452, "lng": -0.147876}, "viewport": {"northeast": {"lat": 51.5117353802915, "lng": -0.146478519708498}, "southwest": {"lat": 51.5090374197085, "lng": -0.149176480291502}}}, "name": "Mount Street Printers", "place_id": "ChIJNUPaECwFdkgR7tLkGhfIhnA", "types": ["point_of_interest", "store", "establishment"], "rating": 4.9, "user_ratings_total": 87}, "ChIJm-FvGdYEdkgRaMW3KgmtB2c": {"geometry": {"location": {"lat": 51.51004, "lng": -0.148639}, "viewport": {"northeast": {"lat": 51.5114447802915, "lng": -0.147307519708498}, "southwest": {"lat": 51.5087468197085, "lng": -0.150005480291502}}}, "name": "GINA", "place_id": "ChIJm-FvGdYEdkgRaMW3KgmtB2c", "types": ["shoe_store", "point_of_interest", "store", "establishment"], "rating": 5, "user_ratings_total": 7}, "ChIJHZZOPSwFdkgRi5e8O8hu_uw": {"geometry": {"location": {"lat": 51.5103391, "lng": -0.1483586}, "viewport": {"northeast": {"lat": 51.51162633029149, "lng": -0.146983119708498}, "southwest": {"lat": 51.5089283697085, "lng": -0.149681080291502}}}, "name": "Jamavar", "place_id": "ChIJHZZOPSwFdkgRi5e8O8hu_uw", "types": ["point_of_interest", "establishment"]}, "ChIJ_es83rcFdkgRBc5Jyvp9rZs": {"geometry": {"location": {"lat": 51.51031, "lng": -0.1485876}, "viewport": {"northeast": {"lat": 51.5115820302915, "lng": -0.147391469708498}, "southwest": {"lat": 51.5088840697085, "lng": -0.150089430291502}}}, "name": "Cars Recovery Truck Grosvenor Square", "place_id": "ChIJ_es83rcFdkgRBc5Jyvp9rZs", "types": ["car_repair", "point_of_interest", "establishment"]}, "ChIJyVb3epcFdkgRYtT2VBedqp4": {"geometry": {"location": {"lat": 51.5102975, "lng": -0.148772}, "viewport": {"northeast": {"lat": 51.5115724302915, "lng": -0.147439169708498}, "southwest": {"lat": 51.5088744697085, "lng": -0.150137130291502}}}, "name": "House Clearance Mayfair", "place_id": "ChIJyVb3epcFdkgRYtT2VBedqp4", "types": ["point_of_interest", "establishment"]}, "ChIJ7zNMIiwFdkgRWz9vV_-29Hg": {"geometry": {"location": {"lat": 51.51009810000001, "lng": -0.1484591}, "viewport": {"northeast": {"lat": 51.5114877302915, "lng": -0.147128469708498}, "southwest": {"lat": 51.50878976970851, "lng": -0.149826430291502}}}, "name": "Ch", "place_id": "ChIJ7zNMIiwFdkgRWz9vV_-29Hg", "types": ["clothing_store", "point_of_interest", "store", "establishment"], "rating": 4, "user_ratings_total": 1}, "ChIJ96sjkcUFdkgRKrqFx9njZfA": {"geometry": {"location": {"lat": 51.5102448, "lng": -0.1488195}, "viewport": {"northeast": {"lat": 51.5115473302915, "lng": -0.1474787697084979}, "southwest": {"lat": 51.5088493697085, "lng": -0.150176730291502}}}, "name": "SUITCASE Creative Studio", "place_id": "ChIJ96sjkcUFdkgRKrqFx9njZfA", "types": ["point_of_interest", "establishment"]}, "ChIJYdqNmcAFdkgRy64MvXmuQng": {"geometry": {"location": {"lat": 51.5101475, "lng": -0.1481714}, "viewport": {"northeast": {"lat": 51.51153868029149, "lng": -0.146840519708498}, "southwest": {"lat": 51.50884071970849, "lng": -0.149538480291502}}}, "name": "Dr. Barbara Sturm London Boutique & Spa", "place_id": "ChIJYdqNmcAFdkgRy64MvXmuQng", "types": ["spa", "point_of_interest", "establishment"], "rating": 5, "user_ratings_total": 1}, "ChIJQ91YGCwFdkgRLvzGtNZ5d2Y": {"geometry": {"location": {"lat": 51.5101325, "lng": -0.1481889}, "viewport": {"northeast": {"lat": 51.51147383029149, "lng": -0.146882119708498}, "southwest": {"lat": 51.5087758697085, "lng": -0.149580080291502}}}, "name": "Dr. Barbara Sturm", "place_id": "ChIJQ91YGCwFdkgRLvzGtNZ5d2Y", "types": ["point_of_interest", "store", "establishment"], "rating": 5, "user_ratings_total": 1}, "ChIJMQDNOiwFdkgRYJ3iXO--unU": {"geometry": {"location": {"lat": 51.510324, "lng": -0.148904}, "viewport": {"northeast": {"lat": 51.5115961302915, "lng": -0.147590769708498}, "southwest": {"lat": 51.5088981697085, "lng": -0.150288730291502}}}, "name": "Berkeley Court Investments Ltd.", "place_id": "ChIJMQDNOiwFdkgRYJ3iXO--unU", "types": ["point_of_interest", "establishment"]}, "ChIJMQDNOiwFdkgR_I7_iku3tug": {"geometry": {"location": {"lat": 51.510324, "lng": -0.148904}, "viewport": {"northeast": {"lat": 51.5115961302915, "lng": -0.147590769708498}, "southwest": {"lat": 51.5088981697085, "lng": -0.150288730291502}}}, "name": "London Land Limited", "place_id": "ChIJMQDNOiwFdkgR_I7_iku3tug", "types": ["point_of_interest", "establishment"]}, "ChIJMQDNOiwFdkgRmgz_ljXjQMo": {"geometry": {"location": {"lat": 51.510324, "lng": -0.148904}, "viewport": {"northeast": {"lat": 51.5115961302915, "lng": -0.147590769708498}, "southwest": {"lat": 51.5088981697085, "lng": -0.150288730291502}}}, "name": "Lightwood Strategic Limited", "place_id": "ChIJMQDNOiwFdkgRmgz_ljXjQMo", "types": ["point_of_interest", "establishment"]}, "ChIJMQDNOiwFdkgRPDP4sbgMifM": {"geometry": {"location": {"lat": 51.510324, "lng": -0.148904}, "viewport": {"northeast": {"lat": 51.5115961302915, "lng": -0.147590769708498}, "southwest": {"lat": 51.5088981697085, "lng": -0.150288730291502}}}, "name": "Bc Exchange Limited", "place_id": "ChIJMQDNOiwFdkgRPDP4sbgMifM", "types": ["point_of_interest", "establishment"]}, "ChIJMQDNOiwFdkgRxxsVvg8Zty8": {"geometry": {"location": {"lat": 51.510324, "lng": -0.148904}, "viewport": {"northeast": {"lat": 51.5115961302915, "lng": -0.147590769708498}, "southwest": {"lat": 51.5088981697085, "lng": -0.150288730291502}}}, "name": "Albert Hall Mansions Management Limited", "place_id": "ChIJMQDNOiwFdkgRxxsVvg8Zty8", "types": ["point_of_interest", "establishment"]}, "ChIJMQDNOiwFdkgRCVm7TNUrIV0": {"geometry": {"location": {"lat": 51.510324, "lng": -0.148904}, "viewport": {"northeast": {"lat": 51.5115961302915, "lng": -0.147590769708498}, "southwest": {"lat": 51.5088981697085, "lng": -0.150288730291502}}}, "name": "Standard Securities Ltd", "place_id": "ChIJMQDNOiwFdkgRCVm7TNUrIV0", "types": ["point_of_interest", "establishment"]}, "ChIJPYMxANcEdkgRsjIOWWRL0JI": {"geometry": {"location": {"lat": 51.51037909999999, "lng": -0.1480073}, "viewport": {"northeast": {"lat": 51.51167933029149, "lng": -0.146629369708498}, "southwest": {"lat": 51.50898136970849, "lng": -0.149327330291502}}}, "name": "Willstone Management Ltd", "place_id": "ChIJPYMxANcEdkgRsjIOWWRL0JI", "types": ["point_of_interest", "establishment"]}, "ChIJI9ZDFywFdkgR6oCt_uAipYc": {"geometry": {"location": {"lat": 51.5103768, "lng": -0.1480066}, "viewport": {"northeast": {"lat": 51.5116781302915, "lng": -0.146629319708498}, "southwest": {"lat": 51.5089801697085, "lng": -0.1493272802915021}}}, "name": "Huishan Zhang", "place_id": "ChIJI9ZDFywFdkgR6oCt_uAipYc", "types": ["point_of_interest", "clothing_store", "store", "establishment"], "rating": 5, "user_ratings_total": 1}, "ChIJHV7735kFdkgRVxN-pr43O0I": {"geometry": {"location": {"lat": 51.5100492, "lng": -0.1483199}, "viewport": {"northeast": {"lat": 51.5114723802915, "lng": -0.147009769708498}, "southwest": {"lat": 51.5087744197085, "lng": -0.149707730291502}}}, "name": "Landlord Inventory Service Mayfair", "place_id": "ChIJHV7735kFdkgRVxN-pr43O0I", "types": ["point_of_interest", "establishment"]}, "ChIJNZMWJCwFdkgR6FUxABJvxL4": {"geometry": {"location": {"lat": 51.5100424, "lng": -0.148738}, "viewport": {"northeast": {"lat": 51.51142618029149, "lng": -0.147461119708498}, "southwest": {"lat": 51.50872821970849, "lng": -0.150159080291502}}}, "name": "Basement Conversion London", "place_id": "ChIJNZMWJCwFdkgR6FUxABJvxL4", "types": ["general_contractor", "point_of_interest", "establishment"], "rating": 5, "user_ratings_total": 4}, "ChIJ__-rOiwFdkgRgFetBPkXGiw": {"geometry": {"location": {"lat": 51.5103346, "lng": -0.1490077}, "viewport": {"northeast": {"lat": 51.5116198802915, "lng": -0.147713619708498}, "southwest": {"lat": 51.5089219197085, "lng": -0.150411580291502}}}, "name": "Millbank Court", "place_id": "ChIJ__-rOiwFdkgRgFetBPkXGiw", "types": ["real_estate_agency", "point_of_interest", "establishment"]}, "ChIJ9VIx9A4FdkgRalzwDnEBp98": {"geometry": {"location": {"lat": 51.5105075, "lng": -0.1479666}, "viewport": {"northeast": {"lat": 51.5117553302915, "lng": -0.146557619708498}, "southwest": {"lat": 51.5090573697085, "lng": -0.149255580291502}}}, "name": "Galerie Maria Bernheim", "place_id": "ChIJ9VIx9A4FdkgRalzwDnEBp98", "types": ["art_gallery", "point_of_interest", "establishment"]}, "ChIJBwB8r2Ip2EcRttXk5D2dCFs": {"geometry": {"location": {"lat": 51.51052070000001, "lng": -0.1479747}, "viewport": {"northeast": {"lat": 51.51176193029151, "lng": -0.146561769708498}, "southwest": {"lat": 51.50906396970851, "lng": -0.149259730291502}}}, "name": "Man and Van Mayfair", "place_id": "ChIJBwB8r2Ip2EcRttXk5D2dCFs", "types": ["moving_company", "point_of_interest", "establishment"]}, "ChIJ40LaECwFdkgRcez58kBHYKM": {"geometry": {"location": {"lat": 51.5103711, "lng": -0.147881}, "viewport": {"northeast": {"lat": 51.51168713029151, "lng": -0.146515169708498}, "southwest": {"lat": 51.50898916970851, "lng": -0.149213130291502}}}, "name": "Systems & Smiles", "place_id": "ChIJ40LaECwFdkgRcez58kBHYKM", "types": ["point_of_interest", "establishment"]}, "ChIJx-zUuz8FdkgRIPTLr_QNLEY": {"geometry": {"location": {"lat": 51.51030530000001, "lng": -0.1490401}, "viewport": {"northeast": {"lat": 51.5116061302915, "lng": -0.1477326197084979}, "southwest": {"lat": 51.5089081697085, "lng": -0.150430580291502}}}, "name": "MATCHESFASHION", "place_id": "ChIJx-zUuz8FdkgRIPTLr_QNLEY", "types": ["point_of_interest", "clothing_store", "store", "establishment"], "rating": 4.2, "user_ratings_total": 13}, "ChIJ29IKGSwFdkgRvt6P1QvDJ7Y": {"geometry": {"location": {"lat": 51.5101585, "lng": -0.1479436}, "viewport": {"northeast": {"lat": 51.51156223029149, "lng": -0.146627119708498}, "southwest": {"lat": 51.5088642697085, "lng": -0.149325080291502}}}, "name": "Anselm St Development Co Ltd", "place_id": "ChIJ29IKGSwFdkgRvt6P1QvDJ7Y", "types": ["general_contractor", "point_of_interest", "establishment"]}, "ChIJdWAmGiwFdkgRbymNJrSnzAg": {"geometry": {"location": {"lat": 51.51020219999999, "lng": -0.1479098}, "viewport": {"northeast": {"lat": 51.51159013029149, "lng": -0.146583919708498}, "southwest": {"lat": 51.5088921697085, "lng": -0.149281880291502}}}, "name": "Chesterpeak Group", "place_id": "ChIJdWAmGiwFdkgRbymNJrSnzAg", "types": ["real_estate_agency", "point_of_interest", "establishment"]}, "ChIJdWAmGiwFdkgRhy-d4POCZ-I": {"geometry": {"location": {"lat": 51.51020219999999, "lng": -0.1479098}, "viewport": {"northeast": {"lat": 51.51159013029149, "lng": -0.146583919708498}, "southwest": {"lat": 51.5088921697085, "lng": -0.149281880291502}}}, "name": "Tyburn Consulting Limited", "place_id": "ChIJdWAmGiwFdkgRhy-d4POCZ-I", "types": ["point_of_interest", "establishment"]}, "ChIJgdAXj3oFdkgRjjSBD5rvJ1Y": {"geometry": {"location": {"lat": 51.51020219999999, "lng": -0.1479098}, "viewport": {"northeast": {"lat": 51.51159013029149, "lng": -0.146583919708498}, "southwest": {"lat": 51.5088921697085, "lng": -0.149281880291502}}}, "name": "Murray Birrell Ltd.", "place_id": "ChIJgdAXj3oFdkgRjjSBD5rvJ1Y", "types": ["point_of_interest", "establishment"]}, "ChIJRfsDvS4FdkgR91a9a5jNhYg": {"geometry": {"location": {"lat": 51.50888099297216, "lng": -0.1480757818390689}, "viewport": {"northeast": {"lat": 51.5102273802915, "lng": -0.1465551}, "southwest": {"lat": 51.5075294197085, "lng": -0.1495895}}}, "name": "30-2 Hill St", "place_id": "ChIJRfsDvS4FdkgR91a9a5jNhYg", "types": ["route"]}, "ChIJV_hQli4FdkgRbrjsCv3bCJ0": {"geometry": {"location": {"lat": 51.5088038, "lng": -0.1484372}, "viewport": {"northeast": {"lat": 51.51012058029149, "lng": -0.147045619708498}, "southwest": {"lat": 51.5074226197085, "lng": -0.149743580291502}}}, "name": "GoodStaywithus", "place_id": "ChIJV_hQli4FdkgRbrjsCv3bCJ0", "types": ["lodging", "point_of_interest", "establishment"]}, "ChIJx_V9gi4FdkgRrddXTLe1w6s": {"geometry": {"location": {"lat": 51.50936619999999, "lng": -0.1490577}, "viewport": {"northeast": {"lat": 51.51092833029149, "lng": -0.147792519708498}, "southwest": {"lat": 51.50823036970849, "lng": -0.150490480291502}}}, "name": "Catholic Church of the Immaculate Conception, Mayfair", "place_id": "ChIJx_V9gi4FdkgRrddXTLe1w6s", "types": ["tourist_attraction", "church", "place_of_worship", "point_of_interest", "establishment"], "rating": 4.8, "user_ratings_total": 367}, "ChIJMS9CRisFdkgRLHAd50B0V18": {"geometry": {"location": {"lat": 51.5094144, "lng": -0.1486547}, "viewport": {"northeast": {"lat": 51.5107310302915, "lng": -0.147263269708498}, "southwest": {"lat": 51.5080330697085, "lng": -0.149961230291502}}}, "name": "Faggionato Anne", "place_id": "ChIJMS9CRisFdkgRLHAd50B0V18", "types": ["art_gallery", "point_of_interest", "establishment"]}, "ChIJ2SCm9ikFdkgR6v8-R6yMH90": {"geometry": {"location": {"lat": 51.5091462, "lng": -0.1479862}, "viewport": {"northeast": {"lat": 51.5104298802915, "lng": -0.146550769708498}, "southwest": {"lat": 51.5077319197085, "lng": -0.149248730291502}}}, "name": "CVS Law Ltd", "place_id": "ChIJ2SCm9ikFdkgR6v8-R6yMH90", "types": ["lawyer", "point_of_interest", "establishment"], "rating": 5, "user_ratings_total": 1}, "ChIJG_FuHS4FdkgRt7e-mBgCnws": {"geometry": {"location": {"lat": 51.50942550000001, "lng": -0.1486612}, "viewport": {"northeast": {"lat": 51.5107377802915, "lng": -0.147264119708498}, "southwest": {"lat": 51.5080398197085, "lng": -0.149962080291502}}}, "name": "Wyvern Partners", "place_id": "ChIJG_FuHS4FdkgRt7e-mBgCnws", "types": ["finance", "point_of_interest", "establishment"]}, "ChIJzRqQ4CsFdkgRexjCQttatYs": {"geometry": {"location": {"lat": 51.50915209999999, "lng": -0.1487163}, "viewport": {"northeast": {"lat": 51.51053803029149, "lng": -0.147415769708498}, "southwest": {"lat": 51.50784006970849, "lng": -0.150113730291502}}}, "name": "One Search", "place_id": "ChIJzRqQ4CsFdkgRexjCQttatYs", "types": ["point_of_interest", "establishment"]}, "ChIJqwl_bC4FdkgR0G6vKbm2nso": {"geometry": {"location": {"lat": 51.50936939999999, "lng": -0.1487483}, "viewport": {"northeast": {"lat": 51.5106852302915, "lng": -0.147355869708498}, "southwest": {"lat": 51.5079872697085, "lng": -0.150053830291502}}}, "name": "D S Churchill Ltd", "place_id": "ChIJqwl_bC4FdkgR0G6vKbm2nso", "types": ["real_estate_agency", "point_of_interest", "establishment"]}, "ChIJDeUp8CsFdkgRneAItC6M_LU": {"geometry": {"location": {"lat": 51.50936939999999, "lng": -0.1487483}, "viewport": {"northeast": {"lat": 51.5106852302915, "lng": -0.147355869708498}, "southwest": {"lat": 51.5079872697085, "lng": -0.150053830291502}}}, "name": "Better Regulation", "place_id": "ChIJDeUp8CsFdkgRneAItC6M_LU", "types": ["point_of_interest", "establishment"]}, "ChIJNygTnC4FdkgRjllNTCF2MyE": {"geometry": {"location": {"lat": 51.509452, "lng": -0.1487962}, "viewport": {"northeast": {"lat": 51.51073573029149, "lng": -0.147361669708498}, "southwest": {"lat": 51.50803776970849, "lng": -0.150059630291502}}}, "name": "Sapient Secure Limited", "place_id": "ChIJNygTnC4FdkgRjllNTCF2MyE", "types": ["point_of_interest", "establishment"]}, "ChIJAe-fni4FdkgRrMdEhzIbelU": {"geometry": {"location": {"lat": 51.5094144, "lng": -0.1486546}, "viewport": {"northeast": {"lat": 51.5107310302915, "lng": -0.147263169708498}, "southwest": {"lat": 51.5080330697085, "lng": -0.149961130291502}}}, "name": "The Board Advisory Partnership", "place_id": "ChIJAe-fni4FdkgRrMdEhzIbelU", "types": ["point_of_interest", "establishment"]}, "ChIJAe-fni4FdkgR4UmjehJviRM": {"geometry": {"location": {"lat": 51.5094144, "lng": -0.1486546}, "viewport": {"northeast": {"lat": 51.5107310302915, "lng": -0.147263169708498}, "southwest": {"lat": 51.5080330697085, "lng": -0.149961130291502}}}, "name": "Frontera Capital Limited", "place_id": "ChIJAe-fni4FdkgR4UmjehJviRM", "types": ["finance", "point_of_interest", "establishment"]}, "ChIJAe-fni4FdkgRRYFIll_9Y7o": {"geometry": {"location": {"lat": 51.5094144, "lng": -0.1486546}, "viewport": {"northeast": {"lat": 51.5107310302915, "lng": -0.147263169708498}, "southwest": {"lat": 51.5080330697085, "lng": -0.149961130291502}}}, "name": "GeoPartners Ltd", "place_id": "ChIJAe-fni4FdkgRRYFIll_9Y7o", "types": ["point_of_interest", "establishment"]}, "ChIJAe-fni4FdkgRJi6hEfNYU7s": {"geometry": {"location": {"lat": 51.5094144, "lng": -0.1486546}, "viewport": {"northeast": {"lat": 51.5107310302915, "lng": -0.147263169708498}, "southwest": {"lat": 51.5080330697085, "lng": -0.149961130291502}}}, "name": "Verditek PLC", "place_id": "ChIJAe-fni4FdkgRJi6hEfNYU7s", "types": ["point_of_interest", "establishment"]}, "ChIJAe-fni4FdkgRgmPm-D7Y5mc": {"geometry": {"location": {"lat": 51.5094144, "lng": -0.1486546}, "viewport": {"northeast": {"lat": 51.5107310302915, "lng": -0.147263169708498}, "southwest": {"lat": 51.5080330697085, "lng": -0.149961130291502}}}, "name": "Evolution Capital", "place_id": "ChIJAe-fni4FdkgRgmPm-D7Y5mc", "types": ["finance", "point_of_interest", "establishment"]}, "ChIJ41IXnC4FdkgRW9I9CxchtEI": {"geometry": {"location": {"lat": 51.5094232, "lng": -0.1486656}, "viewport": {"northeast": {"lat": 51.5107354302915, "lng": -0.147268719708498}, "southwest": {"lat": 51.5080374697085, "lng": -0.149966680291502}}}, "name": "Halstead Technology Solution Providers", "place_id": "ChIJ41IXnC4FdkgRW9I9CxchtEI", "types": ["point_of_interest", "establishment"]}, "ChIJB--fni4FdkgRIeWoPAXvtM8": {"geometry": {"location": {"lat": 51.5094232, "lng": -0.1486656}, "viewport": {"northeast": {"lat": 51.5107354302915, "lng": -0.147268719708498}, "southwest": {"lat": 51.5080374697085, "lng": -0.149966680291502}}}, "name": "Accuro", "place_id": "ChIJB--fni4FdkgRIeWoPAXvtM8", "types": ["finance", "point_of_interest", "establishment"]}, "ChIJ0cMVnC4FdkgRuXQ8lePgrwY": {"geometry": {"location": {"lat": 51.50942329999999, "lng": -0.1486656}, "viewport": {"northeast": {"lat": 51.5107354802915, "lng": -0.147268669708498}, "southwest": {"lat": 51.5080375197085, "lng": -0.149966630291502}}}, "name": "Farm Street Partners", "place_id": "ChIJ0cMVnC4FdkgRuXQ8lePgrwY", "types": ["finance", "point_of_interest", "establishment"]}, "ChIJU16Zni4FdkgRHJc9hm9_B4M": {"geometry": {"location": {"lat": 51.5094368, "lng": -0.1486373}, "viewport": {"northeast": {"lat": 51.51074928029149, "lng": -0.147240619708498}, "southwest": {"lat": 51.5080513197085, "lng": -0.149938580291502}}}, "name": "Maystone Capital", "place_id": "ChIJU16Zni4FdkgRHJc9hm9_B4M", "types": ["point_of_interest", "establishment"]}, "ChIJddai1wQFdkgRaQVpFJo-oOM": {"geometry": {"location": {"lat": 51.5090164, "lng": -0.1482388}, "viewport": {"northeast": {"lat": 51.5103001302915, "lng": -0.146803519708498}, "southwest": {"lat": 51.5076021697085, "lng": -0.149501480291502}}}, "name": "Art Line Inside Out Limited", "place_id": "ChIJddai1wQFdkgRaQVpFJo-oOM", "types": ["general_contractor", "point_of_interest", "establishment"]}, "ChIJW_VDlC4FdkgR3YxEgkubC6k": {"geometry": {"location": {"lat": 51.5092273, "lng": -0.1478989}, "viewport": {"northeast": {"lat": 51.51050013029149, "lng": -0.146449119708498}, "southwest": {"lat": 51.5078021697085, "lng": -0.1491470802915021}}}, "name": "Blackstone Solicitors", "place_id": "ChIJW_VDlC4FdkgR3YxEgkubC6k", "types": ["lawyer", "point_of_interest", "establishment"], "rating": 1, "user_ratings_total": 1}, "ChIJT-cipS4FdkgR2I2DM6hzfDY": {"geometry": {"location": {"lat": 51.5091389, "lng": -0.147777}, "viewport": {"northeast": {"lat": 51.5104566802915, "lng": -0.146386719708498}, "southwest": {"lat": 51.5077587197085, "lng": -0.149084680291502}}}, "name": "Queensgate Investments LLP", "place_id": "ChIJT-cipS4FdkgR2I2DM6hzfDY", "types": ["finance", "point_of_interest", "establishment"]}, "ChIJvbbHHywFdkgRlvGj6fLppjA": {"geometry": {"location": {"lat": 51.5097315, "lng": -0.1481612}, "viewport": {"northeast": {"lat": 51.5110282802915, "lng": -0.1467427697084979}, "southwest": {"lat": 51.5083303197085, "lng": -0.149440730291502}}}, "name": "PML London Ltd", "place_id": "ChIJvbbHHywFdkgRlvGj6fLppjA", "types": ["point_of_interest", "establishment"]}, "ChIJB4QgyJdWfUgR12V8DLwFKUs": {"geometry": {"location": {"lat": 51.5095505, "lng": -0.1477896}, "viewport": {"northeast": {"lat": 51.5109178802915, "lng": -0.146397719708498}, "southwest": {"lat": 51.50821991970851, "lng": -0.149095680291502}}}, "name": "QUEENS OF SYRIA", "place_id": "ChIJB4QgyJdWfUgR12V8DLwFKUs", "types": ["point_of_interest", "establishment"]}, "ChIJWfVDlC4FdkgRnKsUbcO4uLQ": {"geometry": {"location": {"lat": 51.5089723, "lng": -0.1491619}, "viewport": {"northeast": {"lat": 51.5101285302915, "lng": -0.147550869708498}, "southwest": {"lat": 51.5074305697085, "lng": -0.150248830291502}}}, "name": "TT TRADE LTD", "place_id": "ChIJWfVDlC4FdkgRnKsUbcO4uLQ", "types": ["point_of_interest", "establishment"]}, "ChIJL5iAvC4FdkgRHrnzq_k38y4": {"geometry": {"location": {"lat": 51.50883959999999, "lng": -0.1479365}, "viewport": {"northeast": {"lat": 51.5102221802915, "lng": -0.146631969708498}, "southwest": {"lat": 51.5075242197085, "lng": -0.149329930291502}}}, "name": "Richemont", "place_id": "ChIJL5iAvC4FdkgRHrnzq_k38y4", "types": ["jewelry_store", "point_of_interest", "store", "establishment"], "rating": 5, "user_ratings_total": 2}, "ChIJvauQ6ikFdkgRGk3o3RKhdww": {"geometry": {"location": {"lat": 51.5090868, "lng": -0.1479473}, "viewport": {"northeast": {"lat": 51.5103940802915, "lng": -0.146543169708498}, "southwest": {"lat": 51.50769611970851, "lng": -0.149241130291502}}}, "name": "Culross Global Management Limited", "place_id": "ChIJvauQ6ikFdkgRGk3o3RKhdww", "types": ["finance", "point_of_interest", "establishment"]}, "ChIJweSgO_IFdkgRLAMXkjlZE_E": {"geometry": {"location": {"lat": 51.5093706, "lng": -0.1482443}, "viewport": {"northeast": {"lat": 51.51076283029151, "lng": -0.146952669708498}, "southwest": {"lat": 51.50806486970851, "lng": -0.149650630291502}}}, "name": "OUCHRIH", "place_id": "ChIJweSgO_IFdkgRLAMXkjlZE_E", "types": ["restaurant", "food", "point_of_interest", "establishment"]}, "ChIJAe-fni4FdkgRgeLEu1IZz_I": {"geometry": {"location": {"lat": 51.5094144, "lng": -0.1486546}, "viewport": {"northeast": {"lat": 51.5107310302915, "lng": -0.147263169708498}, "southwest": {"lat": 51.5080330697085, "lng": -0.149961130291502}}}, "name": "PANAF OIL & GAS UK LIMITED", "place_id": "ChIJAe-fni4FdkgRgeLEu1IZz_I", "types": ["point_of_interest", "establishment"]}, "ChIJAe-fni4FdkgRxTbZ0kSOTtk": {"geometry": {"location": {"lat": 51.5094144, "lng": -0.1486546}, "viewport": {"northeast": {"lat": 51.5107310302915, "lng": -0.147263169708498}, "southwest": {"lat": 51.5080330697085, "lng": -0.149961130291502}}}, "name": "ULTRAX", "place_id": "ChIJAe-fni4FdkgRxTbZ0kSOTtk", "types": ["point_of_interest", "establishment"]}, "ChIJAe-fni4FdkgRC5CbDsWij4M": {"geometry": {"location": {"lat": 51.5094144, "lng": -0.1486546}, "viewport": {"northeast": {"lat": 51.5107310302915, "lng": -0.147263169708498}, "southwest": {"lat": 51.5080330697085, "lng": -0.149961130291502}}}, "name": "Bridgecourt & Company", "place_id": "ChIJAe-fni4FdkgRC5CbDsWij4M", "types": ["point_of_interest", "establishment"]}, "ChIJAe-fni4FdkgRgEj8GWIrBTQ": {"geometry": {"location": {"lat": 51.5094144, "lng": -0.1486546}, "viewport": {"northeast": {"lat": 51.5107310302915, "lng": -0.147263169708498}, "southwest": {"lat": 51.5080330697085, "lng": -0.149961130291502}}}, "name": "Nelson Associates", "place_id": "ChIJAe-fni4FdkgRgEj8GWIrBTQ", "types": ["point_of_interest", "establishment"]}, "ChIJAe-fni4FdkgRaQzFrgR11MA": {"geometry": {"location": {"lat": 51.5094144, "lng": -0.1486546}, "viewport": {"northeast": {"lat": 51.5107310302915, "lng": -0.147263169708498}, "southwest": {"lat": 51.5080330697085, "lng": -0.149961130291502}}}, "name": "iOrange", "place_id": "ChIJAe-fni4FdkgRaQzFrgR11MA", "types": ["point_of_interest", "establishment"]}, "ChIJAe-fni4FdkgRfJE-PMCKXO0": {"geometry": {"location": {"lat": 51.5094144, "lng": -0.1486546}, "viewport": {"northeast": {"lat": 51.5107310302915, "lng": -0.147263169708498}, "southwest": {"lat": 51.5080330697085, "lng": -0.149961130291502}}}, "name": "Altiq LLP", "place_id": "ChIJAe-fni4FdkgRfJE-PMCKXO0", "types": ["point_of_interest", "establishment"]}, "ChIJAe-fni4FdkgRHZJvI_Wv07k": {"geometry": {"location": {"lat": 51.5094144, "lng": -0.1486546}, "viewport": {"northeast": {"lat": 51.5107310302915, "lng": -0.147263169708498}, "southwest": {"lat": 51.5080330697085, "lng": -0.149961130291502}}}, "name": "Aether Energy Ltd", "place_id": "ChIJAe-fni4FdkgRHZJvI_Wv07k", "types": ["finance", "point_of_interest", "establishment"]}, "ChIJwQQQtDcFdkgR99159uI3e0Q": {"geometry": {"location": {"lat": 51.5094144, "lng": -0.1486546}, "viewport": {"northeast": {"lat": 51.5107308802915, "lng": -0.147263469708498}, "southwest": {"lat": 51.5080329197085, "lng": -0.149961430291502}}}, "name": "Argella", "place_id": "ChIJwQQQtDcFdkgR99159uI3e0Q", "types": ["point_of_interest", "establishment"]}, "ChIJB--fni4FdkgRXVGPVx3JTe0": {"geometry": {"location": {"lat": 51.5094144, "lng": -0.1486546}, "viewport": {"northeast": {"lat": 51.5107310302915, "lng": -0.147263219708498}, "southwest": {"lat": 51.5080330697085, "lng": -0.149961180291502}}}, "name": "Conaghan & Company", "place_id": "ChIJB--fni4FdkgRXVGPVx3JTe0", "types": ["finance", "point_of_interest", "establishment"]}, "ChIJB--fni4FdkgRDxRWDOcAhv0": {"geometry": {"location": {"lat": 51.5094144, "lng": -0.1486547}, "viewport": {"northeast": {"lat": 51.5107310302915, "lng": -0.147263269708498}, "southwest": {"lat": 51.5080330697085, "lng": -0.149961230291502}}}, "name": "Hudson Sterling Ltd", "place_id": "ChIJB--fni4FdkgRDxRWDOcAhv0", "types": ["point_of_interest", "establishment"]}, "ChIJhwkDX38FdkgRsH65co_vSoI": {"geometry": {"location": {"lat": 51.5094144, "lng": -0.1486547}, "viewport": {"northeast": {"lat": 51.5107310302915, "lng": -0.147263269708498}, "southwest": {"lat": 51.5080330697085, "lng": -0.149961230291502}}}, "name": "Luxury Vault Limited", "place_id": "ChIJhwkDX38FdkgRsH65co_vSoI", "types": ["point_of_interest", "store", "establishment"]}, "ChIJPcQ0R70FdkgRjpAOvIk_zlM": {"geometry": {"location": {"lat": 51.5094144, "lng": -0.1486547}, "viewport": {"northeast": {"lat": 51.5107310302915, "lng": -0.147263269708498}, "southwest": {"lat": 51.5080330697085, "lng": -0.149961230291502}}}, "name": "The Argyll Club", "place_id": "ChIJPcQ0R70FdkgRjpAOvIk_zlM", "types": ["real_estate_agency", "point_of_interest", "establishment"]}, "ChIJF6TDSl0FdkgR6LUZXUbU7yc": {"geometry": {"location": {"lat": 51.5094144, "lng": -0.1486547}, "viewport": {"northeast": {"lat": 51.5107310302915, "lng": -0.147263269708498}, "southwest": {"lat": 51.5080330697085, "lng": -0.149961230291502}}}, "name": "Mvcg Limited", "place_id": "ChIJF6TDSl0FdkgR6LUZXUbU7yc", "types": ["point_of_interest", "establishment"]}, "ChIJB--fni4FdkgR_mzwHLiCO8s": {"geometry": {"location": {"lat": 51.5094144, "lng": -0.1486547}, "viewport": {"northeast": {"lat": 51.5107310302915, "lng": -0.147263269708498}, "southwest": {"lat": 51.5080330697085, "lng": -0.149961230291502}}}, "name": "Altaira Capital Partners Llp", "place_id": "ChIJB--fni4FdkgR_mzwHLiCO8s", "types": ["point_of_interest", "establishment"]}, "ChIJ13wLygoFdkgRIaw8TuGd5es": {"geometry": {"location": {"lat": 51.5094232, "lng": -0.1486656}, "viewport": {"northeast": {"lat": 51.5107354302915, "lng": -0.147268719708498}, "southwest": {"lat": 51.5080374697085, "lng": -0.149966680291502}}}, "name": "HTSP", "place_id": "ChIJ13wLygoFdkgRIaw8TuGd5es", "types": ["point_of_interest", "establishment"]}, "ChIJkQ2kZpkFdkgRO5eo7l_kFUY": {"geometry": {"location": {"lat": 51.5094232, "lng": -0.1486656}, "viewport": {"northeast": {"lat": 51.5107354302915, "lng": -0.147268719708498}, "southwest": {"lat": 51.5080374697085, "lng": -0.149966680291502}}}, "name": "Estin & Co", "place_id": "ChIJkQ2kZpkFdkgRO5eo7l_kFUY", "types": ["point_of_interest", "establishment"]}, "ChIJASWpHSsFdkgRBHOsVNAKirU": {"geometry": {"location": {"lat": 51.5094232, "lng": -0.1486656}, "viewport": {"northeast": {"lat": 51.5107354302915, "lng": -0.147268719708498}, "southwest": {"lat": 51.5080374697085, "lng": -0.149966680291502}}}, "name": "Summit Search & Selection Ltd", "place_id": "ChIJASWpHSsFdkgRBHOsVNAKirU", "types": ["point_of_interest", "establishment"]}, "ChIJB--fni4FdkgR-AC5CtvjPTo": {"geometry": {"location": {"lat": 51.5094232, "lng": -0.1486656}, "viewport": {"northeast": {"lat": 51.5107354302915, "lng": -0.147268719708498}, "southwest": {"lat": 51.5080374697085, "lng": -0.149966680291502}}}, "name": "Equus International", "place_id": "ChIJB--fni4FdkgR-AC5CtvjPTo", "types": ["point_of_interest", "establishment"]}, "ChIJ14vA3C4FdkgRLdDwcZlvGQI": {"geometry": {"location": {"lat": 51.5094232, "lng": -0.1486656}, "viewport": {"northeast": {"lat": 51.5107354302915, "lng": -0.147268719708498}, "southwest": {"lat": 51.5080374697085, "lng": -0.149966680291502}}}, "name": "Divorce Solutions", "place_id": "ChIJ14vA3C4FdkgRLdDwcZlvGQI", "types": ["point_of_interest", "establishment"]}, "ChIJiRkTnC4FdkgRnG3FkRWbMyk": {"geometry": {"location": {"lat": 51.5094232, "lng": -0.1486656}, "viewport": {"northeast": {"lat": 51.5107354302915, "lng": -0.147268669708498}, "southwest": {"lat": 51.5080374697085, "lng": -0.149966630291502}}}, "name": "Asset Space", "place_id": "ChIJiRkTnC4FdkgRnG3FkRWbMyk", "types": ["point_of_interest", "establishment"], "rating": 2, "user_ratings_total": 4}, "ChIJCydTTPUFdkgRjejzvjZ3inY": {"geometry": {"location": {"lat": 51.50936939999999, "lng": -0.1487483}, "viewport": {"northeast": {"lat": 51.5106852302915, "lng": -0.147355869708498}, "southwest": {"lat": 51.5079872697085, "lng": -0.150053830291502}}}, "name": "Thameside Removals", "place_id": "ChIJCydTTPUFdkgRjejzvjZ3inY", "types": ["moving_company", "point_of_interest", "establishment"]}, "ChIJMZHUTUoFdkgRlMSzVPEsXOg": {"geometry": {"location": {"lat": 51.50936939999999, "lng": -0.1487483}, "viewport": {"northeast": {"lat": 51.5106852302915, "lng": -0.147355869708498}, "southwest": {"lat": 51.5079872697085, "lng": -0.150053830291502}}}, "name": "UK Property Advisors Ltd.", "place_id": "ChIJMZHUTUoFdkgRlMSzVPEsXOg", "types": ["real_estate_agency", "point_of_interest", "establishment"], "rating": 3, "user_ratings_total": 2}, "ChIJyTZ38iwFdkgR7T1FtMHJEkQ": {"geometry": {"location": {"lat": 51.50936939999999, "lng": -0.1487483}, "viewport": {"northeast": {"lat": 51.5106852302915, "lng": -0.147355869708498}, "southwest": {"lat": 51.5079872697085, "lng": -0.150053830291502}}}, "name": "DeBere Capital Partners", "place_id": "ChIJyTZ38iwFdkgR7T1FtMHJEkQ", "types": ["finance", "point_of_interest", "establishment"], "rating": 5, "user_ratings_total": 1}, "ChIJs9NVni4FdkgRjG-VcWtXPFs": {"geometry": {"location": {"lat": 51.509497, "lng": -0.1485436}, "viewport": {"northeast": {"lat": 51.5108057802915, "lng": -0.147141869708498}, "southwest": {"lat": 51.5081078197085, "lng": -0.149839830291502}}}, "name": "WPP", "place_id": "ChIJs9NVni4FdkgRjG-VcWtXPFs", "types": ["point_of_interest", "establishment"], "rating": 4.2, "user_ratings_total": 6}, "ChIJ_7N2oy4FdkgRPUw-j4hkSuI": {"geometry": {"location": {"lat": 51.5091463, "lng": -0.1479861}, "viewport": {"northeast": {"lat": 51.5104299302915, "lng": -0.1465506697084979}, "southwest": {"lat": 51.5077319697085, "lng": -0.149248630291502}}}, "name": "Warwick Advisory Partners", "place_id": "ChIJ_7N2oy4FdkgRPUw-j4hkSuI", "types": ["point_of_interest", "establishment"]}, "ChIJ_7N2oy4FdkgR7TQUGvDleHU": {"geometry": {"location": {"lat": 51.5091463, "lng": -0.1479861}, "viewport": {"northeast": {"lat": 51.5104299302915, "lng": -0.1465506697084979}, "southwest": {"lat": 51.5077319697085, "lng": -0.149248630291502}}}, "name": "IMPACT INVESTING ADVISORY", "place_id": "ChIJ_7N2oy4FdkgR7TQUGvDleHU", "types": ["finance", "point_of_interest", "establishment"], "rating": 1, "user_ratings_total": 1}, "ChIJKygTCxAFdkgROYH0RPYDHuM": {"geometry": {"location": {"lat": 51.5091462, "lng": -0.1479862}, "viewport": {"northeast": {"lat": 51.5104298802915, "lng": -0.146550769708498}, "southwest": {"lat": 51.5077319197085, "lng": -0.149248730291502}}}, "name": "Adelio Partners Limited", "place_id": "ChIJKygTCxAFdkgROYH0RPYDHuM", "types": ["finance", "point_of_interest", "establishment"]}, "ChIJdQM8eDcFdkgRyZQqXuYqN9A": {"geometry": {"location": {"lat": 51.5091462, "lng": -0.1479862}, "viewport": {"northeast": {"lat": 51.5104298802915, "lng": -0.146550769708498}, "southwest": {"lat": 51.5077319197085, "lng": -0.149248730291502}}}, "name": "Sender International", "place_id": "ChIJdQM8eDcFdkgRyZQqXuYqN9A", "types": ["finance", "point_of_interest", "establishment"]}, "ChIJO4o2MpMFdkgRb1vRUVlTYG0": {"geometry": {"location": {"lat": 51.5091461, "lng": -0.1479862}, "viewport": {"northeast": {"lat": 51.51042978029149, "lng": -0.146550819708498}, "southwest": {"lat": 51.5077318197085, "lng": -0.149248780291502}}}, "name": "Meymand Maczynski", "place_id": "ChIJO4o2MpMFdkgRb1vRUVlTYG0", "types": ["point_of_interest", "establishment"], "rating": 5, "user_ratings_total": 11}, "ChIJ7ZHP58cFdkgRpKIY9Fxz3os": {"geometry": {"location": {"lat": 51.5091461, "lng": -0.1479862}, "viewport": {"northeast": {"lat": 51.51042978029149, "lng": -0.146550819708498}, "southwest": {"lat": 51.5077318197085, "lng": -0.149248780291502}}}, "name": "Princeps Capital Limited", "place_id": "ChIJ7ZHP58cFdkgRpKIY9Fxz3os", "types": ["finance", "point_of_interest", "establishment"]}, "ChIJOzl1biAFdkgRdrR8qN8Cf6M": {"geometry": {"location": {"lat": 51.50914599999999, "lng": -0.147986}, "viewport": {"northeast": {"lat": 51.51042973029149, "lng": -0.1465506697084979}, "southwest": {"lat": 51.50773176970849, "lng": -0.149248630291502}}}, "name": "Herminius", "place_id": "ChIJOzl1biAFdkgRdrR8qN8Cf6M", "types": ["point_of_interest", "establishment"]}, "ChIJ4Z716S4FdkgRM8etqMRBmWk": {"geometry": {"location": {"lat": 51.5080162500365, "lng": -0.1483688500844915}, "viewport": {"northeast": {"lat": 51.5093652302915, "lng": -0.147019869708498}, "southwest": {"lat": 51.5066672697085, "lng": -0.149717830291502}}}, "name": "31 Hay's Mews", "place_id": "ChIJ4Z716S4FdkgRM8etqMRBmWk", "types": ["route"]}, "ChIJWemNb8wEdkgREcN7eZLEhiQ": {"geometry": {"location": {"lat": 51.5084886, "lng": -0.1485977}, "viewport": {"northeast": {"lat": 51.50987233029149, "lng": -0.147295969708498}, "southwest": {"lat": 51.50717436970849, "lng": -0.149993930291502}}}, "name": "Business Council For Africa", "place_id": "ChIJWemNb8wEdkgREcN7eZLEhiQ", "types": ["finance", "point_of_interest", "store", "establishment"], "rating": 5, "user_ratings_total": 2}, "ChIJi9yv4-cEdkgRI2c_Th0nRB0": {"geometry": {"location": {"lat": 51.5084886, "lng": -0.1485977}, "viewport": {"northeast": {"lat": 51.50987233029149, "lng": -0.147295969708498}, "southwest": {"lat": 51.50717436970849, "lng": -0.149993930291502}}}, "name": "The Britain-Nigeria Educational Trust", "place_id": "ChIJi9yv4-cEdkgRI2c_Th0nRB0", "types": ["point_of_interest", "establishment"]}, "ChIJGxNvuE0bdkgR_TkXbREbjdk": {"geometry": {"location": {"lat": 51.5083967, "lng": -0.1483159}, "viewport": {"northeast": {"lat": 51.5098504802915, "lng": -0.147109419708498}, "southwest": {"lat": 51.5071525197085, "lng": -0.149807380291502}}}, "name": "Freddie Keeble Watches & Diamonds", "place_id": "ChIJGxNvuE0bdkgR_TkXbREbjdk", "types": ["jewelry_store", "point_of_interest", "store", "establishment"], "rating": 4.4, "user_ratings_total": 16}, "ChIJWfVDlC4FdkgR0Aci4NgV76o": {"geometry": {"location": {"lat": 51.5084765, "lng": -0.1484186}, "viewport": {"northeast": {"lat": 51.5098912802915, "lng": -0.147159069708498}, "southwest": {"lat": 51.5071933197085, "lng": -0.149857030291502}}}, "name": "Longbow NXG", "place_id": "ChIJWfVDlC4FdkgR0Aci4NgV76o", "types": ["finance", "point_of_interest", "establishment"]}, "ChIJrwNivC4FdkgR0lRQUQ4hWSA": {"geometry": {"location": {"lat": 51.5084765, "lng": -0.1484186}, "viewport": {"northeast": {"lat": 51.5098912802915, "lng": -0.147159069708498}, "southwest": {"lat": 51.5071933197085, "lng": -0.149857030291502}}}, "name": "EGP", "place_id": "ChIJrwNivC4FdkgR0lRQUQ4hWSA", "types": ["point_of_interest", "establishment"]}, "ChIJW_VDlC4FdkgR0twivNoPFoY": {"geometry": {"location": {"lat": 51.5084765, "lng": -0.1484186}, "viewport": {"northeast": {"lat": 51.5098912802915, "lng": -0.147159069708498}, "southwest": {"lat": 51.5071933197085, "lng": -0.149857030291502}}}, "name": "ABK London", "place_id": "ChIJW_VDlC4FdkgR0twivNoPFoY", "types": ["real_estate_agency", "point_of_interest", "establishment"]}, "ChIJqVIElS4FdkgR0GurVTrvEY4": {"geometry": {"location": {"lat": 51.50847189999999, "lng": -0.1486111}, "viewport": {"northeast": {"lat": 51.50985848029149, "lng": -0.147313219708498}, "southwest": {"lat": 51.50716051970849, "lng": -0.150011180291502}}}, "name": "Alexander Bance", "place_id": "ChIJqVIElS4FdkgR0GurVTrvEY4", "types": ["finance", "point_of_interest", "establishment"], "rating": 5, "user_ratings_total": 1}, "ChIJvXRo7S4FdkgRc-R_w5C-zkU": {"geometry": {"location": {"lat": 51.50825559999999, "lng": -0.1489724}, "viewport": {"northeast": {"lat": 51.5096536302915, "lng": -0.147685869708498}, "southwest": {"lat": 51.5069556697085, "lng": -0.150383830291502}}}, "name": "Saido Berahino Foundation", "place_id": "ChIJvXRo7S4FdkgRc-R_w5C-zkU", "types": ["point_of_interest", "establishment"]}, "ChIJ39OIlC4FdkgRCl1ZT2uvZAU": {"geometry": {"location": {"lat": 51.5084886, "lng": -0.1485976}, "viewport": {"northeast": {"lat": 51.5098723802915, "lng": -0.147295919708498}, "southwest": {"lat": 51.5071744197085, "lng": -0.149993880291502}}}, "name": "Lock Sourcing Ltd", "place_id": "ChIJ39OIlC4FdkgRCl1ZT2uvZAU", "types": ["point_of_interest", "establishment"]}, "ChIJv2WeQSkFdkgRzz4H7NYGYPs": {"geometry": {"location": {"lat": 51.5084886, "lng": -0.1485977}, "viewport": {"northeast": {"lat": 51.50987233029149, "lng": -0.147295969708498}, "southwest": {"lat": 51.50717436970849, "lng": -0.149993930291502}}}, "name": "Invest Africa", "place_id": "ChIJv2WeQSkFdkgRzz4H7NYGYPs", "types": ["point_of_interest", "establishment"]}, "ChIJEUH-aCsFdkgRVzbRqbMDBG4": {"geometry": {"location": {"lat": 51.5084886, "lng": -0.1485977}, "viewport": {"northeast": {"lat": 51.50987233029149, "lng": -0.147295969708498}, "southwest": {"lat": 51.50717436970849, "lng": -0.149993930291502}}}, "name": "African Alpha Investment Partners", "place_id": "ChIJEUH-aCsFdkgRVzbRqbMDBG4", "types": ["finance", "point_of_interest", "establishment"]}, "ChIJEUH-aCsFdkgRhFWT8lNS85I": {"geometry": {"location": {"lat": 51.508489, "lng": -0.148598}, "viewport": {"northeast": {"lat": 51.50987258029149, "lng": -0.147296069708498}, "southwest": {"lat": 51.50717461970849, "lng": -0.149994030291502}}}, "name": "Beaubridge Ltd", "place_id": "ChIJEUH-aCsFdkgRhFWT8lNS85I", "types": ["point_of_interest", "establishment"]}, "ChIJWfVDlC4FdkgRTknykUlQlQg": {"geometry": {"location": {"lat": 51.50851619999999, "lng": -0.1485448}, "viewport": {"northeast": {"lat": 51.50990003029149, "lng": -0.147238319708498}, "southwest": {"lat": 51.50720206970849, "lng": -0.149936280291502}}}, "name": "Alcor Capital Management LLP", "place_id": "ChIJWfVDlC4FdkgRTknykUlQlQg", "types": ["finance", "point_of_interest", "establishment"]}, "ChIJgamvwC4FdkgRwm9mcEn1L1E": {"geometry": {"location": {"lat": 51.5083356, "lng": -0.1479287}, "viewport": {"northeast": {"lat": 51.5096556302915, "lng": -0.146541019708498}, "southwest": {"lat": 51.5069576697085, "lng": -0.149238980291502}}}, "name": "Handelsbanken London Mayfair", "place_id": "ChIJgamvwC4FdkgRwm9mcEn1L1E", "types": ["bank", "finance", "point_of_interest", "establishment"]}, "ChIJqVIElS4FdkgRPd2yOo0enXg": {"geometry": {"location": {"lat": 51.5085275, "lng": -0.1484932}, "viewport": {"northeast": {"lat": 51.5099159302915, "lng": -0.147197869708498}, "southwest": {"lat": 51.5072179697085, "lng": -0.149895830291502}}}, "name": "The Family Officer Ltd", "place_id": "ChIJqVIElS4FdkgRPd2yOo0enXg", "types": ["finance", "point_of_interest", "establishment"], "rating": 5, "user_ratings_total": 1}, "ChIJT28Tli4FdkgRGhr9J2gNSRw": {"geometry": {"location": {"lat": 51.5085323, "lng": -0.148334}, "viewport": {"northeast": {"lat": 51.50994378029149, "lng": -0.147070019708498}, "southwest": {"lat": 51.5072458197085, "lng": -0.149767980291502}}}, "name": "Lloyds", "place_id": "ChIJT28Tli4FdkgRGhr9J2gNSRw", "types": ["bank", "finance", "point_of_interest", "establishment"], "rating": 3.7, "user_ratings_total": 7}, "ChIJWfVDlC4FdkgRR8TWXvFKZ3g": {"geometry": {"location": {"lat": 51.5085397, "lng": -0.1485126}, "viewport": {"northeast": {"lat": 51.5099174802915, "lng": -0.147208419708498}, "southwest": {"lat": 51.5072195197085, "lng": -0.149906380291502}}}, "name": "Minute Mandarin Limited", "place_id": "ChIJWfVDlC4FdkgRR8TWXvFKZ3g", "types": ["point_of_interest", "establishment"]}, "ChIJWfVDlC4FdkgRdwpPgQozssE": {"geometry": {"location": {"lat": 51.5085438, "lng": -0.1485098}, "viewport": {"northeast": {"lat": 51.5099187302915, "lng": -0.147204569708498}, "southwest": {"lat": 51.5072207697085, "lng": -0.149902530291502}}}, "name": "CD Events Group", "place_id": "ChIJWfVDlC4FdkgRdwpPgQozssE", "types": ["point_of_interest", "establishment"]}, "ChIJV4BVU_p5dkgRX_XOxLqUbvQ": {"geometry": {"location": {"lat": 51.5085438, "lng": -0.14851}, "viewport": {"northeast": {"lat": 51.5099187302915, "lng": -0.147204719708498}, "southwest": {"lat": 51.5072207697085, "lng": -0.149902680291502}}}, "name": "Rhea Capital Partners LLP", "place_id": "ChIJV4BVU_p5dkgRX_XOxLqUbvQ", "types": ["finance", "point_of_interest", "establishment"]}, "ChIJh1FElC4FdkgRLJXEse_1Oe4": {"geometry": {"location": {"lat": 51.5085646, "lng": -0.1485389}, "viewport": {"northeast": {"lat": 51.50993628029149, "lng": -0.147220069708498}, "southwest": {"lat": 51.50723831970849, "lng": -0.149918030291502}}}, "name": "Maple Leaf Corporate Ltd", "place_id": "ChIJh1FElC4FdkgRLJXEse_1Oe4", "types": ["point_of_interest", "establishment"], "rating": 5, "user_ratings_total": 2}, "ChIJxUlX7S4FdkgRNP-rz1c5UfQ": {"geometry": {"location": {"lat": 51.5082965, "lng": -0.1489755}, "viewport": {"northeast": {"lat": 51.5096814802915, "lng": -0.147672469708498}, "southwest": {"lat": 51.5069835197085, "lng": -0.150370430291502}}}, "name": "Forsters LLP", "place_id": "ChIJxUlX7S4FdkgRNP-rz1c5UfQ", "types": ["lawyer", "point_of_interest", "establishment"], "rating": 4.3, "user_ratings_total": 32}, "ChIJ2bfilC4FdkgR0aObio5w0Jk": {"geometry": {"location": {"lat": 51.5084183, "lng": -0.1483401}, "viewport": {"northeast": {"lat": 51.5098620802915, "lng": -0.147119969708498}, "southwest": {"lat": 51.5071641197085, "lng": -0.1498179302915021}}}, "name": "Salisbury Partners LLP", "place_id": "ChIJ2bfilC4FdkgR0aObio5w0Jk", "types": ["finance", "point_of_interest", "establishment"]}, "ChIJqapelS4FdkgRFO2xcePowzY": {"geometry": {"location": {"lat": 51.5083997, "lng": -0.1483199}, "viewport": {"northeast": {"lat": 51.5098519802915, "lng": -0.147111369708498}, "southwest": {"lat": 51.5071540197085, "lng": -0.149809330291502}}}, "name": "ITALIANS TO ITALIANS", "place_id": "ChIJqapelS4FdkgRFO2xcePowzY", "types": ["finance", "point_of_interest", "establishment"]}, "ChIJqapelS4FdkgR98kCcsU0kVc": {"geometry": {"location": {"lat": 51.5083997, "lng": -0.1483199}, "viewport": {"northeast": {"lat": 51.5098519802915, "lng": -0.147111369708498}, "southwest": {"lat": 51.5071540197085, "lng": -0.149809330291502}}}, "name": "Srijaonlines", "place_id": "ChIJqapelS4FdkgR98kCcsU0kVc", "types": ["point_of_interest", "establishment"]}, "ChIJO2xrwi4FdkgRUNa5AO5DC20": {"geometry": {"location": {"lat": 51.5079266, "lng": -0.1482091}, "viewport": {"northeast": {"lat": 51.5092895802915, "lng": -0.146832319708498}, "southwest": {"lat": 51.50659161970851, "lng": -0.149530280291502}}}, "name": "Karrada Developments", "place_id": "ChIJO2xrwi4FdkgRUNa5AO5DC20", "types": ["point_of_interest", "establishment"]}, "ChIJl_xIEPUFdkgRAR6XqLIH-us": {"geometry": {"location": {"lat": 51.5084765, "lng": -0.1484186}, "viewport": {"northeast": {"lat": 51.5098912802915, "lng": -0.147159069708498}, "southwest": {"lat": 51.5071933197085, "lng": -0.149857030291502}}}, "name": "men\u00f9nfc", "place_id": "ChIJl_xIEPUFdkgRAR6XqLIH-us", "types": ["point_of_interest", "establishment"]}, "ChIJWfVDlC4FdkgR7i0Cj6WS7vE": {"geometry": {"location": {"lat": 51.5084765, "lng": -0.1484186}, "viewport": {"northeast": {"lat": 51.5098912802915, "lng": -0.147159069708498}, "southwest": {"lat": 51.5071933197085, "lng": -0.149857030291502}}}, "name": "Gregory McCormick", "place_id": "ChIJWfVDlC4FdkgR7i0Cj6WS7vE", "types": ["point_of_interest", "establishment"]}, "ChIJWfVDlC4FdkgRxARACjMK4jU": {"geometry": {"location": {"lat": 51.5084765, "lng": -0.1484186}, "viewport": {"northeast": {"lat": 51.5098912802915, "lng": -0.147159069708498}, "southwest": {"lat": 51.5071933197085, "lng": -0.149857030291502}}}, "name": "Auto Exotica Supercar Club", "place_id": "ChIJWfVDlC4FdkgRxARACjMK4jU", "types": ["point_of_interest", "establishment"]}, "ChIJWfVDlC4FdkgRjA_T7Sd-LnM": {"geometry": {"location": {"lat": 51.5084765, "lng": -0.1484186}, "viewport": {"northeast": {"lat": 51.5098912802915, "lng": -0.147159069708498}, "southwest": {"lat": 51.5071933197085, "lng": -0.149857030291502}}}, "name": "Shaun Crockett Property", "place_id": "ChIJWfVDlC4FdkgRjA_T7Sd-LnM", "types": ["real_estate_agency", "point_of_interest", "establishment"], "rating": 3, "user_ratings_total": 1}, "ChIJZWoXug4FdkgRjBbHBCdYRR8": {"geometry": {"location": {"lat": 51.5084765, "lng": -0.1484185}, "viewport": {"northeast": {"lat": 51.5098912802915, "lng": -0.147158969708498}, "southwest": {"lat": 51.5071933197085, "lng": -0.149856930291502}}}, "name": "Ichiban Group", "place_id": "ChIJZWoXug4FdkgRjBbHBCdYRR8", "types": ["finance", "point_of_interest", "establishment"]}, "ChIJyZ_oxtwFdkgRL3gOI9O-6rA": {"geometry": {"location": {"lat": 51.5084765, "lng": -0.1484185}, "viewport": {"northeast": {"lat": 51.5098912802915, "lng": -0.147158969708498}, "southwest": {"lat": 51.5071933197085, "lng": -0.149856930291502}}}, "name": "Northshore Ventures", "place_id": "ChIJyZ_oxtwFdkgRL3gOI9O-6rA", "types": ["finance", "point_of_interest", "establishment"]}, "ChIJ9UGpNKoFdkgRmKJ_QfK-DN8": {"geometry": {"location": {"lat": 51.5084765, "lng": -0.1484185}, "viewport": {"northeast": {"lat": 51.5098912802915, "lng": -0.147158969708498}, "southwest": {"lat": 51.5071933197085, "lng": -0.149856930291502}}}, "name": "Matteo De Marco Dottore Commercialista Revisore Legale - BeAdvisors", "place_id": "ChIJ9UGpNKoFdkgRmKJ_QfK-DN8", "types": ["accounting", "finance", "point_of_interest", "establishment"]}, "ChIJaTJ92dIFdkgRev7xrxj2rPI": {"geometry": {"location": {"lat": 51.5084765, "lng": -0.1484185}, "viewport": {"northeast": {"lat": 51.5098912802915, "lng": -0.147158969708498}, "southwest": {"lat": 51.5071933197085, "lng": -0.149856930291502}}}, "name": "CFX quantum Ltd", "place_id": "ChIJaTJ92dIFdkgRev7xrxj2rPI", "types": ["point_of_interest", "establishment"]}, "ChIJ-54PlS4FdkgRsjK4DKZnakw": {"geometry": {"location": {"lat": 51.5084765, "lng": -0.1484185}, "viewport": {"northeast": {"lat": 51.5098912802915, "lng": -0.147158969708498}, "southwest": {"lat": 51.5071933197085, "lng": -0.149856930291502}}}, "name": "Opium Group", "place_id": "ChIJ-54PlS4FdkgRsjK4DKZnakw", "types": ["point_of_interest", "establishment"]}, "ChIJAQBw7S4FdkgRZJ0v68glG0E": {"geometry": {"location": {"lat": 51.5082199, "lng": -0.1489734}, "viewport": {"northeast": {"lat": 51.5096287802915, "lng": -0.147702019708498}, "southwest": {"lat": 51.5069308197085, "lng": -0.150399980291502}}}, "name": "Wentworth Club Limited", "place_id": "ChIJAQBw7S4FdkgRZJ0v68glG0E", "types": ["point_of_interest", "establishment"]}, "ChIJAQBw7S4FdkgRIFSTJUEMsho": {"geometry": {"location": {"lat": 51.5082199, "lng": -0.1489734}, "viewport": {"northeast": {"lat": 51.5096287302915, "lng": -0.147700619708498}, "southwest": {"lat": 51.5069307697085, "lng": -0.150398580291502}}}, "name": "Caris Camden", "place_id": "ChIJAQBw7S4FdkgRIFSTJUEMsho", "types": ["point_of_interest", "establishment"]}, "ChIJAQBw7S4FdkgR6IMEuLq8a_0": {"geometry": {"location": {"lat": 51.5082199, "lng": -0.1489734}, "viewport": {"northeast": {"lat": 51.5096287302915, "lng": -0.147700619708498}, "southwest": {"lat": 51.5069307697085, "lng": -0.150398580291502}}}, "name": "The Taurus Foundation", "place_id": "ChIJAQBw7S4FdkgR6IMEuLq8a_0", "types": ["point_of_interest", "establishment"]}, "ChIJvXRo7S4FdkgRsSwqdpaeByg": {"geometry": {"location": {"lat": 51.50825559999999, "lng": -0.1489724}, "viewport": {"northeast": {"lat": 51.5096536302915, "lng": -0.147685869708498}, "southwest": {"lat": 51.5069556697085, "lng": -0.150383830291502}}}, "name": "Belsay Horse Trials", "place_id": "ChIJvXRo7S4FdkgRsSwqdpaeByg", "types": ["point_of_interest", "establishment"]}, "ChIJ39OIlC4FdkgR1atott4vL4A": {"geometry": {"location": {"lat": 51.5084886, "lng": -0.1485976}, "viewport": {"northeast": {"lat": 51.5098723802915, "lng": -0.147295919708498}, "southwest": {"lat": 51.5071744197085, "lng": -0.149993880291502}}}, "name": "Camden", "place_id": "ChIJ39OIlC4FdkgR1atott4vL4A", "types": ["finance", "point_of_interest", "establishment"]}, "ChIJ2dOIlC4FdkgR4piWvr5GIeo": {"geometry": {"location": {"lat": 51.5084886, "lng": -0.1485977}, "viewport": {"northeast": {"lat": 51.50987233029149, "lng": -0.147295969708498}, "southwest": {"lat": 51.50717436970849, "lng": -0.149993930291502}}}, "name": "Elsworthy Sjw Limited", "place_id": "ChIJ2dOIlC4FdkgR4piWvr5GIeo", "types": ["point_of_interest", "establishment"]}, "ChIJHY-0r6scdkgRLmGywkT7aW8": {"geometry": {"location": {"lat": 51.5084886, "lng": -0.1485977}, "viewport": {"northeast": {"lat": 51.50987233029149, "lng": -0.147295969708498}, "southwest": {"lat": 51.50717436970849, "lng": -0.149993930291502}}}, "name": "TuTasa LTD", "place_id": "ChIJHY-0r6scdkgRLmGywkT7aW8", "types": ["finance", "point_of_interest", "establishment"]}, "ChIJx68NKfIFdkgRK-N1M5LKvBE": {"geometry": {"location": {"lat": 51.5084886, "lng": -0.1485977}, "viewport": {"northeast": {"lat": 51.50987233029149, "lng": -0.147295969708498}, "southwest": {"lat": 51.50717436970849, "lng": -0.149993930291502}}}, "name": "Durlston Partners", "place_id": "ChIJx68NKfIFdkgRK-N1M5LKvBE", "types": ["point_of_interest", "establishment"]}, "ChIJ2dOIlC4FdkgR1kZw4PQah4g": {"geometry": {"location": {"lat": 51.5084886, "lng": -0.1485977}, "viewport": {"northeast": {"lat": 51.50987233029149, "lng": -0.147295969708498}, "southwest": {"lat": 51.50717436970849, "lng": -0.149993930291502}}}, "name": "Eye Storm", "place_id": "ChIJ2dOIlC4FdkgR1kZw4PQah4g", "types": ["point_of_interest", "establishment"]}, "ChIJ2dOIlC4FdkgROOrBAyJsomU": {"geometry": {"location": {"lat": 51.5084886, "lng": -0.1485977}, "viewport": {"northeast": {"lat": 51.50987233029149, "lng": -0.147295969708498}, "southwest": {"lat": 51.50717436970849, "lng": -0.149993930291502}}}, "name": "Your Private Chauffeur", "place_id": "ChIJ2dOIlC4FdkgROOrBAyJsomU", "types": ["point_of_interest", "establishment"], "rating": 5, "user_ratings_total": 1}, "ChIJewxEmCkFdkgReXypZ0J5E-4": {"geometry": {"location": {"lat": 51.5084886, "lng": -0.1485977}, "viewport": {"northeast": {"lat": 51.50987233029149, "lng": -0.147295969708498}, "southwest": {"lat": 51.50717436970849, "lng": -0.149993930291502}}}, "name": "Duet Asset Management", "place_id": "ChIJewxEmCkFdkgReXypZ0J5E-4", "types": ["finance", "point_of_interest", "establishment"], "rating": 5, "user_ratings_total": 1}, "ChIJ4cRg-FcFdkgR7HYFR7Q2Y68": {"geometry": {"location": {"lat": 51.5078519, "lng": -0.1488514}, "viewport": {"northeast": {"lat": 51.50917898029149, "lng": -0.1474733697084979}, "southwest": {"lat": 51.5064810197085, "lng": -0.150171330291502}}}, "name": "BENALLA", "place_id": "ChIJ4cRg-FcFdkgR7HYFR7Q2Y68", "types": ["restaurant", "food", "point_of_interest", "establishment"]}, "ChIJ04FoFIIFdkgRXsd_hO_yvWQ": {"geometry": {"location": {"lat": 51.5085622, "lng": -0.1486976}, "viewport": {"northeast": {"lat": 51.5098851302915, "lng": -0.147313169708498}, "southwest": {"lat": 51.50718716970851, "lng": -0.150011130291502}}}, "name": "Ram House Renovation London | Full House Refurbishment, House Finishing & Remodeling", "place_id": "ChIJ04FoFIIFdkgRXsd_hO_yvWQ", "types": ["general_contractor", "point_of_interest", "establishment"], "rating": 5, "user_ratings_total": 7}, "ChIJ1_mawHAFdkgR8oh8g160Wag": {"geometry": {"location": {"lat": 51.5085622, "lng": -0.1486976}, "viewport": {"northeast": {"lat": 51.5098851302915, "lng": -0.147313169708498}, "southwest": {"lat": 51.50718716970851, "lng": -0.150011130291502}}}, "name": "Dream Family Media", "place_id": "ChIJ1_mawHAFdkgR8oh8g160Wag", "types": ["point_of_interest", "establishment"]}, "ChIJsyWOky4FdkgRwcq-F18z8sc": {"geometry": {"location": {"lat": 51.5085622, "lng": -0.1486976}, "viewport": {"northeast": {"lat": 51.5098851302915, "lng": -0.147313169708498}, "southwest": {"lat": 51.50718716970851, "lng": -0.150011130291502}}}, "name": "SETRA INVEST", "place_id": "ChIJsyWOky4FdkgRwcq-F18z8sc", "types": ["finance", "point_of_interest", "establishment"]}, "ChIJI7Yq3S4FdkgRrDAjjpdOW3g": {"geometry": {"location": {"lat": 51.50768559999999, "lng": -0.1481031}, "viewport": {"northeast": {"lat": 51.5090794802915, "lng": -0.146650419708498}, "southwest": {"lat": 51.5063815197085, "lng": -0.149348380291502}}}, "name": "Executive Offices Group", "place_id": "ChIJI7Yq3S4FdkgRrDAjjpdOW3g", "types": ["real_estate_agency", "point_of_interest", "establishment"]}, "ChIJz7Gu8S4FdkgR-uFPy2zwSrY": {"geometry": {"location": {"lat": 51.5078683, "lng": -0.14917}, "viewport": {"northeast": {"lat": 51.5091407302915, "lng": -0.147719169708498}, "southwest": {"lat": 51.5064427697085, "lng": -0.150417130291502}}}, "name": "Dolphin Finance Corporation", "place_id": "ChIJz7Gu8S4FdkgR-uFPy2zwSrY", "types": ["finance", "point_of_interest", "establishment"]}, "ChIJwQ0tki4FdkgRnl_35O13cME": {"geometry": {"location": {"lat": 51.50863690000001, "lng": -0.1488468}, "viewport": {"northeast": {"lat": 51.5099392302915, "lng": -0.147434369708498}, "southwest": {"lat": 51.5072412697085, "lng": -0.150132330291502}}}, "name": "CSM LEGAL FIRM", "place_id": "ChIJwQ0tki4FdkgRnl_35O13cME", "types": ["point_of_interest", "establishment"]}, "ChIJr4wiGS8FdkgRr2fE-HR4dOE": {"geometry": {"location": {"lat": 51.50662415026402, "lng": -0.1484955001610677}, "viewport": {"northeast": {"lat": 51.5079731302915, "lng": -0.147146519708498}, "southwest": {"lat": 51.5052751697085, "lng": -0.149844480291502}}}, "name": "17 Curzon St", "place_id": "ChIJr4wiGS8FdkgRr2fE-HR4dOE", "types": ["route"]}, "ChIJNYTQIy8FdkgR_h3jLOAPZHw": {"geometry": {"location": {"lat": 51.5068135, "lng": -0.148025}, "viewport": {"northeast": {"lat": 51.5081034802915, "lng": -0.146652469708498}, "southwest": {"lat": 51.5054055197085, "lng": -0.149350430291502}}}, "name": "Noura Restaurant, Mayfair", "place_id": "ChIJNYTQIy8FdkgR_h3jLOAPZHw", "types": ["bar", "restaurant", "food", "point_of_interest", "establishment"], "rating": 4.1, "user_ratings_total": 188}, "ChIJi5iVGy8FdkgRIZeP35S2-oo": {"geometry": {"location": {"lat": 51.50676239999999, "lng": -0.1488508}, "viewport": {"northeast": {"lat": 51.50802678029149, "lng": -0.147454669708498}, "southwest": {"lat": 51.5053288197085, "lng": -0.150152630291502}}}, "name": "Riyad Bank", "place_id": "ChIJi5iVGy8FdkgRIZeP35S2-oo", "types": ["bank", "atm", "finance", "point_of_interest", "establishment"], "rating": 3.3, "user_ratings_total": 7}, "ChIJx--LGy8FdkgRdBNjrgj1Kd4": {"geometry": {"location": {"lat": 51.5067421, "lng": -0.1486899}, "viewport": {"northeast": {"lat": 51.5080230802915, "lng": -0.147320169708498}, "southwest": {"lat": 51.5053251197085, "lng": -0.150018130291502}}}, "name": "J Z International Ltd", "place_id": "ChIJx--LGy8FdkgRdBNjrgj1Kd4", "types": ["finance", "point_of_interest", "establishment"], "rating": 4, "user_ratings_total": 3}, "ChIJ3SwfHi8FdkgRxoyl0w-FQt0": {"geometry": {"location": {"lat": 51.50695959999999, "lng": -0.1485529}, "viewport": {"northeast": {"lat": 51.50832173029149, "lng": -0.147112219708498}, "southwest": {"lat": 51.50562376970849, "lng": -0.149810180291502}}}, "name": "Gold Mercury International", "place_id": "ChIJ3SwfHi8FdkgRxoyl0w-FQt0", "types": ["point_of_interest", "establishment"]}, "ChIJTwmUHi8FdkgRS0t15o4psRo": {"geometry": {"location": {"lat": 51.5067413, "lng": -0.1485147}, "viewport": {"northeast": {"lat": 51.50803263029151, "lng": -0.147148119708498}, "southwest": {"lat": 51.50533466970851, "lng": -0.149846080291502}}}, "name": "Malaysian Industrial Development Authority", "place_id": "ChIJTwmUHi8FdkgRS0t15o4psRo", "types": ["point_of_interest", "establishment"], "rating": 5, "user_ratings_total": 1}, "ChIJX-p7fS8FdkgRjwtn-VdqmOk": {"geometry": {"location": {"lat": 51.50681710000001, "lng": -0.1485058}, "viewport": {"northeast": {"lat": 51.50807238029151, "lng": -0.147128219708498}, "southwest": {"lat": 51.50537441970851, "lng": -0.149826180291502}}}, "name": "Mutual Finance", "place_id": "ChIJX-p7fS8FdkgRjwtn-VdqmOk", "types": ["point_of_interest", "establishment"]}, "ChIJ57uDcCwFdkgR3TUi2L8q9jA": {"geometry": {"location": {"lat": 51.50672309999999, "lng": -0.1485078}, "viewport": {"northeast": {"lat": 51.5080236302915, "lng": -0.147144019708498}, "southwest": {"lat": 51.5053256697085, "lng": -0.149841980291502}}}, "name": "H P M Developments London Ltd", "place_id": "ChIJ57uDcCwFdkgR3TUi2L8q9jA", "types": ["general_contractor", "point_of_interest", "establishment"], "rating": 3, "user_ratings_total": 4}, "ChIJpemaGy8FdkgR4yuMGzCVox4": {"geometry": {"location": {"lat": 51.5067892, "lng": -0.1487051}, "viewport": {"northeast": {"lat": 51.5080465802915, "lng": -0.147328169708498}, "southwest": {"lat": 51.5053486197085, "lng": -0.1500261302915021}}}, "name": "PrimeStone Capital LLP", "place_id": "ChIJpemaGy8FdkgR4yuMGzCVox4", "types": ["finance", "point_of_interest", "establishment"], "rating": 5, "user_ratings_total": 1}, "ChIJpemaGy8FdkgR0DwpcAMtabk": {"geometry": {"location": {"lat": 51.5067892, "lng": -0.1487051}, "viewport": {"northeast": {"lat": 51.5080465802915, "lng": -0.147328169708498}, "southwest": {"lat": 51.5053486197085, "lng": -0.1500261302915021}}}, "name": "Addison Bradley & Co. Ltd", "place_id": "ChIJpemaGy8FdkgR0DwpcAMtabk", "types": ["place_of_worship", "point_of_interest", "establishment"]}, "ChIJH4bPHi8FdkgRUPSvp4CR23s": {"geometry": {"location": {"lat": 51.5067413, "lng": -0.1485147}, "viewport": {"northeast": {"lat": 51.50803263029151, "lng": -0.147148119708498}, "southwest": {"lat": 51.50533466970851, "lng": -0.149846080291502}}}, "name": "Piksel", "place_id": "ChIJH4bPHi8FdkgRUPSvp4CR23s", "types": ["point_of_interest", "establishment"], "rating": 2, "user_ratings_total": 1}, "ChIJtTr7AS8FdkgRjBHW-KhWeFk": {"geometry": {"location": {"lat": 51.5070343, "lng": -0.1491185}, "viewport": {"northeast": {"lat": 51.5083570302915, "lng": -0.147944419708498}, "southwest": {"lat": 51.5056590697085, "lng": -0.150642380291502}}}, "name": "Ensco", "place_id": "ChIJtTr7AS8FdkgRjBHW-KhWeFk", "types": ["general_contractor", "point_of_interest", "establishment"]}, "ChIJ8U_6Hi8FdkgRk1t4W9lKnLg": {"geometry": {"location": {"lat": 51.5067726, "lng": -0.1480785}, "viewport": {"northeast": {"lat": 51.50807793029151, "lng": -0.146711919708498}, "southwest": {"lat": 51.50537996970851, "lng": -0.149409880291502}}}, "name": "My Living Room", "place_id": "ChIJ8U_6Hi8FdkgRk1t4W9lKnLg", "types": ["point_of_interest", "establishment"]}, "ChIJr_qMJi8FdkgRyPxToDp1GrU": {"geometry": {"location": {"lat": 51.50709949999999, "lng": -0.1477681}, "viewport": {"northeast": {"lat": 51.5086542302915, "lng": -0.1465422697084979}, "southwest": {"lat": 51.5059562697085, "lng": -0.149240230291502}}}, "name": "Royal Embassy of Saudi Arabia, London", "place_id": "ChIJr_qMJi8FdkgRyPxToDp1GrU", "types": ["embassy", "point_of_interest", "establishment"], "rating": 3.8, "user_ratings_total": 310}, "ChIJpemaGy8FdkgRZS5pfJZiifg": {"geometry": {"location": {"lat": 51.5067011, "lng": -0.14868}, "viewport": {"northeast": {"lat": 51.5080039802915, "lng": -0.147303119708498}, "southwest": {"lat": 51.5053060197085, "lng": -0.1500010802915021}}}, "name": "Bank of Beirut UK", "place_id": "ChIJpemaGy8FdkgRZS5pfJZiifg", "types": ["bank", "finance", "point_of_interest", "establishment"], "rating": 3, "user_ratings_total": 4}, "ChIJ2S6vhisFdkgRKKVDD34v3hY": {"geometry": {"location": {"lat": 51.5070343, "lng": -0.1491185}, "viewport": {"northeast": {"lat": 51.5083570302915, "lng": -0.147944419708498}, "southwest": {"lat": 51.5056590697085, "lng": -0.150642380291502}}}, "name": "LRE Capital", "place_id": "ChIJ2S6vhisFdkgRKKVDD34v3hY", "types": ["finance", "point_of_interest", "establishment"]}, "ChIJC-AW1S4FdkgRIElErbjxtNE": {"geometry": {"location": {"lat": 51.5074391, "lng": -0.1480165}, "viewport": {"northeast": {"lat": 51.5088194302915, "lng": -0.146686269708498}, "southwest": {"lat": 51.5061214697085, "lng": -0.149384230291502}}}, "name": "Fellows Auctioneers", "place_id": "ChIJC-AW1S4FdkgRIElErbjxtNE", "types": ["point_of_interest", "establishment"], "rating": 4.1, "user_ratings_total": 17}, "ChIJX-p7fS8FdkgRdz5-6b5s6Zo": {"geometry": {"location": {"lat": 51.5070399, "lng": -0.149137}, "viewport": {"northeast": {"lat": 51.5083638302915, "lng": -0.147955219708498}, "southwest": {"lat": 51.5056658697085, "lng": -0.150653180291502}}}, "name": "C|T Group", "place_id": "ChIJX-p7fS8FdkgRdz5-6b5s6Zo", "types": ["point_of_interest", "establishment"], "rating": 5, "user_ratings_total": 1}, "ChIJE07rBS8FdkgRoUTKJ4kstaE": {"geometry": {"location": {"lat": 51.506681, "lng": -0.148777}, "viewport": {"northeast": {"lat": 51.5079865302915, "lng": -0.147416819708498}, "southwest": {"lat": 51.5052885697085, "lng": -0.150114780291502}}}, "name": "Eurovestech", "place_id": "ChIJE07rBS8FdkgRoUTKJ4kstaE", "types": ["finance", "point_of_interest", "establishment"]}, "ChIJi1Ls4C4FdkgRZHO6-73X7co": {"geometry": {"location": {"lat": 51.50729310000001, "lng": -0.1482714}, "viewport": {"northeast": {"lat": 51.5086149802915, "lng": -0.147018319708498}, "southwest": {"lat": 51.5059170197085, "lng": -0.1497162802915021}}}, "name": "Park Lane Apartments/Shaw house", "place_id": "ChIJi1Ls4C4FdkgRZHO6-73X7co", "types": ["lodging", "point_of_interest", "establishment"], "rating": 4.2, "user_ratings_total": 71}, "ChIJTwmUHi8FdkgRaGyus2j6rWs": {"geometry": {"location": {"lat": 51.5067413, "lng": -0.1485147}, "viewport": {"northeast": {"lat": 51.50803263029151, "lng": -0.147148119708498}, "southwest": {"lat": 51.50533466970851, "lng": -0.149846080291502}}}, "name": "Malaysia External Trade Development Corporation", "place_id": "ChIJTwmUHi8FdkgRaGyus2j6rWs", "types": ["point_of_interest", "establishment"], "rating": 4.5, "user_ratings_total": 2}, "ChIJvbLb3C4FdkgRYDJwIwFHeck": {"geometry": {"location": {"lat": 51.5075832, "lng": -0.1480842}, "viewport": {"northeast": {"lat": 51.50889333029149, "lng": -0.146711969708498}, "southwest": {"lat": 51.5061953697085, "lng": -0.149409930291502}}}, "name": "Perry Signs", "place_id": "ChIJvbLb3C4FdkgRYDJwIwFHeck", "types": ["point_of_interest", "store", "establishment"]}, "ChIJGwaW4S4FdkgRs448AD-4THs": {"geometry": {"location": {"lat": 51.5071733, "lng": -0.1486232}, "viewport": {"northeast": {"lat": 51.5085348302915, "lng": -0.147186719708498}, "southwest": {"lat": 51.5058368697085, "lng": -0.149884680291502}}}, "name": "High Commission of The Bahamas, London", "place_id": "ChIJGwaW4S4FdkgRs448AD-4THs", "types": ["embassy", "point_of_interest", "establishment"], "rating": 4.8, "user_ratings_total": 5}, "ChIJGwaW4S4FdkgRq-QSJ9MSA_c": {"geometry": {"location": {"lat": 51.5070928, "lng": -0.1485083}, "viewport": {"northeast": {"lat": 51.5084481802915, "lng": -0.147114319708498}, "southwest": {"lat": 51.5057502197085, "lng": -0.149812280291502}}}, "name": "Bahamas Tourist Office", "place_id": "ChIJGwaW4S4FdkgRq-QSJ9MSA_c", "types": ["travel_agency", "point_of_interest", "establishment"]}, "ChIJeb2RzkcFdkgRFscbxzDoj1E": {"geometry": {"location": {"lat": 51.5070472, "lng": -0.1483832}, "viewport": {"northeast": {"lat": 51.50840203029149, "lng": -0.1469934197084979}, "southwest": {"lat": 51.5057040697085, "lng": -0.149691380291502}}}, "name": "Electrician Chesterfield St", "place_id": "ChIJeb2RzkcFdkgRFscbxzDoj1E", "types": ["electrician", "point_of_interest", "establishment"]}, "ChIJbWG_A-AFdkgRK_fNUoo0OxI": {"geometry": {"location": {"lat": 51.5070506, "lng": -0.148255}, "viewport": {"northeast": {"lat": 51.50839018029149, "lng": -0.146971719708498}, "southwest": {"lat": 51.5056922197085, "lng": -0.149669680291502}}}, "name": "Caroline Norton Blue Plaque", "place_id": "ChIJbWG_A-AFdkgRK_fNUoo0OxI", "types": ["point_of_interest", "establishment"]}, "ChIJY4oWZGwFdkgR94_fpnJOcXE": {"geometry": {"location": {"lat": 51.5071328, "lng": -0.1482095}, "viewport": {"northeast": {"lat": 51.5084671802915, "lng": -0.146962269708498}, "southwest": {"lat": 51.5057692197085, "lng": -0.149660230291502}}}, "name": "Blue Plaque: Beau Brummell", "place_id": "ChIJY4oWZGwFdkgR94_fpnJOcXE", "types": ["point_of_interest", "establishment"], "rating": 5, "user_ratings_total": 1}, "ChIJSXZF92EFdkgRs8lRGVHZ2vY": {"geometry": {"location": {"lat": 51.5069958, "lng": -0.1482122}, "viewport": {"northeast": {"lat": 51.5083338302915, "lng": -0.1469396197084979}, "southwest": {"lat": 51.5056358697085, "lng": -0.149637580291502}}}, "name": "Caviar Kaspia", "place_id": "ChIJSXZF92EFdkgRs8lRGVHZ2vY", "types": ["restaurant", "food", "point_of_interest", "establishment"]}, "ChIJfRgdwTEFdkgRMkxf1r0l8aw": {"geometry": {"location": {"lat": 51.50726960000001, "lng": -0.1482909}, "viewport": {"northeast": {"lat": 51.50860608029151, "lng": -0.147029119708498}, "southwest": {"lat": 51.50590811970851, "lng": -0.149727080291502}}}, "name": "Park Lane Luxury Apartments", "place_id": "ChIJfRgdwTEFdkgRMkxf1r0l8aw", "types": ["real_estate_agency", "point_of_interest", "establishment"]}, "ChIJHws3SXoFdkgR8pimTeY-9qY": {"geometry": {"location": {"lat": 51.50726969999999, "lng": -0.148291}, "viewport": {"northeast": {"lat": 51.50860618029149, "lng": -0.147029169708498}, "southwest": {"lat": 51.5059082197085, "lng": -0.149727130291502}}}, "name": "Blue Plaque: W.S.Maugham", "place_id": "ChIJHws3SXoFdkgR8pimTeY-9qY", "types": ["point_of_interest", "establishment"], "rating": 5, "user_ratings_total": 1}, "ChIJq6re4y4FdkgRqTWkCjEUTRA": {"geometry": {"location": {"lat": 51.5072554, "lng": -0.1486696}, "viewport": {"northeast": {"lat": 51.50861803029149, "lng": -0.147225519708498}, "southwest": {"lat": 51.5059200697085, "lng": -0.149923480291502}}}, "name": "Al Duwaliya Asset Management Limited", "place_id": "ChIJq6re4y4FdkgRqTWkCjEUTRA", "types": ["point_of_interest", "establishment"]}, "ChIJ8U_6Hi8FdkgRclS4LnljK9Q": {"geometry": {"location": {"lat": 51.50683749999999, "lng": -0.1484978}, "viewport": {"northeast": {"lat": 51.50808338029149, "lng": -0.147117369708498}, "southwest": {"lat": 51.50538541970849, "lng": -0.149815330291502}}}, "name": "LONGFORD LEGAL DEPARTMENT", "place_id": "ChIJ8U_6Hi8FdkgRclS4LnljK9Q", "types": ["point_of_interest", "establishment"]}, "ChIJvUNm9oAFdkgRDFV7KEbm0Hg": {"geometry": {"location": {"lat": 51.5073286, "lng": -0.1486203}, "viewport": {"northeast": {"lat": 51.5086860302915, "lng": -0.147212519708498}, "southwest": {"lat": 51.5059880697085, "lng": -0.149910480291502}}}, "name": "HAMMADI", "place_id": "ChIJvUNm9oAFdkgRDFV7KEbm0Hg", "types": ["restaurant", "food", "point_of_interest", "establishment"]}, "ChIJF5ug_J8FdkgRbohki7UPKnw": {"geometry": {"location": {"lat": 51.5068068, "lng": -0.1484084}, "viewport": {"northeast": {"lat": 51.5081629802915, "lng": -0.147009419708498}, "southwest": {"lat": 51.5054650197085, "lng": -0.149707380291502}}}, "name": "AQACHMAR", "place_id": "ChIJF5ug_J8FdkgRbohki7UPKnw", "types": ["restaurant", "food", "point_of_interest", "establishment"]}, "ChIJje4n4C4FdkgRl-Aj5RT7LGE": {"geometry": {"location": {"lat": 51.5068068, "lng": -0.1484084}, "viewport": {"northeast": {"lat": 51.5081629802915, "lng": -0.147009419708498}, "southwest": {"lat": 51.5054650197085, "lng": -0.149707380291502}}}, "name": "Microtel (UK) plc", "place_id": "ChIJje4n4C4FdkgRl-Aj5RT7LGE", "types": ["place_of_worship", "point_of_interest", "establishment"]}, "ChIJy_7CIS8FdkgR3sQ09efxiko": {"geometry": {"location": {"lat": 51.5067927, "lng": -0.1482202}, "viewport": {"northeast": {"lat": 51.5081381802915, "lng": -0.146895619708498}, "southwest": {"lat": 51.5054402197085, "lng": -0.149593580291502}}}, "name": "LondonDesign & Build", "place_id": "ChIJy_7CIS8FdkgR3sQ09efxiko", "types": ["point_of_interest", "establishment"]}, "ChIJu9_D5i4FdkgRAu8unYCzbUI": {"geometry": {"location": {"lat": 51.5074254, "lng": -0.1485322}, "viewport": {"northeast": {"lat": 51.5087814802915, "lng": -0.147134019708498}, "southwest": {"lat": 51.5060835197085, "lng": -0.149831980291502}}}, "name": "Tyab Family Office", "place_id": "ChIJu9_D5i4FdkgRAu8unYCzbUI", "types": ["finance", "point_of_interest", "establishment"]}, "ChIJTZSCHisFdkgR09HLpWxbgLQ": {"geometry": {"location": {"lat": 51.507395, "lng": -0.1481887}, "viewport": {"northeast": {"lat": 51.50867308029149, "lng": -0.146997469708498}, "southwest": {"lat": 51.50597511970849, "lng": -0.149695430291502}}}, "name": "The British School of Etiquette", "place_id": "ChIJTZSCHisFdkgR09HLpWxbgLQ", "types": ["school", "point_of_interest", "establishment"], "rating": 5, "user_ratings_total": 3}, "ChIJoYjPHi8FdkgR8giTH0MAAQk": {"geometry": {"location": {"lat": 51.5067413, "lng": -0.1485146}, "viewport": {"northeast": {"lat": 51.50803263029151, "lng": -0.147148019708498}, "southwest": {"lat": 51.50533466970851, "lng": -0.149845980291502}}}, "name": "The Digital Sense", "place_id": "ChIJoYjPHi8FdkgR8giTH0MAAQk", "types": ["point_of_interest", "establishment"]}, "ChIJH4bPHi8FdkgR9v4QRkimhxw": {"geometry": {"location": {"lat": 51.5067413, "lng": -0.1485147}, "viewport": {"northeast": {"lat": 51.50803263029151, "lng": -0.147148119708498}, "southwest": {"lat": 51.50533466970851, "lng": -0.149846080291502}}}, "name": "Piksel Group", "place_id": "ChIJH4bPHi8FdkgR9v4QRkimhxw", "types": ["point_of_interest", "establishment"]}, "ChIJH4bPHi8FdkgRfTGPVLyl6Wg": {"geometry": {"location": {"lat": 51.5067413, "lng": -0.1485147}, "viewport": {"northeast": {"lat": 51.50803263029151, "lng": -0.147148119708498}, "southwest": {"lat": 51.50533466970851, "lng": -0.149846080291502}}}, "name": "Harmony Minerals", "place_id": "ChIJH4bPHi8FdkgRfTGPVLyl6Wg", "types": ["point_of_interest", "establishment"]}, "ChIJH4bPHi8FdkgRIUFbS5lsSQE": {"geometry": {"location": {"lat": 51.5067413, "lng": -0.1485147}, "viewport": {"northeast": {"lat": 51.50803263029151, "lng": -0.147148119708498}, "southwest": {"lat": 51.50533466970851, "lng": -0.149846080291502}}}, "name": "Curzon Resources", "place_id": "ChIJH4bPHi8FdkgRIUFbS5lsSQE", "types": ["point_of_interest", "establishment"]}, "ChIJb3Ui9ysFdkgRpHnLMHXDqok": {"geometry": {"location": {"lat": 51.5067413, "lng": -0.1485147}, "viewport": {"northeast": {"lat": 51.50803263029151, "lng": -0.147148119708498}, "southwest": {"lat": 51.50533466970851, "lng": -0.149846080291502}}}, "name": "Lukoil Capital Markets Ltd", "place_id": "ChIJb3Ui9ysFdkgRpHnLMHXDqok", "types": ["point_of_interest", "establishment"]}, "ChIJnx7_2lkFdkgRbjQkN3jVkww": {"geometry": {"location": {"lat": 51.5067208, "lng": -0.1485219}, "viewport": {"northeast": {"lat": 51.5080216302915, "lng": -0.147158219708498}, "southwest": {"lat": 51.5053236697085, "lng": -0.149856180291502}}}, "name": "High Commission of Malaysia Malaysian Trade & Investment Centre", "place_id": "ChIJnx7_2lkFdkgRbjQkN3jVkww", "types": ["point_of_interest", "establishment"]}, "ChIJU7nB-uAFdkgR8jxFwqqIQuY": {"geometry": {"location": {"lat": 51.5067421, "lng": -0.1486899}, "viewport": {"northeast": {"lat": 51.5080230802915, "lng": -0.147320169708498}, "southwest": {"lat": 51.5053251197085, "lng": -0.150018130291502}}}, "name": "Copper.co", "place_id": "ChIJU7nB-uAFdkgR8jxFwqqIQuY", "types": ["point_of_interest", "establishment"]}, "ChIJAQAQHC8FdkgRMgPzMJ16GvY": {"geometry": {"location": {"lat": 51.5067421, "lng": -0.1486899}, "viewport": {"northeast": {"lat": 51.5080230802915, "lng": -0.147320169708498}, "southwest": {"lat": 51.5053251197085, "lng": -0.150018130291502}}}, "name": "Prenergy Power Ltd", "place_id": "ChIJAQAQHC8FdkgRMgPzMJ16GvY", "types": ["point_of_interest", "establishment"]}, "ChIJ91MFHC8FdkgRt3-NN5bIG0w": {"geometry": {"location": {"lat": 51.50674100000001, "lng": -0.1486884}, "viewport": {"northeast": {"lat": 51.5080225802915, "lng": -0.147318869708498}, "southwest": {"lat": 51.5053246197085, "lng": -0.150016830291502}}}, "name": "JZ Capital Partners", "place_id": "ChIJ91MFHC8FdkgRt3-NN5bIG0w", "types": ["point_of_interest", "establishment"]}, "ChIJm-oiXIUFdkgRspBrfo4Oxco": {"geometry": {"location": {"lat": 51.5074975, "lng": -0.148407}, "viewport": {"northeast": {"lat": 51.5088279802915, "lng": -0.147050419708498}, "southwest": {"lat": 51.5061300197085, "lng": -0.149748380291502}}}, "name": "Earl of Rosebery Blue Plaque", "place_id": "ChIJm-oiXIUFdkgRspBrfo4Oxco", "types": ["point_of_interest", "establishment"], "rating": 4, "user_ratings_total": 1}, "ChIJq6pq_S4FdkgRt_QVmGRXWm4": {"geometry": {"location": {"lat": 51.5071111, "lng": -0.1491054}, "viewport": {"northeast": {"lat": 51.5084326802915, "lng": -0.147952219708498}, "southwest": {"lat": 51.5057347197085, "lng": -0.150650180291502}}}, "name": "Iqr", "place_id": "ChIJq6pq_S4FdkgRt_QVmGRXWm4", "types": ["point_of_interest", "establishment"]}, "ChIJ5UkdIlYFdkgRE1KW1EcnyGY": {"geometry": {"location": {"lat": 51.5071111, "lng": -0.1491054}, "viewport": {"northeast": {"lat": 51.5084326802915, "lng": -0.147952219708498}, "southwest": {"lat": 51.5057347197085, "lng": -0.150650180291502}}}, "name": "Kartesia", "place_id": "ChIJ5UkdIlYFdkgRE1KW1EcnyGY", "types": ["finance", "point_of_interest", "establishment"]}, "ChIJF5eN2C4FdkgRpskwR2dgAX0": {"geometry": {"location": {"lat": 51.50709949999999, "lng": -0.1477681}, "viewport": {"northeast": {"lat": 51.5086542302915, "lng": -0.1465422697084979}, "southwest": {"lat": 51.5059562697085, "lng": -0.149240230291502}}}, "name": "Saudi Ease", "place_id": "ChIJF5eN2C4FdkgRpskwR2dgAX0", "types": ["point_of_interest", "establishment"]}, "ChIJoa1j_S4FdkgRt8h1aRiwep0": {"geometry": {"location": {"lat": 51.5070399, "lng": -0.149137}, "viewport": {"northeast": {"lat": 51.5083638302915, "lng": -0.147955219708498}, "southwest": {"lat": 51.5056658697085, "lng": -0.150653180291502}}}, "name": "Hasma Uk Services Limited", "place_id": "ChIJoa1j_S4FdkgRt8h1aRiwep0", "types": ["point_of_interest", "establishment"]}, "ChIJoa1j_S4FdkgRCBdoKpydbyY": {"geometry": {"location": {"lat": 51.5070399, "lng": -0.149137}, "viewport": {"northeast": {"lat": 51.5083638302915, "lng": -0.147955219708498}, "southwest": {"lat": 51.5056658697085, "lng": -0.150653180291502}}}, "name": "Municipal Partners Limited", "place_id": "ChIJoa1j_S4FdkgRCBdoKpydbyY", "types": ["point_of_interest", "establishment"]}, "ChIJ71Cc5y4FdkgRHu1MnnltptU": {"geometry": {"location": {"lat": 51.5075351, "lng": -0.1483399}, "viewport": {"northeast": {"lat": 51.5088462302915, "lng": -0.146977769708498}, "southwest": {"lat": 51.5061482697085, "lng": -0.149675730291502}}}, "name": "Buckingham Securities & Investments", "place_id": "ChIJ71Cc5y4FdkgRHu1MnnltptU", "types": ["finance", "point_of_interest", "establishment"]}, "ChIJV7SIGy8FdkgRC5iW5IL9iEs": {"geometry": {"location": {"lat": 51.50668109999999, "lng": -0.1487765}, "viewport": {"northeast": {"lat": 51.50798663029149, "lng": -0.147416519708498}, "southwest": {"lat": 51.50528866970849, "lng": -0.150114480291502}}}, "name": "Capital Studios", "place_id": "ChIJV7SIGy8FdkgRC5iW5IL9iEs", "types": ["point_of_interest", "establishment"], "rating": 5, "user_ratings_total": 8}, "ChIJN-fZzqUFdkgRXBDzghYamQ4": {"geometry": {"location": {"lat": 51.5071441, "lng": -0.1492284}, "viewport": {"northeast": {"lat": 51.5084730802915, "lng": -0.1480223697084979}, "southwest": {"lat": 51.5057751197085, "lng": -0.150720330291502}}}, "name": "C|T Vinson", "place_id": "ChIJN-fZzqUFdkgRXBDzghYamQ4", "types": ["point_of_interest", "establishment"]}, "ChIJe5B-k9cFdkgRYBqEPlWWZ9Y": {"geometry": {"location": {"lat": 51.5067058, "lng": -0.1479117}, "viewport": {"northeast": {"lat": 51.50805478029149, "lng": -0.146562719708498}, "southwest": {"lat": 51.5053568197085, "lng": -0.149260680291502}}}, "name": "My SEO Experts", "place_id": "ChIJe5B-k9cFdkgRYBqEPlWWZ9Y", "types": ["point_of_interest", "establishment"]}, "ChIJd1SXG2kFdkgRgap9HuFs27Q": {"geometry": {"location": {"lat": 51.50659589999999, "lng": -0.1481701}, "viewport": {"northeast": {"lat": 51.5078987802915, "lng": -0.146645069708498}, "southwest": {"lat": 51.5052008197085, "lng": -0.1493430302915021}}}, "name": "Rufus Issacs Blue Plaque", "place_id": "ChIJd1SXG2kFdkgRgap9HuFs27Q", "types": ["point_of_interest", "establishment"], "rating": 4, "user_ratings_total": 1}, "ChIJkaeuGS8FdkgRW126RVtnR2U": {"geometry": {"location": {"lat": 51.5065541, "lng": -0.1484436}, "viewport": {"northeast": {"lat": 51.5079398302915, "lng": -0.147105819708498}, "southwest": {"lat": 51.5052418697085, "lng": -0.149803780291502}}}, "name": "Arab National Bank", "place_id": "ChIJkaeuGS8FdkgRW126RVtnR2U", "types": ["bank", "finance", "point_of_interest", "establishment"], "rating": 4, "user_ratings_total": 12}, "ChIJ04XQai8FdkgRKb6V70o6Jdo": {"geometry": {"location": {"lat": 51.50568745664433, "lng": -0.1484268145266822}, "viewport": {"northeast": {"lat": 51.5070258302915, "lng": -0.147072619708498}, "southwest": {"lat": 51.5043278697085, "lng": -0.149770580291502}}}, "name": "36-41 Hertford St", "place_id": "ChIJ04XQai8FdkgRKb6V70o6Jdo", "types": ["route"]}, "ChIJ--_tdC8FdkgR7G4u0i6AQGs": {"geometry": {"location": {"lat": 51.5059617, "lng": -0.1489154}, "viewport": {"northeast": {"lat": 51.5072879302915, "lng": -0.147648319708498}, "southwest": {"lat": 51.50458996970851, "lng": -0.150346280291502}}}, "name": "Park Lane Mews Hotel", "place_id": "ChIJ--_tdC8FdkgR7G4u0i6AQGs", "types": ["lodging", "point_of_interest", "establishment"], "rating": 3.4, "user_ratings_total": 375}, "ChIJ39QBPS8FdkgRaCcF5KVqn58": {"geometry": {"location": {"lat": 51.506103, "lng": -0.14799}, "viewport": {"northeast": {"lat": 51.50744168029151, "lng": -0.146637269708498}, "southwest": {"lat": 51.50474371970851, "lng": -0.149335230291502}}}, "name": "Mayfair House Apartments", "place_id": "ChIJ39QBPS8FdkgRaCcF5KVqn58", "types": ["real_estate_agency", "lodging", "travel_agency", "point_of_interest", "establishment"], "rating": 3.3, "user_ratings_total": 64}, "ChIJFylQOi8FdkgRNKxjKnQpxRs": {"geometry": {"location": {"lat": 51.50621659999999, "lng": -0.1477633}, "viewport": {"northeast": {"lat": 51.5075701302915, "lng": -0.146382819708498}, "southwest": {"lat": 51.5048721697085, "lng": -0.149080780291502}}}, "name": "Shepherds Tavern", "place_id": "ChIJFylQOi8FdkgRNKxjKnQpxRs", "types": ["bar", "point_of_interest", "establishment"], "rating": 4.1, "user_ratings_total": 343}, "ChIJM7diOy8FdkgRkm1bmyy43ac": {"geometry": {"location": {"lat": 51.5062526, "lng": -0.1479019}, "viewport": {"northeast": {"lat": 51.5076158802915, "lng": -0.146453019708498}, "southwest": {"lat": 51.5049179197085, "lng": -0.149150980291502}}}, "name": "Al-Sultan", "place_id": "ChIJM7diOy8FdkgRkm1bmyy43ac", "types": ["restaurant", "food", "point_of_interest", "establishment"], "rating": 4, "user_ratings_total": 296}, "ChIJiRXcOy8FdkgRJMtvn2uIhqE": {"geometry": {"location": {"lat": 51.5060222, "lng": -0.1477889}, "viewport": {"northeast": {"lat": 51.5073711802915, "lng": -0.1464399197084979}, "southwest": {"lat": 51.5046732197085, "lng": -0.149137880291502}}}, "name": "Snappy Snaps", "place_id": "ChIJiRXcOy8FdkgRJMtvn2uIhqE", "types": ["point_of_interest", "establishment"], "rating": 4.9, "user_ratings_total": 774}, "ChIJXcKbbC8FdkgRleLan4Tqv2Q": {"geometry": {"location": {"lat": 51.5055689, "lng": -0.1485751}, "viewport": {"northeast": {"lat": 51.5068933302915, "lng": -0.147255369708498}, "southwest": {"lat": 51.5041953697085, "lng": -0.149953330291502}}}, "name": "Carlton Court", "place_id": "ChIJXcKbbC8FdkgRleLan4Tqv2Q", "types": ["lodging", "point_of_interest", "establishment"], "rating": 4.4, "user_ratings_total": 26}, "ChIJ6V6qDy8FdkgR9cpMCZf-hlU": {"geometry": {"location": {"lat": 51.5062459, "lng": -0.1487984}, "viewport": {"northeast": {"lat": 51.50758393029151, "lng": -0.147445519708498}, "southwest": {"lat": 51.50488596970851, "lng": -0.150143480291502}}}, "name": "Equity F D", "place_id": "ChIJ6V6qDy8FdkgR9cpMCZf-hlU", "types": ["point_of_interest", "establishment"], "rating": 5, "user_ratings_total": 1}, "ChIJjXswoKoadkgRy9pD7lHLC_Q": {"geometry": {"location": {"lat": 51.505728, "lng": -0.148658}, "viewport": {"northeast": {"lat": 51.50703998029149, "lng": -0.147285419708498}, "southwest": {"lat": 51.5043420197085, "lng": -0.149983380291502}}}, "name": "Nortaq", "place_id": "ChIJjXswoKoadkgRy9pD7lHLC_Q", "types": ["point_of_interest", "establishment"]}, "ChIJxTdQOS8FdkgR2exUX2DRdjk": {"geometry": {"location": {"lat": 51.506009, "lng": -0.147868}, "viewport": {"northeast": {"lat": 51.5073697302915, "lng": -0.146440019708498}, "southwest": {"lat": 51.5046717697085, "lng": -0.149137980291502}}}, "name": "weddingsido", "place_id": "ChIJxTdQOS8FdkgR2exUX2DRdjk", "types": ["point_of_interest", "establishment"]}, "ChIJnSGwGy8FdkgRvBaeXOixCDY": {"geometry": {"location": {"lat": 51.50633529999999, "lng": -0.1486693}, "viewport": {"northeast": {"lat": 51.50781353029149, "lng": -0.147361519708498}, "southwest": {"lat": 51.5051155697085, "lng": -0.150059480291502}}}, "name": "The Argyll Club", "place_id": "ChIJnSGwGy8FdkgRvBaeXOixCDY", "types": ["real_estate_agency", "point_of_interest", "establishment"], "rating": 4.3, "user_ratings_total": 4}, "ChIJYVq92CsFdkgRwe_gTY5uU9s": {"geometry": {"location": {"lat": 51.5058395, "lng": -0.147904}, "viewport": {"northeast": {"lat": 51.5071884802915, "lng": -0.1465550197084979}, "southwest": {"lat": 51.5044905197085, "lng": -0.1492529802915019}}}, "name": "Market Financial Solutions", "place_id": "ChIJYVq92CsFdkgRwe_gTY5uU9s", "types": ["finance", "point_of_interest", "establishment"], "rating": 4.9, "user_ratings_total": 18}, "ChIJ1aOsxQim2EcRgzefzW4CFQc": {"geometry": {"location": {"lat": 51.50582959999999, "lng": -0.147913}, "viewport": {"northeast": {"lat": 51.5071482802915, "lng": -0.146552819708498}, "southwest": {"lat": 51.5044503197085, "lng": -0.149250780291502}}}, "name": "Season Car Rental", "place_id": "ChIJ1aOsxQim2EcRgzefzW4CFQc", "types": ["car_rental", "point_of_interest", "establishment"], "rating": 4.2, "user_ratings_total": 41}, "ChIJvw-NOC8FdkgRuCH-UYcNJM0": {"geometry": {"location": {"lat": 51.50582919999999, "lng": -0.1479133}, "viewport": {"northeast": {"lat": 51.50714818029149, "lng": -0.146553219708498}, "southwest": {"lat": 51.5044502197085, "lng": -0.149251180291502}}}, "name": "London Super Car Experience", "place_id": "ChIJvw-NOC8FdkgRuCH-UYcNJM0", "types": ["car_rental", "point_of_interest", "establishment"]}, "ChIJOVQWEC8FdkgRyOtNZ5ElAZ0": {"geometry": {"location": {"lat": 51.5062995, "lng": -0.1489506}, "viewport": {"northeast": {"lat": 51.5075921302915, "lng": -0.147581619708498}, "southwest": {"lat": 51.5048941697085, "lng": -0.150279580291502}}}, "name": "Quanta Mediation", "place_id": "ChIJOVQWEC8FdkgRyOtNZ5ElAZ0", "types": ["point_of_interest", "establishment"]}, "ChIJ4Yw5Gi8FdkgRb6YnQZvxJFs": {"geometry": {"location": {"lat": 51.5065061, "lng": -0.1485833}, "viewport": {"northeast": {"lat": 51.5079070302915, "lng": -0.147250169708498}, "southwest": {"lat": 51.5052090697085, "lng": -0.149948130291502}}}, "name": "Choice International Limited", "place_id": "ChIJ4Yw5Gi8FdkgRb6YnQZvxJFs", "types": ["finance", "point_of_interest", "establishment"]}, "ChIJXaxgai8FdkgR9wRiBXHsZBE": {"geometry": {"location": {"lat": 51.505532, "lng": -0.14836}, "viewport": {"northeast": {"lat": 51.50695898029149, "lng": -0.147042819708498}, "southwest": {"lat": 51.5042610197085, "lng": -0.149740780291502}}}, "name": "Heritage Apartments", "place_id": "ChIJXaxgai8FdkgR9wRiBXHsZBE", "types": ["real_estate_agency", "point_of_interest", "establishment"], "rating": 4, "user_ratings_total": 1}, "ChIJ4zsvay8FdkgRZ9QY5JYLJYg": {"geometry": {"location": {"lat": 51.5055841, "lng": -0.1480145}, "viewport": {"northeast": {"lat": 51.5070087302915, "lng": -0.146704669708498}, "southwest": {"lat": 51.5043107697085, "lng": -0.149402630291502}}}, "name": "Royal Thai Consulate", "place_id": "ChIJ4zsvay8FdkgRZ9QY5JYLJYg", "types": ["travel_agency", "point_of_interest", "establishment"], "rating": 5, "user_ratings_total": 1}, "ChIJV2w8FS8FdkgRibVgMP3DzBQ": {"geometry": {"location": {"lat": 51.50578210000001, "lng": -0.148472}, "viewport": {"northeast": {"lat": 51.50708513029151, "lng": -0.147102369708498}, "southwest": {"lat": 51.50438716970851, "lng": -0.1498003302915021}}}, "name": "Embassy of Panama", "place_id": "ChIJV2w8FS8FdkgRibVgMP3DzBQ", "types": ["embassy", "point_of_interest", "establishment"], "rating": 4.6, "user_ratings_total": 5}, "ChIJV2w8FS8FdkgRlv5U3DZ4pPI": {"geometry": {"location": {"lat": 51.5057568, "lng": -0.1484013}, "viewport": {"northeast": {"lat": 51.5070737802915, "lng": -0.147056469708498}, "southwest": {"lat": 51.5043758197085, "lng": -0.149754430291502}}}, "name": "Consulate General of Panama", "place_id": "ChIJV2w8FS8FdkgRlv5U3DZ4pPI", "types": ["embassy", "point_of_interest", "establishment"], "rating": 5, "user_ratings_total": 2}, "ChIJiRXcOy8FdkgRPbRbHPPkLbQ": {"geometry": {"location": {"lat": 51.5060072, "lng": -0.1478711}, "viewport": {"northeast": {"lat": 51.5073561802915, "lng": -0.146522119708498}, "southwest": {"lat": 51.5046582197085, "lng": -0.149220080291502}}}, "name": "scott collier photographer", "place_id": "ChIJiRXcOy8FdkgRPbRbHPPkLbQ", "types": ["electronics_store", "home_goods_store", "point_of_interest", "store", "establishment"], "rating": 5, "user_ratings_total": 4}, "ChIJI3byFS8FdkgRsIRIvrXSi-4": {"geometry": {"location": {"lat": 51.5059111, "lng": -0.1485176}, "viewport": {"northeast": {"lat": 51.5072976802915, "lng": -0.147181469708498}, "southwest": {"lat": 51.5045997197085, "lng": -0.149879430291502}}}, "name": "Dr Frances Prenna Jones", "place_id": "ChIJI3byFS8FdkgRsIRIvrXSi-4", "types": ["doctor", "health", "point_of_interest", "establishment"], "rating": 4.2, "user_ratings_total": 34}, "ChIJV7nIjcAFdkgR5V7k4HHQOkM": {"geometry": {"location": {"lat": 51.5061627, "lng": -0.1485087}, "viewport": {"northeast": {"lat": 51.50754948029149, "lng": -0.147173119708498}, "southwest": {"lat": 51.5048515197085, "lng": -0.149871080291502}}}, "name": "HAJJAMY", "place_id": "ChIJV7nIjcAFdkgR5V7k4HHQOkM", "types": ["restaurant", "food", "point_of_interest", "establishment"]}, "ChIJAQDcPi8FdkgRkGH3LZvSJ7M": {"geometry": {"location": {"lat": 51.5059105, "lng": -0.148637}, "viewport": {"northeast": {"lat": 51.50714008029151, "lng": -0.147233119708498}, "southwest": {"lat": 51.50444211970851, "lng": -0.149931080291502}}}, "name": "Une Soir\u00e9e", "place_id": "ChIJAQDcPi8FdkgRkGH3LZvSJ7M", "types": ["point_of_interest", "establishment"], "rating": 5, "user_ratings_total": 3},