{"E00023491": {"ChIJ96MuKsoadkgR85M734ISK_E": {"geometry": {"location": {"lat": 51.52001003480898, "lng": -0.1619313931579135}, "viewport": {"northeast": {"lat": 51.5213590302915, "lng": -0.160582419708498}, "southwest": {"lat": 51.5186610697085, "lng": -0.163280380291502}}}, "name": "63 York St", "place_id": "ChIJ96MuKsoadkgR85M734ISK_E", "types": ["route"]}, "ChIJq6q_hskadkgRDpyIq7vA8so": {"geometry": {"location": {"lat": 51.52040940000001, "lng": -0.1620387}, "viewport": {"northeast": {"lat": 51.5217754802915, "lng": -0.160593019708498}, "southwest": {"lat": 51.5190775197085, "lng": -0.163290980291502}}}, "name": "Apartment Deluxe in Centre of London", "place_id": "ChIJq6q_hskadkgRDpyIq7vA8so", "types": ["lodging", "point_of_interest", "establishment"]}, "ChIJq6q_hskadkgRvtVJ9FPvkmw": {"geometry": {"location": {"lat": 51.52040940000001, "lng": -0.1620387}, "viewport": {"northeast": {"lat": 51.5217754802915, "lng": -0.160593019708498}, "southwest": {"lat": 51.5190775197085, "lng": -0.163290980291502}}}, "name": "Modern Flat in London", "place_id": "ChIJq6q_hskadkgRvtVJ9FPvkmw", "types": ["lodging", "point_of_interest", "establishment"]}, "ChIJA7BrLMoadkgRvDJF9VoahzA": {"geometry": {"location": {"lat": 51.51982959999999, "lng": -0.1616022}, "viewport": {"northeast": {"lat": 51.52118423029149, "lng": -0.160220869708498}, "southwest": {"lat": 51.5184862697085, "lng": -0.162918830291502}}}, "name": "St Mary's Church", "place_id": "ChIJA7BrLMoadkgRvDJF9VoahzA", "types": ["tourist_attraction", "church", "place_of_worship", "point_of_interest", "establishment"], "rating": 4.4, "user_ratings_total": 147}, "ChIJXewFJ8oadkgRrGbt1Ci7afg": {"geometry": {"location": {"lat": 51.5200146, "lng": -0.1625061}, "viewport": {"northeast": {"lat": 51.5213136802915, "lng": -0.161132919708498}, "southwest": {"lat": 51.5186157197085, "lng": -0.163830880291502}}}, "name": "Trainee Solicitor Limited", "place_id": "ChIJXewFJ8oadkgRrGbt1Ci7afg", "types": ["lawyer", "point_of_interest", "establishment"]}, "ChIJXewFJ8oadkgRWPR9vzE7Pe0": {"geometry": {"location": {"lat": 51.52000839999999, "lng": -0.1624847}, "viewport": {"northeast": {"lat": 51.5213121302915, "lng": -0.161113819708498}, "southwest": {"lat": 51.5186141697085, "lng": -0.163811780291502}}}, "name": "Pub Games Hire", "place_id": "ChIJXewFJ8oadkgRWPR9vzE7Pe0", "types": ["food", "point_of_interest", "establishment"], "rating": 1, "user_ratings_total": 2}, "ChIJXewFJ8oadkgRaal91o23YLs": {"geometry": {"location": {"lat": 51.52000839999999, "lng": -0.1624847}, "viewport": {"northeast": {"lat": 51.5213121302915, "lng": -0.161113819708498}, "southwest": {"lat": 51.5186141697085, "lng": -0.163811780291502}}}, "name": "Star Power Generators Ltd", "place_id": "ChIJXewFJ8oadkgRaal91o23YLs", "types": ["point_of_interest", "establishment"]}, "ChIJXewFJ8oadkgREBkjqjuYYGY": {"geometry": {"location": {"lat": 51.5200146, "lng": -0.1625061}, "viewport": {"northeast": {"lat": 51.5213136802915, "lng": -0.161132919708498}, "southwest": {"lat": 51.5186157197085, "lng": -0.163830880291502}}}, "name": "Craniosacral Therapy Educational Trust", "place_id": "ChIJXewFJ8oadkgREBkjqjuYYGY", "types": ["health", "point_of_interest", "establishment"], "rating": 5, "user_ratings_total": 1}, "ChIJz_LOh8kadkgRa1oV3KQDEJI": {"geometry": {"location": {"lat": 51.52008499999999, "lng": -0.162144}, "viewport": {"northeast": {"lat": 51.52139713029149, "lng": -0.1607236197084979}, "southwest": {"lat": 51.51869916970849, "lng": -0.163421580291502}}}, "name": "The Field Training Lifestyle Centre", "place_id": "ChIJz_LOh8kadkgRa1oV3KQDEJI", "types": ["gym", "health", "point_of_interest", "establishment"], "rating": 5, "user_ratings_total": 12}, "ChIJXewFJ8oadkgRmN85rhKMo4k": {"geometry": {"location": {"lat": 51.52000839999999, "lng": -0.1624847}, "viewport": {"northeast": {"lat": 51.5213121302915, "lng": -0.161113819708498}, "southwest": {"lat": 51.5186141697085, "lng": -0.163811780291502}}}, "name": "LeavingUni Ltd", "place_id": "ChIJXewFJ8oadkgRmN85rhKMo4k", "types": ["point_of_interest", "establishment"]}, "ChIJJcJ6IEu2e0gRRZLUPqWKeys": {"geometry": {"location": {"lat": 51.5200237, "lng": -0.1625263}, "viewport": {"northeast": {"lat": 51.52131688029149, "lng": -0.1611502697084979}, "southwest": {"lat": 51.5186189197085, "lng": -0.163848230291502}}}, "name": "Debt Recovery Plus Ltd", "place_id": "ChIJJcJ6IEu2e0gRRZLUPqWKeys", "types": ["point_of_interest", "establishment"], "rating": 1.1, "user_ratings_total": 407}, "ChIJNT0BK8oadkgRt6f6OGcTxIQ": {"geometry": {"location": {"lat": 51.51997309999999, "lng": -0.1617573}, "viewport": {"northeast": {"lat": 51.5213364302915, "lng": -0.160325719708498}, "southwest": {"lat": 51.5186384697085, "lng": -0.163023680291502}}}, "name": "Private Investigation International", "place_id": "ChIJNT0BK8oadkgRt6f6OGcTxIQ", "types": ["point_of_interest", "establishment"]}, "ChIJV4Pe_c4EdkgRXbHPoIwWS_k": {"geometry": {"location": {"lat": 51.5202046, "lng": -0.1620309}, "viewport": {"northeast": {"lat": 51.52145548029149, "lng": -0.160636869708498}, "southwest": {"lat": 51.51875751970849, "lng": -0.163334830291502}}}, "name": "Sublift Limited", "place_id": "ChIJV4Pe_c4EdkgRXbHPoIwWS_k", "types": ["point_of_interest", "establishment"]}, "ChIJqTiLNewRdkgRtmWY0OFp7u8": {"geometry": {"location": {"lat": 51.5199939, "lng": -0.161418}, "viewport": {"northeast": {"lat": 51.52139278029149, "lng": -0.160092619708498}, "southwest": {"lat": 51.51869481970849, "lng": -0.1627905802915021}}}, "name": "St John Ambulance London", "place_id": "ChIJqTiLNewRdkgRtmWY0OFp7u8", "types": ["health", "point_of_interest", "establishment"], "rating": 4.8, "user_ratings_total": 5}, "ChIJi1s4MF8XdkgRmz9rKwNEcH0": {"geometry": {"location": {"lat": 51.520017, "lng": -0.162496}, "viewport": {"northeast": {"lat": 51.52131583029149, "lng": -0.161122719708498}, "southwest": {"lat": 51.51861786970849, "lng": -0.163820680291502}}}, "name": "Active Webdezign Ltd.", "place_id": "ChIJi1s4MF8XdkgRmz9rKwNEcH0", "types": ["point_of_interest", "establishment"], "rating": 5, "user_ratings_total": 4}, "ChIJud6rhckadkgR_GjXfAqelV0": {"geometry": {"location": {"lat": 51.52040940000001, "lng": -0.1620387}, "viewport": {"northeast": {"lat": 51.5217754802915, "lng": -0.160593019708498}, "southwest": {"lat": 51.5190775197085, "lng": -0.163290980291502}}}, "name": "LS Music", "place_id": "ChIJud6rhckadkgR_GjXfAqelV0", "types": ["point_of_interest", "establishment"]}, "ChIJXewFJ8oadkgRIgj4SkwNqpI": {"geometry": {"location": {"lat": 51.520019, "lng": -0.16245}, "viewport": {"northeast": {"lat": 51.5213208802915, "lng": -0.161078169708498}, "southwest": {"lat": 51.5186229197085, "lng": -0.163776130291502}}}, "name": "Workplace Healthcare Ltd", "place_id": "ChIJXewFJ8oadkgRIgj4SkwNqpI", "types": ["health", "point_of_interest", "establishment"], "rating": 5, "user_ratings_total": 22}, "ChIJBXFbf8kadkgRWyBiqVM7-cc": {"geometry": {"location": {"lat": 51.520403, "lng": -0.1615585}, "viewport": {"northeast": {"lat": 51.52160178029149, "lng": -0.160138469708498}, "southwest": {"lat": 51.5189038197085, "lng": -0.162836430291502}}}, "name": "Swedish Radio", "place_id": "ChIJBXFbf8kadkgRWyBiqVM7-cc", "types": ["point_of_interest", "establishment"]}, "ChIJLTYNiMwadkgR37wyBFrg744": {"geometry": {"location": {"lat": 51.5200133, "lng": -0.1624991}, "viewport": {"northeast": {"lat": 51.52131358029149, "lng": -0.161126519708498}, "southwest": {"lat": 51.51861561970849, "lng": -0.163824480291502}}}, "name": "Adlers Surveyors LLP", "place_id": "ChIJLTYNiMwadkgR37wyBFrg744", "types": ["real_estate_agency", "point_of_interest", "establishment"]}, "ChIJXewFJ8oadkgRrkMHzZXpNp0": {"geometry": {"location": {"lat": 51.5200146, "lng": -0.1625061}, "viewport": {"northeast": {"lat": 51.5213136802915, "lng": -0.161132919708498}, "southwest": {"lat": 51.5186157197085, "lng": -0.163830880291502}}}, "name": "Property Eye", "place_id": "ChIJXewFJ8oadkgRrkMHzZXpNp0", "types": ["finance", "real_estate_agency", "point_of_interest", "establishment"], "rating": 1, "user_ratings_total": 1}, "ChIJXewFJ8oadkgRIleSKkgIV4I": {"geometry": {"location": {"lat": 51.52000839999999, "lng": -0.1624847}, "viewport": {"northeast": {"lat": 51.5213121302915, "lng": -0.161113819708498}, "southwest": {"lat": 51.5186141697085, "lng": -0.163811780291502}}}, "name": "Red Create Ltd", "place_id": "ChIJXewFJ8oadkgRIleSKkgIV4I", "types": ["point_of_interest", "establishment"]}, "ChIJC7zr-isbdkgRXESbYNEXLAg": {"geometry": {"location": {"lat": 51.52001869999999, "lng": -0.1624503}, "viewport": {"northeast": {"lat": 51.52132068029149, "lng": -0.161078519708498}, "southwest": {"lat": 51.5186227197085, "lng": -0.163776480291502}}}, "name": "FooCo Ltd", "place_id": "ChIJC7zr-isbdkgRXESbYNEXLAg", "types": ["point_of_interest", "establishment"], "rating": 5, "user_ratings_total": 11}, "ChIJVcB2jXMQdkgRbgKII2rnUY0": {"geometry": {"location": {"lat": 51.5200133, "lng": -0.1624991}, "viewport": {"northeast": {"lat": 51.52131358029149, "lng": -0.161126519708498}, "southwest": {"lat": 51.51861561970849, "lng": -0.163824480291502}}}, "name": "Nubian Jak", "place_id": "ChIJVcB2jXMQdkgRbgKII2rnUY0", "types": ["point_of_interest", "establishment"]}, "ChIJXewFJ8oadkgRPeowvd2a9L8": {"geometry": {"location": {"lat": 51.52000839999999, "lng": -0.1624847}, "viewport": {"northeast": {"lat": 51.5213121302915, "lng": -0.161113819708498}, "southwest": {"lat": 51.5186141697085, "lng": -0.163811780291502}}}, "name": "AliveWalls Internet Marketing Company", "place_id": "ChIJXewFJ8oadkgRPeowvd2a9L8", "types": ["point_of_interest", "establishment"]}, "ChIJdU7-JsoadkgRVHK4V7CHnto": {"geometry": {"location": {"lat": 51.52000839999999, "lng": -0.1624847}, "viewport": {"northeast": {"lat": 51.5213121302915, "lng": -0.161113819708498}, "southwest": {"lat": 51.5186141697085, "lng": -0.163811780291502}}}, "name": "Oxeon Consulting", "place_id": "ChIJdU7-JsoadkgRVHK4V7CHnto", "types": ["point_of_interest", "establishment"]}, "ChIJEdypJ8oadkgRH1R8MvT0i10": {"geometry": {"location": {"lat": 51.52001869999999, "lng": -0.1624503}, "viewport": {"northeast": {"lat": 51.52132068029149, "lng": -0.161078519708498}, "southwest": {"lat": 51.5186227197085, "lng": -0.163776480291502}}}, "name": "Warners Antique Silver", "place_id": "ChIJEdypJ8oadkgRH1R8MvT0i10", "types": ["home_goods_store", "point_of_interest", "store", "establishment"]}, "ChIJXewFJ8oadkgRmQqAhYxjyGQ": {"geometry": {"location": {"lat": 51.5200146, "lng": -0.1625061}, "viewport": {"northeast": {"lat": 51.5213136802915, "lng": -0.161132919708498}, "southwest": {"lat": 51.5186157197085, "lng": -0.163830880291502}}}, "name": "Propertyard", "place_id": "ChIJXewFJ8oadkgRmQqAhYxjyGQ", "types": ["point_of_interest", "establishment"]}, "ChIJC9ypJ8oadkgRcf2AmbZj9jw": {"geometry": {"location": {"lat": 51.52002390000001, "lng": -0.1624526000000001}, "viewport": {"northeast": {"lat": 51.52132333029151, "lng": -0.161079569708498}, "southwest": {"lat": 51.51862536970852, "lng": -0.163777530291502}}}, "name": "Lexsure Limited", "place_id": "ChIJC9ypJ8oadkgRcf2AmbZj9jw", "types": ["point_of_interest", "establishment"]}, "ChIJr2DKaDEYdkgRH_mImefl6Nw": {"geometry": {"location": {"lat": 51.52002390000001, "lng": -0.1624526000000001}, "viewport": {"northeast": {"lat": 51.52132313029151, "lng": -0.161078419708498}, "southwest": {"lat": 51.51862516970851, "lng": -0.1637763802915021}}}, "name": "Anthony Ryb Counselling / Infertility, Grief, Loss and Trauma", "place_id": "ChIJr2DKaDEYdkgRH_mImefl6Nw", "types": ["health", "point_of_interest", "establishment"]}, "ChIJ4dkAJ8oadkgRKK6qvtOgv44": {"geometry": {"location": {"lat": 51.52002390000001, "lng": -0.1624526000000001}, "viewport": {"northeast": {"lat": 51.52132313029151, "lng": -0.161078419708498}, "southwest": {"lat": 51.51862516970851, "lng": -0.1637763802915021}}}, "name": "Hub Media Development", "place_id": "ChIJ4dkAJ8oadkgRKK6qvtOgv44", "types": ["point_of_interest", "establishment"]}, "ChIJnwepJ8oadkgR5gX7CdGHEPo": {"geometry": {"location": {"lat": 51.52002390000001, "lng": -0.1624526000000001}, "viewport": {"northeast": {"lat": 51.52132313029151, "lng": -0.161078419708498}, "southwest": {"lat": 51.51862516970851, "lng": -0.1637763802915021}}}, "name": "Quintessential Estate Management Ltd", "place_id": "ChIJnwepJ8oadkgR5gX7CdGHEPo", "types": ["point_of_interest", "establishment"]}, "ChIJnwepJ8oadkgRGS0HuBIlglg": {"geometry": {"location": {"lat": 51.52002390000001, "lng": -0.1624526000000001}, "viewport": {"northeast": {"lat": 51.52132313029151, "lng": -0.161078419708498}, "southwest": {"lat": 51.51862516970851, "lng": -0.1637763802915021}}}, "name": "A&E Heating Services", "place_id": "ChIJnwepJ8oadkgRGS0HuBIlglg", "types": ["plumber", "point_of_interest", "establishment"]}, "ChIJEdypJ8oadkgRKBfcLCNU0C8": {"geometry": {"location": {"lat": 51.52002390000001, "lng": -0.1624526000000001}, "viewport": {"northeast": {"lat": 51.52132333029151, "lng": -0.161079569708498}, "southwest": {"lat": 51.51862536970852, "lng": -0.163777530291502}}}, "name": "Simitri Pte Ltd", "place_id": "ChIJEdypJ8oadkgRKBfcLCNU0C8", "types": ["point_of_interest", "establishment"]}, "ChIJnwepJ8oadkgRAlXzXL68-UA": {"geometry": {"location": {"lat": 51.52002390000001, "lng": -0.1624526000000001}, "viewport": {"northeast": {"lat": 51.52132313029151, "lng": -0.161078419708498}, "southwest": {"lat": 51.51862516970851, "lng": -0.1637763802915021}}}, "name": "The Marketing Caf\u00e9", "place_id": "ChIJnwepJ8oadkgRAlXzXL68-UA", "types": ["point_of_interest", "establishment"], "rating": 5, "user_ratings_total": 18}, "ChIJnwepJ8oadkgRuvQY-HX7zoo": {"geometry": {"location": {"lat": 51.52002390000001, "lng": -0.1624526000000001}, "viewport": {"northeast": {"lat": 51.52132313029151, "lng": -0.161078419708498}, "southwest": {"lat": 51.51862516970851, "lng": -0.1637763802915021}}}, "name": "YACHT SOCIAL LTD", "place_id": "ChIJnwepJ8oadkgRuvQY-HX7zoo", "types": ["travel_agency", "point_of_interest", "establishment"]}, "ChIJnwepJ8oadkgRWIi5Bi5Je8A": {"geometry": {"location": {"lat": 51.52002390000001, "lng": -0.1624526000000001}, "viewport": {"northeast": {"lat": 51.52132313029151, "lng": -0.161078419708498}, "southwest": {"lat": 51.51862516970851, "lng": -0.1637763802915021}}}, "name": "Love a Child Foundation", "place_id": "ChIJnwepJ8oadkgRWIi5Bi5Je8A", "types": ["point_of_interest", "establishment"]}, "ChIJnwepJ8oadkgRHIBqkba8Hus": {"geometry": {"location": {"lat": 51.52002390000001, "lng": -0.1624526000000001}, "viewport": {"northeast": {"lat": 51.52132313029151, "lng": -0.161078419708498}, "southwest": {"lat": 51.51862516970851, "lng": -0.1637763802915021}}}, "name": "Fenestrology", "place_id": "ChIJnwepJ8oadkgRHIBqkba8Hus", "types": ["point_of_interest", "establishment"], "rating": 3.9, "user_ratings_total": 7}, "ChIJVaipJ8oadkgRf0ELl_9_tS4": {"geometry": {"location": {"lat": 51.52002390000001, "lng": -0.1624526000000001}, "viewport": {"northeast": {"lat": 51.52132313029151, "lng": -0.161078419708498}, "southwest": {"lat": 51.51862516970851, "lng": -0.1637763802915021}}}, "name": "Palamut Communication Solutions", "place_id": "ChIJVaipJ8oadkgRf0ELl_9_tS4", "types": ["point_of_interest", "establishment"]}, "ChIJnwepJ8oadkgRWu-0nraGuuY": {"geometry": {"location": {"lat": 51.52002390000001, "lng": -0.1624526000000001}, "viewport": {"northeast": {"lat": 51.52132313029151, "lng": -0.161078419708498}, "southwest": {"lat": 51.51862516970851, "lng": -0.1637763802915021}}}, "name": "Armoured Cars", "place_id": "ChIJnwepJ8oadkgRWu-0nraGuuY", "types": ["point_of_interest", "establishment"], "rating": 5, "user_ratings_total": 1}, "ChIJnwepJ8oadkgRMIX2utUvnhs": {"geometry": {"location": {"lat": 51.52002390000001, "lng": -0.1624526000000001}, "viewport": {"northeast": {"lat": 51.52132313029151, "lng": -0.161078419708498}, "southwest": {"lat": 51.51862516970851, "lng": -0.1637763802915021}}}, "name": "Advanced Transport Research", "place_id": "ChIJnwepJ8oadkgRMIX2utUvnhs", "types": ["point_of_interest", "establishment"]}, "ChIJnwepJ8oadkgR8ENmv9CV1Ao": {"geometry": {"location": {"lat": 51.52002390000001, "lng": -0.1624526000000001}, "viewport": {"northeast": {"lat": 51.52132313029151, "lng": -0.161078419708498}, "southwest": {"lat": 51.51862516970851, "lng": -0.1637763802915021}}}, "name": "Techeadz", "place_id": "ChIJnwepJ8oadkgR8ENmv9CV1Ao", "types": ["point_of_interest", "establishment"]}, "ChIJnwepJ8oadkgRh51G57Uysx8": {"geometry": {"location": {"lat": 51.52002390000001, "lng": -0.1624526000000001}, "viewport": {"northeast": {"lat": 51.52132333029151, "lng": -0.161079569708498}, "southwest": {"lat": 51.51862536970852, "lng": -0.163777530291502}}}, "name": "Aurum Gems", "place_id": "ChIJnwepJ8oadkgRh51G57Uysx8", "types": ["point_of_interest", "establishment"]}, "ChIJ3b7WZQgQdkgRFW6-2f8pkmI": {"geometry": {"location": {"lat": 51.52002390000001, "lng": -0.1624526000000001}, "viewport": {"northeast": {"lat": 51.52132333029151, "lng": -0.161079569708498}, "southwest": {"lat": 51.51862536970852, "lng": -0.163777530291502}}}, "name": "The App Designer Ltd", "place_id": "ChIJ3b7WZQgQdkgRFW6-2f8pkmI", "types": ["point_of_interest", "establishment"], "rating": 5, "user_ratings_total": 4}, "ChIJNTLqntsEdkgRYA8Xg-5n-2Q": {"geometry": {"location": {"lat": 51.52002399999999, "lng": -0.162453}, "viewport": {"northeast": {"lat": 51.52132333029149, "lng": -0.1610799697084979}, "southwest": {"lat": 51.5186253697085, "lng": -0.163777930291502}}}, "name": "melinda marks", "place_id": "ChIJNTLqntsEdkgRYA8Xg-5n-2Q", "types": ["point_of_interest", "establishment"]}, "ChIJXewFJ8oadkgR1rWIIzInTLY": {"geometry": {"location": {"lat": 51.52002189999999, "lng": -0.1624908}, "viewport": {"northeast": {"lat": 51.52131893029149, "lng": -0.161116619708498}, "southwest": {"lat": 51.51862096970849, "lng": -0.163814580291502}}}, "name": "OfficeFront", "place_id": "ChIJXewFJ8oadkgR1rWIIzInTLY", "types": ["point_of_interest", "establishment"]}, "ChIJdU7-JsoadkgR5n3PY1dZYWg": {"geometry": {"location": {"lat": 51.5200146, "lng": -0.1625061}, "viewport": {"northeast": {"lat": 51.5213136802915, "lng": -0.161132919708498}, "southwest": {"lat": 51.5186157197085, "lng": -0.163830880291502}}}, "name": "Specialist PI Limited", "place_id": "ChIJdU7-JsoadkgR5n3PY1dZYWg", "types": ["point_of_interest", "establishment"]}, "ChIJdU7-JsoadkgRisxL4ATN4Yw": {"geometry": {"location": {"lat": 51.52002189999999, "lng": -0.1624908}, "viewport": {"northeast": {"lat": 51.52131893029149, "lng": -0.161116619708498}, "southwest": {"lat": 51.51862096970849, "lng": -0.163814580291502}}}, "name": "Blue Stream World Media", "place_id": "ChIJdU7-JsoadkgRisxL4ATN4Yw", "types": ["point_of_interest", "establishment"]}, "ChIJXewFJ8oadkgRO8pQKsG9l9E": {"geometry": {"location": {"lat": 51.52000839999999, "lng": -0.1624847}, "viewport": {"northeast": {"lat": 51.5213121302915, "lng": -0.161113819708498}, "southwest": {"lat": 51.5186141697085, "lng": -0.163811780291502}}}, "name": "Portfolio Software Limited", "place_id": "ChIJXewFJ8oadkgRO8pQKsG9l9E", "types": ["electronics_store", "point_of_interest", "store", "establishment"]}, "ChIJXewFJ8oadkgR5kw7iGjDTdU": {"geometry": {"location": {"lat": 51.5200146, "lng": -0.1625061}, "viewport": {"northeast": {"lat": 51.5213136802915, "lng": -0.161132919708498}, "southwest": {"lat": 51.5186157197085, "lng": -0.163830880291502}}}, "name": "Messagemail Ltd", "place_id": "ChIJXewFJ8oadkgR5kw7iGjDTdU", "types": ["point_of_interest", "establishment"], "rating": 5, "user_ratings_total": 5}, "ChIJXewFJ8oadkgR6d37JkwVkPs": {"geometry": {"location": {"lat": 51.52000839999999, "lng": -0.1624847}, "viewport": {"northeast": {"lat": 51.5213121302915, "lng": -0.161113819708498}, "southwest": {"lat": 51.5186141697085, "lng": -0.163811780291502}}}, "name": "Aspire", "place_id": "ChIJXewFJ8oadkgR6d37JkwVkPs", "types": ["point_of_interest", "establishment"]}, "ChIJA7MCJ8oadkgRDh33kbvhZ3A": {"geometry": {"location": {"lat": 51.52000839999999, "lng": -0.1624847}, "viewport": {"northeast": {"lat": 51.5213121302915, "lng": -0.161113819708498}, "southwest": {"lat": 51.5186141697085, "lng": -0.163811780291502}}}, "name": "Zen IT Solutions", "place_id": "ChIJA7MCJ8oadkgRDh33kbvhZ3A", "types": ["electronics_store", "point_of_interest", "store", "establishment"]}, "ChIJXewFJ8oadkgRvwC693pZIXA": {"geometry": {"location": {"lat": 51.5200237, "lng": -0.1625263}, "viewport": {"northeast": {"lat": 51.52131688029149, "lng": -0.1611502697084979}, "southwest": {"lat": 51.5186189197085, "lng": -0.163848230291502}}}, "name": "Sterling Transcription", "place_id": "ChIJXewFJ8oadkgRvwC693pZIXA", "types": ["health", "point_of_interest", "establishment"]}, "ChIJXewFJ8oadkgRV8qxUhN3Gfs": {"geometry": {"location": {"lat": 51.5200146, "lng": -0.1625061}, "viewport": {"northeast": {"lat": 51.5213136802915, "lng": -0.161132919708498}, "southwest": {"lat": 51.5186157197085, "lng": -0.163830880291502}}}, "name": "MyWorkSearch", "place_id": "ChIJXewFJ8oadkgRV8qxUhN3Gfs", "types": ["point_of_interest", "establishment"], "rating": 5, "user_ratings_total": 1}, "ChIJRYb9JsoadkgRMs_dWTIBrH0": {"geometry": {"location": {"lat": 51.52000839999999, "lng": -0.1624847}, "viewport": {"northeast": {"lat": 51.5213121302915, "lng": -0.161113819708498}, "southwest": {"lat": 51.5186141697085, "lng": -0.163811780291502}}}, "name": "I Do Music Ltd", "place_id": "ChIJRYb9JsoadkgRMs_dWTIBrH0", "types": ["point_of_interest", "store", "establishment"]}, "ChIJXewFJ8oadkgRzdRfA6Uis2E": {"geometry": {"location": {"lat": 51.5199983, "lng": -0.1624938}, "viewport": {"northeast": {"lat": 51.52130588029149, "lng": -0.161124769708498}, "southwest": {"lat": 51.51860791970849, "lng": -0.163822730291502}}}, "name": "Crown Preservation Damp Proofing", "place_id": "ChIJXewFJ8oadkgRzdRfA6Uis2E", "types": ["general_contractor", "point_of_interest", "establishment"], "rating": 4.4, "user_ratings_total": 51}, "ChIJdU7-JsoadkgRBPJdKr_gnHQ": {"geometry": {"location": {"lat": 51.52000839999999, "lng": -0.1624847}, "viewport": {"northeast": {"lat": 51.5213121302915, "lng": -0.161113819708498}, "southwest": {"lat": 51.5186141697085, "lng": -0.163811780291502}}}, "name": "Prestel and Partner", "place_id": "ChIJdU7-JsoadkgRBPJdKr_gnHQ", "types": ["point_of_interest", "establishment"]}, "ChIJXewFJ8oadkgRyWZ2RLHg8E0": {"geometry": {"location": {"lat": 51.52002189999999, "lng": -0.1624908}, "viewport": {"northeast": {"lat": 51.52131893029149, "lng": -0.161116619708498}, "southwest": {"lat": 51.51862096970849, "lng": -0.163814580291502}}}, "name": "GFA", "place_id": "ChIJXewFJ8oadkgRyWZ2RLHg8E0", "types": ["general_contractor", "point_of_interest", "establishment"], "rating": 5, "user_ratings_total": 3}, "ChIJXewFJ8oadkgRJonYTZ96NTY": {"geometry": {"location": {"lat": 51.5200146, "lng": -0.1625061}, "viewport": {"northeast": {"lat": 51.5213136802915, "lng": -0.161132919708498}, "southwest": {"lat": 51.5186157197085, "lng": -0.163830880291502}}}, "name": "R.O. Design and Construction ltd", "place_id": "ChIJXewFJ8oadkgRJonYTZ96NTY", "types": ["general_contractor", "point_of_interest", "establishment"]}, "ChIJXewFJ8oadkgRsxwdquNNIqY": {"geometry": {"location": {"lat": 51.52000839999999, "lng": -0.1624847}, "viewport": {"northeast": {"lat": 51.5213121302915, "lng": -0.161113819708498}, "southwest": {"lat": 51.5186141697085, "lng": -0.163811780291502}}}, "name": "Epsilica Consulting", "place_id": "ChIJXewFJ8oadkgRsxwdquNNIqY", "types": ["point_of_interest", "establishment"]}, "ChIJ955xOsoadkgRDcHFS75vCLE": {"geometry": {"location": {"lat": 51.51930529425829, "lng": -0.1621952390079895}, "viewport": {"northeast": {"lat": 51.5206531802915, "lng": -0.160845719708498}, "southwest": {"lat": 51.5179552197085, "lng": -0.163543680291502}}}, "name": "94-81 Crawford St", "place_id": "ChIJ955xOsoadkgRDcHFS75vCLE", "types": ["route"]}, "ChIJR-DjzMsadkgR1WrLAMCXG3Y": {"geometry": {"location": {"lat": 51.519344, "lng": -0.1614576}, "viewport": {"northeast": {"lat": 51.5207388802915, "lng": -0.160130869708498}, "southwest": {"lat": 51.5180409197085, "lng": -0.162828830291502}}}, "name": "The Duke Of Wellington", "place_id": "ChIJR-DjzMsadkgR1WrLAMCXG3Y", "types": ["bar", "restaurant", "food", "point_of_interest", "establishment"], "rating": 4.4, "user_ratings_total": 72}, "ChIJMWhrzyEbdkgRzhx1MvnRROA": {"geometry": {"location": {"lat": 51.51918389999999, "lng": -0.1621935}, "viewport": {"northeast": {"lat": 51.52058838029151, "lng": -0.160872269708498}, "southwest": {"lat": 51.51789041970851, "lng": -0.163570230291502}}}, "name": "Express Rent a Car", "place_id": "ChIJMWhrzyEbdkgRzhx1MvnRROA", "types": ["car_rental", "point_of_interest", "establishment"], "rating": 4.6, "user_ratings_total": 43}, "ChIJTTTjGcoadkgRuXAftDFTUTw": {"geometry": {"location": {"lat": 51.5192269, "lng": -0.1621441}, "viewport": {"northeast": {"lat": 51.5206130802915, "lng": -0.160838919708498}, "southwest": {"lat": 51.5179151197085, "lng": -0.163536880291502}}}, "name": "Mayfair Prestige", "place_id": "ChIJTTTjGcoadkgRuXAftDFTUTw", "types": ["car_dealer", "point_of_interest", "store", "establishment"], "rating": 4.6, "user_ratings_total": 75}, "ChIJlYHgPsoadkgR_5nkRjnkASo": {"geometry": {"location": {"lat": 51.5190452, "lng": -0.1621349}, "viewport": {"northeast": {"lat": 51.5205180802915, "lng": -0.160847819708498}, "southwest": {"lat": 51.5178201197085, "lng": -0.163545780291502}}}, "name": "IT-Logik Ltd - IT Support, Hosted Desktops, Cloud Services", "place_id": "ChIJlYHgPsoadkgR_5nkRjnkASo", "types": ["point_of_interest", "establishment"], "rating": 5, "user_ratings_total": 13}, "ChIJk-JQNcoadkgRd3yc647G60E": {"geometry": {"location": {"lat": 51.51884940000001, "lng": -0.1616388}, "viewport": {"northeast": {"lat": 51.5202143302915, "lng": -0.160200369708498}, "southwest": {"lat": 51.5175163697085, "lng": -0.162898330291502}}}, "name": "EndZone Image", "place_id": "ChIJk-JQNcoadkgRd3yc647G60E", "types": ["point_of_interest", "establishment"]}, "ChIJCYYzs8sadkgRa8Q9KzhqEs4": {"geometry": {"location": {"lat": 51.51898, "lng": -0.1616803}, "viewport": {"northeast": {"lat": 51.5201276302915, "lng": -0.160245119708498}, "southwest": {"lat": 51.5174296697085, "lng": -0.162943080291502}}}, "name": "The Wher Clinic", "place_id": "ChIJCYYzs8sadkgRa8Q9KzhqEs4", "types": ["hospital", "health", "point_of_interest", "establishment"]}, "ChIJ5do4zssadkgRwq939Ll5BZI": {"geometry": {"location": {"lat": 51.51922880000001, "lng": -0.1619744}, "viewport": {"northeast": {"lat": 51.52063208029151, "lng": -0.160651719708498}, "southwest": {"lat": 51.51793411970851, "lng": -0.163349680291502}}}, "name": "Ginger & Juniper", "place_id": "ChIJ5do4zssadkgRwq939Ll5BZI", "types": ["health", "point_of_interest", "establishment"]}, "ChIJz7S-zMsadkgR-EB9MmuCRn4": {"geometry": {"location": {"lat": 51.51922860000001, "lng": -0.1614641}, "viewport": {"northeast": {"lat": 51.5205654802915, "lng": -0.160187469708498}, "southwest": {"lat": 51.5178675197085, "lng": -0.162885430291502}}}, "name": "Discount Offers UK", "place_id": "ChIJz7S-zMsadkgR-EB9MmuCRn4", "types": ["point_of_interest", "establishment"], "rating": 3, "user_ratings_total": 1}, "ChIJJ0cfLsoadkgR5-V3ZHCOnBI": {"geometry": {"location": {"lat": 51.5192556, "lng": -0.1619003}, "viewport": {"northeast": {"lat": 51.5206045802915, "lng": -0.160551319708498}, "southwest": {"lat": 51.5179066197085, "lng": -0.1632492802915021}}}, "name": "MJM & Co", "place_id": "ChIJJ0cfLsoadkgR5-V3ZHCOnBI", "types": ["hair_care", "point_of_interest", "establishment"], "rating": 4.6, "user_ratings_total": 5}, "ChIJA1VazssadkgROOjm44JtKhg": {"geometry": {"location": {"lat": 51.5192722, "lng": -0.1618495}, "viewport": {"northeast": {"lat": 51.5206663302915, "lng": -0.160522369708498}, "southwest": {"lat": 51.51796836970851, "lng": -0.163220330291502}}}, "name": "Esteem Hair Loss Consultancy", "place_id": "ChIJA1VazssadkgROOjm44JtKhg", "types": ["hair_care", "point_of_interest", "store", "establishment"], "rating": 5, "user_ratings_total": 6}, "ChIJzTbZSsoadkgRfKJJ-gECZxY": {"geometry": {"location": {"lat": 51.51868589999999, "lng": -0.1617239}, "viewport": {"northeast": {"lat": 51.5199711802915, "lng": -0.160323519708498}, "southwest": {"lat": 51.5172732197085, "lng": -0.163021480291502}}}, "name": "Bryanston Development Company Ltd", "place_id": "ChIJzTbZSsoadkgRfKJJ-gECZxY", "types": ["general_contractor", "point_of_interest", "establishment"]}, "ChIJE-9LOMoadkgRtQXN4UcMIBk": {"geometry": {"location": {"lat": 51.5189847, "lng": -0.1624289}, "viewport": {"northeast": {"lat": 51.52045923029149, "lng": -0.161044069708498}, "southwest": {"lat": 51.51776126970849, "lng": -0.163742030291502}}}, "name": "Ranger Services Ltd", "place_id": "ChIJE-9LOMoadkgRtQXN4UcMIBk", "types": ["point_of_interest", "establishment"]}, "ChIJE-9LOMoadkgRi1TyDvYmFag": {"geometry": {"location": {"lat": 51.5189847, "lng": -0.1624289}, "viewport": {"northeast": {"lat": 51.52045923029149, "lng": -0.161044069708498}, "southwest": {"lat": 51.51776126970849, "lng": -0.163742030291502}}}, "name": "Green Harmony Ltd", "place_id": "ChIJE-9LOMoadkgRi1TyDvYmFag", "types": ["point_of_interest", "establishment"]}, "ChIJE-9LOMoadkgRyyW4Aw3c48U": {"geometry": {"location": {"lat": 51.5189847, "lng": -0.1624289}, "viewport": {"northeast": {"lat": 51.52045923029149, "lng": -0.161044069708498}, "southwest": {"lat": 51.51776126970849, "lng": -0.163742030291502}}}, "name": "Inspired Working Limited", "place_id": "ChIJE-9LOMoadkgRyyW4Aw3c48U", "types": ["point_of_interest", "establishment"]}, "ChIJE-9LOMoadkgRCFUoK-nP-ts": {"geometry": {"location": {"lat": 51.5189847, "lng": -0.162429}, "viewport": {"northeast": {"lat": 51.52045923029149, "lng": -0.161044069708498}, "southwest": {"lat": 51.51776126970849, "lng": -0.163742030291502}}}, "name": "OpenWonga", "place_id": "ChIJE-9LOMoadkgRCFUoK-nP-ts", "types": ["point_of_interest", "establishment"]}, "ChIJBZY6f-MadkgR6qVvkmu2x_w": {"geometry": {"location": {"lat": 51.518985, "lng": -0.162429}, "viewport": {"northeast": {"lat": 51.52045938029151, "lng": -0.161044019708498}, "southwest": {"lat": 51.51776141970851, "lng": -0.163741980291502}}}, "name": "CRUDOLIFE", "place_id": "ChIJBZY6f-MadkgR6qVvkmu2x_w", "types": ["health", "point_of_interest", "establishment"]}, "ChIJt0aSMMoadkgR8R1MGOGtT-Q": {"geometry": {"location": {"lat": 51.5191773, "lng": -0.1623826}, "viewport": {"northeast": {"lat": 51.52056813029149, "lng": -0.160979069708498}, "southwest": {"lat": 51.51787016970849, "lng": -0.163677030291502}}}, "name": "Cameron Baum Davis", "place_id": "ChIJt0aSMMoadkgR8R1MGOGtT-Q", "types": ["accounting", "finance", "point_of_interest", "establishment"], "rating": 5, "user_ratings_total": 1}, "ChIJiWiaMMoadkgRr5h0Ege9h8Q": {"geometry": {"location": {"lat": 51.5192769, "lng": -0.1622785}, "viewport": {"northeast": {"lat": 51.5206069802915, "lng": -0.160920119708498}, "southwest": {"lat": 51.5179090197085, "lng": -0.163618080291502}}}, "name": "A A P M Investigations", "place_id": "ChIJiWiaMMoadkgRr5h0Ege9h8Q", "types": ["point_of_interest", "establishment"]}, "ChIJ40ajmqgEdkgRgYF2I5lzkHc": {"geometry": {"location": {"lat": 51.5190931, "lng": -0.1624636}, "viewport": {"northeast": {"lat": 51.5205151802915, "lng": -0.161035169708498}, "southwest": {"lat": 51.5178172197085, "lng": -0.163733130291502}}}, "name": "Wonga.com", "place_id": "ChIJ40ajmqgEdkgRgYF2I5lzkHc", "types": ["finance", "point_of_interest", "establishment"]}, "ChIJmb5WSMoadkgRXvz1z65sjkQ": {"geometry": {"location": {"lat": 51.5191641, "lng": -0.1625139}, "viewport": {"northeast": {"lat": 51.52054938029151, "lng": -0.161041919708498}, "southwest": {"lat": 51.51785141970851, "lng": -0.163739880291502}}}, "name": "Horizon London", "place_id": "ChIJmb5WSMoadkgRXvz1z65sjkQ", "types": ["real_estate_agency", "point_of_interest", "establishment"], "rating": 5, "user_ratings_total": 1}, "ChIJxUIRMMoadkgRbUdd034EV1Q": {"geometry": {"location": {"lat": 51.519394, "lng": -0.1622209}, "viewport": {"northeast": {"lat": 51.52070028029149, "lng": -0.160850569708498}, "southwest": {"lat": 51.51800231970849, "lng": -0.163548530291502}}}, "name": "Ian Kitson", "place_id": "ChIJxUIRMMoadkgRbUdd034EV1Q", "types": ["general_contractor", "point_of_interest", "establishment"]}, "ChIJNRYgMsoadkgRS3C7JejEQSE": {"geometry": {"location": {"lat": 51.5193997, "lng": -0.1622297}, "viewport": {"northeast": {"lat": 51.5207025802915, "lng": -0.160857719708498}, "southwest": {"lat": 51.5180046197085, "lng": -0.163555680291502}}}, "name": "Crystal Palace Beauty and Nails", "place_id": "ChIJNRYgMsoadkgRS3C7JejEQSE", "types": ["beauty_salon", "point_of_interest", "establishment"], "rating": 3.8, "user_ratings_total": 202}, "ChIJlYHgPsoadkgRGIAW_W9yTUc": {"geometry": {"location": {"lat": 51.519126, "lng": -0.162573}, "viewport": {"northeast": {"lat": 51.5205015302915, "lng": -0.161371169708498}, "southwest": {"lat": 51.51780356970851, "lng": -0.164069130291502}}}, "name": "Desirable Homes", "place_id": "ChIJlYHgPsoadkgRGIAW_W9yTUc", "types": ["real_estate_agency", "point_of_interest", "establishment"]}, "ChIJq6oGMsoadkgRlkIvHAJhJJc": {"geometry": {"location": {"lat": 51.5194753, "lng": -0.1619298}, "viewport": {"northeast": {"lat": 51.5207694302915, "lng": -0.160554219708498}, "southwest": {"lat": 51.5180714697085, "lng": -0.163252180291502}}}, "name": "Harrison & Partners", "place_id": "ChIJq6oGMsoadkgRlkIvHAJhJJc", "types": ["real_estate_agency", "point_of_interest", "establishment"]}, "ChIJw_0BMsoadkgRlOdMpfDWM1Y": {"geometry": {"location": {"lat": 51.5194767, "lng": -0.1619524}, "viewport": {"northeast": {"lat": 51.5207682302915, "lng": -0.160575569708498}, "southwest": {"lat": 51.5180702697085, "lng": -0.163273530291502}}}, "name": "UES Education", "place_id": "ChIJw_0BMsoadkgRlOdMpfDWM1Y", "types": ["point_of_interest", "establishment"], "rating": 5, "user_ratings_total": 21}, "ChIJSQiMOsoadkgR__146f06zkc": {"geometry": {"location": {"lat": 51.5193518, "lng": -0.1623924}, "viewport": {"northeast": {"lat": 51.5206617802915, "lng": -0.161024169708498}, "southwest": {"lat": 51.5179638197085, "lng": -0.1637221302915021}}}, "name": "Foremost 4 Media", "place_id": "ChIJSQiMOsoadkgR__146f06zkc", "types": ["point_of_interest", "establishment"]}, "ChIJ55vUzcsadkgR41b4DcQ1iUM": {"geometry": {"location": {"lat": 51.51933899999999, "lng": -0.1612375}, "viewport": {"northeast": {"lat": 51.52075508029149, "lng": -0.159921019708498}, "southwest": {"lat": 51.5180571197085, "lng": -0.162618980291502}}}, "name": "Dr M Baig - Crawford Street Surgery", "place_id": "ChIJ55vUzcsadkgR41b4DcQ1iUM", "types": ["doctor", "health", "point_of_interest", "establishment"]}, "ChIJ6ZvUzcsadkgR2wc-81jR9mM": {"geometry": {"location": {"lat": 51.5193391, "lng": -0.1612375}, "viewport": {"northeast": {"lat": 51.52075548029149, "lng": -0.159921569708498}, "southwest": {"lat": 51.5180575197085, "lng": -0.162619530291502}}}, "name": "Dr A Isaac - Crawford Street Surgery", "place_id": "ChIJ6ZvUzcsadkgR2wc-81jR9mM", "types": ["doctor", "health", "point_of_interest", "establishment"]}, "ChIJL3-aN8oadkgR38Ieee_-LWo": {"geometry": {"location": {"lat": 51.51910579999999, "lng": -0.1626528}, "viewport": {"northeast": {"lat": 51.5204937802915, "lng": -0.161411069708498}, "southwest": {"lat": 51.5177958197085, "lng": -0.164109030291502}}}, "name": "vDeskOnline", "place_id": "ChIJL3-aN8oadkgR38Ieee_-LWo", "types": ["point_of_interest", "establishment"]}, "ChIJv4HgPsoadkgRSgNlaJ7uHJ8": {"geometry": {"location": {"lat": 51.519188, "lng": -0.1623276}, "viewport": {"northeast": {"lat": 51.5205886802915, "lng": -0.160930669708498}, "southwest": {"lat": 51.5178907197085, "lng": -0.163628630291502}}}, "name": "Cameron Baum Hollander West End Accountants", "place_id": "ChIJv4HgPsoadkgRSgNlaJ7uHJ8", "types": ["accounting", "finance", "point_of_interest", "establishment"], "rating": 4.3, "user_ratings_total": 4}, "ChIJw_0BMsoadkgRMLt8eBd77Ao": {"geometry": {"location": {"lat": 51.5194454, "lng": -0.1618854}, "viewport": {"northeast": {"lat": 51.5207600802915, "lng": -0.160511619708498}, "southwest": {"lat": 51.5180621197085, "lng": -0.163209580291502}}}, "name": "Moss Beachley Mullem & Coleman", "place_id": "ChIJw_0BMsoadkgRMLt8eBd77Ao", "types": ["lawyer", "point_of_interest", "establishment"], "rating": 3, "user_ratings_total": 12}, "ChIJWYdSxEAbdkgRBLfHuqNlVt0": {"geometry": {"location": {"lat": 51.5189852, "lng": -0.1617491}, "viewport": {"northeast": {"lat": 51.5203586302915, "lng": -0.160290569708498}, "southwest": {"lat": 51.5176606697085, "lng": -0.162988530291502}}}, "name": "Sir Fabian Ware Blue Plaque", "place_id": "ChIJWYdSxEAbdkgRBLfHuqNlVt0", "types": ["point_of_interest", "establishment"], "rating": 5, "user_ratings_total": 1}, "ChIJBXHuz8sadkgRIvb0g7adECs": {"geometry": {"location": {"lat": 51.51900089999999, "lng": -0.1616901}, "viewport": {"northeast": {"lat": 51.52032608029149, "lng": -0.160330269708498}, "southwest": {"lat": 51.5176281197085, "lng": -0.163028230291502}}}, "name": "Rapace", "place_id": "ChIJBXHuz8sadkgRIvb0g7adECs", "types": ["point_of_interest", "establishment"]}, "ChIJn75WSMoadkgRl9OedZXGnqI": {"geometry": {"location": {"lat": 51.5190452, "lng": -0.1621349}, "viewport": {"northeast": {"lat": 51.5205180802915, "lng": -0.160847819708498}, "southwest": {"lat": 51.5178201197085, "lng": -0.163545780291502}}}, "name": "ADS Property Management", "place_id": "ChIJn75WSMoadkgRl9OedZXGnqI", "types": ["point_of_interest", "establishment"], "rating": 4.5, "user_ratings_total": 97}, "ChIJn75WSMoadkgRHfeFRVbbSlA": {"geometry": {"location": {"lat": 51.5190452, "lng": -0.1621349}, "viewport": {"northeast": {"lat": 51.5205180802915, "lng": -0.160847819708498}, "southwest": {"lat": 51.5178201197085, "lng": -0.163545780291502}}}, "name": "Rocam Ltd", "place_id": "ChIJn75WSMoadkgRHfeFRVbbSlA", "types": ["point_of_interest", "establishment"]}, "ChIJZ6S9huobdkgRRhA1hja99DQ": {"geometry": {"location": {"lat": 51.518757, "lng": -0.1618747}, "viewport": {"northeast": {"lat": 51.52002478029151, "lng": -0.160963669708498}, "southwest": {"lat": 51.51732681970851, "lng": -0.163661630291502}}}, "name": "Myrtle & Soap", "place_id": "ChIJZ6S9huobdkgRRhA1hja99DQ", "types": ["point_of_interest", "store", "establishment"], "rating": 4.2, "user_ratings_total": 5}, "ChIJVVWaM8oadkgRCs9neKmqbAQ": {"geometry": {"location": {"lat": 51.51921879999999, "lng": -0.1618019}, "viewport": {"northeast": {"lat": 51.52058233029149, "lng": -0.1603657197084979}, "southwest": {"lat": 51.51788436970849, "lng": -0.163063680291502}}}, "name": "Rossmore Associates", "place_id": "ChIJVVWaM8oadkgRCs9neKmqbAQ", "types": ["point_of_interest", "establishment"]}, "ChIJ-f79RhcQdkgR6tvyS_YjHaQ": {"geometry": {"location": {"lat": 51.51921879999999, "lng": -0.1618019}, "viewport": {"northeast": {"lat": 51.52058233029149, "lng": -0.1603657197084979}, "southwest": {"lat": 51.51788436970849, "lng": -0.163063680291502}}}, "name": "Gupta Group", "place_id": "ChIJ-f79RhcQdkgR6tvyS_YjHaQ", "types": ["finance", "point_of_interest", "establishment"]}, "ChIJzR5FM8oadkgRd35ad3dMXRA": {"geometry": {"location": {"lat": 51.5192147, "lng": -0.1616395}, "viewport": {"northeast": {"lat": 51.5205596302915, "lng": -0.160314919708498}, "southwest": {"lat": 51.5178616697085, "lng": -0.163012880291502}}}, "name": "AnitaLand Ltd", "place_id": "ChIJzR5FM8oadkgRd35ad3dMXRA", "types": ["point_of_interest", "establishment"], "rating": 5, "user_ratings_total": 1}, "ChIJxcU-McoadkgRTw_L82sjhZQ": {"geometry": {"location": {"lat": 51.5192515, "lng": -0.1619729}, "viewport": {"northeast": {"lat": 51.52064448029151, "lng": -0.160645269708498}, "southwest": {"lat": 51.51794651970851, "lng": -0.1633432302915021}}}, "name": "Central Wash - Launderette", "place_id": "ChIJxcU-McoadkgRTw_L82sjhZQ", "types": ["laundry", "point_of_interest", "establishment"], "rating": 4.4, "user_ratings_total": 70}, "ChIJIzBaMcoadkgR1nNOKXB8WrQ": {"geometry": {"location": {"lat": 51.5192525, "lng": -0.161976}, "viewport": {"northeast": {"lat": 51.5206447802915, "lng": -0.160648019708498}, "southwest": {"lat": 51.51794681970851, "lng": -0.163345980291502}}}, "name": "Crawford Tailors", "place_id": "ChIJIzBaMcoadkgR1nNOKXB8WrQ", "types": ["point_of_interest", "establishment"], "rating": 4.7, "user_ratings_total": 60}, "ChIJPaYs68sadkgRM7OPM42ov68": {"geometry": {"location": {"lat": 51.519267, "lng": -0.1618107}, "viewport": {"northeast": {"lat": 51.5206296302915, "lng": -0.160380119708498}, "southwest": {"lat": 51.5179316697085, "lng": -0.163078080291502}}}, "name": "Royal Holloway and bedford new colledge", "place_id": "ChIJPaYs68sadkgRM7OPM42ov68", "types": ["school", "point_of_interest", "establishment"]}, "ChIJoaPtnZYbdkgRsd9fANzX3GM": {"geometry": {"location": {"lat": 51.5190655, "lng": -0.1612837}, "viewport": {"northeast": {"lat": 51.5203885302915, "lng": -0.160051969708498}, "southwest": {"lat": 51.5176905697085, "lng": -0.162749930291502}}}, "name": "\u30e1\u30ad\u30b7\u30b3\u4eba And Mexicana fusion restaurant", "place_id": "ChIJoaPtnZYbdkgRsd9fANzX3GM", "types": ["restaurant", "food", "point_of_interest", "establishment"], "rating": 5, "user_ratings_total": 1}, "ChIJt_ZoUMkadkgRocGNfv6Lhc8": {"geometry": {"location": {"lat": 51.5191443, "lng": -0.1623655}, "viewport": {"northeast": {"lat": 51.5205516802915, "lng": -0.160978769708498}, "southwest": {"lat": 51.5178537197085, "lng": -0.163676730291502}}}, "name": "Hogan Lisle", "place_id": "ChIJt_ZoUMkadkgRocGNfv6Lhc8", "types": ["lawyer", "point_of_interest", "establishment"], "rating": 3.8, "user_ratings_total": 5}, "ChIJE-9LOMoadkgRD3LerBcwbS0": {"geometry": {"location": {"lat": 51.5189847, "lng": -0.1624289}, "viewport": {"northeast": {"lat": 51.52045923029149, "lng": -0.161044069708498}, "southwest": {"lat": 51.51776126970849, "lng": -0.163742030291502}}}, "name": "XEXEC LIMITED", "place_id": "ChIJE-9LOMoadkgRD3LerBcwbS0", "types": ["point_of_interest", "establishment"]}, "ChIJE-9LOMoadkgRCAdsTdlOiXk": {"geometry": {"location": {"lat": 51.5189847, "lng": -0.1624289}, "viewport": {"northeast": {"lat": 51.52045923029149, "lng": -0.161044069708498}, "southwest": {"lat": 51.51776126970849, "lng": -0.163742030291502}}}, "name": "AnyPurpose.co.uk", "place_id": "ChIJE-9LOMoadkgRCAdsTdlOiXk", "types": ["point_of_interest", "establishment"]}, "ChIJE-9LOMoadkgRsXXnbWUBx1E": {"geometry": {"location": {"lat": 51.5189847, "lng": -0.1624289}, "viewport": {"northeast": {"lat": 51.52045923029149, "lng": -0.161044069708498}, "southwest": {"lat": 51.51776126970849, "lng": -0.163742030291502}}}, "name": "Waterless Solutions Limited", "place_id": "ChIJE-9LOMoadkgRsXXnbWUBx1E", "types": ["point_of_interest", "establishment"]}, "ChIJE-9LOMoadkgRVAR3uDwykVs": {"geometry": {"location": {"lat": 51.5189847, "lng": -0.1624289}, "viewport": {"northeast": {"lat": 51.52045923029149, "lng": -0.161044069708498}, "southwest": {"lat": 51.51776126970849, "lng": -0.163742030291502}}}, "name": "Stonehill Partners", "place_id": "ChIJE-9LOMoadkgRVAR3uDwykVs", "types": ["finance", "point_of_interest", "establishment"]}, "ChIJDe9LOMoadkgRmgK8phmBiA8": {"geometry": {"location": {"lat": 51.5189847, "lng": -0.162429}, "viewport": {"northeast": {"lat": 51.52045923029149, "lng": -0.161044069708498}, "southwest": {"lat": 51.51776126970849, "lng": -0.163742030291502}}}, "name": "Chevallier Developments Limited", "place_id": "ChIJDe9LOMoadkgRmgK8phmBiA8", "types": ["point_of_interest", "establishment"]}, "ChIJDe9LOMoadkgRkJNQVW2xfVQ": {"geometry": {"location": {"lat": 51.5189847, "lng": -0.162429}, "viewport": {"northeast": {"lat": 51.52045923029149, "lng": -0.161044069708498}, "southwest": {"lat": 51.51776126970849, "lng": -0.163742030291502}}}, "name": "Hattersley Consulting Group", "place_id": "ChIJDe9LOMoadkgRkJNQVW2xfVQ", "types": ["point_of_interest", "establishment"]}, "ChIJQdWhLn0bdkgRYkfI2i6oDmQ": {"geometry": {"location": {"lat": 51.5189847, "lng": -0.162429}, "viewport": {"northeast": {"lat": 51.52045923029149, "lng": -0.161044069708498}, "southwest": {"lat": 51.51776126970849, "lng": -0.163742030291502}}}, "name": "Lord&Berry Ltd", "place_id": "ChIJQdWhLn0bdkgRYkfI2i6oDmQ", "types": ["point_of_interest", "establishment"]}, "ChIJDe9LOMoadkgRdBqs6WFikRg": {"geometry": {"location": {"lat": 51.5189847, "lng": -0.162429}, "viewport": {"northeast": {"lat": 51.52045923029149, "lng": -0.161044069708498}, "southwest": {"lat": 51.51776126970849, "lng": -0.163742030291502}}}, "name": "Talent 4 Performance", "place_id": "ChIJDe9LOMoadkgRdBqs6WFikRg", "types": ["point_of_interest", "establishment"]}, "ChIJAzkhTPIbdkgRbbbspF9yE_w": {"geometry": {"location": {"lat": 51.5189847, "lng": -0.162429}, "viewport": {"northeast": {"lat": 51.52045923029149, "lng": -0.161044069708498}, "southwest": {"lat": 51.51776126970849, "lng": -0.163742030291502}}}, "name": "Swapforex Limited", "place_id": "ChIJAzkhTPIbdkgRbbbspF9yE_w", "types": ["finance", "point_of_interest", "establishment"]}, "ChIJB5KjCfSZ2EcRfGSjffqllWM": {"geometry": {"location": {"lat": 51.5189847, "lng": -0.162429}, "viewport": {"northeast": {"lat": 51.52045923029149, "lng": -0.161044069708498}, "southwest": {"lat": 51.51776126970849, "lng": -0.163742030291502}}}, "name": "Kristina Kempton", "place_id": "ChIJB5KjCfSZ2EcRfGSjffqllWM", "types": ["point_of_interest", "establishment"], "rating": 5, "user_ratings_total": 12}, "ChIJlYHgPsoadkgRazz09AtVdLQ": {"geometry": {"location": {"lat": 51.5189847, "lng": -0.162429}, "viewport": {"northeast": {"lat": 51.52045923029149, "lng": -0.161044069708498}, "southwest": {"lat": 51.51776126970849, "lng": -0.163742030291502}}}, "name": "Highview Parking", "place_id": "ChIJlYHgPsoadkgRazz09AtVdLQ", "types": ["parking", "point_of_interest", "establishment"], "rating": 1.1, "user_ratings_total": 138}, "ChIJMVH1SMoadkgRgxOvtd3SOzA": {"geometry": {"location": {"lat": 51.5186726, "lng": -0.1622221}, "viewport": {"northeast": {"lat": 51.51997368029149, "lng": -0.161133119708498}, "southwest": {"lat": 51.5172757197085, "lng": -0.163831080291502}}}, "name": "Francesco Sansostri Architects Ltd", "place_id": "ChIJMVH1SMoadkgRgxOvtd3SOzA", "types": ["point_of_interest", "establishment"]}, "ChIJ0b3rMsoadkgRsXvR0BRBqmw": {"geometry": {"location": {"lat": 51.5194, "lng": -0.1616931}, "viewport": {"northeast": {"lat": 51.5207792802915, "lng": -0.160357419708498}, "southwest": {"lat": 51.5180813197085, "lng": -0.163055380291502}}}, "name": "Yoga Health Studio", "place_id": "ChIJ0b3rMsoadkgRsXvR0BRBqmw", "types": ["gym", "health", "point_of_interest", "establishment"]}, "ChIJ_6NxOsoadkgRTw6kRy9RuvI": {"geometry": {"location": {"lat": 51.51927569999999, "lng": -0.1623555}, "viewport": {"northeast": {"lat": 51.52065348029151, "lng": -0.161020919708498}, "southwest": {"lat": 51.51795551970851, "lng": -0.163718880291502}}}, "name": "Foremost Leisure (Holdings) Ltd", "place_id": "ChIJ_6NxOsoadkgRTw6kRy9RuvI", "types": ["finance", "point_of_interest", "establishment"]}, "ChIJr6I7-MoadkgRfNGqtrFOieU": {"geometry": {"location": {"lat": 51.51742772732614, "lng": -0.1622312974931064}, "viewport": {"northeast": {"lat": 51.51877643029149, "lng": -0.160883819708498}, "southwest": {"lat": 51.51607846970849, "lng": -0.163581780291502}}}, "name": "83-109 Seymour Pl", "place_id": "ChIJr6I7-MoadkgRfNGqtrFOieU", "types": ["route"]}, "ChIJtQQoWsoadkgRE0roqrLywCE": {"geometry": {"location": {"lat": 51.5176514, "lng": -0.1613883}, "viewport": {"northeast": {"lat": 51.51901463029149, "lng": -0.159958019708498}, "southwest": {"lat": 51.5163166697085, "lng": -0.162655980291502}}}, "name": "The Transformers Bootcamp", "place_id": "ChIJtQQoWsoadkgRE0roqrLywCE", "types": ["gym", "health", "point_of_interest", "establishment"]}, "ChIJTTk7-MoadkgRnSaOfex8VI8": {"geometry": {"location": {"lat": 51.51741519999999, "lng": -0.1622584}, "viewport": {"northeast": {"lat": 51.5187607302915, "lng": -0.160929419708498}, "southwest": {"lat": 51.5160627697085, "lng": -0.163627380291502}}}, "name": "The Musketeers Club", "place_id": "ChIJTTk7-MoadkgRnSaOfex8VI8", "types": ["point_of_interest", "establishment"], "rating": 1, "user_ratings_total": 1}, "ChIJBSBkTcoadkgRCMScemtgnRE": {"geometry": {"location": {"lat": 51.5182695, "lng": -0.1617971}, "viewport": {"northeast": {"lat": 51.5196431802915, "lng": -0.160307169708498}, "southwest": {"lat": 51.5169452197085, "lng": -0.163005130291502}}}, "name": "Nataliya", "place_id": "ChIJBSBkTcoadkgRCMScemtgnRE", "types": ["point_of_interest", "establishment"]}, "ChIJjQQJ404bdkgRLozZXM4sdwo": {"geometry": {"location": {"lat": 51.5177086, "lng": -0.162046}, "viewport": {"northeast": {"lat": 51.5190583802915, "lng": -0.160692169708498}, "southwest": {"lat": 51.5163604197085, "lng": -0.163390130291502}}}, "name": "Dolce Vita London", "place_id": "ChIJjQQJ404bdkgRLozZXM4sdwo", "types": ["point_of_interest", "establishment"]}, "ChIJZaeIrMsadkgRM9fUfZBr_ak": {"geometry": {"location": {"lat": 51.51789499999999, "lng": -0.161411}, "viewport": {"northeast": {"lat": 51.5192490302915, "lng": -0.160032719708498}, "southwest": {"lat": 51.5165510697085, "lng": -0.162730680291502}}}, "name": "Source London Charging Station", "place_id": "ChIJZaeIrMsadkgRM9fUfZBr_ak", "types": ["point_of_interest", "establishment"]}, "ChIJV0SWbxcbdkgRqAq9biEcOE0": {"geometry": {"location": {"lat": 51.51759999999999, "lng": -0.16215}, "viewport": {"northeast": {"lat": 51.5189363302915, "lng": -0.160874919708498}, "southwest": {"lat": 51.5162383697085, "lng": -0.163572880291502}}}, "name": "UPS Access Point", "place_id": "ChIJV0SWbxcbdkgRqAq9biEcOE0", "types": ["point_of_interest", "establishment"], "rating": 3.7, "user_ratings_total": 3}, "ChIJRT-4V8oadkgRhVfZLsQiECU": {"geometry": {"location": {"lat": 51.5176125, "lng": -0.1621774}, "viewport": {"northeast": {"lat": 51.5189505802915, "lng": -0.160892169708498}, "southwest": {"lat": 51.5162526197085, "lng": -0.163590130291502}}}, "name": "Mertoun Terrace", "place_id": "ChIJRT-4V8oadkgRhVfZLsQiECU", "types": ["point_of_interest", "establishment"]}, "ChIJ6YYBM-8bdkgRJeF7J-kdv6c": {"geometry": {"location": {"lat": 51.5177855, "lng": -0.1623869}, "viewport": {"northeast": {"lat": 51.5191251302915, "lng": -0.161086269708498}, "southwest": {"lat": 51.5164271697085, "lng": -0.163784230291502}}}, "name": "G&P Doors Co", "place_id": "ChIJ6YYBM-8bdkgRJeF7J-kdv6c", "types": ["point_of_interest", "establishment"]}, "ChIJ3_nz0F4bdkgRGuW0Pzlgvbo": {"geometry": {"location": {"lat": 51.5177855, "lng": -0.1623869}, "viewport": {"northeast": {"lat": 51.5191251302915, "lng": -0.161086269708498}, "southwest": {"lat": 51.5164271697085, "lng": -0.163784230291502}}}, "name": "Extra Rooters & Heating", "place_id": "ChIJ3_nz0F4bdkgRGuW0Pzlgvbo", "types": ["plumber", "general_contractor", "point_of_interest", "establishment"]}, "ChIJN2uTwg4bdkgRzmx2m9lZ93c": {"geometry": {"location": {"lat": 51.5177855, "lng": -0.1623869}, "viewport": {"northeast": {"lat": 51.5191251302915, "lng": -0.161086269708498}, "southwest": {"lat": 51.5164271697085, "lng": -0.163784230291502}}}, "name": "GP Access Control - CCTV & Intercom Systems", "place_id": "ChIJN2uTwg4bdkgRzmx2m9lZ93c", "types": ["point_of_interest", "establishment"]}, "ChIJCb7rWcoadkgRguZIQVV99hE": {"geometry": {"location": {"lat": 51.5177855, "lng": -0.1623869}, "viewport": {"northeast": {"lat": 51.5191251302915, "lng": -0.161086269708498}, "southwest": {"lat": 51.5164271697085, "lng": -0.163784230291502}}}, "name": "GFS GSA Shipping Agency Company", "place_id": "ChIJCb7rWcoadkgRguZIQVV99hE", "types": ["point_of_interest", "establishment"]}, "ChIJsbwgWsoadkgReha5K9sCTBM": {"geometry": {"location": {"lat": 51.51785509999999, "lng": -0.1624216}, "viewport": {"northeast": {"lat": 51.51920408029148, "lng": -0.1610726197084979}, "southwest": {"lat": 51.51650611970849, "lng": -0.163770580291502}}}, "name": "Building Projects group", "place_id": "ChIJsbwgWsoadkgReha5K9sCTBM", "types": ["general_contractor", "point_of_interest", "establishment"]}, "ChIJ6WNpgWAbdkgRZYmzVNYH1KM": {"geometry": {"location": {"lat": 51.51785509999999, "lng": -0.1624216}, "viewport": {"northeast": {"lat": 51.51920408029148, "lng": -0.1610726197084979}, "southwest": {"lat": 51.51650611970849, "lng": -0.163770580291502}}}, "name": "PlayFit Sports & Social", "place_id": "ChIJ6WNpgWAbdkgRZYmzVNYH1KM", "types": ["point_of_interest", "establishment"]}, "ChIJsbwgWsoadkgRF8hSNaA2LiE": {"geometry": {"location": {"lat": 51.51785509999999, "lng": -0.1624216}, "viewport": {"northeast": {"lat": 51.51920408029148, "lng": -0.1610726197084979}, "southwest": {"lat": 51.51650611970849, "lng": -0.163770580291502}}}, "name": "MRMARE", "place_id": "ChIJsbwgWsoadkgRF8hSNaA2LiE", "types": ["supermarket", "grocery_or_supermarket", "food", "point_of_interest", "store", "establishment"]}, "ChIJ246bUMoadkgRo8BGClAit20": {"geometry": {"location": {"lat": 51.5181143, "lng": -0.1623225}, "viewport": {"northeast": {"lat": 51.51947553029149, "lng": -0.160903119708498}, "southwest": {"lat": 51.51677756970849, "lng": -0.163601080291502}}}, "name": "Tasty Capers Catering", "place_id": "ChIJ246bUMoadkgRo8BGClAit20", "types": ["food", "point_of_interest", "establishment"], "rating": 5, "user_ratings_total": 2}, "ChIJceixKMsadkgRWkSztOXVrZI": {"geometry": {"location": {"lat": 51.51748320000001, "lng": -0.1620792}, "viewport": {"northeast": {"lat": 51.51881803029151, "lng": -0.160813069708498}, "southwest": {"lat": 51.51612006970851, "lng": -0.163511030291502}}}, "name": "Allure", "place_id": "ChIJceixKMsadkgRWkSztOXVrZI", "types": ["health", "point_of_interest", "establishment"]}, "ChIJzzN3qssadkgRvSNoWy-BjiY": {"geometry": {"location": {"lat": 51.5175448, "lng": -0.1613361}, "viewport": {"northeast": {"lat": 51.51890773029149, "lng": -0.159907619708498}, "southwest": {"lat": 51.5162097697085, "lng": -0.162605580291502}}}, "name": "Richard & Mireia BARCELONA", "place_id": "ChIJzzN3qssadkgRvSNoWy-BjiY", "types": ["travel_agency", "point_of_interest", "establishment"]}, "ChIJYzsQSCobdkgRnJgbogpfisA": {"geometry": {"location": {"lat": 51.5174638, "lng": -0.1614246000000001}, "viewport": {"northeast": {"lat": 51.5187763302915, "lng": -0.160286319708498}, "southwest": {"lat": 51.5160783697085, "lng": -0.1629842802915021}}}, "name": "Dante Society London", "place_id": "ChIJYzsQSCobdkgRnJgbogpfisA", "types": ["point_of_interest", "establishment"], "rating": 5, "user_ratings_total": 2}, "ChIJW6SCWMoadkgRMPD2lWOluUk": {"geometry": {"location": {"lat": 51.51769039999999, "lng": -0.1625866}, "viewport": {"northeast": {"lat": 51.5190582802915, "lng": -0.161127119708498}, "southwest": {"lat": 51.5163603197085, "lng": -0.163825080291502}}}, "name": "Taylor & Crawley Ltd", "place_id": "ChIJW6SCWMoadkgRMPD2lWOluUk", "types": ["car_dealer", "point_of_interest", "store", "establishment"]}, "ChIJkS8SqMsadkgRmhsUm47CmmE": {"geometry": {"location": {"lat": 51.51769, "lng": -0.1610229}, "viewport": {"northeast": {"lat": 51.5190221302915, "lng": -0.159769969708498}, "southwest": {"lat": 51.5163241697085, "lng": -0.162467930291502}}}, "name": "Bryanston Square", "place_id": "ChIJkS8SqMsadkgRmhsUm47CmmE", "types": ["park", "point_of_interest", "establishment"], "rating": 4.1, "user_ratings_total": 85}, "ChIJW6SCWMoadkgRczfzQ8NVg9c": {"geometry": {"location": {"lat": 51.5175762, "lng": -0.1625388}, "viewport": {"northeast": {"lat": 51.51894428029149, "lng": -0.161078069708498}, "southwest": {"lat": 51.51624631970849, "lng": -0.163776030291502}}}, "name": "Maria Fung - Graphics Print & Web", "place_id": "ChIJW6SCWMoadkgRczfzQ8NVg9c", "types": ["point_of_interest", "establishment"]}, "ChIJh0cE9soadkgRuZDFLO01z7w": {"geometry": {"location": {"lat": 51.517503, "lng": -0.162608}, "viewport": {"northeast": {"lat": 51.51884480736712, "lng": -0.1611956396491429}, "southwest": {"lat": 51.51614684678412, "lng": -0.1638936002321469}}}, "name": "Parking lot", "place_id": "ChIJh0cE9soadkgRuZDFLO01z7w", "types": ["parking", "premise", "point_of_interest", "establishment"]}, "ChIJy5LX8MoadkgRfdi7UH_vKKY": {"geometry": {"location": {"lat": 51.5171508, "lng": -0.1623166}, "viewport": {"northeast": {"lat": 51.5185159302915, "lng": -0.160871769708498}, "southwest": {"lat": 51.5158179697085, "lng": -0.163569730291502}}}, "name": "Eleventh Church of Christian Scientists", "place_id": "ChIJy5LX8MoadkgRfdi7UH_vKKY", "types": ["church", "place_of_worship", "point_of_interest", "establishment"], "rating": 5, "user_ratings_total": 1}, "ChIJ30ai1fobdkgR9KhqlHHOuSA": {"geometry": {"location": {"lat": 51.517167, "lng": -0.162323}, "viewport": {"northeast": {"lat": 51.5185320802915, "lng": -0.160878469708498}, "southwest": {"lat": 51.5158341197085, "lng": -0.163576430291502}}}, "name": "Young", "place_id": "ChIJ30ai1fobdkgR9KhqlHHOuSA", "types": ["point_of_interest", "clothing_store", "store", "establishment"]}, "ChIJ1Vm698kadkgRxSPFtd1v_Ng": {"geometry": {"location": {"lat": 51.5202666342055, "lng": -0.163638246846335}, "viewport": {"northeast": {"lat": 51.5216155802915, "lng": -0.162289419708498}, "southwest": {"lat": 51.5189176197085, "lng": -0.164987380291502}}}, "name": "165-175 Seymour Pl", "place_id": "ChIJ1Vm698kadkgRxSPFtd1v_Ng", "types": ["route"]}, "ChIJOw8TJjYbdkgRem2-UUn81K8": {"geometry": {"location": {"lat": 51.52004820000001, "lng": -0.1633586}, "viewport": {"northeast": {"lat": 51.5213819302915, "lng": -0.162076119708498}, "southwest": {"lat": 51.5186839697085, "lng": -0.164774080291502}}}, "name": "Unreal Ltd", "place_id": "ChIJOw8TJjYbdkgRem2-UUn81K8", "types": ["point_of_interest", "establishment"]}, "ChIJ01ThIMoadkgRv2UIAVGUvx8": {"geometry": {"location": {"lat": 51.5199261, "lng": -0.1627994}, "viewport": {"northeast": {"lat": 51.52124028029149, "lng": -0.161433319708498}, "southwest": {"lat": 51.51854231970849, "lng": -0.164131280291502}}}, "name": "London Veterinary Clinic", "place_id": "ChIJ01ThIMoadkgRv2UIAVGUvx8", "types": ["veterinary_care", "point_of_interest", "establishment"], "rating": 4.3, "user_ratings_total": 76}, "ChIJt0sdHsoadkgRPoxvr4bjqjc": {"geometry": {"location": {"lat": 51.52014639999999, "lng": -0.1633828}, "viewport": {"northeast": {"lat": 51.52147628029149, "lng": -0.162115719708498}, "southwest": {"lat": 51.5187783197085, "lng": -0.164813680291502}}}, "name": "High Commission of Rwanda, London", "place_id": "ChIJt0sdHsoadkgRPoxvr4bjqjc", "types": ["embassy", "point_of_interest", "establishment"], "rating": 5, "user_ratings_total": 7}, "ChIJBQ9dHsoadkgRl0NBu3yFFPo": {"geometry": {"location": {"lat": 51.51998879999999, "lng": -0.1633399}, "viewport": {"northeast": {"lat": 51.52132348029149, "lng": -0.162049669708498}, "southwest": {"lat": 51.5186255197085, "lng": -0.164747630291502}}}, "name": "Adelaide Jones", "place_id": "ChIJBQ9dHsoadkgRl0NBu3yFFPo", "types": ["point_of_interest", "establishment"], "rating": 4, "user_ratings_total": 4}, "ChIJaVog2DQFdkgRgg4tBf3ekPY": {"geometry": {"location": {"lat": 51.52001069999999, "lng": -0.1633249}, "viewport": {"northeast": {"lat": 51.5213596802915, "lng": -0.161975919708498}, "southwest": {"lat": 51.5186617197085, "lng": -0.164673880291502}}}, "name": "The Mughals Temple in Marble Arch", "place_id": "ChIJaVog2DQFdkgRgg4tBf3ekPY", "types": ["restaurant", "food", "point_of_interest", "establishment"], "rating": 1, "user_ratings_total": 1}, "ChIJrYzrHsoadkgRuQaS4hpAvSE": {"geometry": {"location": {"lat": 51.5199237, "lng": -0.1633177}, "viewport": {"northeast": {"lat": 51.5212605302915, "lng": -0.162019669708498}, "southwest": {"lat": 51.5185625697085, "lng": -0.164717630291502}}}, "name": "Villa L Arab", "place_id": "ChIJrYzrHsoadkgRuQaS4hpAvSE", "types": ["restaurant", "food", "point_of_interest", "establishment"], "rating": 4.2, "user_ratings_total": 5}, "ChIJA1VazssadkgRbrhs3PKLnW0": {"geometry": {"location": {"lat": 51.51993359999999, "lng": -0.1632562}, "viewport": {"northeast": {"lat": 51.5212825802915, "lng": -0.161907219708498}, "southwest": {"lat": 51.5185846197085, "lng": -0.164605180291502}}}, "name": "Counselling with Kate", "place_id": "ChIJA1VazssadkgRbrhs3PKLnW0", "types": ["health", "point_of_interest", "establishment"]}, "ChIJ_5NsGUYDdkgRs1m0lywW15I": {"geometry": {"location": {"lat": 51.519886, "lng": -0.1631046}, "viewport": {"northeast": {"lat": 51.5211921302915, "lng": -0.161735119708498}, "southwest": {"lat": 51.5184941697085, "lng": -0.164433080291502}}}, "name": "bblur architecture", "place_id": "ChIJ_5NsGUYDdkgRs1m0lywW15I", "types": ["point_of_interest", "establishment"]}, "ChIJtftNc9MadkgRMTKDN7vzgOM": {"geometry": {"location": {"lat": 51.51990599999999, "lng": -0.163024}, "viewport": {"northeast": {"lat": 51.52120978029149, "lng": -0.161653419708498}, "southwest": {"lat": 51.5185118197085, "lng": -0.164351380291502}}}, "name": "Attilus Caviar", "place_id": "ChIJtftNc9MadkgRMTKDN7vzgOM", "types": ["grocery_or_supermarket", "food", "point_of_interest", "store", "establishment"], "rating": 4.6, "user_ratings_total": 25}, "ChIJd2xTIMoadkgR7V1VTgYKRg8": {"geometry": {"location": {"lat": 51.51991719999999, "lng": -0.1628693}, "viewport": {"northeast": {"lat": 51.5212293302915, "lng": -0.161502219708498}, "southwest": {"lat": 51.5185313697085, "lng": -0.164200180291502}}}, "name": "The Cruise People Ltd", "place_id": "ChIJd2xTIMoadkgR7V1VTgYKRg8", "types": ["travel_agency", "point_of_interest", "establishment"], "rating": 3.1, "user_ratings_total": 9}, "ChIJAd3ABMoadkgRA4J76Te1PzQ": {"geometry": {"location": {"lat": 51.5197312, "lng": -0.1638677}, "viewport": {"northeast": {"lat": 51.5210445302915, "lng": -0.162503619708498}, "southwest": {"lat": 51.5183465697085, "lng": -0.1652015802915021}}}, "name": "Luscious Locks @ B&K Lifestyle Spa", "place_id": "ChIJAd3ABMoadkgRA4J76Te1PzQ", "types": ["hair_care", "point_of_interest", "establishment"]}, "ChIJfQFkBMoadkgRzbQoDrZWbvc": {"geometry": {"location": {"lat": 51.5197606, "lng": -0.1640021}, "viewport": {"northeast": {"lat": 51.5210524302915, "lng": -0.162614419708498}, "southwest": {"lat": 51.5183544697085, "lng": -0.165312380291502}}}, "name": "The Marylebone Kitchen", "place_id": "ChIJfQFkBMoadkgRzbQoDrZWbvc", "types": ["cafe", "food", "point_of_interest", "establishment"], "rating": 4.7, "user_ratings_total": 168}, "ChIJr3YsGsoadkgR5zypRHpjN60": {"geometry": {"location": {"lat": 51.51964400000001, "lng": -0.1634495}, "viewport": {"northeast": {"lat": 51.5210325302915, "lng": -0.162118819708498}, "southwest": {"lat": 51.5183345697085, "lng": -0.164816780291502}}}, "name": "Photorias", "place_id": "ChIJr3YsGsoadkgR5zypRHpjN60", "types": ["point_of_interest", "establishment"]}, "ChIJ6d9dBMoadkgRcnMfk8LRhEI": {"geometry": {"location": {"lat": 51.519734, "lng": -0.1640009}, "viewport": {"northeast": {"lat": 51.5210479802915, "lng": -0.162667769708498}, "southwest": {"lat": 51.5183500197085, "lng": -0.165365730291502}}}, "name": "Wizard University", "place_id": "ChIJ6d9dBMoadkgRcnMfk8LRhEI", "types": ["school", "point_of_interest", "establishment"]}, "ChIJt28RhSobdkgR5CDFC2Rhxtk": {"geometry": {"location": {"lat": 51.51973340000001, "lng": -0.1629444}, "viewport": {"northeast": {"lat": 51.5211232302915, "lng": -0.161614919708498}, "southwest": {"lat": 51.5184252697085, "lng": -0.164312880291502}}}, "name": "BIS Recruit", "place_id": "ChIJt28RhSobdkgR5CDFC2Rhxtk", "types": ["point_of_interest", "establishment"], "rating": 3.7, "user_ratings_total": 62}, "ChIJnUgwviwFdkgRa9vine9T8Go": {"geometry": {"location": {"lat": 51.51985209999999, "lng": -0.1641277}, "viewport": {"northeast": {"lat": 51.5211450302915, "lng": -0.162835819708498}, "southwest": {"lat": 51.5184470697085, "lng": -0.165533780291502}}}, "name": "Charles Brice Limited", "place_id": "ChIJnUgwviwFdkgRa9vine9T8Go", "types": ["point_of_interest", "establishment"], "rating": 3, "user_ratings_total": 2}, "ChIJ_SxhHMoadkgRA3XRuLAQzoo": {"geometry": {"location": {"lat": 51.5198502, "lng": -0.1635569}, "viewport": {"northeast": {"lat": 51.5212166302915, "lng": -0.162134869708498}, "southwest": {"lat": 51.51851866970851, "lng": -0.164832830291502}}}, "name": "MIRRORMAN of MARYLEBONE", "place_id": "ChIJ_SxhHMoadkgRA3XRuLAQzoo", "types": ["home_goods_store", "point_of_interest", "store", "establishment"], "rating": 4.1, "user_ratings_total": 11}, "ChIJ-wPGIcoadkgRI0BtP8LTnBo": {"geometry": {"location": {"lat": 51.51991329999999, "lng": -0.1629522}, "viewport": {"northeast": {"lat": 51.5212200302915, "lng": -0.161582469708498}, "southwest": {"lat": 51.5185220697085, "lng": -0.164280430291502}}}, "name": "Emporium Treatment Clinic", "place_id": "ChIJ-wPGIcoadkgRI0BtP8LTnBo", "types": ["beauty_salon", "hair_care", "health", "point_of_interest", "establishment"], "rating": 4.4, "user_ratings_total": 20}, "ChIJ-_0b89IadkgRsQLSO8HVZ9k": {"geometry": {"location": {"lat": 51.5204587, "lng": -0.163545}, "viewport": {"northeast": {"lat": 51.52178698029149, "lng": -0.162286969708498}, "southwest": {"lat": 51.5190890197085, "lng": -0.164984930291502}}}, "name": "WLM (West London Mission)", "place_id": "ChIJ-_0b89IadkgRsQLSO8HVZ9k", "types": ["point_of_interest", "establishment"], "rating": 3, "user_ratings_total": 2}, "ChIJQx5q68wadkgR0v1rd9AH_pw": {"geometry": {"location": {"lat": 51.5200493, "lng": -0.1633736}, "viewport": {"northeast": {"lat": 51.5213841802915, "lng": -0.162084919708498}, "southwest": {"lat": 51.51868621970851, "lng": -0.164782880291502}}}, "name": "Western Ridge Properties", "place_id": "ChIJQx5q68wadkgR0v1rd9AH_pw", "types": ["finance", "point_of_interest", "establishment"]}, "ChIJA2MqtC4bdkgRenHhWe-gRFA": {"geometry": {"location": {"lat": 51.51993049999999, "lng": -0.1632673}, "viewport": {"northeast": {"lat": 51.5212639302915, "lng": -0.161994469708498}, "southwest": {"lat": 51.5185659697085, "lng": -0.164692430291502}}}, "name": "LOCCAS", "place_id": "ChIJA2MqtC4bdkgRenHhWe-gRFA", "types": ["restaurant", "food", "point_of_interest", "establishment"]}, "ChIJ16b1oK7leUgRIb4qGKC1Ujs": {"geometry": {"location": {"lat": 51.5201912, "lng": -0.1639343}, "viewport": {"northeast": {"lat": 51.5214664302915, "lng": -0.162676369708498}, "southwest": {"lat": 51.5187684697085, "lng": -0.165374330291502}}}, "name": "Triggerfish Games Ltd", "place_id": "ChIJ16b1oK7leUgRIb4qGKC1Ujs", "types": ["point_of_interest", "establishment"]}, "ChIJa03x9skadkgRxt4woMxROoY": {"geometry": {"location": {"lat": 51.520331, "lng": -0.163667}, "viewport": {"northeast": {"lat": 51.5216882302915, "lng": -0.162282619708498}, "southwest": {"lat": 51.5189902697085, "lng": -0.164980580291502}}}, "name": "Santander Cycles", "place_id": "ChIJa03x9skadkgRxt4woMxROoY", "types": ["point_of_interest", "establishment"], "rating": 5, "user_ratings_total": 1}, "ChIJlWDZM_gbdkgR8bhSrjFZOFI": {"geometry": {"location": {"lat": 51.51990620000001, "lng": -0.163108}, "viewport": {"northeast": {"lat": 51.5212027302915, "lng": -0.161733969708498}, "southwest": {"lat": 51.5185047697085, "lng": -0.164431930291502}}}, "name": "94YS Marylebone", "place_id": "ChIJlWDZM_gbdkgR8bhSrjFZOFI", "types": ["jewelry_store", "point_of_interest", "store", "establishment"], "rating": 5, "user_ratings_total": 7}, "ChIJd3Cuo4IbdkgRYl6IcrY04Lw": {"geometry": {"location": {"lat": 51.5197621, "lng": -0.1638266}, "viewport": {"northeast": {"lat": 51.5210657802915, "lng": -0.162456569708498}, "southwest": {"lat": 51.5183678197085, "lng": -0.165154530291502}}}, "name": "Recovery Circle", "place_id": "ChIJd3Cuo4IbdkgRYl6IcrY04Lw", "types": ["health", "point_of_interest", "establishment"]}, "ChIJ50NKjQQbdkgROo8FpYpxMBc": {"geometry": {"location": {"lat": 51.5204074, "lng": -0.1635332}, "viewport": {"northeast": {"lat": 51.5217375302915, "lng": -0.162267069708498}, "southwest": {"lat": 51.5190395697085, "lng": -0.164965030291502}}}, "name": "Lucky", "place_id": "ChIJ50NKjQQbdkgROo8FpYpxMBc", "types": ["restaurant", "food", "point_of_interest", "establishment"]}, "ChIJOaIZkJQbdkgR2MttxSdBucU": {"geometry": {"location": {"lat": 51.5204074, "lng": -0.1635332}, "viewport": {"northeast": {"lat": 51.5217375302915, "lng": -0.162267069708498}, "southwest": {"lat": 51.5190395697085, "lng": -0.164965030291502}}}, "name": "Junsei", "place_id": "ChIJOaIZkJQbdkgR2MttxSdBucU", "types": ["restaurant", "food", "point_of_interest", "establishment"], "rating": 4.6, "user_ratings_total": 10}, "ChIJ2Z6WBMoadkgR7U6VdrifExw": {"geometry": {"location": {"lat": 51.5197611, "lng": -0.1639022}, "viewport": {"northeast": {"lat": 51.52105898029149, "lng": -0.162529469708498}, "southwest": {"lat": 51.51836101970849, "lng": -0.165227430291502}}}, "name": "Charterhouse Clinic", "place_id": "ChIJ2Z6WBMoadkgR7U6VdrifExw", "types": ["point_of_interest", "establishment"]}, "ChIJqYI_0AEPdkgREa7WtSl_XtQ": {"geometry": {"location": {"lat": 51.5197611, "lng": -0.1639022}, "viewport": {"northeast": {"lat": 51.52105898029149, "lng": -0.162529469708498}, "southwest": {"lat": 51.51836101970849, "lng": -0.165227430291502}}}, "name": "MOTS Live", "place_id": "ChIJqYI_0AEPdkgREa7WtSl_XtQ", "types": ["point_of_interest", "establishment"], "rating": 5, "user_ratings_total": 2}, "ChIJg8nT8MkadkgR5yX923IVCPk": {"geometry": {"location": {"lat": 51.5205055, "lng": -0.1635914}, "viewport": {"northeast": {"lat": 51.5218346302915, "lng": -0.162327619708498}, "southwest": {"lat": 51.5191366697085, "lng": -0.165025580291502}}}, "name": "WLM Seymour Place", "place_id": "ChIJg8nT8MkadkgR5yX923IVCPk", "types": ["hospital", "health", "point_of_interest", "establishment"], "rating": 3.9, "user_ratings_total": 10}, "ChIJ_VRazssadkgRPBvfzI2UgRI": {"geometry": {"location": {"lat": 51.5197418, "lng": -0.1638813}, "viewport": {"northeast": {"lat": 51.5210503302915, "lng": -0.1625135197084979}, "southwest": {"lat": 51.5183523697085, "lng": -0.165211480291502}}}, "name": "Steve Grant Health", "place_id": "ChIJ_VRazssadkgRPBvfzI2UgRI", "types": ["health", "point_of_interest", "establishment"], "rating": 5, "user_ratings_total": 22}, "ChIJEfyKpgsbdkgRIuqGeZugUN0": {"geometry": {"location": {"lat": 51.51994639999999, "lng": -0.1629536}, "viewport": {"northeast": {"lat": 51.52123788029149, "lng": -0.161576369708498}, "southwest": {"lat": 51.51853991970849, "lng": -0.164274330291502}}}, "name": "BroWoWs Ltd", "place_id": "ChIJEfyKpgsbdkgRIuqGeZugUN0", "types": ["point_of_interest", "establishment"]}, "ChIJn323IcoadkgRS2yhkcD0DdM": {"geometry": {"location": {"lat": 51.51994639999999, "lng": -0.1629536}, "viewport": {"northeast": {"lat": 51.52123788029149, "lng": -0.161576369708498}, "southwest": {"lat": 51.51853991970849, "lng": -0.164274330291502}}}, "name": "JINA PARK CLINIC", "place_id": "ChIJn323IcoadkgRS2yhkcD0DdM", "types": ["point_of_interest", "establishment"]}, "ChIJ5-bfw6wbdkgRl34zlR67jzg": {"geometry": {"location": {"lat": 51.51994639999999, "lng": -0.1629536}, "viewport": {"northeast": {"lat": 51.5212375802915, "lng": -0.161577019708498}, "southwest": {"lat": 51.5185396197085, "lng": -0.164274980291502}}}, "name": "The Equilibrium Clinic", "place_id": "ChIJ5-bfw6wbdkgRl34zlR67jzg", "types": ["health", "point_of_interest", "establishment"], "rating": 5, "user_ratings_total": 13}, "ChIJqw2PGC0bdkgRfwvN0-AjApc": {"geometry": {"location": {"lat": 51.51991329999999, "lng": -0.1629522}, "viewport": {"northeast": {"lat": 51.52121983029149, "lng": -0.161582919708498}, "southwest": {"lat": 51.5185218697085, "lng": -0.164280880291502}}}, "name": "LUXA Clinic", "place_id": "ChIJqw2PGC0bdkgRfwvN0-AjApc", "types": ["health", "point_of_interest", "establishment"], "rating": 5, "user_ratings_total": 2}, "ChIJ81q-IcoadkgRe3gjd6-WrbQ": {"geometry": {"location": {"lat": 51.51991329999999, "lng": -0.1629522}, "viewport": {"northeast": {"lat": 51.52121983029149, "lng": -0.161582919708498}, "southwest": {"lat": 51.5185218697085, "lng": -0.164280880291502}}}, "name": "\ufffc Derma Plus Aesthetics", "place_id": "ChIJ81q-IcoadkgRe3gjd6-WrbQ", "types": ["health", "point_of_interest", "establishment"], "rating": 5, "user_ratings_total": 160}, "ChIJKfMO6ZUbdkgRsdvnP2rFfAU": {"geometry": {"location": {"lat": 51.51991329999999, "lng": -0.1629522}, "viewport": {"northeast": {"lat": 51.52121983029149, "lng": -0.161582919708498}, "southwest": {"lat": 51.5185218697085, "lng": -0.164280880291502}}}, "name": "SolyCeuticals", "place_id": "ChIJKfMO6ZUbdkgRsdvnP2rFfAU", "types": ["beauty_salon", "point_of_interest", "establishment"]}, "ChIJ81q-IcoadkgRL8RFnpZS2_Y": {"geometry": {"location": {"lat": 51.51991329999999, "lng": -0.1629522}, "viewport": {"northeast": {"lat": 51.52121983029149, "lng": -0.161582919708498}, "southwest": {"lat": 51.5185218697085, "lng": -0.164280880291502}}}, "name": "Wei Wu Wellness", "place_id": "ChIJ81q-IcoadkgRL8RFnpZS2_Y", "types": ["doctor", "health", "point_of_interest", "establishment"], "rating": 5, "user_ratings_total": 18}, "ChIJfcQ4djgbdkgRP3cvTog6kko": {"geometry": {"location": {"lat": 51.51991329999999, "lng": -0.1629522}, "viewport": {"northeast": {"lat": 51.52121983029149, "lng": -0.161582919708498}, "southwest": {"lat": 51.5185218697085, "lng": -0.164280880291502}}}, "name": "Heart Winning Smile ltd", "place_id": "ChIJfcQ4djgbdkgRP3cvTog6kko", "types": ["dentist", "health", "point_of_interest", "establishment"], "rating": 5, "user_ratings_total": 29}, "ChIJ81q-IcoadkgRj10DG21OBmg": {"geometry": {"location": {"lat": 51.519913, "lng": -0.162952}, "viewport": {"northeast": {"lat": 51.5212196802915, "lng": -0.161582819708498}, "southwest": {"lat": 51.5185217197085, "lng": -0.164280780291502}}}, "name": "Senwood Acupuncture@Baker Street", "place_id": "ChIJ81q-IcoadkgRj10DG21OBmg", "types": ["health", "point_of_interest", "establishment"]}, "ChIJxVDlU-kadkgRBppSuh2w9l4": {"geometry": {"location": {"lat": 51.519913, "lng": -0.162952}, "viewport": {"northeast": {"lat": 51.5212198802915, "lng": -0.161582319708498}, "southwest": {"lat": 51.5185219197085, "lng": -0.164280280291502}}}, "name": "Move With Eze Sports Massage & Soft Tissue Therapy", "place_id": "ChIJxVDlU-kadkgRBppSuh2w9l4", "types": ["health", "point_of_interest", "establishment"], "rating": 5, "user_ratings_total": 20}, "ChIJiRAeeBIFdkgRXi-Vv87dPFY": {"geometry": {"location": {"lat": 51.51989649999999, "lng": -0.1629546}, "viewport": {"northeast": {"lat": 51.5212106802915, "lng": -0.161588519708498}, "southwest": {"lat": 51.5185127197085, "lng": -0.164286480291502}}}, "name": "Mariam Abbas Skin Clinic", "place_id": "ChIJiRAeeBIFdkgRXi-Vv87dPFY", "types": ["health", "point_of_interest", "establishment"], "rating": 5, "user_ratings_total": 5}, "ChIJHd-tirsRdkgRQTPKhpzm2rs": {"geometry": {"location": {"lat": 51.5197606, "lng": -0.1640021}, "viewport": {"northeast": {"lat": 51.5210675802915, "lng": -0.162681569708498}, "southwest": {"lat": 51.5183696197085, "lng": -0.165379530291502}}}, "name": "Fuego London", "place_id": "ChIJHd-tirsRdkgRQTPKhpzm2rs", "types": ["restaurant", "food", "point_of_interest", "establishment"], "rating": 5, "user_ratings_total": 1}, "ChIJY3Vpg5sRdkgRmp3KMWnXeVw": {"geometry": {"location": {"lat": 51.5197606, "lng": -0.1640021}, "viewport": {"northeast": {"lat": 51.5210675802915, "lng": -0.162681569708498}, "southwest": {"lat": 51.5183696197085, "lng": -0.165379530291502}}}, "name": "Buddha's Bowl London", "place_id": "ChIJY3Vpg5sRdkgRmp3KMWnXeVw", "types": ["restaurant", "food", "point_of_interest", "establishment"], "rating": 5, "user_ratings_total": 2}, "ChIJTaaSGMoadkgRO4UJUFhxck0": {"geometry": {"location": {"lat": 51.51970009999999, "lng": -0.1631462}, "viewport": {"northeast": {"lat": 51.52103548029149, "lng": -0.161864619708498}, "southwest": {"lat": 51.5183375197085, "lng": -0.164562580291502}}}, "name": "Caff\u00e9 Romana", "place_id": "ChIJTaaSGMoadkgRO4UJUFhxck0", "types": ["cafe", "food", "point_of_interest", "establishment"]}, "ChIJCXJPGsoadkgRp2udT-6SCNw": {"geometry": {"location": {"lat": 51.5196208, "lng": -0.1635487}, "viewport": {"northeast": {"lat": 51.5210118302915, "lng": -0.162219169708498}, "southwest": {"lat": 51.5183138697085, "lng": -0.164917130291502}}}, "name": "York Bureau Services", "place_id": "ChIJCXJPGsoadkgRp2udT-6SCNw", "types": ["point_of_interest", "establishment"]}, "ChIJXdKrKTobdkgRML4oOgpUDZk": {"geometry": {"location": {"lat": 51.5196219, "lng": -0.1634883}, "viewport": {"northeast": {"lat": 51.52101743029149, "lng": -0.162160869708498}, "southwest": {"lat": 51.51831946970849, "lng": -0.164858830291502}}}, "name": "Pro Marble UK", "place_id": "ChIJXdKrKTobdkgRML4oOgpUDZk", "types": ["furniture_store", "home_goods_store", "point_of_interest", "store", "establishment"], "rating": 5, "user_ratings_total": 1}, "ChIJffLwGsoadkgRp0EpOHrWbko": {"geometry": {"location": {"lat": 51.51961910000001, "lng": -0.1636197}, "viewport": {"northeast": {"lat": 51.5210064302915, "lng": -0.162284719708498}, "southwest": {"lat": 51.5183084697085, "lng": -0.164982680291502}}}, "name": "Castlereagh", "place_id": "ChIJffLwGsoadkgRp0EpOHrWbko", "types": ["real_estate_agency", "point_of_interest", "establishment"], "rating": 3.6, "user_ratings_total": 10}, "ChIJR9HtGMoadkgR0jAQBh5wL74": {"geometry": {"location": {"lat": 51.51968240000001, "lng": -0.1631534}, "viewport": {"northeast": {"lat": 51.5210192802915, "lng": -0.161864419708498}, "southwest": {"lat": 51.5183213197085, "lng": -0.164562380291502}}}, "name": "Anwar Burj Alarab", "place_id": "ChIJR9HtGMoadkgR0jAQBh5wL74", "types": ["restaurant", "food", "point_of_interest", "establishment"], "rating": 4.2, "user_ratings_total": 54}, "ChIJD7KMGMoadkgRqDhZ_AThO-E": {"geometry": {"location": {"lat": 51.51968160000001, "lng": -0.1631483}, "viewport": {"northeast": {"lat": 51.52101803029151, "lng": -0.161861419708498}, "southwest": {"lat": 51.51832006970851, "lng": -0.164559380291502}}}, "name": "Florist Marylebone", "place_id": "ChIJD7KMGMoadkgRqDhZ_AThO-E", "types": ["florist", "point_of_interest", "store", "establishment"]}, "ChIJ01ThIMoadkgRsftDqnQ5G08": {"geometry": {"location": {"lat": 51.51996440000001, "lng": -0.1628412}, "viewport": {"northeast": {"lat": 51.52125743029151, "lng": -0.161464719708498}, "southwest": {"lat": 51.51855946970851, "lng": -0.164162680291502}}}, "name": "Bruce Fogle MBE, DVM, MRCVS", "place_id": "ChIJ01ThIMoadkgRsftDqnQ5G08", "types": ["veterinary_care", "point_of_interest", "establishment"], "rating": 4.3, "user_ratings_total": 4}, "ChIJcUQYyt4bdkgRyUGHHUFDphM": {"geometry": {"location": {"lat": 51.5196018, "lng": -0.1634777}, "viewport": {"northeast": {"lat": 51.5209721302915, "lng": -0.162022969708498}, "southwest": {"lat": 51.5182741697085, "lng": -0.164720930291502}}}, "name": "G.O.A.T London Beauty", "place_id": "ChIJcUQYyt4bdkgRyUGHHUFDphM", "types": ["beauty_salon", "point_of_interest", "establishment"], "rating": 4.1, "user_ratings_total": 14}, "ChIJU1F-C-wbdkgR1Hbh7XYAtV8": {"geometry": {"location": {"lat": 51.5196018, "lng": -0.1634777}, "viewport": {"northeast": {"lat": 51.5209721302915, "lng": -0.162022969708498}, "southwest": {"lat": 51.5182741697085, "lng": -0.164720930291502}}}, "name": "Knots & Dye Hair Salon", "place_id": "ChIJU1F-C-wbdkgR1Hbh7XYAtV8", "types": ["hair_care", "point_of_interest", "establishment"], "rating": 4.9, "user_ratings_total": 102}, "ChIJu4wwF8oadkgRV8d2PWHfImE": {"geometry": {"location": {"lat": 51.5196018, "lng": -0.1634777}, "viewport": {"northeast": {"lat": 51.5209721302915, "lng": -0.162022969708498}, "southwest": {"lat": 51.5182741697085, "lng": -0.164720930291502}}}, "name": "Seymour Interiors", "place_id": "ChIJu4wwF8oadkgRV8d2PWHfImE", "types": ["home_goods_store", "general_contractor", "point_of_interest", "store", "establishment"], "rating": 1, "user_ratings_total": 1}, "ChIJuaCXvMYbdkgRG27Kf7lrXZk": {"geometry": {"location": {"lat": 51.5205099, "lng": -0.1636027}, "viewport": {"northeast": {"lat": 51.5218409302915, "lng": -0.162332519708498}, "southwest": {"lat": 51.5191429697085, "lng": -0.165030480291502}}}, "name": "Emma Cons Blue Plaque", "place_id": "ChIJuaCXvMYbdkgRG27Kf7lrXZk", "types": ["point_of_interest", "establishment"], "rating": 5, "user_ratings_total": 1}, "ChIJ3wpwIsoadkgRQFzw9Q3JfUY": {"geometry": {"location": {"lat": 51.5197003, "lng": -0.1630172}, "viewport": {"northeast": {"lat": 51.52109918029149, "lng": -0.1616920197084979}, "southwest": {"lat": 51.51840121970849, "lng": -0.164389980291502}}}, "name": "Almarjan", "place_id": "ChIJ3wpwIsoadkgRQFzw9Q3JfUY", "types": ["point_of_interest", "establishment"]}, "ChIJTXQoIcoadkgRtDPQJTOWibA": {"geometry": {"location": {"lat": 51.5199447, "lng": -0.1627068}, "viewport": {"northeast": {"lat": 51.5212584302915, "lng": -0.161340469708498}, "southwest": {"lat": 51.51856046970851, "lng": -0.164038430291502}}}, "name": "R L Flower Designs", "place_id": "ChIJTXQoIcoadkgRtDPQJTOWibA", "types": ["florist", "point_of_interest", "store", "establishment"], "rating": 5, "user_ratings_total": 3}, "ChIJy6gXAMoadkgR7xIaYyUNPII": {"geometry": {"location": {"lat": 51.5200263, "lng": -0.1643932}, "viewport": {"northeast": {"lat": 51.5213060802915, "lng": -0.163127419708498}, "southwest": {"lat": 51.5186081197085, "lng": -0.165825380291502}}}, "name": "Susan White Voice Coach London \u2013 Coaching Spoken Voice & Personal Presence", "place_id": "ChIJy6gXAMoadkgR7xIaYyUNPII", "types": ["health", "point_of_interest", "establishment"], "rating": 5, "user_ratings_total": 1}, "ChIJr7KNQMoadkgRcyjBg4OotBo": {"geometry": {"location": {"lat": 51.5190466500099, "lng": -0.1629679498933699}, "viewport": {"northeast": {"lat": 51.5203956302915, "lng": -0.161618969708498}, "southwest": {"lat": 51.5176976697085, "lng": -0.164316930291502}}}, "name": "92 Seymour Pl", "place_id": "ChIJr7KNQMoadkgRcyjBg4OotBo", "types": ["route"]}, "ChIJh_vLDcoadkgREj84kypYcjM": {"geometry": {"location": {"lat": 51.51914000000001, "lng": -0.163908}, "viewport": {"northeast": {"lat": 51.5204221302915, "lng": -0.162498969708498}, "southwest": {"lat": 51.5177241697085, "lng": -0.165196930291502}}}, "name": "Briciole", "place_id": "ChIJh_vLDcoadkgREj84kypYcjM", "types": ["grocery_or_supermarket", "meal_takeaway", "cafe", "restaurant", "food", "point_of_interest", "store", "establishment"], "rating": 4.4, "user_ratings_total": 766}, "ChIJx013FsoadkgRESTvHQ-vLbQ": {"geometry": {"location": {"lat": 51.51921549999999, "lng": -0.1632335}, "viewport": {"northeast": {"lat": 51.5205148802915, "lng": -0.161861269708498}, "southwest": {"lat": 51.5178169197085, "lng": -0.1645592302915021}}}, "name": "Satellite Direct", "place_id": "ChIJx013FsoadkgRESTvHQ-vLbQ", "types": ["point_of_interest", "establishment"]}, "ChIJr9KcEcoadkgR3SWVcYMKGTI": {"geometry": {"location": {"lat": 51.51916010000001, "lng": -0.1635309}, "viewport": {"northeast": {"lat": 51.52046013029151, "lng": -0.162158669708498}, "southwest": {"lat": 51.51776216970851, "lng": -0.164856630291502}}}, "name": "Gornteyp", "place_id": "ChIJr9KcEcoadkgR3SWVcYMKGTI", "types": ["beauty_salon", "point_of_interest", "establishment"], "rating": 4, "user_ratings_total": 3}, "ChIJe5y8EsoadkgRXV2MG8NM_RI": {"geometry": {"location": {"lat": 51.518899, "lng": -0.163735}, "viewport": {"northeast": {"lat": 51.52030178029149, "lng": -0.162411619708498}, "southwest": {"lat": 51.5176038197085, "lng": -0.165109580291502}}}, "name": "Morpheus", "place_id": "ChIJe5y8EsoadkgRXV2MG8NM_RI", "types": ["gym", "health", "point_of_interest", "establishment"]}, "ChIJfwCaP8oadkgR4f7TL2_DCsw": {"geometry": {"location": {"lat": 51.5192015, "lng": -0.163257}, "viewport": {"northeast": {"lat": 51.5205053802915, "lng": -0.161886869708498}, "southwest": {"lat": 51.5178074197085, "lng": -0.164584830291502}}}, "name": "Multivision", "place_id": "ChIJfwCaP8oadkgR4f7TL2_DCsw", "types": ["electronics_store", "home_goods_store", "point_of_interest", "store", "establishment"]}, "ChIJ0aS801cbdkgRbFkGLsnl-hA": {"geometry": {"location": {"lat": 51.5193473, "lng": -0.1633481}, "viewport": {"northeast": {"lat": 51.5207165802915, "lng": -0.161892169708498}, "southwest": {"lat": 51.5180186197085, "lng": -0.164590130291502}}}, "name": "Space Cucina", "place_id": "ChIJ0aS801cbdkgRbFkGLsnl-hA", "types": ["furniture_store", "home_goods_store", "point_of_interest", "store", "establishment"], "rating": 4.4, "user_ratings_total": 29}, "ChIJV2WHC8oadkgRdj3qCU6RljQ": {"geometry": {"location": {"lat": 51.519028, "lng": -0.1641602}, "viewport": {"northeast": {"lat": 51.5203370302915, "lng": -0.162795119708498}, "southwest": {"lat": 51.5176390697085, "lng": -0.165493080291502}}}, "name": "ASAAN Property Maintenance", "place_id": "ChIJV2WHC8oadkgRdj3qCU6RljQ", "types": ["point_of_interest", "establishment"], "rating": 5, "user_ratings_total": 11}, "ChIJkcp6DMoadkgR8kNvCOKtNlU": {"geometry": {"location": {"lat": 51.5190511, "lng": -0.1642057}, "viewport": {"northeast": {"lat": 51.52034613029149, "lng": -0.162831819708498}, "southwest": {"lat": 51.51764816970849, "lng": -0.165529780291502}}}, "name": "London Colonic Hydrotherapy Clinic", "place_id": "ChIJkcp6DMoadkgR8kNvCOKtNlU", "types": ["health", "point_of_interest", "establishment"], "rating": 5, "user_ratings_total": 7}, "ChIJHy_mPcoadkgR88X3oAnpQx8": {"geometry": {"location": {"lat": 51.519101, "lng": -0.1628201}, "viewport": {"northeast": {"lat": 51.5204305302915, "lng": -0.161548769708498}, "southwest": {"lat": 51.5177325697085, "lng": -0.164246730291502}}}, "name": "York Estates", "place_id": "ChIJHy_mPcoadkgR88X3oAnpQx8", "types": ["real_estate_agency", "point_of_interest", "establishment"], "rating": 4.9, "user_ratings_total": 82}, "ChIJL0p-Ky0FdkgRCfAFkQ2IK5M": {"geometry": {"location": {"lat": 51.519091, "lng": -0.162817}, "viewport": {"northeast": {"lat": 51.5204792302915, "lng": -0.161493169708498}, "southwest": {"lat": 51.5177812697085, "lng": -0.164191130291502}}}, "name": "Roth Associates", "place_id": "ChIJL0p-Ky0FdkgRCfAFkQ2IK5M", "types": ["finance", "real_estate_agency", "point_of_interest", "establishment"]}, "ChIJlYHgPsoadkgR3TZDVjMxAMw": {"geometry": {"location": {"lat": 51.51901310000001, "lng": -0.1627782}, "viewport": {"northeast": {"lat": 51.5203818302915, "lng": -0.161508969708498}, "southwest": {"lat": 51.5176838697085, "lng": -0.164206930291502}}}, "name": "Thomas St John LLP", "place_id": "ChIJlYHgPsoadkgR3TZDVjMxAMw", "types": ["accounting", "finance", "point_of_interest", "establishment"]}, "ChIJv4HgPsoadkgRfjHg4xGkgUU": {"geometry": {"location": {"lat": 51.5188959, "lng": -0.162769}, "viewport": {"northeast": {"lat": 51.5202340302915, "lng": -0.161477969708498}, "southwest": {"lat": 51.5175360697085, "lng": -0.164175930291502}}}, "name": "Research Research", "place_id": "ChIJv4HgPsoadkgRfjHg4xGkgUU", "types": ["point_of_interest", "establishment"]}, "ChIJKTz3EcoadkgRzZxnAgiSpiM": {"geometry": {"location": {"lat": 51.519149, "lng": -0.163605}, "viewport": {"northeast": {"lat": 51.5204414802915, "lng": -0.162286069708498}, "southwest": {"lat": 51.5177435197085, "lng": -0.164984030291502}}}, "name": "Seymour Pharmacy", "place_id": "ChIJKTz3EcoadkgRzZxnAgiSpiM", "types": ["pharmacy", "health", "point_of_interest", "store", "establishment"], "rating": 4.8, "user_ratings_total": 17}, "ChIJ397mCsoadkgRMALDGse-zQc": {"geometry": {"location": {"lat": 51.5190043, "lng": -0.1643325}, "viewport": {"northeast": {"lat": 51.5203105302915, "lng": -0.162963069708498}, "southwest": {"lat": 51.5176125697085, "lng": -0.165661030291502}}}, "name": "World Avenues Ltd", "place_id": "ChIJ397mCsoadkgRMALDGse-zQc", "types": ["travel_agency", "point_of_interest", "establishment"]}, "ChIJ_wquC8oadkgR_9CS_zmlLrg": {"geometry": {"location": {"lat": 51.5190362, "lng": -0.1643177}, "viewport": {"northeast": {"lat": 51.5203288302915, "lng": -0.162942719708498}, "southwest": {"lat": 51.5176308697085, "lng": -0.165640680291502}}}, "name": "Lighter & Brighter", "place_id": "ChIJ_wquC8oadkgR_9CS_zmlLrg", "types": ["physiotherapist", "health", "point_of_interest", "establishment"]}, "ChIJbTo4c8oadkgR9ZT3223Cdto": {"geometry": {"location": {"lat": 51.5187912, "lng": -0.1640556}, "viewport": {"northeast": {"lat": 51.5202186302915, "lng": -0.162742819708498}, "southwest": {"lat": 51.5175206697085, "lng": -0.165440780291502}}}, "name": "Focus Detectives", "place_id": "ChIJbTo4c8oadkgR9ZT3223Cdto", "types": ["point_of_interest", "establishment"]}, "ChIJs3sUPcoadkgRw9_mGnfOvJY": {"geometry": {"location": {"lat": 51.5193623, "lng": -0.162981}, "viewport": {"northeast": {"lat": 51.52069908029151, "lng": -0.161696369708498}, "southwest": {"lat": 51.51800111970851, "lng": -0.164394330291502}}}, "name": "Repossession Saviour", "place_id": "ChIJs3sUPcoadkgRw9_mGnfOvJY", "types": ["church", "place_of_worship", "point_of_interest", "establishment"]}, "ChIJEzCZPcoadkgRnQu-cnHnAXc": {"geometry": {"location": {"lat": 51.5193084, "lng": -0.1629685}, "viewport": {"northeast": {"lat": 51.5206463802915, "lng": -0.1616774697084979}, "southwest": {"lat": 51.5179484197085, "lng": -0.164375430291502}}}, "name": "Regent Dry Cleaners", "place_id": "ChIJEzCZPcoadkgRnQu-cnHnAXc", "types": ["laundry", "point_of_interest", "establishment"], "rating": 3.7, "user_ratings_total": 9}, "ChIJKTz3EcoadkgRLNeQq1MD1sM": {"geometry": {"location": {"lat": 51.5191435, "lng": -0.1637917}, "viewport": {"northeast": {"lat": 51.52042908029149, "lng": -0.162412569708498}, "southwest": {"lat": 51.51773111970849, "lng": -0.165110530291502}}}, "name": "Crescent Dental", "place_id": "ChIJKTz3EcoadkgRLNeQq1MD1sM", "types": ["dentist", "doctor", "health", "point_of_interest", "establishment"], "rating": 4.7, "user_ratings_total": 14}, "ChIJS0EHFMoadkgRZCVGR-Ie-GE": {"geometry": {"location": {"lat": 51.51916600000001, "lng": -0.16343}, "viewport": {"northeast": {"lat": 51.52047173029151, "lng": -0.162060719708498}, "southwest": {"lat": 51.51777376970851, "lng": -0.1647586802915021}}}, "name": "Super Clean", "place_id": "ChIJS0EHFMoadkgRZCVGR-Ie-GE", "types": ["laundry", "point_of_interest", "establishment"], "rating": 5, "user_ratings_total": 13}, "ChIJvdFYFsoadkgR4DqYUqzF3Jc": {"geometry": {"location": {"lat": 51.5192565, "lng": -0.1632352}, "viewport": {"northeast": {"lat": 51.5206198302915, "lng": -0.161810519708498}, "southwest": {"lat": 51.5179218697085, "lng": -0.164508480291502}}}, "name": "Seymour News", "place_id": "ChIJvdFYFsoadkgR4DqYUqzF3Jc", "types": ["point_of_interest", "store", "establishment"], "rating": 3.3, "user_ratings_total": 20}, "ChIJO3UjP8oadkgRu7DqdOS-xPY": {"geometry": {"location": {"lat": 51.5189514, "lng": -0.1627897}, "viewport": {"northeast": {"lat": 51.5202620302915, "lng": -0.161480719708498}, "southwest": {"lat": 51.5175640697085, "lng": -0.164178680291502}}}, "name": "London Management Centre", "place_id": "ChIJO3UjP8oadkgRu7DqdOS-xPY", "types": ["point_of_interest", "establishment"], "rating": 5, "user_ratings_total": 9}, "ChIJNfQFa8oadkgRwBuNf7sa_oc": {"geometry": {"location": {"lat": 51.518612, "lng": -0.162959}, "viewport": {"northeast": {"lat": 51.5199779302915, "lng": -0.161518019708498}, "southwest": {"lat": 51.5172799697085, "lng": -0.164215980291502}}}, "name": "Xen-Do Martial Arts", "place_id": "ChIJNfQFa8oadkgRwBuNf7sa_oc", "types": ["gym", "health", "point_of_interest", "establishment"], "rating": 4.9, "user_ratings_total": 55}, "ChIJSWGZu8YbdkgRKyE2AbMfT6M": {"geometry": {"location": {"lat": 51.51888229999999, "lng": -0.1637183}, "viewport": {"northeast": {"lat": 51.5202941802915, "lng": -0.162399219708498}, "southwest": {"lat": 51.51759621970851, "lng": -0.165097180291502}}}, "name": "Veroulinker", "place_id": "ChIJSWGZu8YbdkgRKyE2AbMfT6M", "types": ["finance", "point_of_interest", "establishment"]}, "ChIJQ0fdo1YbdkgRP256IFDOmLE": {"geometry": {"location": {"lat": 51.51888229999999, "lng": -0.1637183}, "viewport": {"northeast": {"lat": 51.5202941802915, "lng": -0.162399219708498}, "southwest": {"lat": 51.51759621970851, "lng": -0.165097180291502}}}, "name": "Drainage Response", "place_id": "ChIJQ0fdo1YbdkgRP256IFDOmLE", "types": ["general_contractor", "point_of_interest", "establishment"]}, "ChIJmSyBEcoadkgRudA7ko5Dp9o": {"geometry": {"location": {"lat": 51.51917659999999, "lng": -0.163629}, "viewport": {"northeast": {"lat": 51.52046078029149, "lng": -0.162249169708498}, "southwest": {"lat": 51.51776281970849, "lng": -0.164947130291502}}}, "name": "Winchester International", "place_id": "ChIJmSyBEcoadkgRudA7ko5Dp9o", "types": ["real_estate_agency", "general_contractor", "point_of_interest", "establishment"], "rating": 5, "user_ratings_total": 1}, "ChIJD83NE8oadkgR19LlNF58-eQ": {"geometry": {"location": {"lat": 51.51917959999999, "lng": -0.1633757}, "viewport": {"northeast": {"lat": 51.52048413029149, "lng": -0.1620028697084979}, "southwest": {"lat": 51.51778616970849, "lng": -0.164700830291502}}}, "name": "Al-Madina", "place_id": "ChIJD83NE8oadkgR19LlNF58-eQ", "types": ["grocery_or_supermarket", "supermarket", "food", "point_of_interest", "store", "establishment"], "rating": 4.5, "user_ratings_total": 14}, "ChIJh6z4DcoadkgR7sV3612BnjI": {"geometry": {"location": {"lat": 51.5191435, "lng": -0.1637917}, "viewport": {"northeast": {"lat": 51.52042908029149, "lng": -0.162412569708498}, "southwest": {"lat": 51.51773111970849, "lng": -0.165110530291502}}}, "name": "Dr L J Shindler - Crescent Dental Clinic", "place_id": "ChIJh6z4DcoadkgR7sV3612BnjI", "types": ["dentist", "health", "point_of_interest", "establishment"]}, "ChIJKTz3EcoadkgRGJn65V4Mj9Q": {"geometry": {"location": {"lat": 51.5191435, "lng": -0.1637917}, "viewport": {"northeast": {"lat": 51.52042908029149, "lng": -0.162412569708498}, "southwest": {"lat": 51.51773111970849, "lng": -0.165110530291502}}}, "name": "Jalal-Uddin Dr M K", "place_id": "ChIJKTz3EcoadkgRGJn65V4Mj9Q", "types": ["doctor", "health", "point_of_interest", "establishment"]}, "ChIJu4wwF8oadkgRVxBqSviMVXI": {"geometry": {"location": {"lat": 51.51919830000001, "lng": -0.1633037}, "viewport": {"northeast": {"lat": 51.5204997302915, "lng": -0.161932419708498}, "southwest": {"lat": 51.51780176970851, "lng": -0.1646303802915021}}}, "name": "Graffiti Consulting Services LTD", "place_id": "ChIJu4wwF8oadkgRVxBqSviMVXI", "types": ["point_of_interest", "establishment"], "rating": 5, "user_ratings_total": 35}, "ChIJnWLrFsoadkgRkHN5kZ0FiGQ": {"geometry": {"location": {"lat": 51.5192547, "lng": -0.163308}, "viewport": {"northeast": {"lat": 51.5206244302915, "lng": -0.161849619708498}, "southwest": {"lat": 51.5179264697085, "lng": -0.164547580291502}}}, "name": "P B I G London", "place_id": "ChIJnWLrFsoadkgRkHN5kZ0FiGQ", "types": ["point_of_interest", "establishment"]}, "ChIJXYKp_ysbdkgRrCOh7Vo3O3M": {"geometry": {"location": {"lat": 51.5192547, "lng": -0.163308}, "viewport": {"northeast": {"lat": 51.5206244302915, "lng": -0.161849619708498}, "southwest": {"lat": 51.5179264697085, "lng": -0.164547580291502}}}, "name": "DPD Parcel Shop Location", "place_id": "ChIJXYKp_ysbdkgRrCOh7Vo3O3M", "types": ["point_of_interest", "establishment"]}, "ChIJnWLrFsoadkgRLIqlIsHW0KI": {"geometry": {"location": {"lat": 51.5192547, "lng": -0.163308}, "viewport": {"northeast": {"lat": 51.5206244302915, "lng": -0.161849619708498}, "southwest": {"lat": 51.5179264697085, "lng": -0.164547580291502}}}, "name": "Spentham", "place_id": "ChIJnWLrFsoadkgRLIqlIsHW0KI", "types": ["point_of_interest", "establishment"]}, "ChIJu4wwF8oadkgRkUD9R5UmuPc": {"geometry": {"location": {"lat": 51.5193085, "lng": -0.1633421}, "viewport": {"northeast": {"lat": 51.5206786302915, "lng": -0.161880069708498}, "southwest": {"lat": 51.5179806697085, "lng": -0.164578030291502}}}, "name": "Harley Teeth Whitening", "place_id": "ChIJu4wwF8oadkgRkUD9R5UmuPc", "types": ["dentist", "health", "point_of_interest", "establishment"], "rating": 4.7, "user_ratings_total": 148}, "ChIJ48qNQMoadkgRglbwu-RTZ0o": {"geometry": {"location": {"lat": 51.5186349, "lng": -0.1633748}, "viewport": {"northeast": {"lat": 51.52003593029149, "lng": -0.161748169708498}, "southwest": {"lat": 51.51733796970849, "lng": -0.164446130291502}}}, "name": "Koryo Taekwondo Academy", "place_id": "ChIJ48qNQMoadkgRglbwu-RTZ0o", "types": ["health", "point_of_interest", "establishment"], "rating": 4.8, "user_ratings_total": 17}, "ChIJ6cFHc8oadkgRFn8-9K3i5u4": {"geometry": {"location": {"lat": 51.5187905, "lng": -0.16407}, "viewport": {"northeast": {"lat": 51.52021708029149, "lng": -0.162756819708498}, "southwest": {"lat": 51.5175191197085, "lng": -0.165454780291502}}}, "name": "Make Life Happen", "place_id": "ChIJ6cFHc8oadkgRFn8-9K3i5u4", "types": ["health", "point_of_interest", "establishment"]}, "ChIJGTJCphwbdkgR2IiQ9XjHdHk": {"geometry": {"location": {"lat": 51.5185901, "lng": -0.163511}, "viewport": {"northeast": {"lat": 51.51981168029149, "lng": -0.162397969708498}, "southwest": {"lat": 51.51711371970849, "lng": -0.165095930291502}}}, "name": "Serpentine Running Club", "place_id": "ChIJGTJCphwbdkgR2IiQ9XjHdHk", "types": ["point_of_interest", "establishment"], "rating": 5, "user_ratings_total": 2}, "ChIJ-aeEz7obdkgRXzq5f4m1Lts": {"geometry": {"location": {"lat": 51.519028, "lng": -0.1641602}, "viewport": {"northeast": {"lat": 51.52033743029151, "lng": -0.162792969708498}, "southwest": {"lat": 51.51763946970851, "lng": -0.165490930291502}}}, "name": "APM Electrical Wholesalers", "place_id": "ChIJ-aeEz7obdkgRXzq5f4m1Lts", "types": ["point_of_interest", "establishment"], "rating": 5, "user_ratings_total": 5}, "ChIJV2WHC8oadkgRi7T_loX6YdA": {"geometry": {"location": {"lat": 51.519028, "lng": -0.1641602}, "viewport": {"northeast": {"lat": 51.5203370302915, "lng": -0.162795119708498}, "southwest": {"lat": 51.5176390697085, "lng": -0.165493080291502}}}, "name": "Wutzu - Same Day Grocery Delivery London", "place_id": "ChIJV2WHC8oadkgRi7T_loX6YdA", "types": ["food", "point_of_interest", "establishment"], "rating": 4.5, "user_ratings_total": 24}, "ChIJF27PaGQbdkgRu9qf10inCGE": {"geometry": {"location": {"lat": 51.519081, "lng": -0.164177}, "viewport": {"northeast": {"lat": 51.5203645802915, "lng": -0.162797819708498}, "southwest": {"lat": 51.5176666197085, "lng": -0.165495780291502}}}, "name": "Han Hair & Beauty", "place_id": "ChIJF27PaGQbdkgRu9qf10inCGE", "types": ["hair_care", "point_of_interest", "establishment"], "rating": 5, "user_ratings_total": 6}, "ChIJg61bDMoadkgRm59rdGfc2h8": {"geometry": {"location": {"lat": 51.519081, "lng": -0.164177}, "viewport": {"northeast": {"lat": 51.5203645802915, "lng": -0.162797819708498}, "southwest": {"lat": 51.5176666197085, "lng": -0.165495780291502}}}, "name": "GULF LIGHTS SALO", "place_id": "ChIJg61bDMoadkgRm59rdGfc2h8", "types": ["hair_care", "cafe", "food", "health", "point_of_interest", "store", "establishment"], "rating": 3.5, "user_ratings_total": 4}, "ChIJJfsqdrEbdkgRkFiK73_Z0Nk": {"geometry": {"location": {"lat": 51.5190511, "lng": -0.1642057}, "viewport": {"northeast": {"lat": 51.52034558029149, "lng": -0.162834719708498}, "southwest": {"lat": 51.5176476197085, "lng": -0.165532680291502}}}, "name": "Darren Rose Feng Shui & Bazi Astrology", "place_id": "ChIJJfsqdrEbdkgRkFiK73_Z0Nk", "types": ["point_of_interest", "establishment"], "rating": 5, "user_ratings_total": 2}, "ChIJMbNlCsoadkgRtzisErIGCcQ": {"geometry": {"location": {"lat": 51.5190199, "lng": -0.1642701}, "viewport": {"northeast": {"lat": 51.5203239802915, "lng": -0.162900419708498}, "southwest": {"lat": 51.5176260197085, "lng": -0.1655983802915021}}}, "name": "Saasha clinic", "place_id": "ChIJMbNlCsoadkgRtzisErIGCcQ", "types": ["beauty_salon", "hair_care", "spa", "health", "point_of_interest", "establishment"], "rating": 2.8, "user_ratings_total": 26}, "ChIJlYHgPsoadkgR15VZMUOmqH8": {"geometry": {"location": {"lat": 51.5190041, "lng": -0.162827}, "viewport": {"northeast": {"lat": 51.5203818802915, "lng": -0.161533369708498}, "southwest": {"lat": 51.5176839197085, "lng": -0.164231330291502}}}, "name": "Zahra Fernandez", "place_id": "ChIJlYHgPsoadkgR15VZMUOmqH8", "types": ["point_of_interest", "establishment"]}, "ChIJv4HgPsoadkgRle7vmPq2ZB4": {"geometry": {"location": {"lat": 51.5190244, "lng": -0.1628266}, "viewport": {"northeast": {"lat": 51.52039113029149, "lng": -0.161537619708498}, "southwest": {"lat": 51.51769316970849, "lng": -0.164235580291502}}},