{"E00024084": {"ChIJ3wJBVQMQdkgRpGS4E-8yJ7o": {"geometry": {"location": {"lat": 51.51976316076085, "lng": -0.1995299902697339}, "viewport": {"northeast": {"lat": 51.52111188029149, "lng": -0.198181719708498}, "southwest": {"lat": 51.51841391970849, "lng": -0.200879680291502}}}, "name": "Great Western Road", "place_id": "ChIJ3wJBVQMQdkgRpGS4E-8yJ7o", "types": ["route"]}, "ChIJa65xVQMQdkgRuAKiRZVrBaE": {"geometry": {"location": {"lat": 51.5200629, "lng": -0.1996897}, "viewport": {"northeast": {"lat": 51.5213960302915, "lng": -0.198385869708498}, "southwest": {"lat": 51.5186980697085, "lng": -0.201083830291502}}}, "name": "ubitricity Charging Station", "place_id": "ChIJa65xVQMQdkgRuAKiRZVrBaE", "types": ["point_of_interest", "establishment"]}, "ChIJdwHaVBsQdkgRbTdk1PemW14": {"geometry": {"location": {"lat": 51.520275, "lng": -0.199906}, "viewport": {"northeast": {"lat": 51.5216099302915, "lng": -0.198594469708498}, "southwest": {"lat": 51.5189119697085, "lng": -0.201292430291502}}}, "name": "Westbourne Park Station (Stop B)", "place_id": "ChIJdwHaVBsQdkgRbTdk1PemW14", "types": ["transit_station", "point_of_interest", "establishment"], "rating": 2, "user_ratings_total": 1}, "ChIJT9PiRQMQdkgRr4coJMRZdP8": {"geometry": {"location": {"lat": 51.5189738, "lng": -0.1989432}, "viewport": {"northeast": {"lat": 51.5203452302915, "lng": -0.197533019708498}, "southwest": {"lat": 51.5176472697085, "lng": -0.200230980291502}}}, "name": "Brunel Estate (Stop P)", "place_id": "ChIJT9PiRQMQdkgRr4coJMRZdP8", "types": ["transit_station", "point_of_interest", "establishment"], "rating": 3, "user_ratings_total": 1}, "ChIJb9zmTwMQdkgRW3hGDjCtf_g": {"geometry": {"location": {"lat": 51.51958659999999, "lng": -0.1992412}, "viewport": {"northeast": {"lat": 51.52091903029149, "lng": -0.1979388197084979}, "southwest": {"lat": 51.5182210697085, "lng": -0.200636780291502}}}, "name": "ubitricity Charging Station", "place_id": "ChIJb9zmTwMQdkgRW3hGDjCtf_g", "types": ["point_of_interest", "establishment"]}, "ChIJcfDf2iYRdkgRYY6UGF5mIds": {"geometry": {"location": {"lat": 51.5193036, "lng": -0.2000974}, "viewport": {"northeast": {"lat": 51.5206132302915, "lng": -0.198862669708498}, "southwest": {"lat": 51.5179152697085, "lng": -0.201560630291502}}}, "name": "Sardar Patel Blue Plaque", "place_id": "ChIJcfDf2iYRdkgRYY6UGF5mIds", "types": ["point_of_interest", "establishment"], "rating": 4, "user_ratings_total": 1}, "ChIJj2mZ10URdkgRg0zaWFnxm-Q": {"geometry": {"location": {"lat": 51.5187231, "lng": -0.1995281}, "viewport": {"northeast": {"lat": 51.5200257302915, "lng": -0.198313719708498}, "southwest": {"lat": 51.51732776970851, "lng": -0.201011680291502}}}, "name": "Taz Beauty", "place_id": "ChIJj2mZ10URdkgRg0zaWFnxm-Q", "types": ["beauty_salon", "hair_care", "spa", "point_of_interest", "establishment"], "rating": 5, "user_ratings_total": 7}, "ChIJn8h2zRwQdkgRgbw3CD0nYXU": {"geometry": {"location": {"lat": 51.51818665098023, "lng": -0.1999951013289853}, "viewport": {"northeast": {"lat": 51.5195356302915, "lng": -0.198646119708498}, "southwest": {"lat": 51.5168376697085, "lng": -0.2013440802915021}}}, "name": "168-160 Westbourne Park Rd", "place_id": "ChIJn8h2zRwQdkgRgbw3CD0nYXU", "types": ["route"]}, "ChIJKRhgZr0adkgRxQmJ8PNAHJM": {"geometry": {"location": {"lat": 51.5178457, "lng": -0.2000869}, "viewport": {"northeast": {"lat": 51.5192400802915, "lng": -0.198771019708498}, "southwest": {"lat": 51.5165421197085, "lng": -0.201468980291502}}}, "name": "Cleenco", "place_id": "ChIJKRhgZr0adkgRxQmJ8PNAHJM", "types": ["laundry", "point_of_interest", "establishment"]}, "ChIJ8xqN4WQRdkgRjoiDFUgEQ7A": {"geometry": {"location": {"lat": 51.5183127, "lng": -0.1995149}, "viewport": {"northeast": {"lat": 51.5196616802915, "lng": -0.198165919708498}, "southwest": {"lat": 51.5169637197085, "lng": -0.200863880291502}}}, "name": "Right Build Group - Builders in London", "place_id": "ChIJ8xqN4WQRdkgRjoiDFUgEQ7A", "types": ["point_of_interest", "establishment"]}, "ChIJ2armMgMQdkgRrZG28D_afAg": {"geometry": {"location": {"lat": 51.51826699999999, "lng": -0.199734}, "viewport": {"northeast": {"lat": 51.51962943029149, "lng": -0.198358719708498}, "southwest": {"lat": 51.5169314697085, "lng": -0.201056680291502}}}, "name": "ubitricity Charging Station", "place_id": "ChIJ2armMgMQdkgRrZG28D_afAg", "types": ["point_of_interest", "establishment"]}, "ChIJty0VOgMQdkgRkXq3TIK7204": {"geometry": {"location": {"lat": 51.518372, "lng": -0.19903}, "viewport": {"northeast": {"lat": 51.5197486302915, "lng": -0.197699619708498}, "southwest": {"lat": 51.5170506697085, "lng": -0.200397580291502}}}, "name": "Great Western Road (Stop M)", "place_id": "ChIJty0VOgMQdkgRkXq3TIK7204", "types": ["transit_station", "point_of_interest", "establishment"]}, "ChIJJ7gHll4RdkgRAJKBTsFZ9rk": {"geometry": {"location": {"lat": 51.5175293, "lng": -0.199456}, "viewport": {"northeast": {"lat": 51.5191287302915, "lng": -0.198289719708498}, "southwest": {"lat": 51.5164307697085, "lng": -0.200987680291502}}}, "name": "Migraine Productions Headquarters", "place_id": "ChIJJ7gHll4RdkgRAJKBTsFZ9rk", "types": ["point_of_interest", "establishment"], "rating": 5, "user_ratings_total": 1}, "ChIJOxz0KQMQdkgRQV_pIwWPdU4": {"geometry": {"location": {"lat": 51.5175293, "lng": -0.199456}, "viewport": {"northeast": {"lat": 51.5188028302915, "lng": -0.198025319708498}, "southwest": {"lat": 51.5161048697085, "lng": -0.200723280291502}}}, "name": "Tolchurch", "place_id": "ChIJOxz0KQMQdkgRQV_pIwWPdU4", "types": ["point_of_interest", "establishment"]}, "ChIJZ1-k5_gRdkgREmGoQeA6r_g": {"geometry": {"location": {"lat": 51.5175293, "lng": -0.199456}, "viewport": {"northeast": {"lat": 51.5188028302915, "lng": -0.198025319708498}, "southwest": {"lat": 51.5161048697085, "lng": -0.200723280291502}}}, "name": "Popstar Muzik", "place_id": "ChIJZ1-k5_gRdkgREmGoQeA6r_g", "types": ["point_of_interest", "establishment"]}, "ChIJOQsBnhwQdkgRaTH4mO2o1iY": {"geometry": {"location": {"lat": 51.52018085014267, "lng": -0.2014048002644888}, "viewport": {"northeast": {"lat": 51.5215298302915, "lng": -0.200055819708498}, "southwest": {"lat": 51.5188318697085, "lng": -0.202753780291502}}}, "name": "5-9 Tavistock Rd", "place_id": "ChIJOQsBnhwQdkgRaTH4mO2o1iY", "types": ["route"]}, "ChIJvXbZWBsQdkgRfOPxN7Y7ycc": {"geometry": {"location": {"lat": 51.52024019999999, "lng": -0.2009083}, "viewport": {"northeast": {"lat": 51.52163598029149, "lng": -0.199608219708498}, "southwest": {"lat": 51.51893801970849, "lng": -0.202306180291502}}}, "name": "Cazalet Designs", "place_id": "ChIJvXbZWBsQdkgRfOPxN7Y7ycc", "types": ["point_of_interest", "establishment"], "rating": 5, "user_ratings_total": 1}, "ChIJ-8SYWBsQdkgRBWsLoGQLhvM": {"geometry": {"location": {"lat": 51.5201167, "lng": -0.200866}, "viewport": {"northeast": {"lat": 51.52143238029149, "lng": -0.199613769708498}, "southwest": {"lat": 51.51873441970849, "lng": -0.202311730291502}}}, "name": "Profko LTD", "place_id": "ChIJ-8SYWBsQdkgRBWsLoGQLhvM", "types": ["point_of_interest", "establishment"]}, "ChIJ-3RVZYEPdkgRfqGtK4VGngQ": {"geometry": {"location": {"lat": 51.5202374, "lng": -0.2003917}, "viewport": {"northeast": {"lat": 51.5216430302915, "lng": -0.198891669708498}, "southwest": {"lat": 51.5189450697085, "lng": -0.201589630291502}}}, "name": "Hylton Cleaning", "place_id": "ChIJ-3RVZYEPdkgRfqGtK4VGngQ", "types": ["point_of_interest", "establishment"]}, "ChIJXzNqZBsQdkgRcoylHzFi4DI": {"geometry": {"location": {"lat": 51.52039419999999, "lng": -0.2019954}, "viewport": {"northeast": {"lat": 51.5217986302915, "lng": -0.200646319708498}, "southwest": {"lat": 51.5191006697085, "lng": -0.203344280291502}}}, "name": "Papua New Guinea Church Partnership (PNGCP)", "place_id": "ChIJXzNqZBsQdkgRcoylHzFi4DI", "types": ["church", "place_of_worship", "point_of_interest", "establishment"]}, "ChIJieyvYxsQdkgR0POGW2F585A": {"geometry": {"location": {"lat": 51.5203996, "lng": -0.2016354}, "viewport": {"northeast": {"lat": 51.5217971802915, "lng": -0.2002864197084979}, "southwest": {"lat": 51.5190992197085, "lng": -0.202984380291502}}}, "name": "Anglican Communion Office & Consultative Council", "place_id": "ChIJieyvYxsQdkgR0POGW2F585A", "types": ["point_of_interest", "establishment"], "rating": 5, "user_ratings_total": 4}, "ChIJRT2bXxsQdkgRFkiHkQ1eXsY": {"geometry": {"location": {"lat": 51.5201383, "lng": -0.2011817}, "viewport": {"northeast": {"lat": 51.5214835302915, "lng": -0.199843519708498}, "southwest": {"lat": 51.51878556970851, "lng": -0.202541480291502}}}, "name": "Zipcar", "place_id": "ChIJRT2bXxsQdkgRFkiHkQ1eXsY", "types": ["car_rental", "point_of_interest", "establishment"]}, "ChIJb8K1WxsQdkgR2InrN3VtMsY": {"geometry": {"location": {"lat": 51.520509, "lng": -0.200804}, "viewport": {"northeast": {"lat": 51.52182608029151, "lng": -0.199422219708498}, "southwest": {"lat": 51.51912811970851, "lng": -0.202120180291502}}}, "name": "Santander Cycles", "place_id": "ChIJb8K1WxsQdkgR2InrN3VtMsY", "types": ["point_of_interest", "establishment"]}, "ChIJXzNqZBsQdkgR6kNQcTzYDGo": {"geometry": {"location": {"lat": 51.5204473, "lng": -0.2017333}, "viewport": {"northeast": {"lat": 51.5218188802915, "lng": -0.2003832697084979}, "southwest": {"lat": 51.5191209197085, "lng": -0.203081230291502}}}, "name": "The Lambeth Conference Ltd", "place_id": "ChIJXzNqZBsQdkgR6kNQcTzYDGo", "types": ["church", "place_of_worship", "point_of_interest", "establishment"]}, "ChIJXzNqZBsQdkgRRKMIb9iMpj0": {"geometry": {"location": {"lat": 51.5204435, "lng": -0.2017787}, "viewport": {"northeast": {"lat": 51.52181968029149, "lng": -0.200428469708498}, "southwest": {"lat": 51.51912171970849, "lng": -0.203126430291502}}}, "name": "Anglican Alliance", "place_id": "ChIJXzNqZBsQdkgRRKMIb9iMpj0", "types": ["church", "place_of_worship", "point_of_interest", "establishment"]}, "ChIJfc2FnRwQdkgRMrweaijVsAs": {"geometry": {"location": {"lat": 51.52006799999999, "lng": -0.201851}, "viewport": {"northeast": {"lat": 51.52139948029149, "lng": -0.200484969708498}, "southwest": {"lat": 51.51870151970849, "lng": -0.203182930291502}}}, "name": "ubitricity Charging Station", "place_id": "ChIJfc2FnRwQdkgRMrweaijVsAs", "types": ["point_of_interest", "establishment"]}, "ChIJ__9TVhsQdkgR7kK96GUT9Gw": {"geometry": {"location": {"lat": 51.5202374, "lng": -0.2003917}, "viewport": {"northeast": {"lat": 51.5216430302915, "lng": -0.198891669708498}, "southwest": {"lat": 51.5189450697085, "lng": -0.201589630291502}}}, "name": "Hardy House", "place_id": "ChIJ__9TVhsQdkgR7kK96GUT9Gw", "types": ["point_of_interest", "establishment"]}, "ChIJ__9TVhsQdkgRTfEwLc13CI8": {"geometry": {"location": {"lat": 51.5202374, "lng": -0.2003917}, "viewport": {"northeast": {"lat": 51.5216430302915, "lng": -0.198891669708498}, "southwest": {"lat": 51.5189450697085, "lng": -0.201589630291502}}}, "name": "Star IT Euro Ltd", "place_id": "ChIJ__9TVhsQdkgRTfEwLc13CI8", "types": ["point_of_interest", "establishment"]}, "ChIJ0wEnvhwQdkgRXK4OXVjj2Tk": {"geometry": {"location": {"lat": 51.51898880015457, "lng": -0.201308105414393}, "viewport": {"northeast": {"lat": 51.52084070000004, "lng": -0.1996386500000001}, "southwest": {"lat": 51.51713389999996, "lng": -0.20298525}}}, "name": "2-54 Leamington Rd Villas", "place_id": "ChIJ0wEnvhwQdkgRXK4OXVjj2Tk", "types": ["route"]}, "ChIJBWeVwRwQdkgRdHAuDCmrgj0": {"geometry": {"location": {"lat": 51.5189222, "lng": -0.2009805}, "viewport": {"northeast": {"lat": 51.5202349802915, "lng": -0.199735119708498}, "southwest": {"lat": 51.5175370197085, "lng": -0.202433080291502}}}, "name": "High Spirits Events", "place_id": "ChIJBWeVwRwQdkgRdHAuDCmrgj0", "types": ["point_of_interest", "establishment"]}, "ChIJASavlhwQdkgRvOaqJMGSuAw": {"geometry": {"location": {"lat": 51.51912899999999, "lng": -0.2016593999999999}, "viewport": {"northeast": {"lat": 51.52050713029149, "lng": -0.200226969708498}, "southwest": {"lat": 51.5178091697085, "lng": -0.202924930291502}}}, "name": "Paige Birnie Photos", "place_id": "ChIJASavlhwQdkgRvOaqJMGSuAw", "types": ["point_of_interest", "establishment"]}, "ChIJn1PXpBwQdkgRCQwVBqPlVHU": {"geometry": {"location": {"lat": 51.51935470000001, "lng": -0.2006774}, "viewport": {"northeast": {"lat": 51.5207347802915, "lng": -0.199238019708498}, "southwest": {"lat": 51.51803681970851, "lng": -0.2019359802915021}}}, "name": "The Garden Clinic", "place_id": "ChIJn1PXpBwQdkgRCQwVBqPlVHU", "types": ["health", "point_of_interest", "establishment"], "rating": 5, "user_ratings_total": 1}, "ChIJ_9fDphwQdkgR8vWP1J2PI14": {"geometry": {"location": {"lat": 51.51958399999999, "lng": -0.200899}, "viewport": {"northeast": {"lat": 51.52096643029149, "lng": -0.199452819708498}, "southwest": {"lat": 51.5182684697085, "lng": -0.202150780291502}}}, "name": "BOLD & BEAUTY", "place_id": "ChIJ_9fDphwQdkgR8vWP1J2PI14", "types": ["beauty_salon", "hair_care", "point_of_interest", "establishment"], "rating": 4, "user_ratings_total": 4}, "ChIJ6UtblhwQdkgRpddPxk49PdE": {"geometry": {"location": {"lat": 51.519213, "lng": -0.201467}, "viewport": {"northeast": {"lat": 51.5205661302915, "lng": -0.200106019708498}, "southwest": {"lat": 51.5178681697085, "lng": -0.202803980291502}}}, "name": "ubitricity Charging Station", "place_id": "ChIJ6UtblhwQdkgRpddPxk49PdE", "types": ["point_of_interest", "establishment"]}, "ChIJ46iVlRwQdkgRM6ed0aVBsV4": {"geometry": {"location": {"lat": 51.519013, "lng": -0.201409}, "viewport": {"northeast": {"lat": 51.5203676302915, "lng": -0.200043819708498}, "southwest": {"lat": 51.5176696697085, "lng": -0.202741780291502}}}, "name": "ubitricity Charging Station", "place_id": "ChIJ46iVlRwQdkgRM6ed0aVBsV4", "types": ["point_of_interest", "establishment"]}, "ChIJ__p_rYcRdkgRrtkcwaiT9WY": {"geometry": {"location": {"lat": 51.5191218, "lng": -0.2016568}, "viewport": {"northeast": {"lat": 51.5205011302915, "lng": -0.200220369708498}, "southwest": {"lat": 51.5178031697085, "lng": -0.202918330291502}}}, "name": "CBD Naturae Ltd", "place_id": "ChIJ__p_rYcRdkgRrtkcwaiT9WY", "types": ["grocery_or_supermarket", "food", "point_of_interest", "store", "establishment"]}, "ChIJnYCuvxwQdkgRCQb_wTbB_TM": {"geometry": {"location": {"lat": 51.518885, "lng": -0.2011483}, "viewport": {"northeast": {"lat": 51.5202306802915, "lng": -0.199828219708498}, "southwest": {"lat": 51.5175327197085, "lng": -0.202526180291502}}}, "name": "ubitricity Charging Station", "place_id": "ChIJnYCuvxwQdkgRCQb_wTbB_TM", "types": ["point_of_interest", "establishment"]}, "ChIJm4SIrxwQdkgR4jOfq7vYRCk": {"geometry": {"location": {"lat": 51.5194913, "lng": -0.2006232}, "viewport": {"northeast": {"lat": 51.5208498302915, "lng": -0.199245419708498}, "southwest": {"lat": 51.5181518697085, "lng": -0.201943380291502}}}, "name": "ubitricity Charging Station", "place_id": "ChIJm4SIrxwQdkgR4jOfq7vYRCk", "types": ["point_of_interest", "establishment"]}, "ChIJlWaVwRwQdkgRcjtF1NmXwig": {"geometry": {"location": {"lat": 51.5187545, "lng": -0.2013188}, "viewport": {"northeast": {"lat": 51.5201323302915, "lng": -0.199887319708498}, "southwest": {"lat": 51.5174343697085, "lng": -0.202585280291502}}}, "name": "Bannister Creative Limited", "place_id": "ChIJlWaVwRwQdkgRcjtF1NmXwig", "types": ["point_of_interest", "establishment"]}, "ChIJ1zFZsBwQdkgRbssVeAaOlTQ": {"geometry": {"location": {"lat": 51.51925869999999, "lng": -0.2004117}, "viewport": {"northeast": {"lat": 51.5206164302915, "lng": -0.199037819708498}, "southwest": {"lat": 51.5179184697085, "lng": -0.201735780291502}}}, "name": "ubitricity Charging Station", "place_id": "ChIJ1zFZsBwQdkgRbssVeAaOlTQ", "types": ["point_of_interest", "establishment"]}, "ChIJGcYwqKERdkgRBkdCmvpXvdA": {"geometry": {"location": {"lat": 51.5194682, "lng": -0.2005203}, "viewport": {"northeast": {"lat": 51.5208266302915, "lng": -0.199143719708498}, "southwest": {"lat": 51.5181286697085, "lng": -0.201841680291502}}}, "name": "thatssocool", "place_id": "ChIJGcYwqKERdkgRBkdCmvpXvdA", "types": ["general_contractor", "point_of_interest", "establishment"]}, "ChIJbcmymxwQdkgRELZIuXozbF8": {"geometry": {"location": {"lat": 51.51956029999999, "lng": -0.2017253}, "viewport": {"northeast": {"lat": 51.5208944802915, "lng": -0.200410819708498}, "southwest": {"lat": 51.5181965197085, "lng": -0.203108780291502}}}, "name": "ubitricity Charging Station", "place_id": "ChIJbcmymxwQdkgRELZIuXozbF8", "types": ["point_of_interest", "establishment"]}, "ChIJxYg_2hwQdkgRUc_l4xZ08g0": {"geometry": {"location": {"lat": 51.51788215002868, "lng": -0.2006654498150332}, "viewport": {"northeast": {"lat": 51.5192311302915, "lng": -0.199316469708498}, "southwest": {"lat": 51.5165331697085, "lng": -0.202014430291502}}}, "name": "161-163 Ledbury Rd", "place_id": "ChIJxYg_2hwQdkgRUc_l4xZ08g0", "types": ["route"]}, "ChIJvYjnwxwQdkgRZjL4AGg3mDg": {"geometry": {"location": {"lat": 51.5184162, "lng": -0.2010447}, "viewport": {"northeast": {"lat": 51.5197981802915, "lng": -0.199601319708498}, "southwest": {"lat": 51.5171002197085, "lng": -0.2022992802915021}}}, "name": "Linda Jullian RSHom", "place_id": "ChIJvYjnwxwQdkgRZjL4AGg3mDg", "types": ["health", "point_of_interest", "establishment"]}, "ChIJrbHw2xwQdkgRBjYEWuyM5zs": {"geometry": {"location": {"lat": 51.51783709999999, "lng": -0.2009245}, "viewport": {"northeast": {"lat": 51.5192227302915, "lng": -0.199457319708498}, "southwest": {"lat": 51.5165247697085, "lng": -0.202155280291502}}}, "name": "Ag & G", "place_id": "ChIJrbHw2xwQdkgRBjYEWuyM5zs", "types": ["point_of_interest", "establishment"]}, "ChIJg01pmxwQdkgRE7ySZUpO5-k": {"geometry": {"location": {"lat": 51.518198, "lng": -0.2005981}, "viewport": {"northeast": {"lat": 51.5195315802915, "lng": -0.199293519708498}, "southwest": {"lat": 51.5168336197085, "lng": -0.201991480291502}}}, "name": "CNC ELECTRICAL", "place_id": "ChIJg01pmxwQdkgRE7ySZUpO5-k", "types": ["electrician", "point_of_interest", "establishment"], "rating": 5, "user_ratings_total": 2}, "ChIJ-VJoi_wcdkgRDJNltb0fndQ": {"geometry": {"location": {"lat": 51.5177942, "lng": -0.2010497}, "viewport": {"northeast": {"lat": 51.51919243029149, "lng": -0.199732669708498}, "southwest": {"lat": 51.51649446970849, "lng": -0.202430630291502}}}, "name": "The People's Rainwear", "place_id": "ChIJ-VJoi_wcdkgRDJNltb0fndQ", "types": ["point_of_interest", "establishment"], "rating": 3.2, "user_ratings_total": 30}, "ChIJVc3xFh0QdkgRumjkesALVIg": {"geometry": {"location": {"lat": 51.5180435, "lng": -0.2005184}, "viewport": {"northeast": {"lat": 51.5194233302915, "lng": -0.199191619708498}, "southwest": {"lat": 51.5167253697085, "lng": -0.201889580291502}}}, "name": "London Notting Hill Carnival Enterprises Trust", "place_id": "ChIJVc3xFh0QdkgRumjkesALVIg", "types": ["point_of_interest", "establishment"], "rating": 4.2, "user_ratings_total": 51}, "ChIJo4eR7xwQdkgRRSCQlEM14tU": {"geometry": {"location": {"lat": 51.5181513, "lng": -0.201922}, "viewport": {"northeast": {"lat": 51.5195230802915, "lng": -0.200508969708498}, "southwest": {"lat": 51.5168251197085, "lng": -0.203206930291502}}}, "name": "Daska Hatton", "place_id": "ChIJo4eR7xwQdkgRRSCQlEM14tU", "types": ["health", "point_of_interest", "establishment"], "rating": 5, "user_ratings_total": 5}, "ChIJ-YMs5xwQdkgRlbIwPngzIGI": {"geometry": {"location": {"lat": 51.51768949999999, "lng": -0.2013858}, "viewport": {"northeast": {"lat": 51.51910278029149, "lng": -0.200060669708498}, "southwest": {"lat": 51.51640481970849, "lng": -0.202758630291502}}}, "name": "Butter Bakery Bar & Cafe", "place_id": "ChIJ-YMs5xwQdkgRlbIwPngzIGI", "types": ["cafe", "bar", "restaurant", "food", "point_of_interest", "establishment"], "rating": 4.6, "user_ratings_total": 148}, "ChIJ8YMtCYsSdkgRr9xAg2AqcM8": {"geometry": {"location": {"lat": 51.5184794, "lng": -0.2017711}, "viewport": {"northeast": {"lat": 51.51979053029149, "lng": -0.200528569708498}, "southwest": {"lat": 51.5170925697085, "lng": -0.203226530291502}}}, "name": "Urban Tails", "place_id": "ChIJ8YMtCYsSdkgRr9xAg2AqcM8", "types": ["point_of_interest", "establishment"], "rating": 4.3, "user_ratings_total": 3}, "ChIJJcD64BwQdkgR0EF6yYSarwk": {"geometry": {"location": {"lat": 51.5176638, "lng": -0.2014608}, "viewport": {"northeast": {"lat": 51.5190062802915, "lng": -0.200158619708498}, "southwest": {"lat": 51.5163083197085, "lng": -0.202856580291502}}}, "name": "Richard gunn", "place_id": "ChIJJcD64BwQdkgR0EF6yYSarwk", "types": ["health", "point_of_interest", "establishment"]}, "ChIJXbRGt9oWdkgRhUriNdmuJmk": {"geometry": {"location": {"lat": 51.517659, "lng": -0.201466}, "viewport": {"northeast": {"lat": 51.5190048302915, "lng": -0.200156869708498}, "southwest": {"lat": 51.5163068697085, "lng": -0.202854830291502}}}, "name": "WildWash", "place_id": "ChIJXbRGt9oWdkgRhUriNdmuJmk", "types": ["pet_store", "point_of_interest", "store", "establishment"], "rating": 5, "user_ratings_total": 3}, "ChIJzeFZ0DkQdkgRawZIgj7PT8I": {"geometry": {"location": {"lat": 51.5176585, "lng": -0.2014661}, "viewport": {"northeast": {"lat": 51.5190179802915, "lng": -0.200167369708498}, "southwest": {"lat": 51.5163200197085, "lng": -0.202865330291502}}}, "name": "The Mutz Nutz and WildWash Spa", "place_id": "ChIJzeFZ0DkQdkgRawZIgj7PT8I", "types": ["pet_store", "point_of_interest", "store", "establishment"], "rating": 4.1, "user_ratings_total": 85}, "ChIJgYDhG98PdkgRvEho9Auo_QQ": {"geometry": {"location": {"lat": 51.51774770000001, "lng": -0.2010731}, "viewport": {"northeast": {"lat": 51.51911128029149, "lng": -0.199777019708498}, "southwest": {"lat": 51.5164133197085, "lng": -0.202474980291502}}}, "name": "SHARP & FLASK Westbourne Park", "place_id": "ChIJgYDhG98PdkgRvEho9Auo_QQ", "types": ["hair_care", "health", "point_of_interest", "establishment"], "rating": 4.8, "user_ratings_total": 131}, "ChIJDwzl3hwQdkgRkN9AGrmVIMA": {"geometry": {"location": {"lat": 51.51766320000001, "lng": -0.2010764}, "viewport": {"northeast": {"lat": 51.51899203029151, "lng": -0.199773569708498}, "southwest": {"lat": 51.51629406970851, "lng": -0.2024715302915021}}}, "name": "Lovegrove Studio", "place_id": "ChIJDwzl3hwQdkgRkN9AGrmVIMA", "types": ["general_contractor", "point_of_interest", "establishment"], "rating": 5, "user_ratings_total": 4}, "ChIJb90S3BwQdkgRTbN13Cuv1DQ": {"geometry": {"location": {"lat": 51.51786999999999, "lng": -0.201005}, "viewport": {"northeast": {"lat": 51.5192327802915, "lng": -0.199664969708498}, "southwest": {"lat": 51.5165348197085, "lng": -0.202362930291502}}}, "name": "Santander Cycles", "place_id": "ChIJb90S3BwQdkgRTbN13Cuv1DQ", "types": ["point_of_interest", "establishment"]}, "ChIJ9TzSxBwQdkgRldG6DYLNIJ8": {"geometry": {"location": {"lat": 51.51816830000001, "lng": -0.2006401}, "viewport": {"northeast": {"lat": 51.5195198302915, "lng": -0.199283869708498}, "southwest": {"lat": 51.5168218697085, "lng": -0.201981830291502}}}, "name": "Zipcar", "place_id": "ChIJ9TzSxBwQdkgRldG6DYLNIJ8", "types": ["car_rental", "point_of_interest", "establishment"], "rating": 4, "user_ratings_total": 1}, "ChIJZTGoQgMRdkgRyfg-qrLqS7o": {"geometry": {"location": {"lat": 51.517791, "lng": -0.2009574}, "viewport": {"northeast": {"lat": 51.5192005802915, "lng": -0.199647769708498}, "southwest": {"lat": 51.5165026197085, "lng": -0.202345730291502}}}, "name": "Native Spirit Foundation", "place_id": "ChIJZTGoQgMRdkgRyfg-qrLqS7o", "types": ["point_of_interest", "establishment"]}, "ChIJEbr-hcMRdkgR-hV6o35EUno": {"geometry": {"location": {"lat": 51.5178132, "lng": -0.2008296}, "viewport": {"northeast": {"lat": 51.5192270802915, "lng": -0.199522719708498}, "southwest": {"lat": 51.5165291197085, "lng": -0.202220680291502}}}, "name": "Caract\u00e8re", "place_id": "ChIJEbr-hcMRdkgR-hV6o35EUno", "types": ["restaurant", "food", "point_of_interest", "establishment"], "rating": 4.8, "user_ratings_total": 135}, "ChIJbRUh3hwQdkgRlI0PyIh8ebw": {"geometry": {"location": {"lat": 51.5177506, "lng": -0.201089}, "viewport": {"northeast": {"lat": 51.51909158029149, "lng": -0.199765619708498}, "southwest": {"lat": 51.5163936197085, "lng": -0.202463580291502}}}, "name": "EKA Fashion", "place_id": "ChIJbRUh3hwQdkgRlI0PyIh8ebw", "types": ["point_of_interest", "clothing_store", "store", "establishment"]}, "ChIJCbOF5RwQdkgRYEQTgKg_Wcs": {"geometry": {"location": {"lat": 51.51809249999999, "lng": -0.2018367}, "viewport": {"northeast": {"lat": 51.5194590302915, "lng": -0.200435219708498}, "southwest": {"lat": 51.5167610697085, "lng": -0.203133180291502}}}, "name": "Naga Partners Limited", "place_id": "ChIJCbOF5RwQdkgRYEQTgKg_Wcs", "types": ["finance", "point_of_interest", "establishment"]}, "ChIJ4_CL3hwQdkgRE7C_gVxHTys": {"geometry": {"location": {"lat": 51.51772660000001, "lng": -0.2013863}, "viewport": {"northeast": {"lat": 51.5191210302915, "lng": -0.200062369708498}, "southwest": {"lat": 51.5164230697085, "lng": -0.202760330291502}}}, "name": "ATM", "place_id": "ChIJ4_CL3hwQdkgRE7C_gVxHTys", "types": ["atm", "finance", "point_of_interest", "establishment"], "rating": 4, "user_ratings_total": 1}, "ChIJo7Ah3hwQdkgRWM-uoH4v8nY": {"geometry": {"location": {"lat": 51.51770339999999, "lng": -0.2013025999999999}, "viewport": {"northeast": {"lat": 51.5191161802915, "lng": -0.1999887697084979}, "southwest": {"lat": 51.5164182197085, "lng": -0.202686730291502}}}, "name": "Body Group Ltd", "place_id": "ChIJo7Ah3hwQdkgRWM-uoH4v8nY", "types": ["point_of_interest", "establishment"]}, "ChIJN48B3hwQdkgRrqIf3YMp7EI": {"geometry": {"location": {"lat": 51.5176993, "lng": -0.2012672}, "viewport": {"northeast": {"lat": 51.51911733029149, "lng": -0.1999562697084979}, "southwest": {"lat": 51.5164193697085, "lng": -0.202654230291502}}}, "name": "Usman", "place_id": "ChIJN48B3hwQdkgRrqIf3YMp7EI", "types": ["convenience_store", "food", "point_of_interest", "store", "establishment"]}, "ChIJwcS-4BwQdkgRrYAsvsqdj2M": {"geometry": {"location": {"lat": 51.51768949999999, "lng": -0.2013858}, "viewport": {"northeast": {"lat": 51.51910058029149, "lng": -0.200071019708498}, "southwest": {"lat": 51.51640261970849, "lng": -0.202768980291502}}}, "name": "FG Property - Notting Hill, Westbourne Park Road", "place_id": "ChIJwcS-4BwQdkgRrYAsvsqdj2M", "types": ["point_of_interest", "establishment"], "rating": 3, "user_ratings_total": 2}, "ChIJ0wVX4RwQdkgR4yo4EAwPXGw": {"geometry": {"location": {"lat": 51.5177589, "lng": -0.2016723000000001}, "viewport": {"northeast": {"lat": 51.51910788029149, "lng": -0.2003233197084981}, "southwest": {"lat": 51.5164099197085, "lng": -0.2030212802915021}}}, "name": "FENN WELLNESS", "place_id": "ChIJ0wVX4RwQdkgR4yo4EAwPXGw", "types": ["health", "point_of_interest", "establishment"]}, "ChIJ0wVX4RwQdkgREMq50AH8FXI": {"geometry": {"location": {"lat": 51.5177589, "lng": -0.2016723000000001}, "viewport": {"northeast": {"lat": 51.51910788029149, "lng": -0.2003233197084981}, "southwest": {"lat": 51.5164099197085, "lng": -0.2030212802915021}}}, "name": "Fenn Wellness", "place_id": "ChIJ0wVX4RwQdkgREMq50AH8FXI", "types": ["health", "point_of_interest", "establishment"]}, "ChIJ0wVX4RwQdkgRVs4Fo7Lp4jU": {"geometry": {"location": {"lat": 51.5177589, "lng": -0.2016723000000001}, "viewport": {"northeast": {"lat": 51.51910788029149, "lng": -0.2003233197084981}, "southwest": {"lat": 51.5164099197085, "lng": -0.2030212802915021}}}, "name": "FENN WELLNESS", "place_id": "ChIJ0wVX4RwQdkgRVs4Fo7Lp4jU", "types": ["health", "point_of_interest", "establishment"]}, "ChIJ_yjDqCARdkgRQR6YYL1GITc": {"geometry": {"location": {"lat": 51.5181969, "lng": -0.2003127}, "viewport": {"northeast": {"lat": 51.5195061302915, "lng": -0.1989367697084979}, "southwest": {"lat": 51.5168081697085, "lng": -0.201634730291502}}}, "name": "Solo Motorcycles Only", "place_id": "ChIJ_yjDqCARdkgRQR6YYL1GITc", "types": ["parking", "point_of_interest", "establishment"], "rating": 5, "user_ratings_total": 1}, "ChIJj_WTJh0QdkgR1bXAShtR8L0": {"geometry": {"location": {"lat": 51.5172708, "lng": -0.2006512}, "viewport": {"northeast": {"lat": 51.51861398029149, "lng": -0.199326919708498}, "southwest": {"lat": 51.5159160197085, "lng": -0.202024880291502}}}, "name": "Air & Sound", "place_id": "ChIJj_WTJh0QdkgR1bXAShtR8L0", "types": ["electronics_store", "car_repair", "point_of_interest", "store", "establishment"], "rating": 5, "user_ratings_total": 13}, "ChIJAe06IB0QdkgRSicpLBNOQ2I": {"geometry": {"location": {"lat": 51.51735879999999, "lng": -0.2011136}, "viewport": {"northeast": {"lat": 51.5187511302915, "lng": -0.199642369708498}, "southwest": {"lat": 51.5160531697085, "lng": -0.202340330291502}}}, "name": "Sophie Hicks Architects", "place_id": "ChIJAe06IB0QdkgRSicpLBNOQ2I", "types": ["point_of_interest", "establishment"]}, "ChIJEyFpJh0QdkgRb1v-VaCKOn4": {"geometry": {"location": {"lat": 51.5172903, "lng": -0.2006581}, "viewport": {"northeast": {"lat": 51.51863238029149, "lng": -0.1993382197084979}, "southwest": {"lat": 51.51593441970849, "lng": -0.202036180291502}}}, "name": "GCAP Performance", "place_id": "ChIJEyFpJh0QdkgRb1v-VaCKOn4", "types": ["car_repair", "point_of_interest", "store", "establishment"], "rating": 4.9, "user_ratings_total": 63}, "ChIJj_WTJh0QdkgRG3r-Suka5D4": {"geometry": {"location": {"lat": 51.51745409999999, "lng": -0.20104}, "viewport": {"northeast": {"lat": 51.5188248802915, "lng": -0.199629519708498}, "southwest": {"lat": 51.5161269197085, "lng": -0.202327480291502}}}, "name": "Rogers Coleridge & White Ltd", "place_id": "ChIJj_WTJh0QdkgRG3r-Suka5D4", "types": ["point_of_interest", "establishment"], "rating": 5, "user_ratings_total": 2}, "ChIJxYGfIB0QdkgRCuq85qcX0VU": {"geometry": {"location": {"lat": 51.51745409999999, "lng": -0.2010399}, "viewport": {"northeast": {"lat": 51.5188248802915, "lng": -0.199629469708498}, "southwest": {"lat": 51.5161269197085, "lng": -0.202327430291502}}}, "name": "Christina Hardyment", "place_id": "ChIJxYGfIB0QdkgRCuq85qcX0VU", "types": ["point_of_interest", "establishment"]}, "ChIJxYGfIB0QdkgRqZ7-DjQlbfg": {"geometry": {"location": {"lat": 51.51745409999999, "lng": -0.2010399}, "viewport": {"northeast": {"lat": 51.5188248802915, "lng": -0.199629469708498}, "southwest": {"lat": 51.5161269197085, "lng": -0.202327430291502}}}, "name": "Bernard MacLaverty", "place_id": "ChIJxYGfIB0QdkgRqZ7-DjQlbfg", "types": ["point_of_interest", "establishment"]}, "ChIJxYGfIB0QdkgR7z6j7TmUY04": {"geometry": {"location": {"lat": 51.51745409999999, "lng": -0.2010399}, "viewport": {"northeast": {"lat": 51.5188248802915, "lng": -0.199629469708498}, "southwest": {"lat": 51.5161269197085, "lng": -0.202327430291502}}}, "name": "Jacob Polley", "place_id": "ChIJxYGfIB0QdkgR7z6j7TmUY04", "types": ["point_of_interest", "establishment"]}, "ChIJ77KiJx0QdkgR2x5yLCo9pms": {"geometry": {"location": {"lat": 51.5173796, "lng": -0.2007168}, "viewport": {"northeast": {"lat": 51.5187196302915, "lng": -0.199399469708498}, "southwest": {"lat": 51.5160216697085, "lng": -0.202097430291502}}}, "name": "Karen Wallace", "place_id": "ChIJ77KiJx0QdkgR2x5yLCo9pms", "types": ["point_of_interest", "establishment"]}, "ChIJAe06IB0QdkgRstQnD9Rnmoo": {"geometry": {"location": {"lat": 51.5174016, "lng": -0.2016138}, "viewport": {"northeast": {"lat": 51.5187755802915, "lng": -0.200170819708498}, "southwest": {"lat": 51.51607761970851, "lng": -0.202868780291502}}}, "name": "Jencks Squared", "place_id": "ChIJAe06IB0QdkgRstQnD9Rnmoo", "types": ["point_of_interest", "establishment"]}, "ChIJD1m73qIQdkgR-Y2jTyFhAOY": {"geometry": {"location": {"lat": 51.5174652, "lng": -0.2016553}, "viewport": {"northeast": {"lat": 51.51883893029149, "lng": -0.200213219708498}, "southwest": {"lat": 51.51614096970849, "lng": -0.202911180291502}}}, "name": "MYZ Beauty Boutique", "place_id": "ChIJD1m73qIQdkgR-Y2jTyFhAOY", "types": ["beauty_salon", "point_of_interest", "establishment"], "rating": 4.4, "user_ratings_total": 21}, "ChIJGQ2-oZARdkgRpYAJXXDqNTc": {"geometry": {"location": {"lat": 51.5171621, "lng": -0.2014564}, "viewport": {"northeast": {"lat": 51.51853758029149, "lng": -0.200010569708498}, "southwest": {"lat": 51.51583961970849, "lng": -0.202708530291502}}}, "name": "kensington Dog Walkers", "place_id": "ChIJGQ2-oZARdkgRpYAJXXDqNTc", "types": ["point_of_interest", "establishment"]}, "ChIJyd1YXTQRdkgRhll2gZUlV1Y": {"geometry": {"location": {"lat": 51.51733189999999, "lng": -0.2010122}, "viewport": {"northeast": {"lat": 51.51871398029149, "lng": -0.199569969708498}, "southwest": {"lat": 51.51601601970849, "lng": -0.202267930291502}}}, "name": "Keystone Bespoke Modern Staircases, a branch of Keystone Building Restoration Ltd.", "place_id": "ChIJyd1YXTQRdkgRhll2gZUlV1Y", "types": ["general_contractor", "point_of_interest", "establishment"], "rating": 5, "user_ratings_total": 1}, "ChIJ52ZxDx0QdkgRryfPYa920HA": {"geometry": {"location": {"lat": 51.5172981, "lng": -0.2015017}, "viewport": {"northeast": {"lat": 51.51866838029149, "lng": -0.200076669708498}, "southwest": {"lat": 51.51597041970849, "lng": -0.2027746302915021}}}, "name": "Hedgegate Court", "place_id": "ChIJ52ZxDx0QdkgRryfPYa920HA", "types": ["point_of_interest", "establishment"]}, "ChIJ__-bIB0QdkgRT0qjtImt-Fg": {"geometry": {"location": {"lat": 51.51744360000001, "lng": -0.2010619}, "viewport": {"northeast": {"lat": 51.5188186302915, "lng": -0.199639519708498}, "southwest": {"lat": 51.5161206697085, "lng": -0.202337480291502}}}, "name": "Clare Jackson", "place_id": "ChIJ__-bIB0QdkgRT0qjtImt-Fg", "types": ["point_of_interest", "establishment"]}, "ChIJ__-bIB0QdkgRQcJsb7h0sEE": {"geometry": {"location": {"lat": 51.51744360000001, "lng": -0.2010619}, "viewport": {"northeast": {"lat": 51.5188186302915, "lng": -0.199639519708498}, "southwest": {"lat": 51.5161206697085, "lng": -0.202337480291502}}}, "name": "Tanya Byrne", "place_id": "ChIJ__-bIB0QdkgRQcJsb7h0sEE", "types": ["point_of_interest", "establishment"]}, "ChIJ__-bIB0QdkgRx7FJRZry0lU": {"geometry": {"location": {"lat": 51.51744360000001, "lng": -0.2010619}, "viewport": {"northeast": {"lat": 51.5188186302915, "lng": -0.199639519708498}, "southwest": {"lat": 51.5161206697085, "lng": -0.202337480291502}}}, "name": "Catherine Merridale", "place_id": "ChIJ__-bIB0QdkgRx7FJRZry0lU", "types": ["point_of_interest", "establishment"]}, "ChIJ__-bIB0QdkgR64iURj8QxXI": {"geometry": {"location": {"lat": 51.51744360000001, "lng": -0.2010619}, "viewport": {"northeast": {"lat": 51.5188186302915, "lng": -0.199639519708498}, "southwest": {"lat": 51.5161206697085, "lng": -0.202337480291502}}}, "name": "Deborah Rogers Foundation", "place_id": "ChIJ__-bIB0QdkgR64iURj8QxXI", "types": ["point_of_interest", "establishment"]}, "ChIJxYGfIB0QdkgR4G2xLssHxjI": {"geometry": {"location": {"lat": 51.51745409999999, "lng": -0.2010399}, "viewport": {"northeast": {"lat": 51.5188248802915, "lng": -0.199629469708498}, "southwest": {"lat": 51.5161269197085, "lng": -0.202327430291502}}}, "name": "Lorna Gibb", "place_id": "ChIJxYGfIB0QdkgR4G2xLssHxjI", "types": ["point_of_interest", "establishment"]}, "ChIJj_WTJh0QdkgRhPRYidwAgjo": {"geometry": {"location": {"lat": 51.51740319999999, "lng": -0.2007386}, "viewport": {"northeast": {"lat": 51.51874433029149, "lng": -0.1994174697084979}, "southwest": {"lat": 51.51604636970849, "lng": -0.202115430291502}}}, "name": "Wiggins Autos", "place_id": "ChIJj_WTJh0QdkgRhPRYidwAgjo", "types": ["car_repair", "point_of_interest", "establishment"], "rating": 4.8, "user_ratings_total": 10}, "ChIJX3rzex4QdkgROKQiI-4xs9A": {"geometry": {"location": {"lat": 51.5175341, "lng": -0.2013067}, "viewport": {"northeast": {"lat": 51.5188633302915, "lng": -0.200032019708498}, "southwest": {"lat": 51.5161653697085, "lng": -0.202729980291502}}}, "name": "La Boca Ltd", "place_id": "ChIJX3rzex4QdkgROKQiI-4xs9A", "types": ["point_of_interest", "establishment"]}, "ChIJNScxHh0QdkgR0AKqP-o4yMk": {"geometry": {"location": {"lat": 51.5174734, "lng": -0.2016488}, "viewport": {"northeast": {"lat": 51.5188457802915, "lng": -0.200211869708498}, "southwest": {"lat": 51.5161478197085, "lng": -0.202909830291502}}}, "name": "Rouge Make up School", "place_id": "ChIJNScxHh0QdkgR0AKqP-o4yMk", "types": ["point_of_interest", "store", "establishment"]}, "ChIJgXMveRwQdkgRbCTp-s3X2vA": {"geometry": {"location": {"lat": 51.52008876929936, "lng": -0.2033437363987294}, "viewport": {"northeast": {"lat": 51.5214368802915, "lng": -0.201998619708498}, "southwest": {"lat": 51.5187389197085, "lng": -0.204696580291502}}}, "name": "52-58 St Luke's Rd", "place_id": "ChIJgXMveRwQdkgRbCTp-s3X2vA", "types": ["route"]}, "ChIJL_U_ehsQdkgRKiYCIdBuFdU": {"geometry": {"location": {"lat": 51.5204039, "lng": -0.2022475}, "viewport": {"northeast": {"lat": 51.5217986302915, "lng": -0.200873419708498}, "southwest": {"lat": 51.5191006697085, "lng": -0.203571380291502}}}, "name": "Tavistock Housing Ltd", "place_id": "ChIJL_U_ehsQdkgRKiYCIdBuFdU", "types": ["point_of_interest", "establishment"], "rating": 1, "user_ratings_total": 1}, "ChIJUy6ceRsQdkgR590C-O7E4DI": {"geometry": {"location": {"lat": 51.5206448, "lng": -0.2023275}, "viewport": {"northeast": {"lat": 51.5219937802915, "lng": -0.200978519708498}, "southwest": {"lat": 51.5192958197085, "lng": -0.203676480291502}}}, "name": "Pixelution Plus", "place_id": "ChIJUy6ceRsQdkgR590C-O7E4DI", "types": ["point_of_interest", "establishment"]}, "ChIJuVxyexsQdkgRuxdhwY9DwuA": {"geometry": {"location": {"lat": 51.5206044, "lng": -0.2022502}, "viewport": {"northeast": {"lat": 51.52195338029149, "lng": -0.200901219708498}, "southwest": {"lat": 51.51925541970849, "lng": -0.203599180291502}}}, "name": "Lorella Belli Literary Agency", "place_id": "ChIJuVxyexsQdkgRuxdhwY9DwuA", "types": ["point_of_interest", "establishment"], "rating": 5, "user_ratings_total": 1}, "ChIJHRyXHbcRdkgRpiTBvdjZ87s": {"geometry": {"location": {"lat": 51.5201339, "lng": -0.2024816}, "viewport": {"northeast": {"lat": 51.5213553802915, "lng": -0.201015319708498}, "southwest": {"lat": 51.5186574197085, "lng": -0.203713280291502}}}, "name": "Head Tilt Photography", "place_id": "ChIJHRyXHbcRdkgRpiTBvdjZ87s", "types": ["point_of_interest", "establishment"], "rating": 5, "user_ratings_total": 3}, "ChIJ__8rfBsQdkgR2LxcvRV_jE8": {"geometry": {"location": {"lat": 51.520275, "lng": -0.2024169}, "viewport": {"northeast": {"lat": 51.5214523802915, "lng": -0.2009089197084979}, "southwest": {"lat": 51.5187544197085, "lng": -0.203606880291502}}}, "name": "Westmead Elderly Resource Centre", "place_id": "ChIJ__8rfBsQdkgR2LxcvRV_jE8", "types": ["point_of_interest", "establishment"]}, "ChIJE-rMYRsQdkgR1RU-EDGfAfM": {"geometry": {"location": {"lat": 51.52026900000001, "lng": -0.2023676}, "viewport": {"northeast": {"lat": 51.5214552802915, "lng": -0.200867869708498}, "southwest": {"lat": 51.5187573197085, "lng": -0.203565830291502}}}, "name": "Westmead Residential Care Home", "place_id": "ChIJE-rMYRsQdkgR1RU-EDGfAfM", "types": ["point_of_interest", "establishment"], "rating": 3.9, "user_ratings_total": 16}, "ChIJAUMo7HgRdkgRUIqTttnSl3s": {"geometry": {"location": {"lat": 51.5202074, "lng": -0.2034371}, "viewport": {"northeast": {"lat": 51.5215863802915, "lng": -0.202108719708498}, "southwest": {"lat": 51.5188884197085, "lng": -0.204806680291502}}}, "name": "Ladbroke Grove Plumbers", "place_id": "ChIJAUMo7HgRdkgRUIqTttnSl3s", "types": ["plumber", "general_contractor", "point_of_interest", "establishment"], "rating": 5, "user_ratings_total": 2}, "ChIJuVxyexsQdkgRsLBjPEpERtg": {"geometry": {"location": {"lat": 51.5204886, "lng": -0.2022182}, "viewport": {"northeast": {"lat": 51.52181308029149, "lng": -0.200858769708498}, "southwest": {"lat": 51.51911511970849, "lng": -0.203556730291502}}}, "name": "Ana Johns", "place_id": "ChIJuVxyexsQdkgRsLBjPEpERtg", "types": ["point_of_interest", "establishment"]}, "ChIJExF7d_4RdkgRmkYo0ACw8AY": {"geometry": {"location": {"lat": 51.5205958, "lng": -0.2023312}, "viewport": {"northeast": {"lat": 51.5218945802915, "lng": -0.200921119708498}, "southwest": {"lat": 51.5191966197085, "lng": -0.203619080291502}}}, "name": "Ladbrocke Pest control", "place_id": "ChIJExF7d_4RdkgRmkYo0ACw8AY", "types": ["home_goods_store", "point_of_interest", "store", "establishment"], "rating": 5, "user_ratings_total": 4}, "ChIJd5-vghsQdkgRTGMb_nAZZmk": {"geometry": {"location": {"lat": 51.52076719999999, "lng": -0.2027886}, "viewport": {"northeast": {"lat": 51.52205939010111, "lng": -0.2014975775577513}, "southwest": {"lat": 51.51936142951811, "lng": -0.2041955381407554}}}, "name": "Parking lot", "place_id": "ChIJd5-vghsQdkgRTGMb_nAZZmk", "types": ["parking", "premise", "point_of_interest", "establishment"]}, "ChIJqUf2bhwQdkgR7IyU8RFMVyQ": {"geometry": {"location": {"lat": 51.51925874802696, "lng": -0.2037688859019415}, "viewport": {"northeast": {"lat": 51.5206059302915, "lng": -0.20225845}, "southwest": {"lat": 51.5179079697085, "lng": -0.20528585}}}, "name": "68-34 Tavistock Rd", "place_id": "ChIJqUf2bhwQdkgR7IyU8RFMVyQ", "types": ["route"]}, "ChIJd8m2YxwQdkgR8xry5uDtsek": {"geometry": {"location": {"lat": 51.51926, "lng": -0.2029494}, "viewport": {"northeast": {"lat": 51.52063488029149, "lng": -0.201521769708498}, "southwest": {"lat": 51.51793691970849, "lng": -0.204219730291502}}}, "name": "Notting Hill Childcare", "place_id": "ChIJd8m2YxwQdkgR8xry5uDtsek", "types": ["point_of_interest", "establishment"], "rating": 4, "user_ratings_total": 2}, "ChIJB9GLiBwQdkgRKkOn-C3VuT0": {"geometry": {"location": {"lat": 51.51926, "lng": -0.2029494}, "viewport": {"northeast": {"lat": 51.52063488029149, "lng": -0.201521769708498}, "southwest": {"lat": 51.51793691970849, "lng": -0.204219730291502}}}, "name": "Zeta Jet", "place_id": "ChIJB9GLiBwQdkgRKkOn-C3VuT0", "types": ["travel_agency", "point_of_interest", "establishment"]}, "ChIJ_eTPixwQdkgRyxAb42MDCgo": {"geometry": {"location": {"lat": 51.51916599999999, "lng": -0.202853}, "viewport": {"northeast": {"lat": 51.52054098029149, "lng": -0.201429769708498}, "southwest": {"lat": 51.51784301970849, "lng": -0.204127730291502}}}, "name": "Christopher Hodsoll", "place_id": "ChIJ_eTPixwQdkgRyxAb42MDCgo", "types": ["furniture_store", "home_goods_store", "point_of_interest", "store", "establishment"]}, "ChIJafWw9BwQdkgRk_LrqDFOuWs": {"geometry": {"location": {"lat": 51.51874, "lng": -0.202487}, "viewport": {"northeast": {"lat": 51.52011573029149, "lng": -0.201057869708498}, "southwest": {"lat": 51.5174177697085, "lng": -0.203755830291502}}}, "name": "Lindholm Forres Books", "place_id": "ChIJafWw9BwQdkgRk_LrqDFOuWs", "types": ["book_store", "point_of_interest", "store", "establishment"]}, "ChIJs5U5YRwQdkgRPvt3Qz0RTq8": {"geometry": {"location": {"lat": 51.5190052, "lng": -0.2031143}, "viewport": {"northeast": {"lat": 51.52030338029149, "lng": -0.201722219708498}, "southwest": {"lat": 51.5176054197085, "lng": -0.204420180291502}}}, "name": "CiMS", "place_id": "ChIJs5U5YRwQdkgRPvt3Qz0RTq8", "types": ["point_of_interest", "establishment"]}, "ChIJJcdxugIRdkgRJWDJSqzaA7I": {"geometry": {"location": {"lat": 51.51927740000001, "lng": -0.2033038}, "viewport": {"northeast": {"lat": 51.5206874302915, "lng": -0.202011519708498}, "southwest": {"lat": 51.5179894697085, "lng": -0.204709480291502}}}, "name": "AA Instructor Cheryl Andrews", "place_id": "ChIJJcdxugIRdkgRJWDJSqzaA7I", "types": ["point_of_interest", "establishment"]}, "ChIJCcbyhxwQdkgRxvaTwGcfQuQ": {"geometry": {"location": {"lat": 51.51952730000001, "lng": -0.2027392}, "viewport": {"northeast": {"lat": 51.5208458802915, "lng": -0.201482469708498}, "southwest": {"lat": 51.5181479197085, "lng": -0.204180430291502}}}, "name": "Tavistock Mansions", "place_id": "ChIJCcbyhxwQdkgRxvaTwGcfQuQ", "types": ["point_of_interest", "establishment"], "rating": 5, "user_ratings_total": 1}, "ChIJW4hyrAcRdkgR6vHq6a4yn-Q": {"geometry": {"location": {"lat": 51.5192828, "lng": -0.2034247}, "viewport": {"northeast": {"lat": 51.5206745302915, "lng": -0.202115419708498}, "southwest": {"lat": 51.5179765697085, "lng": -0.204813380291502}}}, "name": "Roofing Notting Hill", "place_id": "ChIJW4hyrAcRdkgR6vHq6a4yn-Q", "types": ["roofing_contractor", "point_of_interest", "establishment"]}, "ChIJ49r8ZhwQdkgROisYDAxt1tw": {"geometry": {"location": {"lat": 51.5189511, "lng": -0.2033082}, "viewport": {"northeast": {"lat": 51.5202455302915, "lng": -0.201912869708498}, "southwest": {"lat": 51.5175475697085, "lng": -0.204610830291502}}}, "name": "Lyndons Arts Trust", "place_id": "ChIJ49r8ZhwQdkgROisYDAxt1tw", "types": ["point_of_interest", "establishment"]}, "ChIJnz73jnERdkgRBAU5VIHHBF4": {"geometry": {"location": {"lat": 51.519572, "lng": -0.2030318}, "viewport": {"northeast": {"lat": 51.5209437802915, "lng": -0.201707469708498}, "southwest": {"lat": 51.5182458197085, "lng": -0.204405430291502}}}, "name": "David Cass: Artist", "place_id": "ChIJnz73jnERdkgRBAU5VIHHBF4", "types": ["point_of_interest", "establishment"]}, "ChIJxz96kcERdkgRleFulIn2zjw": {"geometry": {"location": {"lat": 51.51883710000001, "lng": -0.2026826}, "viewport": {"northeast": {"lat": 51.5202285302915, "lng": -0.201214269708498}, "southwest": {"lat": 51.51753056970851, "lng": -0.203912230291502}}}, "name": "W11 Emergency Plumbers & Boiler Repair", "place_id": "ChIJxz96kcERdkgRleFulIn2zjw", "types": ["point_of_interest", "establishment"], "rating": 5, "user_ratings_total": 6}, "ChIJI0SOUpwRdkgRTLRjCTRd3no": {"geometry": {"location": {"lat": 51.5189714, "lng": -0.2022118}, "viewport": {"northeast": {"lat": 51.5202831802915, "lng": -0.200967419708498}, "southwest": {"lat": 51.5175852197085, "lng": -0.2036653802915021}}}, "name": "Chary On Top", "place_id": "ChIJI0SOUpwRdkgRTLRjCTRd3no", "types": ["point_of_interest", "establishment"]}, "ChIJAQCvjRwQdkgRe_IgpSugd-k": {"geometry": {"location": {"lat": 51.5189714, "lng": -0.2022118}, "viewport": {"northeast": {"lat": 51.5202831802915, "lng": -0.200967419708498}, "southwest": {"lat": 51.5175852197085, "lng": -0.2036653802915021}}}, "name": "Smart Potato Ltd", "place_id": "ChIJAQCvjRwQdkgRe_IgpSugd-k", "types": ["point_of_interest", "establishment"]}, "ChIJ05hfhgwRdkgRzxyDOB_SQc4": {"geometry": {"location": {"lat": 51.5196576, "lng": -0.2032473}, "viewport": {"northeast": {"lat": 51.5210253802915, "lng": -0.201832969708498}, "southwest": {"lat": 51.5183274197085, "lng": -0.204530930291502}}}, "name": "William Henry Hudson Blue Plaque", "place_id": "ChIJ05hfhgwRdkgRzxyDOB_SQc4", "types": ["point_of_interest", "establishment"]}, "ChIJXxvnPqARdkgRjC2nuryHpqA": {"geometry": {"location": {"lat": 51.5188014, "lng": -0.2023533}, "viewport": {"northeast": {"lat": 51.5201405802915, "lng": -0.201033519708498}, "southwest": {"lat": 51.5174426197085, "lng": -0.203731480291502}}}, "name": "24 Hrs Pharmacy Delivery Notting Hill", "place_id": "ChIJXxvnPqARdkgRjC2nuryHpqA", "types": ["point_of_interest", "establishment"]}, "ChIJ1QcQcBwQdkgRFaRokW5iW7c": {"geometry": {"location": {"lat": 51.51947269999999, "lng": -0.2035874}, "viewport": {"northeast": {"lat": 51.52077133029149, "lng": -0.2021916697084979}, "southwest": {"lat": 51.5180733697085, "lng": -0.204889630291502}}}, "name": "O1 Properties Acquisition Corporation Limited", "place_id": "ChIJ1QcQcBwQdkgRFaRokW5iW7c", "types": ["point_of_interest", "establishment"]}, "ChIJ7SnwWBwQdkgRn6ad1JG_28c": {"geometry": {"location": {"lat": 51.51831966635318, "lng": -0.2029465686328138}, "viewport": {"northeast": {"lat": 51.51966943029149, "lng": -0.20124175}, "southwest": {"lat": 51.51697146970849, "lng": -0.20465235}}}, "name": "28-2 Lancaster Rd", "place_id": "ChIJ7SnwWBwQdkgRn6ad1JG_28c", "types": ["route"]}, "ChIJT4MYThwQdkgRxZwYORYg8dY": {"geometry": {"location": {"lat": 51.51786679999999, "lng": -0.2034889}, "viewport": {"northeast": {"lat": 51.51919253029151, "lng": -0.202226419708498}, "southwest": {"lat": 51.51649456970851, "lng": -0.204924380291502}}}, "name": "Firezza Pizza - Notting Hill", "place_id": "ChIJT4MYThwQdkgRxZwYORYg8dY", "types": ["meal_delivery", "meal_takeaway", "restaurant", "food", "point_of_interest", "establishment"], "rating": 3.3, "user_ratings_total": 92}, "ChIJCYL2-BwQdkgRZTZHFk3RscY": {"geometry": {"location": {"lat": 51.5179424, "lng": -0.202676}, "viewport": {"northeast": {"lat": 51.51926053029149, "lng": -0.2013085197084979}, "southwest": {"lat": 51.51656256970849, "lng": -0.204006480291502}}}, "name": "Sarah Stephenson", "place_id": "ChIJCYL2-BwQdkgRZTZHFk3RscY", "types": ["point_of_interest", "establishment"]}, "ChIJ_62aTxwQdkgR3OQCYL0S0uU": {"geometry": {"location": {"lat": 51.5180736, "lng": -0.2036423}, "viewport": {"northeast": {"lat": 51.51940043029149, "lng": -0.202375719708498}, "southwest": {"lat": 51.5167024697085, "lng": -0.205073680291502}}}, "name": "Marmalade PR", "place_id": "ChIJ_62aTxwQdkgR3OQCYL0S0uU", "types": ["point_of_interest", "establishment"]}, "ChIJaTGuXeIPdkgRqK5zbpJpBn4": {"geometry": {"location": {"lat": 51.518062, "lng": -0.203617}, "viewport": {"northeast": {"lat": 51.51938688029151, "lng": -0.202357669708498}, "southwest": {"lat": 51.51668891970851, "lng": -0.205055630291502}}}, "name": "Sound Artist Management Ltd", "place_id": "ChIJaTGuXeIPdkgRqK5zbpJpBn4", "types": ["point_of_interest", "establishment"]}, "ChIJRxis4WwQdkgRYlDI2FzzTgM": {"geometry": {"location": {"lat": 51.518062, "lng": -0.203617}, "viewport": {"northeast": {"lat": 51.51938688029151, "lng": -0.202357669708498}, "southwest": {"lat": 51.51668891970851, "lng": -0.205055630291502}}}, "name": "Auracle Sound Ltd.", "place_id": "ChIJRxis4WwQdkgRYlDI2FzzTgM", "types": ["electronics_store", "home_goods_store", "point_of_interest", "store", "establishment"], "rating": 5, "user_ratings_total": 2}, "ChIJqRySTxwQdkgRluy6-dcjzus": {"geometry": {"location": {"lat": 51.518074, "lng": -0.203642}, "viewport": {"northeast": {"lat": 51.5194007802915, "lng": -0.202375669708498}, "southwest": {"lat": 51.5167028197085, "lng": -0.2050736302915021}}}, "name": "London Party Band - Space UK", "place_id": "ChIJqRySTxwQdkgRluy6-dcjzus", "types": ["point_of_interest", "establishment"]}, "ChIJrxufTxwQdkgRvQFwuvG8K94": {"geometry": {"location": {"lat": 51.5180736, "lng": -0.2036423}, "viewport": {"northeast": {"lat": 51.51940043029149, "lng": -0.202375719708498}, "southwest": {"lat": 51.5167024697085, "lng": -0.205073680291502}}}, "name": "Sun Productions", "place_id": "ChIJrxufTxwQdkgRvQFwuvG8K94", "types": ["electronics_store", "home_goods_store", "point_of_interest", "store", "establishment"]}, "ChIJqRySTxwQdkgRQVUYsZTlAuE": {"geometry": {"location": {"lat": 51.5180736, "lng": -0.2036423}, "viewport": {"northeast": {"lat": 51.51940043029149, "lng": -0.202375719708498}, "southwest": {"lat": 51.5167024697085, "lng": -0.205073680291502}}}, "name": "Music For Events - Band To Hire For Corporate Parties And Weddings", "place_id": "ChIJqRySTxwQdkgRQVUYsZTlAuE", "types": ["point_of_interest", "establishment"]}, "ChIJXysYSBwQdkgRwdYCrpZ5Kas": {"geometry": {"location": {"lat": 51.51823719999999, "lng": -0.2036271}, "viewport": {"northeast": {"lat": 51.5195516302915, "lng": -0.202256919708498}, "southwest": {"lat": 51.5168536697085, "lng": -0.204954880291502}}}, "name": "Jay Dee's Catering", "place_id": "ChIJXysYSBwQdkgRwdYCrpZ5Kas", "types": ["restaurant", "food", "point_of_interest", "establishment"], "rating": 4.5, "user_ratings_total": 73}, "ChIJW3AwThwQdkgRXS93e3DBKEU": {"geometry": {"location": {"lat": 51.51790930000001, "lng": -0.2035719999999999}, "viewport": {"northeast": {"lat": 51.5192410802915, "lng": -0.2022869697084979}, "southwest": {"lat": 51.5165431197085, "lng": -0.204984930291502}}}, "name": "Perfect Dry Cleaners", "place_id": "ChIJW3AwThwQdkgRXS93e3DBKEU", "types": ["laundry", "point_of_interest", "establishment"], "rating": 3.7, "user_ratings_total": 15}, "ChIJbwOSTxwQdkgRU5LJXl6wkUo": {"geometry": {"location": {"lat": 51.518074, "lng": -0.203642}, "viewport": {"northeast": {"lat": 51.5194007802915, "lng": -0.202375669708498}, "southwest": {"lat": 51.5167028197085, "lng": -0.2050736302915021}}}, "name": "Jess Collett Milliner", "place_id": "ChIJbwOSTxwQdkgRU5LJXl6wkUo", "types": ["point_of_interest", "clothing_store", "store", "establishment"], "rating": 4.9, "user_ratings_total": 10}, "ChIJbQOSTxwQdkgRL-vgQ710MuI": {"geometry": {"location": {"lat": 51.5180736, "lng": -0.2036423}, "viewport": {"northeast": {"lat": 51.51940043029149, "lng": -0.202375719708498}, "southwest": {"lat": 51.5167024697085, "lng": -0.205073680291502}}}, "name": "Redesign London", "place_id": "ChIJbQOSTxwQdkgRL-vgQ710MuI", "types": ["general_contractor", "point_of_interest", "establishment"]}, "ChIJ_62aTxwQdkgRHcpxZkYdnnQ": {"geometry": {"location": {"lat": 51.5180736, "lng": -0.2036423}, "viewport": {"northeast": {"lat": 51.51940043029149, "lng": -0.202375719708498}, "southwest": {"lat": 51.5167024697085, "lng": -0.205073680291502}}}, "name": "KLEIN", "place_id": "ChIJ_62aTxwQdkgRHcpxZkYdnnQ", "types": ["real_estate_agency", "point_of_interest", "establishment"]}, "ChIJbQOSTxwQdkgR5W17HoHpteo": {"geometry": {"location": {"lat": 51.5180736, "lng": -0.2036423}, "viewport": {"northeast": {"lat": 51.51940043029149, "lng": -0.202375719708498}, "southwest": {"lat": 51.5167024697085, "lng": -0.205073680291502}}}, "name": "Anita Kelsey Cat Behaviourist", "place_id": "ChIJbQOSTxwQdkgR5W17HoHpteo", "types": ["point_of_interest", "establishment"], "rating": 4.9, "user_ratings_total": 82}, "ChIJIUh4NRwQdkgRlNdseamTmIw": {"geometry": {"location": {"lat": 51.5178603, "lng": -0.2035153}, "viewport": {"northeast": {"lat": 51.5191582302915, "lng": -0.202132919708498}, "southwest": {"lat": 51.5164602697085, "lng": -0.204830880291502}}}, "name": "Perfect Songs", "place_id": "ChIJIUh4NRwQdkgRlNdseamTmIw", "types": ["point_of_interest", "establishment"]}, "ChIJpbekRRwQdkgRhufeUBLlfLY": {"geometry": {"location": {"lat": 51.5182239, "lng": -0.2037572}, "viewport": {"northeast": {"lat": 51.51954883029149, "lng": -0.202485669708498}, "southwest": {"lat": 51.51685086970849, "lng": -0.205183630291502}}}, "name": "Pret A Vivre", "place_id": "ChIJpbekRRwQdkgRhufeUBLlfLY", "types": ["home_goods_store", "general_contractor", "point_of_interest", "store", "establishment"], "rating": 4.7, "user_ratings_total": 19}, "ChIJAREtWBwQdkgRpi19XC8iAMg": {"geometry": {"location": {"lat": 51.5181486, "lng": -0.2030342}, "viewport": {"northeast": {"lat": 51.5195631302915, "lng": -0.201725469708498}, "southwest": {"lat": 51.5168651697085, "lng": -0.204423430291502}}}, "name": "Anydzine-4-U", "place_id": "ChIJAREtWBwQdkgRpi19XC8iAMg", "types": ["point_of_interest", "establishment"]}, "ChIJCQFQWRwQdkgRMtgwFyXTz5A": {"geometry": {"location": {"lat": 51.5184155, "lng": -0.2031052}, "viewport": {"northeast": {"lat": 51.51970623029149, "lng": -0.201720469708498}, "southwest": {"lat": 51.5170082697085, "lng": -0.204418430291502}}}, "name": "Livingstone Sophie Counselling & Psychotherapy", "place_id": "ChIJCQFQWRwQdkgRMtgwFyXTz5A", "types": ["health", "point_of_interest", "establishment"]}, "ChIJbQOSTxwQdkgRCiRw5bHgQDQ": {"geometry": {"location": {"lat": 51.5180736, "lng": -0.2036423}, "viewport": {"northeast": {"lat": 51.51940043029149, "lng": -0.202375719708498}, "southwest": {"lat": 51.5167024697085, "lng": -0.205073680291502}}}, "name": "Catnips - London Mobile Cat Grooming", "place_id": "ChIJbQOSTxwQdkgRCiRw5bHgQDQ", "types": ["point_of_interest", "establishment"], "rating": 4.9, "user_ratings_total": 103}, "ChIJ-0tHRRwQdkgRP4rtW_piKII": {"geometry": {"location": {"lat": 51.51813929999999, "lng": -0.203514}, "viewport": {"northeast": {"lat": 51.51950788029149, "lng": -0.202178519708498}, "southwest": {"lat": 51.51680991970849, "lng": -0.204876480291502}}}, "name": "ubitricity Charging Station", "place_id": "ChIJ-0tHRRwQdkgRP4rtW_piKII", "types": ["point_of_interest", "establishment"]}, "ChIJc31NSRwQdkgRtXQxjORhUkI": {"geometry": {"location": {"lat": 51.5180617, "lng": -0.2036169}, "viewport": {"northeast": {"lat": 51.5193865802915, "lng": -0.202357519708498}, "southwest": {"lat": 51.5166886197085, "lng": -0.205055480291502}}}, "name": "Purbeck Blue Ltd", "place_id": "ChIJc31NSRwQdkgRtXQxjORhUkI", "types": ["point_of_interest", "establishment"]}, "ChIJ18XsTxwQdkgRcs-8xYhtFQE": {"geometry": {"location": {"lat": 51.5180617, "lng": -0.2036169}, "viewport": {"northeast": {"lat": 51.5193865802915, "lng": -0.202357519708498}, "southwest": {"lat": 51.5166886197085, "lng": -0.205055480291502}}}, "name": "London Cat Behaviourist", "place_id": "ChIJ18XsTxwQdkgRcs-8xYhtFQE", "types": ["health", "point_of_interest", "establishment"]}, "ChIJ18XsTxwQdkgRF8nT8gsDrQs": {"geometry": {"location": {"lat": 51.5180617, "lng": -0.2036169}, "viewport": {"northeast": {"lat": 51.5193865802915, "lng": -0.202357519708498}, "southwest": {"lat": 51.5166886197085, "lng": -0.205055480291502}}}, "name": "TINA SPARKLE", "place_id": "ChIJ18XsTxwQdkgRF8nT8gsDrQs", "types": ["point_of_interest", "store", "establishment"]}, "ChIJ18XsTxwQdkgRe6tLVtdwRFg": {"geometry": {"location": {"lat": 51.5180617, "lng": -0.2036169}, "viewport": {"northeast": {"lat": 51.5193865802915, "lng": -0.202357519708498}, "southwest": {"lat": 51.5166886197085, "lng": -0.205055480291502}}}, "name": "West Eleven Recording Studio", "place_id": "ChIJ18XsTxwQdkgRe6tLVtdwRFg", "types": ["electronics_store", "home_goods_store", "point_of_interest", "store", "establishment"]}, "ChIJ05DnURwQdkgRxWxAXCKIO8o": {"geometry": {"location": {"lat": 51.51786679999999, "lng": -0.2034889}, "viewport": {"northeast": {"lat": 51.51919253029151, "lng": -0.202226419708498}, "southwest": {"lat": 51.51649456970851, "lng": -0.204924380291502}}}, "name": "Evolve Search Ltd", "place_id": "ChIJ05DnURwQdkgRxWxAXCKIO8o", "types": ["point_of_interest", "establishment"]}, "ChIJKZLyURwQdkgRRw5ZHWgn5_Q": {"geometry": {"location": {"lat": 51.5178258, "lng": -0.2034426}, "viewport": {"northeast": {"lat": 51.51914723029149, "lng": -0.202075619708498}, "southwest": {"lat": 51.5164492697085, "lng": -0.204773580291502}}}, "name": "Farm Girl 2 Ltd", "place_id": "ChIJKZLyURwQdkgRRw5ZHWgn5_Q", "types": ["point_of_interest", "establishment"]}, "ChIJKZLyURwQdkgRgRmv2e8bKoE": {"geometry": {"location": {"lat": 51.5178258, "lng": -0.2034426}, "viewport": {"northeast": {"lat": 51.51914723029149, "lng": -0.202075619708498}, "southwest": {"lat": 51.5164492697085, "lng": -0.204773580291502}}}, "name": "Farm Bowls Ltd", "place_id": "ChIJKZLyURwQdkgRgRmv2e8bKoE", "types": ["cafe", "food", "point_of_interest", "establishment"]}, "ChIJbwOSTxwQdkgR4EFSAiIfyO4": {"geometry": {"location": {"lat": 51.5180646, "lng": -0.203637}, "viewport": {"northeast": {"lat": 51.5193915302915, "lng": -0.202370019708498}, "southwest": {"lat": 51.5166935697085, "lng": -0.205067980291502}}}, "name": "Lime Green Bow VINTAGE", "place_id": "ChIJbwOSTxwQdkgR4EFSAiIfyO4", "types": ["clothing_store", "point_of_interest", "store", "establishment"], "rating": 4, "user_ratings_total": 1}, "ChIJdwSSTxwQdkgRYsoA-6Sym_8": {"geometry": {"location": {"lat": 51.518074, "lng": -0.203642}, "viewport": {"northeast": {"lat": 51.5194007802915, "lng": -0.202375669708498}, "southwest": {"lat": 51.5167028197085, "lng": -0.2050736302915021}}}, "name": "W11 Music", "place_id": "ChIJdwSSTxwQdkgRYsoA-6Sym_8", "types": ["electronics_store", "home_goods_store", "point_of_interest", "store", "establishment"], "rating": 3, "user_ratings_total": 2}, "ChIJbwOSTxwQdkgRO6YiERjw_W4": {"geometry": {"location": {"lat": 51.5180736, "lng": -0.2036422}, "viewport": {"northeast": {"lat": 51.51940043029149, "lng": -0.202375669708498}, "southwest": {"lat": 51.5167024697085, "lng": -0.205073630291502}}}, "name": "The Nottinghill Cat Sitting Company", "place_id": "ChIJbwOSTxwQdkgRO6YiERjw_W4", "types": ["point_of_interest", "establishment"]}, "ChIJbwOSTxwQdkgRkkwGelGTZEw": {"geometry": {"location": {"lat": 51.5180736, "lng": -0.2036422}, "viewport": {"northeast": {"lat": 51.51940043029149, "lng": -0.202375669708498}, "southwest": {"lat": 51.5167024697085, "lng": -0.205073630291502}}}, "name": "SwedishPartner", "place_id": "ChIJbwOSTxwQdkgRkkwGelGTZEw", "types": ["point_of_interest", "establishment"]}, "ChIJbQOSTxwQdkgRaoIlCDydqNU": {"geometry": {"location": {"lat": 51.5180736, "lng": -0.2036423}, "viewport": {"northeast": {"lat": 51.51940043029149, "lng": -0.202375719708498}, "southwest": {"lat": 51.5167024697085, "lng": -0.205073680291502}}}, "name": "Gamoola Ltd", "place_id": "ChIJbQOSTxwQdkgRaoIlCDydqNU", "types": ["point_of_interest", "establishment"]}, "ChIJbQOSTxwQdkgRWsJpBRqILVQ": {"geometry": {"location": {"lat": 51.5180736, "lng": -0.2036423}, "viewport": {"northeast": {"lat": 51.51940043029149, "lng": -0.202375719708498}, "southwest": {"lat": 51.5167024697085, "lng": -0.205073680291502}}}, "name": "Clifton Securities Limited", "place_id": "ChIJbQOSTxwQdkgRWsJpBRqILVQ", "types": ["finance", "point_of_interest", "establishment"]}, "ChIJbQOSTxwQdkgR1XF1xAk656U": {"geometry": {"location": {"lat": 51.5180736, "lng": -0.2036423}, "viewport": {"northeast": {"lat": 51.51940043029149, "lng": -0.202375719708498}, "southwest": {"lat": 51.5167024697085, "lng": -0.205073680291502}}}, "name": "West London Piano Teacher", "place_id": "ChIJbQOSTxwQdkgR1XF1xAk656U", "types": ["electronics_store", "home_goods_store", "school", "point_of_interest", "store", "establishment"], "rating": 5, "user_ratings_total": 14}, "ChIJHfvKTxwQdkgRNoMsT0JzkNk": {"geometry": {"location": {"lat": 51.5179607, "lng": -0.2036102}, "viewport": {"northeast": {"lat": 51.5192927802915, "lng": -0.202324119708498}, "southwest": {"lat": 51.5165948197085, "lng": -0.205022080291502}}}, "name": "MAM - Vietnamese BBQ", "place_id": "ChIJHfvKTxwQdkgRNoMsT0JzkNk", "types": ["restaurant", "food", "point_of_interest", "establishment"], "rating": 4.2, "user_ratings_total": 160}, "ChIJ0Rtcqx0QdkgRRqRX50lX0Xw": {"geometry": {"location": {"lat": 51.51739930018417, "lng": -0.2031555502312436}, "viewport": {"northeast": {"lat": 51.5187482802915, "lng": -0.201806569708498}, "southwest": {"lat": 51.5160503197085, "lng": -0.204504530291502}}}, "name": "251-255 Westbourne Park Rd", "place_id": "ChIJ0Rtcqx0QdkgRRqRX50lX0Xw", "types": ["route"]}, "ChIJ6TQQjC4RdkgRphOUpTogHN0": {"geometry": {"location": {"lat": 51.517347, "lng": -0.2033317}, "viewport": {"northeast": {"lat": 51.51867483029149, "lng": -0.201969519708498}, "southwest": {"lat": 51.5159768697085, "lng": -0.204667480291502}}}, "name": "Memory Makers At Home - West London", "place_id": "ChIJ6TQQjC4RdkgRphOUpTogHN0", "types": ["point_of_interest", "clothing_store", "store", "establishment"], "rating": 5, "user_ratings_total": 1}, "ChIJx3Z0WEwRdkgRmIN34quTjts": {"geometry": {"location": {"lat": 51.5174708, "lng": -0.2032898}, "viewport": {"northeast": {"lat": 51.5187746302915, "lng": -0.2019124697084979}, "southwest": {"lat": 51.5160766697085, "lng": -0.204610430291502}}}, "name": "Edwins", "place_id": "ChIJx3Z0WEwRdkgRmIN34quTjts", "types": ["home_goods_store", "point_of_interest", "store", "establishment"]}, "ChIJ91E4VRwQdkgRHuGx0Bv9XrQ": {"geometry": {"location": {"lat": 51.517534, "lng": -0.2027917}, "viewport": {"northeast": {"lat": 51.5188595302915, "lng": -0.201451769708498}, "southwest": {"lat": 51.51616156970851, "lng": -0.204149730291502}}}, "name": "Powis Gardens (Stop PB)", "place_id": "ChIJ91E4VRwQdkgRHuGx0Bv9XrQ", "types": ["bus_station", "transit_station", "point_of_interest", "establishment"]}, "ChIJO_e2bx4QdkgR4uj6bR0rmVY": {"geometry": {"location": {"lat": 51.51715230000001, "lng": -0.2037312}, "viewport": {"northeast": {"lat": 51.5185479302915, "lng": -0.202411869708498}, "southwest": {"lat": 51.5158499697085, "lng": -0.205109830291502}}}, "name": "Notting Hill Counselling", "place_id": "ChIJO_e2bx4QdkgR4uj6bR0rmVY", "types": ["health", "point_of_interest", "establishment"]}, "ChIJCeg2_hwQdkgRfNZwJHAztWM": {"geometry": {"location": {"lat": 51.5175285, "lng": -0.2025725}, "viewport": {"northeast": {"lat": 51.51885873029149, "lng": -0.201211869708498}, "southwest": {"lat": 51.51616076970849, "lng": -0.203909830291502}}}, "name": "Powis Gardens", "place_id": "ChIJCeg2_hwQdkgRfNZwJHAztWM", "types": ["transit_station", "point_of_interest", "establishment"]}, "ChIJ1ZVw8RsQdkgRE-C3t_DQvzQ": {"geometry": {"location": {"lat": 51.5205528, "lng": -0.2047014}, "viewport": {"northeast": {"lat": 51.5219314302915, "lng": -0.203403819708498}, "southwest": {"lat": 51.5192334697085, "lng": -0.206101780291502}}}, "name": "Subteranian", "place_id": "ChIJ1ZVw8RsQdkgRE-C3t_DQvzQ", "types": ["night_club", "point_of_interest", "establishment"]}, "ChIJk5HbghgQdkgRBUv98s13ZCA": {"geometry": {"location": {"lat": 51.5187628, "lng": -0.2045333}, "viewport": {"northeast": {"lat": 51.5201303302915, "lng": -0.203125369708498}, "southwest": {"lat": 51.5174323697085, "lng": -0.205823330291502}}}, "name": "Homes Property Management HPML", "place_id": "ChIJk5HbghgQdkgRBUv98s13ZCA", "types": ["point_of_interest", "establishment"], "rating": 5, "user_ratings_total": 3}, "ChIJc2XEFhwQdkgRABmcoiIZhLI": {"geometry": {"location": {"lat": 51.519042, "lng": -0.204764}, "viewport": {"northeast": {"lat": 51.52039098029149, "lng": -0.203415019708498}, "southwest": {"lat": 51.5176930197085, "lng": -0.206112980291502}}}, "name": "Santander Cycles", "place_id": "ChIJc2XEFhwQdkgRABmcoiIZhLI", "types": ["point_of_interest", "establishment"]}, "ChIJoSL0hkURdkgRsUuUMLNBEZI": {"geometry": {"location": {"lat": 51.5192044, "lng": -0.204279}, "viewport": {"northeast": {"lat": 51.52049848029149, "lng": -0.2028705197084979}, "southwest": {"lat": 51.51780051970849, "lng": -0.205568480291502}}}, "name": "TAM Build", "place_id": "ChIJoSL0hkURdkgRsUuUMLNBEZI", "types": ["point_of_interest", "establishment"], "rating": 5, "user_ratings_total": 6}, "ChIJ_9IpDBwQdkgRln2Z6v6mpG4": {"geometry": {"location": {"lat": 51.5196237, "lng": -0.204642}, "viewport": {"northeast": {"lat": 51.5209926302915, "lng": -0.203333169708498}, "southwest": {"lat": 51.5182946697085, "lng": -0.206031130291502}}}, "name": "Imperial Concierge Limited", "place_id": "ChIJ_9IpDBwQdkgRln2Z6v6mpG4", "types": ["point_of_interest", "establishment"]}, "ChIJV1sEFRwQdkgRwgCyMLJu8lE": {"geometry": {"location": {"lat": 51.5187465, "lng": -0.2045338}, "viewport": {"northeast": {"lat": 51.52011573029149, "lng": -0.203120419708498}, "southwest": {"lat": 51.5174177697085, "lng": -0.205818380291502}}}, "name": "Hpml", "place_id": "ChIJV1sEFRwQdkgRwgCyMLJu8lE", "types": ["point_of_interest", "establishment"]}, "ChIJf6-5OigRdkgRJf1CVb4sEOA": {"geometry": {"location": {"lat": 51.51956790000001, "lng": -0.2041408}, "viewport": {"northeast": {"lat": 51.52100963029149, "lng": -0.202951219708498}, "southwest": {"lat": 51.5183116697085, "lng": -0.205649180291502}}}, "name": "Amar Caf\u00e9 Notting Hill", "place_id": "ChIJf6-5OigRdkgRJf1CVb4sEOA", "types": ["cafe", "food", "point_of_interest", "store", "establishment"]}, "ChIJ9zlG53gRdkgRnnhaC85nwHA": {"geometry": {"location": {"lat": 51.51872729999999, "lng": -0.204568}, "viewport": {"northeast": {"lat": 51.5201027802915, "lng": -0.2031347697084979}, "southwest": {"lat": 51.5174048197085, "lng": -0.205832730291502}}}, "name": "HPM Estates", "place_id": "ChIJ9zlG53gRdkgRnnhaC85nwHA", "types": ["point_of_interest", "establishment"]}, "ChIJPT_UNhwQdkgRpGS0JAw-zzM": {"geometry": {"location": {"lat": 51.51794890205299, "lng": -0.2046229524764156}, "viewport": {"northeast": {"lat": 51.5192978802915, "lng": -0.20323305}, "southwest": {"lat": 51.5165999197085, "lng": -0.20601285}}}, "name": "54-30 Lancaster Rd", "place_id": "ChIJPT_UNhwQdkgRpGS0JAw-zzM", "types": ["route"]}, "ChIJEzXBThwQdkgRaiB4oSMaIfQ": {"geometry": {"location": {"lat": 51.51787689999999, "lng": -0.20388}, "viewport": {"northeast": {"lat": 51.51924613029149, "lng": -0.2024557197084979}, "southwest": {"lat": 51.51654816970849, "lng": -0.205153680291502}}}, "name": "Portobello Music", "place_id": "ChIJEzXBThwQdkgRaiB4oSMaIfQ", "types": ["electronics_store", "home_goods_store", "point_of_interest", "store", "establishment"], "rating": 4, "user_ratings_total": 123}, "ChIJPYzJRRwQdkgRsOYshK4RQSw": {"geometry": {"location": {"lat": 51.518255, "lng": -0.2037922}, "viewport": {"northeast": {"lat": 51.5195811802915, "lng": -0.202516669708498}, "southwest": {"lat": 51.5168832197085, "lng": -0.205214630291502}}}, "name": "Revival", "place_id": "ChIJPYzJRRwQdkgRsOYshK4RQSw", "types": ["furniture_store", "home_goods_store", "point_of_interest", "store", "establishment"], "rating": 3.8, "user_ratings_total": 8}, "ChIJeyMSRxwQdkgRerl2AeUWXIo": {"geometry": {"location": {"lat": 51.5182987, "lng": -0.2042492}, "viewport": {"northeast": {"lat": 51.5196773302915, "lng": -0.202804769708498}, "southwest": {"lat": 51.51697936970851, "lng": -0.205502730291502}}}, "name": "Venusrox", "place_id": "ChIJeyMSRxwQdkgRerl2AeUWXIo", "types": ["point_of_interest", "store", "establishment"], "rating": 4.8, "user_ratings_total": 35}, "ChIJOYL_3xwGdkgR9IJI64YYwj4": {"geometry": {"location": {"lat": 51.5184436, "lng": -0.2044031}, "viewport": {"northeast": {"lat": 51.51982693029149, "lng": -0.202943569708498}, "southwest": {"lat": 51.51712896970849, "lng": -0.205641530291502}}}, "name": "Studio of Arts & Decoration", "place_id": "ChIJOYL_3xwGdkgR9IJI64YYwj4", "types": ["general_contractor", "point_of_interest", "establishment"]}, "ChIJV-zWRxwQdkgRaJlSS_wHBEA": {"geometry": {"location": {"lat": 51.51813129999999, "lng": -0.2041119}, "viewport": {"northeast": {"lat": 51.51950953029149, "lng": -0.202668669708498}, "southwest": {"lat": 51.5168115697085, "lng": -0.205366630291502}}}, "name": "CLM Film", "place_id": "ChIJV-zWRxwQdkgRaJlSS_wHBEA", "types": ["point_of_interest", "establishment"]}, "ChIJoQrNA7IRdkgR-LEKsycxJtE": {"geometry": {"location": {"lat": 51.5181573, "lng": -0.2041028}, "viewport": {"northeast": {"lat": 51.5195318302915, "lng": -0.202671569708498}, "southwest": {"lat": 51.51683386970851, "lng": -0.205369530291502}}}, "name": "Edwins Bathrooms", "place_id": "ChIJoQrNA7IRdkgR-LEKsycxJtE", "types": ["home_goods_store", "point_of_interest", "store", "establishment"], "rating": 4.5, "user_ratings_total": 30}, "ChIJKxH4nRcQdkgR2IWARAS7QoU": {"geometry": {"location": {"lat": 51.5184436, "lng": -0.2044031}, "viewport": {"northeast": {"lat": 51.51982693029149, "lng": -0.202943569708498}, "southwest": {"lat": 51.51712896970849, "lng": -0.205641530291502}}}, "name": "Dorin & Coppel", "place_id": "ChIJKxH4nRcQdkgR2IWARAS7QoU", "types": ["point_of_interest", "establishment"], "rating": 4.4, "user_ratings_total": 5}, "ChIJAcOPzEQDdkgRnGVRqWPSD_8": {"geometry": {"location": {"lat": 51.5184597, "lng": -0.2043551}, "viewport": {"northeast": {"lat": 51.5198354302915, "lng": -0.202919969708498}, "southwest": {"lat": 51.5171374697085, "lng": -0.205617930291502}}}, "name": "Amanda Thompson Couture", "place_id": "ChIJAcOPzEQDdkgRnGVRqWPSD_8", "types": ["point_of_interest", "clothing_store", "store", "establishment"], "rating": 5, "user_ratings_total": 3}, "ChIJURExMhwQdkgRfwJct0sfunc": {"geometry": {"location": {"lat": 51.5178901, "lng": -0.2041023}, "viewport": {"northeast": {"lat": 51.5193181302915, "lng": -0.202801019708498}, "southwest": {"lat": 51.5166201697085, "lng": -0.205498980291502}}}, "name": "Luan", "place_id": "ChIJURExMhwQdkgRfwJct0sfunc", "types": ["food", "point_of_interest", "store", "establishment"]}, "ChIJO7cgVBwQdkgROPUpHD82RLI": {"geometry": {"location": {"lat": 51.51826870000001, "lng": -0.2037981}, "viewport": {"northeast": {"lat": 51.5195942302915, "lng": -0.202524619708498}, "southwest": {"lat": 51.5168962697085, "lng": -0.205222580291502}}}, "name": "ARC PR", "place_id": "ChIJO7cgVBwQdkgROPUpHD82RLI", "types": ["point_of_interest", "establishment"], "rating": 5, "user_ratings_total": 3}, "ChIJqRa5OBwQdkgRojd1-isJ1nI": {"geometry": {"location": {"lat": 51.51813129999999, "lng": -0.2041119}, "viewport": {"northeast": {"lat": 51.51950953029149, "lng": -0.202668669708498}, "southwest": {"lat": 51.5168115697085, "lng": -0.205366630291502}}}, "name": "Nation Records", "place_id": "ChIJqRa5OBwQdkgRojd1-isJ1nI", "types": ["electronics_store", "home_goods_store", "point_of_interest", "store", "establishment"]}, "ChIJqRa5OBwQdkgRe2jGLfvq1Oc": {"geometry": {"location": {"lat": 51.51857, "lng": -0.204368}, "viewport": {"northeast": {"lat": 51.51993643029149, "lng": -0.202963569708498}, "southwest": {"lat": 51.5172384697085, "lng": -0.205661530291502}}}, "name": "The Practice Centre, Physiotherapy and Pilates", "place_id": "ChIJqRa5OBwQdkgRe2jGLfvq1Oc", "types": ["physiotherapist", "gym", "health", "point_of_interest", "establishment"], "rating": 4.5, "user_ratings_total": 2}, "ChIJyeyEWRMRdkgR924DDTmDwFo": {"geometry": {"location": {"lat": 51.518087, "lng": -0.2046035}, "viewport": {"northeast": {"lat": 51.5193774302915, "lng": -0.203219219708498}, "southwest": {"lat": 51.5166794697085, "lng": -0.2059171802915021}}}, "name": "COLESCREATIVE", "place_id": "ChIJyeyEWRMRdkgR924DDTmDwFo", "types": ["point_of_interest", "establishment"], "rating": 5, "user_ratings_total": 5}, "ChIJK1UNxdsRdkgRRzjaRWSmAxs": {"geometry": {"location": {"lat": 51.5182797, "lng": -0.2044503}, "viewport": {"northeast": {"lat": 51.5196286802915, "lng": -0.203101319708498}, "southwest": {"lat": 51.5169307197085, "lng": -0.205799280291502}}}, "name": "Tom TOM", "place_id": "ChIJK1UNxdsRdkgRRzjaRWSmAxs", "types": ["home_goods_store", "point_of_interest", "store", "establishment"]}, "ChIJ4de7OBwQdkgRsb4nB92nWlo": {"geometry": {"location": {"lat": 51.5183905, "lng": -0.204336}, "viewport": {"northeast": {"lat": 51.5197707802915, "lng": -0.202886269708498}, "southwest": {"lat": 51.5170728197085, "lng": -0.205584230291502}}}, "name": "Ashbells", "place_id": "ChIJ4de7OBwQdkgRsb4nB92nWlo", "types": ["restaurant", "food", "point_of_interest", "establishment"]}, "ChIJe6ZbRxwQdkgRymFs-SXveI0": {"geometry": {"location": {"lat": 51.51839270000001, "lng": -0.204307}, "viewport": {"northeast": {"lat": 51.5197691302915, "lng": -0.202869619708498}, "southwest": {"lat": 51.51707116970851, "lng": -0.205567580291502}}}, "name": "The Chipping Forecast", "place_id": "ChIJe6ZbRxwQdkgRymFs-SXveI0", "types": ["restaurant", "food", "point_of_interest", "establishment"], "rating": 4.5, "user_ratings_total": 268}, "ChIJJ1z2bMERdkgR4O6-p37cdlk": {"geometry": {"location": {"lat": 51.51824509999999, "lng": -0.204121}, "viewport": {"northeast": {"lat": 51.5196131302915, "lng": -0.202710669708498}, "southwest": {"lat": 51.5169151697085, "lng": -0.205408630291502}}}, "name": "Conscience Kitchen", "place_id": "ChIJJ1z2bMERdkgR4O6-p37cdlk", "types": ["restaurant", "food", "point_of_interest", "establishment"], "rating": 4.9, "user_ratings_total": 42}, "ChIJS2xihYcRdkgRimsAq3dFGHY": {"geometry": {"location": {"lat": 51.5184436, "lng": -0.2044031}, "viewport": {"northeast": {"lat": 51.51982693029149, "lng": -0.202943569708498}, "southwest": {"lat": 51.51712896970849, "lng": -0.205641530291502}}}, "name": "Indor", "place_id": "ChIJS2xihYcRdkgRimsAq3dFGHY", "types": ["furniture_store", "home_goods_store", "point_of_interest", "store", "establishment"], "rating": 5, "user_ratings_total": 12}, "ChIJ71LNOBwQdkgRWqgOtq3hJx8": {"geometry": {"location": {"lat": 51.5184436, "lng": -0.2044031}, "viewport": {"northeast": {"lat": 51.51982693029149, "lng": -0.202943569708498}, "southwest": {"lat": 51.51712896970849, "lng": -0.205641530291502}}}, "name": "Bpa Entertainment Ltd", "place_id": "ChIJ71LNOBwQdkgRWqgOtq3hJx8", "types": ["point_of_interest", "establishment"]}, "ChIJAQCEOBwQdkgRHeTA40gRJH8": {"geometry": {"location": {"lat": 51.5183662, "lng": -0.2042168}, "viewport": {"northeast": {"lat": 51.51973408029149, "lng": -0.202807019708498}, "southwest": {"lat": 51.51703611970849, "lng": -0.205504980291502}}}, "name": "Redjacket", "place_id": "ChIJAQCEOBwQdkgRHeTA40gRJH8", "types": ["general_contractor", "point_of_interest", "establishment"], "rating": 1, "user_ratings_total": 1}, "ChIJ_58kNhwQdkgRI9IyyX_YkRc": {"geometry": {"location": {"lat": 51.51787230000001, "lng": -0.204241}, "viewport": {"northeast": {"lat": 51.5192939302915, "lng": -0.202935869708498}, "southwest": {"lat": 51.5165959697085, "lng": -0.205633830291502}}}, "name": "G+O EVENTS", "place_id": "ChIJ_58kNhwQdkgRI9IyyX_YkRc", "types": ["point_of_interest", "establishment"]}, "ChIJ-dtpPxwQdkgRYJzQtPn-5kg": {"geometry": {"location": {"lat": 51.5185142, "lng": -0.2043624}, "viewport": {"northeast": {"lat": 51.51988558029149, "lng": -0.202942169708498}, "southwest": {"lat": 51.51718761970849, "lng": -0.205640130291502}}}, "name": "The Tin Shed", "place_id": "ChIJ-dtpPxwQdkgRYJzQtPn-5kg", "types": ["cafe", "food", "point_of_interest", "store", "establishment"], "rating": 4.5, "user_ratings_total": 130}, "ChIJD-dyRhwQdkgRSBT11msdluY": {"geometry": {"location": {"lat": 51.51823100000001, "lng": -0.2040293}, "viewport": {"northeast": {"lat": 51.5195889302915, "lng": -0.2026510697084979}, "southwest": {"lat": 51.5168909697085, "lng": -0.205349030291502}}}, "name": "ubitricity Charging Station", "place_id": "ChIJD-dyRhwQdkgRSBT11msdluY", "types": ["point_of_interest", "establishment"]}, "ChIJrZOa-rcRdkgRFyDLGR3eXfk": {"geometry": {"location": {"lat": 51.5183348, "lng": -0.2040396}, "viewport": {"northeast": {"lat": 51.5196978302915, "lng": -0.202645419708498}, "southwest": {"lat": 51.5169998697085, "lng": -0.205343380291502}}}, "name": "sammy's supermarket", "place_id": "ChIJrZOa-rcRdkgRFyDLGR3eXfk", "types": ["shopping_mall", "point_of_interest", "establishment"]}, "ChIJMZDlRhwQdkgR2Nkn4cSjLnw": {"geometry": {"location": {"lat": 51.5183348, "lng": -0.2040396}, "viewport": {"northeast": {"lat": 51.5196978302915, "lng": -0.202645419708498}, "southwest": {"lat": 51.5169998697085, "lng": -0.205343380291502}}}, "name": "Derrick & Watt Accountant", "place_id": "ChIJMZDlRhwQdkgR2Nkn4cSjLnw", "types": ["accounting", "finance", "point_of_interest", "establishment"]}, "ChIJP6DLQBwQdkgRWCroqqoZgFU": {"geometry": {"location": {"lat": 51.5184551, "lng": -0.2041585}, "viewport": {"northeast": {"lat": 51.5197955302915, "lng": -0.202836919708498}, "southwest": {"lat": 51.5170975697085, "lng": -0.205534880291502}}}, "name": "Zipcar", "place_id": "ChIJP6DLQBwQdkgRWCroqqoZgFU", "types": ["car_rental", "point_of_interest", "establishment"]}, "ChIJdW4epg0RdkgRSoJFiT-LUNo": {"geometry": {"location": {"lat": 51.51799619999999, "lng": -0.2039334}, "viewport": {"northeast": {"lat": 51.5193620802915, "lng": -0.2025215197084979}, "southwest": {"lat": 51.5166641197085, "lng": -0.205219480291502}}}, "name": "Edwins Plumbing + Heating Supplies", "place_id": "ChIJdW4epg0RdkgRSoJFiT-LUNo", "types": ["point_of_interest", "store", "establishment"], "rating": 5, "user_ratings_total": 2}, "ChIJEXRL2TsRdkgRDCpagRnPEm4": {"geometry": {"location": {"lat": 51.5181478, "lng": -0.2038897}, "viewport": {"northeast": {"lat": 51.5194967802915, "lng": -0.202540719708498}, "southwest": {"lat": 51.51679881970851, "lng": -0.205238680291502}}}, "name": "Bruno", "place_id": "ChIJEXRL2TsRdkgRDCpagRnPEm4", "types": ["lodging", "point_of_interest", "establishment"]}, "ChIJYd6kahwQdkgRQVI_VR70vE4": {"geometry": {"location": {"lat": 51.5183988, "lng": -0.2039209}, "viewport": {"northeast": {"lat": 51.5197266302915, "lng": -0.2026400197084979}, "southwest": {"lat": 51.5170286697085, "lng": -0.205337980291502}}}, "name": "SUSD", "place_id": "ChIJYd6kahwQdkgRQVI_VR70vE4", "types": ["general_contractor", "point_of_interest", "establishment"]}, "ChIJVVUkSRwQdkgR-dAoRuc-t88": {"geometry": {"location": {"lat": 51.5179212, "lng": -0.203953}, "viewport": {"northeast": {"lat": 51.5192952302915, "lng": -0.202510919708498}, "southwest": {"lat": 51.5165972697085, "lng": -0.205208880291502}}}, "name": "Greater Good Brands Ltd", "place_id": "ChIJVVUkSRwQdkgR-dAoRuc-t88", "types": ["point_of_interest", "establishment"]}, "ChIJ-dCDRhwQdkgRHlaoQQ04-kk": {"geometry": {"location": {"lat": 51.5183024, "lng": -0.2038566000000001}, "viewport": {"northeast": {"lat": 51.5196318302915, "lng": -0.202570469708498}, "southwest": {"lat": 51.5169338697085, "lng": -0.205268430291502}}}, "name": "Arbras Gallery", "place_id": "ChIJ-dCDRhwQdkgRHlaoQQ04-kk", "types": ["point_of_interest", "store", "establishment"], "rating": 5, "user_ratings_total": 1}, "ChIJ6YlUz7cRdkgRLG93Aa5f5vY": {"geometry": {"location": {"lat": 51.51842809999999, "lng": -0.2039451}, "viewport": {"northeast": {"lat": 51.51975603029149, "lng": -0.202663919708498}, "southwest": {"lat": 51.51705806970849, "lng": -0.2053618802915021}}}, "name": "The St. John's Co - Operative Credit Union Ltd", "place_id": "ChIJ6YlUz7cRdkgRLG93Aa5f5vY", "types": ["finance", "point_of_interest", "establishment"]}, "ChIJyagCRBwQdkgRCSLQDWLHPG4": {"geometry": {"location": {"lat": 51.51840600000001, "lng": -0.2038977}, "viewport": {"northeast": {"lat": 51.5197302302915, "lng": -0.202628419708498}, "southwest": {"lat": 51.5170322697085, "lng": -0.205326380291502}}}, "name": "Simlai HQ", "place_id": "ChIJyagCRBwQdkgRCSLQDWLHPG4", "types": ["point_of_interest", "establishment"]}, "ChIJSzvzThwQdkgRtWysAzEDHWs": {"geometry": {"location": {"lat": 51.5178291, "lng": -0.203904}, "viewport": {"northeast": {"lat": 51.5192048302915, "lng": -0.202455619708498}, "southwest": {"lat": 51.5165068697085, "lng": -0.205153580291502}}}, "name": "People's Sound Records", "place_id": "ChIJSzvzThwQdkgRtWysAzEDHWs", "types": ["electronics_store", "home_goods_store", "point_of_interest", "store", "establishment"], "rating": 4.3, "user_ratings_total": 43}, "ChIJb6X_yR0QdkgR3OXY40JmpY8": {"geometry": {"location": {"lat": 51.51713294664214, "lng": -0.2042486984874707}, "viewport": {"northeast": {"lat": 51.51848193029149, "lng": -0.202899719708498}, "southwest": {"lat": 51.51578396970849, "lng": -0.205597680291502}}}, "name": "262-244 Westbourne Park Rd", "place_id": "ChIJb6X_yR0QdkgR3OXY40JmpY8", "types": ["route"]}, "ChIJV_xKzx0QdkgREJs6_IjRpjU": {"geometry": {"location": {"lat": 51.5171554, "lng": -0.2046194}, "viewport": {"northeast": {"lat": 51.51845523029149, "lng": -0.203239219708498}, "southwest": {"lat": 51.51575726970849, "lng": -0.205937180291502}}}, "name": "Inproductions Ltd", "place_id": "ChIJV_xKzx0QdkgREJs6_IjRpjU", "types": ["point_of_interest", "establishment"]}, "ChIJfS0iyh0QdkgRNkgasZEkWLA": {"geometry": {"location": {"lat": 51.51715300000001, "lng": -0.2043609}, "viewport": {"northeast": {"lat": 51.5184900802915, "lng": -0.203004319708498}, "southwest": {"lat": 51.5157921197085, "lng": -0.2057022802915021}}}, "name": "ubitricity Charging Station", "place_id": "ChIJfS0iyh0QdkgRNkgasZEkWLA", "types": ["point_of_interest", "establishment"]}, "ChIJNwTeYPIRdkgRgc8aNseqASI": {"geometry": {"location": {"lat": 51.5172046, "lng": -0.2040741}, "viewport": {"northeast": {"lat": 51.51855808029151, "lng": -0.202727919708498}, "southwest": {"lat": 51.51586011970851, "lng": -0.205425880291502}}}, "name": "Beautiful houses in Notting Hill", "place_id": "ChIJNwTeYPIRdkgRgc8aNseqASI", "types": ["tourist_attraction", "point_of_interest", "establishment"], "rating": 5, "user_ratings_total": 1}, "ChIJEwGQXgMQdkgRUOEL0so-0x8": {"geometry": {"location": {"lat": 51.51981010000001, "lng": -0.1986179}, "viewport": {"northeast": {"lat": 51.5211875802915, "lng": -0.197303969708498}, "southwest": {"lat": 51.5184896197085, "lng": -0.200001930291502}}}, "name": "Truro House", "place_id": "ChIJEwGQXgMQdkgRUOEL0so-0x8", "types": ["point_of_interest", "establishment"], "rating": 4.3, "user_ratings_total": 3}, "ChIJHbRevzIRdkgRGd5239jzjxg": {"geometry": {"location": {"lat": 51.5187408, "lng": -0.1989774}, "viewport": {"northeast": {"lat": 51.52014588029149, "lng": -0.197471819708498}, "southwest": {"lat": 51.5174479197085, "lng": -0.200169780291502}}}, "name": "Prime Blooms", "place_id": "ChIJHbRevzIRdkgRGd5239jzjxg", "types": ["florist", "point_of_interest", "store", "establishment"], "rating": 5, "user_ratings_total": 10}, "ChIJtxRF4QIQdkgRtzfTsIqcSLA": {"geometry": {"location": {"lat": 51.51766800000001, "lng": -0.1989753}, "viewport": {"northeast": {"lat": 51.51868493029151, "lng": -0.197506419708498}, "southwest": {"lat": 51.51598696970851, "lng": -0.200204380291502}}}, "name": "Veldhoen + Company", "place_id": "ChIJtxRF4QIQdkgRtzfTsIqcSLA", "types": ["point_of_interest", "establishment"]}, "ChIJ3wJBVQMQdkgRJ7EA7Mn1zFo": {"geometry": {"location": {"lat": 51.52034495284617, "lng": -0.2000839751740505}, "viewport": {"northeast": {"lat": 51.5216939802915, "lng": -0.198734869708498}, "southwest": {"lat": 51.5189960197085, "lng": -0.201432830291502}}}, "name": "Great Western Road", "place_id": "ChIJ3wJBVQMQdkgRJ7EA7Mn1zFo", "types": ["route"]}, "ChIJvak1ThsQdkgRsIXWE5E3hTs": {"geometry": {"location": {"lat": 51.5207484, "lng": -0.2006311}, "viewport": {"northeast": {"lat": 51.5221197802915, "lng": -0.199206419708498}, "southwest": {"lat": 51.5194218197085, "lng": -0.201904380291502}}}, "name": "ATC Systemwide Site", "place_id": "ChIJvak1ThsQdkgRsIXWE5E3hTs", "types": ["general_contractor", "point_of_interest", "establishment"]}, "ChIJKYVqRBsQdkgRvRpSBe1mxp8": {"geometry": {"location": {"lat": 51.5207571, "lng": -0.2006404000000001}, "viewport": {"northeast": {"lat": 51.5221288302915, "lng": -0.199214669708498}, "southwest": {"lat": 51.51943086970851, "lng": -0.2019126302915021}}}, "name": "Shan Stores", "place_id": "ChIJKYVqRBsQdkgRvRpSBe1mxp8", "types": ["convenience_store", "food", "point_of_interest", "store", "establishment"], "rating": 3.5, "user_ratings_total": 6}, "ChIJK4VqRBsQdkgR72Cg9cZXCFM": {"geometry": {"location": {"lat": 51.52077079999999, "lng": -0.2006716}, "viewport": {"northeast": {"lat": 51.5221487802915, "lng": -0.199231419708498}, "southwest": {"lat": 51.5194508197085, "lng": -0.201929380291502}}}, "name": "ATM", "place_id": "ChIJK4VqRBsQdkgR72Cg9cZXCFM", "types": ["atm", "finance", "point_of_interest", "establishment"]}, "ChIJ1av60GARdkgRw1yhjJpcSAM": {"geometry": {"location": {"lat": 51.520829, "lng": -0.2007628}, "viewport": {"northeast": {"lat": 51.52220858029149, "lng": -0.1993091197084979}, "southwest": {"lat": 51.5195106197085, "lng": -0.202007080291502}}}, "name": "Bica", "place_id": "ChIJ1av60GARdkgRw1yhjJpcSAM", "types": ["food", "point_of_interest", "store", "establishment"], "rating": 5, "user_ratings_total": 5}, "ChIJp_kgpBwQdkgR3JSFKOSBIJU": {"geometry": {"location": {"lat": 51.5197329, "lng": -0.2008179}, "viewport": {"northeast": {"lat": 51.52108913029151, "lng": -0.199446069708498}, "southwest": {"lat": 51.51839116970851, "lng": -0.202144030291502}}}, "name": "ubitricity Charging Station", "place_id": "ChIJp_kgpBwQdkgR3JSFKOSBIJU", "types": ["point_of_interest", "establishment"], "rating": 2, "user_ratings_total": 1}, "ChIJu7mbMwMQdkgR4skFO1OXLik": {"geometry": {"location": {"lat": 51.51895380000001, "lng": -0.2002763}, "viewport": {"northeast": {"lat": 51.5203280302915, "lng": -0.198854019708498}, "southwest": {"lat": 51.5176300697085, "lng": -0.201551980291502}}}, "name": "Louise Kugelberg", "place_id": "ChIJu7mbMwMQdkgR4skFO1OXLik", "types": ["general_contractor", "point_of_interest", "establishment"]}, "ChIJdcmcKR0QdkgR6paYAnRdNBQ": {"geometry": {"location": {"lat": 51.51732241245054, "lng": -0.2002248385306669}, "viewport": {"northeast": {"lat": 51.5186688302915, "lng": -0.198884719708498}, "southwest": {"lat": 51.5159708697085, "lng": -0.201582680291502}}}, "name": "128-116 Ledbury Rd", "place_id": "ChIJdcmcKR0QdkgR6paYAnRdNBQ", "types": ["route"]}, "ChIJi3kAm_-r2EcRTJmud2GjRQ4": {"geometry": {"location": {"lat": 51.5174239, "lng": -0.2000574}, "viewport": {"northeast": {"lat": 51.5187422302915, "lng": -0.198808069708498}, "southwest": {"lat": 51.5160442697085, "lng": -0.201506030291502}}}, "name": "AC Kinetic Electricians", "place_id": "ChIJi3kAm_-r2EcRTJmud2GjRQ4", "types": ["electrician", "point_of_interest", "establishment"], "rating": 5, "user_ratings_total": 10}, "ChIJ3Tw2rBsRdkgRTlueTyGrZ34": {"geometry": {"location": {"lat": 51.5174239, "lng": -0.2000573}, "viewport": {"northeast": {"lat": 51.5187422302915, "lng": -0.198808019708498}, "southwest": {"lat": 51.5160442697085, "lng": -0.201505980291502}}}, "name": "Private Yoga with Rosalynd", "place_id": "ChIJ3Tw2rBsRdkgRTlueTyGrZ34", "types": ["school", "gym", "health", "point_of_interest", "establishment"], "rating": 5, "user_ratings_total": 18}, "ChIJD5HNZhsQdkgRK9j6jTpBnLw": {"geometry": {"location": {"lat": 51.52049966281469, "lng": -0.2016332722766064}, "viewport": {"northeast": {"lat": 51.5218410302915, "lng": -0.200285469708498}, "southwest": {"lat": 51.51914306970851, "lng": -0.202983430291502}}}, "name": "35 Tavistock Cres", "place_id": "ChIJD5HNZhsQdkgRK9j6jTpBnLw", "types": ["route"]}, "ChIJOQsBnhwQdkgR_wNrWwGFlNI": {"geometry": {"location": {"lat": 51.52001455622707, "lng": -0.2018683060782931}, "viewport": {"northeast": {"lat": 51.5213635302915, "lng": -0.200519319708498}, "southwest": {"lat": 51.5186655697085, "lng": -0.203217280291502}}}, "name": "9-11 Tavistock Rd", "place_id": "ChIJOQsBnhwQdkgR_wNrWwGFlNI", "types": ["route"]}, "ChIJsyTcmhwQdkgRSdgkXOfwW4M": {"geometry": {"location": {"lat": 51.519575, "lng": -0.2019902}, "viewport": {"northeast": {"lat": 51.5209446302915, "lng": -0.200581719708498}, "southwest": {"lat": 51.5182466697085, "lng": -0.2032796802915021}}}, "name": "AirHotels Experience in Maida & Notting Hill", "place_id": "ChIJsyTcmhwQdkgRSdgkXOfwW4M", "types": ["lodging", "point_of_interest", "establishment"]}, "ChIJR8Cw_RwQdkgRZ1PefBW2uJ8": {"geometry": {"location": {"lat": 51.51760440172786, "lng": -0.2023098521626629}, "viewport": {"northeast": {"lat": 51.5189533802915, "lng": -0.200960869708498}, "southwest": {"lat": 51.5162554197085, "lng": -0.2036588302915021}}}, "name": "226-196 Westbourne Park Rd", "place_id": "ChIJR8Cw_RwQdkgRZ1PefBW2uJ8", "types": ["route"]}, "ChIJF-sQnVEbdkgR6mSLkxowPqU": {"geometry": {"location": {"lat": 51.517527, "lng": -0.2019551}, "viewport": {"northeast": {"lat": 51.5189296802915, "lng": -0.2004042197084979}, "southwest": {"lat": 51.51623171970851, "lng": -0.203102180291502}}}, "name": "Sophie Breitmeyer", "place_id": "ChIJF-sQnVEbdkgR6mSLkxowPqU", "types": ["jewelry_store", "point_of_interest", "store", "establishment"]}, "ChIJby5d4xwQdkgRYY-fuvYNWLA": {"geometry": {"location": {"lat": 51.5177515, "lng": -0.2019705}, "viewport": {"northeast": {"lat": 51.5190735302915, "lng": -0.200604669708498}, "southwest": {"lat": 51.51637556970851, "lng": -0.2033026302915021}}}, "name": "Bold & Beauty", "place_id": "ChIJby5d4xwQdkgRYY-fuvYNWLA", "types": ["point_of_interest", "establishment"], "rating": 5, "user_ratings_total": 2}, "ChIJzcsk4hwQdkgRexSFO5Ci6-4": {"geometry": {"location": {"lat": 51.51757199999999, "lng": -0.201729}, "viewport": {"northeast": {"lat": 51.51894678029151, "lng": -0.200287469708498}, "southwest": {"lat": 51.51624881970851, "lng": -0.202985430291502}}}, "name": "Calluna flowers - Notting Hill Florist", "place_id": "ChIJzcsk4hwQdkgRexSFO5Ci6-4", "types": ["florist", "point_of_interest", "store", "establishment"], "rating": 5, "user_ratings_total": 20}, "ChIJ5zg1qeIPdkgRzck10sudxLQ": {"geometry": {"location": {"lat": 51.51780309999999, "lng": -0.2020337}, "viewport": {"northeast": {"lat": 51.5190948802915, "lng": -0.200648919708498}, "southwest": {"lat": 51.51639691970851, "lng": -0.2033468802915021}}}, "name": "Irwin Apartments at Notting Hill", "place_id": "ChIJ5zg1qeIPdkgRzck10sudxLQ", "types": ["point_of_interest", "establishment"], "rating": 1.7, "user_ratings_total": 29}, "ChIJTSURHh0QdkgRLR3dae0rFZQ": {"geometry": {"location": {"lat": 51.51747559999999, "lng": -0.2016695}, "viewport": {"northeast": {"lat": 51.51885123029149, "lng": -0.2002251697084979}, "southwest": {"lat": 51.51615326970849, "lng": -0.202923130291502}}}, "name": "Talitha", "place_id": "ChIJTSURHh0QdkgRLR3dae0rFZQ", "types": ["point_of_interest", "clothing_store", "store", "establishment"], "rating": 1, "user_ratings_total": 1}, "ChIJ_TfM4xwQdkgRHBQCPue1LNE": {"geometry": {"location": {"lat": 51.5176183, "lng": -0.2017714}, "viewport": {"northeast": {"lat": 51.5190178802915, "lng": -0.200454119708498}, "southwest": {"lat": 51.51631991970851, "lng": -0.203152080291502}}}, "name": "C.P. Hart Bathrooms Notting Hill", "place_id": "ChIJ_TfM4xwQdkgRHBQCPue1LNE", "types": ["home_goods_store", "general_contractor", "point_of_interest", "store", "establishment"], "rating": 4.5, "user_ratings_total": 14}, "ChIJVVW54hwQdkgRLMJ2LUgQcX4": {"geometry": {"location": {"lat": 51.5175242, "lng": -0.2019828}, "viewport": {"northeast": {"lat": 51.5189424302915, "lng": -0.200677119708498}, "southwest": {"lat": 51.5162444697085, "lng": -0.203375080291502}}}, "name": "Macmillan Press Limited", "place_id": "ChIJVVW54hwQdkgRLMJ2LUgQcX4", "types": ["point_of_interest", "establishment"]}, "ChIJAcmi_RwQdkgRsq6pXVWEoKg": {"geometry": {"location": {"lat": 51.517551, "lng": -0.202276}, "viewport": {"northeast": {"lat": 51.5189277802915, "lng": -0.200939319708498}, "southwest": {"lat": 51.5162298197085, "lng": -0.203637280291502}}}, "name": "Powis Gardens (Stop PD)", "place_id": "ChIJAcmi_RwQdkgRsq6pXVWEoKg", "types": ["bus_station", "transit_station", "point_of_interest", "establishment"]}, "ChIJs5ayBY0RdkgRCVk6qbQ5rCQ": {"geometry": {"location": {"lat": 51.5176366, "lng": -0.2016931}, "viewport": {"northeast": {"lat": 51.51900133029149, "lng": -0.200284819708498}, "southwest": {"lat": 51.5163033697085, "lng": -0.2029827802915021}}}, "name": "Artroom", "place_id": "ChIJs5ayBY0RdkgRCVk6qbQ5rCQ", "types": ["point_of_interest", "establishment"]}, "ChIJ__-65BwQdkgRjHebddwhQXM": {"geometry": {"location": {"lat": 51.51784240000001, "lng": -0.2019966}, "viewport": {"northeast": {"lat": 51.5191210302915, "lng": -0.200603569708498}, "southwest": {"lat": 51.5164230697085, "lng": -0.203301530291502}}}, "name": "Lifestyle Hotel Golden Strand Ltd", "place_id": "ChIJ__-65BwQdkgRjHebddwhQXM", "types": ["lodging", "point_of_interest", "establishment"]}, "ChIJJzSu4RwQdkgRtsTw8AJQwic": {"geometry": {"location": {"lat": 51.5175908, "lng": -0.2015332}, "viewport": {"northeast": {"lat": 51.5189487302915, "lng": -0.200152269708498}, "southwest": {"lat": 51.5162507697085, "lng": -0.202850230291502}}}, "name": "Zipcar - Powis Terrace", "place_id": "ChIJJzSu4RwQdkgRtsTw8AJQwic", "types": ["car_rental", "point_of_interest", "establishment"]}, "ChIJszwFkhsQdkgRr2QG6huRQh8": {"geometry": {"location": {"lat": 51.52079993445906, "lng": -0.2039474204688448}, "viewport": {"northeast": {"lat": 51.5221464302915, "lng": -0.202595419708498}, "southwest": {"lat": 51.5194484697085, "lng": -0.2052933802915021}}}, "name": "Westway", "place_id": "ChIJszwFkhsQdkgRr2QG6huRQh8", "types": ["route"]}, "ChIJNTatbxwQdkgR-7UXHWaimdE": {"geometry": {"location": {"lat": 51.5194176, "lng": -0.2037871}, "viewport": {"northeast": {"lat": 51.5207093302915, "lng": -0.202376119708498}, "southwest": {"lat": 51.5180113697085, "lng": -0.205074080291502}}}, "name": "Pell Mell Agency", "place_id": "ChIJNTatbxwQdkgR-7UXHWaimdE", "types": ["point_of_interest", "establishment"]}, "ChIJWwboPxwQdkgRMgOl1ksU4GI": {"geometry": {"location": {"lat": 51.51867365006468, "lng": -0.2043129495884689}, "viewport": {"northeast": {"lat": 51.5200226302915, "lng": -0.202963969708498}, "southwest": {"lat": 51.5173246697085, "lng": -0.205661930291502}}}, "name": "33-43 All Saints Rd", "place_id": "ChIJWwboPxwQdkgRMgOl1ksU4GI", "types": ["route"]}, "ChIJg6mzQhwQdkgRyf0YtSAn1lI": {"geometry": {"location": {"lat": 51.5187213, "lng": -0.2035453}, "viewport": {"northeast": {"lat": 51.52005203029149, "lng": -0.202180769708498}, "southwest": {"lat": 51.5173540697085, "lng": -0.2048787302915021}}}, "name": "Instigate Group Ltd", "place_id": "ChIJg6mzQhwQdkgRyf0YtSAn1lI", "types": ["point_of_interest", "establishment"]}, "ChIJl0R9sh0QdkgRW3Pf7Gs_Fdo": {"geometry": {"location": {"lat": 51.51729975017501, "lng": -0.20356660021806}, "viewport": {"northeast": {"lat": 51.5186487302915, "lng": -0.202217619708498}, "southwest": {"lat": 51.5159507697085, "lng": -0.204915580291502}}}, "name": "242-234 Westbourne Park Rd", "place_id": "ChIJl0R9sh0QdkgRW3Pf7Gs_Fdo", "types": ["route"]}, "ChIJGbv8EQIQdkgRFsUC_fg0LYU": {"geometry": {"location": {"lat": 51.5174093, "lng": -0.2035696}, "viewport": {"northeast": {"lat": 51.5187134802915, "lng": -0.202177669708498}, "southwest": {"lat": 51.5160155197085, "lng": -0.204875630291502}}}, "name": "Capitol Carpets of Chelsea", "place_id": "ChIJGbv8EQIQdkgRFsUC_fg0LYU", "types": ["furniture_store", "home_goods_store", "point_of_interest", "store", "establishment"], "rating": 5, "user_ratings_total": 2}, "ChIJseOXThwQdkgRNsBLzEhBg6w": {"geometry": {"location": {"lat": 51.5178084, "lng": -0.2038716}, "viewport": {"northeast": {"lat": 51.5191820802915, "lng": -0.2024308197084979}, "southwest": {"lat": 51.5164841197085, "lng": -0.205128780291502}}}, "name": "All Saints", "place_id": "ChIJseOXThwQdkgRNsBLzEhBg6w", "types": ["dentist", "health", "point_of_interest", "establishment"], "rating": 2.7, "user_ratings_total": 7}, "ChIJ-_YXvegadkgRYJ-uO6coOcg": {"geometry": {"location": {"lat": 51.5176868, "lng": -0.2034373}, "viewport": {"northeast": {"lat": 51.5190218302915, "lng": -0.202146869708498}, "southwest": {"lat": 51.5163238697085, "lng": -0.204844830291502}}}, "name": "Zoe & Morgan", "place_id": "ChIJ-_YXvegadkgRYJ-uO6coOcg", "types": ["jewelry_store", "point_of_interest", "store", "establishment"], "rating": 5, "user_ratings_total": 7}, "ChIJ_cPbnPsPdkgRdv3iOTQsVJk": {"geometry": {"location": {"lat": 51.5175942, "lng": -0.2032991}, "viewport": {"northeast": {"lat": 51.5189208302915, "lng": -0.202044119708498}, "southwest": {"lat": 51.51622286970851, "lng": -0.204742080291502}}}, "name": "The Little Yellow Door", "place_id": "ChIJ_cPbnPsPdkgRdv3iOTQsVJk", "types": ["bar", "point_of_interest", "establishment"], "rating": 4.1, "user_ratings_total": 191}, "ChIJm9KzTRwQdkgRhgefBHvkaOA": {"geometry": {"location": {"lat": 51.5176409, "lng": -0.2036834}, "viewport": {"northeast": {"lat": 51.5190044302915, "lng": -0.202273319708498}, "southwest": {"lat": 51.5163064697085, "lng": -0.204971280291502}}}, "name": "The Jacksons", "place_id": "ChIJm9KzTRwQdkgRhgefBHvkaOA", "types": ["point_of_interest", "clothing_store", "store", "establishment"], "rating": 5, "user_ratings_total": 3}, "ChIJQRKBtR0QdkgRI94ayxgstJw": {"geometry": {"location": {"lat": 51.51735660000001, "lng": -0.2039143}, "viewport": {"northeast": {"lat": 51.5186444302915, "lng": -0.202526469708498}, "southwest": {"lat": 51.5159464697085, "lng": -0.205224430291502}}}, "name": "Loft King Ltd", "place_id": "ChIJQRKBtR0QdkgRI94ayxgstJw", "types": ["general_contractor", "point_of_interest", "establishment"], "rating": 3.3, "user_ratings_total": 4}, "ChIJmbOLLXUPdkgRhUgy1h7WtM0": {"geometry": {"location": {"lat": 51.5175221, "lng": -0.2036279}, "viewport": {"northeast": {"lat": 51.5188874302915, "lng": -0.202210169708498}, "southwest": {"lat": 51.5161894697085, "lng": -0.204908130291502}}}, "name": "Rupert Bevan Ltd", "place_id": "ChIJmbOLLXUPdkgRhUgy1h7WtM0", "types": ["point_of_interest", "establishment"], "rating": 5, "user_ratings_total": 1}, "ChIJ22NuTRwQdkgR-eV3qdlcu6w": {"geometry": {"location": {"lat": 51.5175608, "lng": -0.2036333}, "viewport": {"northeast": {"lat": 51.5189242302915, "lng": -0.202223569708498}, "southwest": {"lat": 51.5162262697085, "lng": -0.204921530291502}}}, "name": "Mercury Radio Cars", "place_id": "ChIJ22NuTRwQdkgR-eV3qdlcu6w", "types": ["point_of_interest", "establishment"], "rating": 2.4, "user_ratings_total": 14}, "ChIJ__8bTRwQdkgRy9HwVfPEtTg": {"geometry": {"location": {"lat": 51.5175623, "lng": -0.2036857}, "viewport": {"northeast": {"lat": 51.5189310802915, "lng": -0.2022535197084979}, "southwest": {"lat": 51.5162331197085, "lng": -0.204951480291502}}}, "name": "Airport Cars", "place_id": "ChIJ__8bTRwQdkgRy9HwVfPEtTg", "types": ["point_of_interest", "establishment"]}, "ChIJqVo0TBwQdkgRbFH0ZyhL12s": {"geometry": {"location": {"lat": 51.51772929999999, "lng": -0.2037484}, "viewport": {"northeast": {"lat": 51.5190625302915, "lng": -0.202389769708498}, "southwest": {"lat": 51.5163645697085, "lng": -0.205087730291502}}}, "name": "I2c Construction", "place_id": "ChIJqVo0TBwQdkgRbFH0ZyhL12s", "types": ["point_of_interest", "store", "establishment"]},