{"E00024074": {"ChIJCdW3_gQQdkgRO_U8thmLN6Y": {"geometry": {"location": {"lat": 51.52240134811554, "lng": -0.1969855914962653}, "viewport": {"northeast": {"lat": 51.5237694802915, "lng": -0.195614869708498}, "southwest": {"lat": 51.5210715197085, "lng": -0.198312830291502}}}, "name": "1-3 Elmfield Way", "place_id": "ChIJCdW3_gQQdkgRO_U8thmLN6Y", "types": ["route"]}, "ChIJfRyzWwQQdkgRA9qMOMH91aU": {"geometry": {"location": {"lat": 51.5219487, "lng": -0.1963311}, "viewport": {"northeast": {"lat": 51.52354003029149, "lng": -0.195094269708498}, "southwest": {"lat": 51.52084206970849, "lng": -0.1977922302915021}}}, "name": "Walkies4u", "place_id": "ChIJfRyzWwQQdkgRA9qMOMH91aU", "types": ["point_of_interest", "store", "establishment"]}, "ChIJOZse_AQQdkgRY5VqjfZKaZE": {"geometry": {"location": {"lat": 51.5222728, "lng": -0.197257}, "viewport": {"northeast": {"lat": 51.52360528029151, "lng": -0.196011019708498}, "southwest": {"lat": 51.52090731970851, "lng": -0.198708980291502}}}, "name": "Yarrow Housing Ltd", "place_id": "ChIJOZse_AQQdkgRY5VqjfZKaZE", "types": ["health", "point_of_interest", "establishment"]}, "ChIJq6qmXgQQdkgRMfjGyqKyeIc": {"geometry": {"location": {"lat": 51.5216813, "lng": -0.1965823}, "viewport": {"northeast": {"lat": 51.52303028029151, "lng": -0.195233319708498}, "southwest": {"lat": 51.52033231970851, "lng": -0.197931280291502}}}, "name": "Bread of Hope", "place_id": "ChIJq6qmXgQQdkgRMfjGyqKyeIc", "types": ["point_of_interest", "establishment"]}, "ChIJX4Os-wQQdkgRINDKQx30_9s": {"geometry": {"location": {"lat": 51.5222754, "lng": -0.1974379}, "viewport": {"northeast": {"lat": 51.52357297874737, "lng": -0.1961102932834171}, "southwest": {"lat": 51.52087501816437, "lng": -0.1988082538664211}}}, "name": "Parking lot", "place_id": "ChIJX4Os-wQQdkgRINDKQx30_9s", "types": ["parking", "premise", "point_of_interest", "establishment"]}, "ChIJD_WflQQQdkgR88d8zkgi7Qk": {"geometry": {"location": {"lat": 51.52104822991147, "lng": -0.1969346488817992}, "viewport": {"northeast": {"lat": 51.5223968802915, "lng": -0.195585919708498}, "southwest": {"lat": 51.5196989197085, "lng": -0.198283880291502}}}, "name": "Westway", "place_id": "ChIJD_WflQQQdkgR88d8zkgi7Qk", "types": ["route"]}, "ChIJnV1PDKwadkgRNoTkXKdFp1k": {"geometry": {"location": {"lat": 51.5211947, "lng": -0.1965033}, "viewport": {"northeast": {"lat": 51.52247518029149, "lng": -0.195207969708498}, "southwest": {"lat": 51.51977721970849, "lng": -0.197905930291502}}}, "name": "Recipe Design", "place_id": "ChIJnV1PDKwadkgRNoTkXKdFp1k", "types": ["point_of_interest", "establishment"], "rating": 5, "user_ratings_total": 1}, "ChIJjb7FZgQQdkgRjFgkWFqhlQo": {"geometry": {"location": {"lat": 51.5211947, "lng": -0.1965033}, "viewport": {"northeast": {"lat": 51.52247518029149, "lng": -0.195207969708498}, "southwest": {"lat": 51.51977721970849, "lng": -0.197905930291502}}}, "name": "DreamArts", "place_id": "ChIJjb7FZgQQdkgRjFgkWFqhlQo", "types": ["point_of_interest", "establishment"], "rating": 4, "user_ratings_total": 1}, "ChIJjb7FZgQQdkgRiY3s6me-j5M": {"geometry": {"location": {"lat": 51.5211947, "lng": -0.1965033}, "viewport": {"northeast": {"lat": 51.52247518029149, "lng": -0.195207969708498}, "southwest": {"lat": 51.51977721970849, "lng": -0.197905930291502}}}, "name": "Elena Tsoka", "place_id": "ChIJjb7FZgQQdkgRiY3s6me-j5M", "types": ["point_of_interest", "establishment"]}, "ChIJjb7FZgQQdkgR8tks1xB9eWg": {"geometry": {"location": {"lat": 51.5211947, "lng": -0.1965033}, "viewport": {"northeast": {"lat": 51.52247518029149, "lng": -0.195207969708498}, "southwest": {"lat": 51.51977721970849, "lng": -0.197905930291502}}}, "name": "Innovation Imperative", "place_id": "ChIJjb7FZgQQdkgR8tks1xB9eWg", "types": ["point_of_interest", "establishment"]}, "ChIJjb7FZgQQdkgRXeagSPn2Y-c": {"geometry": {"location": {"lat": 51.5211947, "lng": -0.1965033}, "viewport": {"northeast": {"lat": 51.52247518029149, "lng": -0.195207969708498}, "southwest": {"lat": 51.51977721970849, "lng": -0.197905930291502}}}, "name": "E-Innovate", "place_id": "ChIJjb7FZgQQdkgRXeagSPn2Y-c", "types": ["point_of_interest", "establishment"], "rating": 5, "user_ratings_total": 1}, "ChIJMfRxzTwOdkgR2Dky_IpJCv4": {"geometry": {"location": {"lat": 51.5211947, "lng": -0.1965033}, "viewport": {"northeast": {"lat": 51.52247518029149, "lng": -0.195207969708498}, "southwest": {"lat": 51.51977721970849, "lng": -0.197905930291502}}}, "name": "Notable Designs", "place_id": "ChIJMfRxzTwOdkgR2Dky_IpJCv4", "types": ["point_of_interest", "establishment"]}, "ChIJQfG_qoAPdkgRSnWxcFiCKAk": {"geometry": {"location": {"lat": 51.5211947, "lng": -0.1965033}, "viewport": {"northeast": {"lat": 51.52247518029149, "lng": -0.195207969708498}, "southwest": {"lat": 51.51977721970849, "lng": -0.197905930291502}}}, "name": "Rita Konig", "place_id": "ChIJQfG_qoAPdkgRSnWxcFiCKAk", "types": ["point_of_interest", "establishment"]}, "ChIJbQxrbQQQdkgReDkSJK3Njfc": {"geometry": {"location": {"lat": 51.5211947, "lng": -0.1965033}, "viewport": {"northeast": {"lat": 51.52247518029149, "lng": -0.195207969708498}, "southwest": {"lat": 51.51977721970849, "lng": -0.197905930291502}}}, "name": "Westbourne Forum", "place_id": "ChIJbQxrbQQQdkgReDkSJK3Njfc", "types": ["point_of_interest", "establishment"]}, "ChIJjb7FZgQQdkgRoNuZJDvmRKI": {"geometry": {"location": {"lat": 51.5211947, "lng": -0.1965033}, "viewport": {"northeast": {"lat": 51.52247518029149, "lng": -0.195207969708498}, "southwest": {"lat": 51.51977721970849, "lng": -0.197905930291502}}}, "name": "Oliver's island", "place_id": "ChIJjb7FZgQQdkgRoNuZJDvmRKI", "types": ["point_of_interest", "establishment"]}, "ChIJCQO1A0IFdkgRDItSs9uumkI": {"geometry": {"location": {"lat": 51.521195, "lng": -0.196503}, "viewport": {"northeast": {"lat": 51.5224753302915, "lng": -0.195207769708498}, "southwest": {"lat": 51.5197773697085, "lng": -0.197905730291502}}}, "name": "Kasimira", "place_id": "ChIJCQO1A0IFdkgRDItSs9uumkI", "types": ["point_of_interest", "establishment"], "rating": 4.6, "user_ratings_total": 16}, "ChIJ17aX4qgEdkgRPzw7To01TIo": {"geometry": {"location": {"lat": 51.5211681, "lng": -0.1964637}, "viewport": {"northeast": {"lat": 51.5224544802915, "lng": -0.195163769708498}, "southwest": {"lat": 51.5197565197085, "lng": -0.197861730291502}}}, "name": "Maxx Marketing Europe Ltd", "place_id": "ChIJ17aX4qgEdkgRPzw7To01TIo", "types": ["point_of_interest", "establishment"], "rating": 1, "user_ratings_total": 1}, "ChIJCT27cwQQdkgRCW1ifsj8jgU": {"geometry": {"location": {"lat": 51.5211796, "lng": -0.1965499}, "viewport": {"northeast": {"lat": 51.5225285802915, "lng": -0.195200919708498}, "southwest": {"lat": 51.5198306197085, "lng": -0.197898880291502}}}, "name": "Great Western Studios", "place_id": "ChIJCT27cwQQdkgRCW1ifsj8jgU", "types": ["point_of_interest", "establishment"], "rating": 4.3, "user_ratings_total": 89}, "ChIJ_awOudoRdkgR_UvXjlKuBJs": {"geometry": {"location": {"lat": 51.5211947, "lng": -0.1965033}, "viewport": {"northeast": {"lat": 51.52247518029149, "lng": -0.195207969708498}, "southwest": {"lat": 51.51977721970849, "lng": -0.197905930291502}}}, "name": "what3words", "place_id": "ChIJ_awOudoRdkgR_UvXjlKuBJs", "types": ["point_of_interest", "establishment"], "rating": 4.2, "user_ratings_total": 5}, "ChIJnzNYIKAPdkgRHKOxbPvxD0U": {"geometry": {"location": {"lat": 51.5211947, "lng": -0.1965033}, "viewport": {"northeast": {"lat": 51.52247518029149, "lng": -0.195207969708498}, "southwest": {"lat": 51.51977721970849, "lng": -0.197905930291502}}}, "name": "The Journal Shop", "place_id": "ChIJnzNYIKAPdkgRHKOxbPvxD0U", "types": ["point_of_interest", "establishment"], "rating": 4.9, "user_ratings_total": 48}, "ChIJjb7FZgQQdkgRQPPEL8gtA_s": {"geometry": {"location": {"lat": 51.5211947, "lng": -0.1965033}, "viewport": {"northeast": {"lat": 51.52247518029149, "lng": -0.195207969708498}, "southwest": {"lat": 51.51977721970849, "lng": -0.197905930291502}}}, "name": "MARC DUVIVIER CONSULTANCY", "place_id": "ChIJjb7FZgQQdkgRQPPEL8gtA_s", "types": ["point_of_interest", "establishment"]}, "ChIJjb7FZgQQdkgRFpEAfzmAxDQ": {"geometry": {"location": {"lat": 51.5211947, "lng": -0.1965033}, "viewport": {"northeast": {"lat": 51.52247518029149, "lng": -0.195207969708498}, "southwest": {"lat": 51.51977721970849, "lng": -0.197905930291502}}}, "name": "crasaterendo", "place_id": "ChIJjb7FZgQQdkgRFpEAfzmAxDQ", "types": ["point_of_interest", "store", "establishment"]}, "ChIJjb7FZgQQdkgR11TV9p2X6Wc": {"geometry": {"location": {"lat": 51.5211947, "lng": -0.1965033}, "viewport": {"northeast": {"lat": 51.52247518029149, "lng": -0.195207969708498}, "southwest": {"lat": 51.51977721970849, "lng": -0.197905930291502}}}, "name": "ACR Consultants", "place_id": "ChIJjb7FZgQQdkgR11TV9p2X6Wc", "types": ["accounting", "finance", "point_of_interest", "establishment"]}, "ChIJjb7FZgQQdkgRyV9HaxxaQQE": {"geometry": {"location": {"lat": 51.5211947, "lng": -0.1965033}, "viewport": {"northeast": {"lat": 51.52247518029149, "lng": -0.195207969708498}, "southwest": {"lat": 51.51977721970849, "lng": -0.197905930291502}}}, "name": "The Floating Classroom - Office", "place_id": "ChIJjb7FZgQQdkgRyV9HaxxaQQE", "types": ["point_of_interest", "establishment"]}, "ChIJjb7FZgQQdkgRv4SpmHyMr8k": {"geometry": {"location": {"lat": 51.5211947, "lng": -0.1965033}, "viewport": {"northeast": {"lat": 51.52247518029149, "lng": -0.195207969708498}, "southwest": {"lat": 51.51977721970849, "lng": -0.197905930291502}}}, "name": "Carousel Parties", "place_id": "ChIJjb7FZgQQdkgRv4SpmHyMr8k", "types": ["point_of_interest", "establishment"]}, "ChIJ-1Jy8wAQdkgRxWjTI2ZMZBw": {"geometry": {"location": {"lat": 51.51947460000001, "lng": -0.1966392}, "viewport": {"northeast": {"lat": 51.52061748029151, "lng": -0.195192719708498}, "southwest": {"lat": 51.51791951970851, "lng": -0.197890680291502}}}, "name": "Portishead House", "place_id": "ChIJ-1Jy8wAQdkgRxWjTI2ZMZBw", "types": ["point_of_interest", "establishment"], "rating": 5, "user_ratings_total": 2}, "ChIJayf7dAMQdkgRaxJE7W1pxcI": {"geometry": {"location": {"lat": 51.51882830792835, "lng": -0.1975460805597499}, "viewport": {"northeast": {"lat": 51.52017388029149, "lng": -0.196195069708498}, "southwest": {"lat": 51.5174759197085, "lng": -0.198893030291502}}}, "name": "Westbourne Park Road", "place_id": "ChIJayf7dAMQdkgRaxJE7W1pxcI", "types": ["route"]}, "ChIJB3A0dQMQdkgRdYl7lc7MBY4": {"geometry": {"location": {"lat": 51.51867699999999, "lng": -0.197652}, "viewport": {"northeast": {"lat": 51.52008233029149, "lng": -0.196339969708498}, "southwest": {"lat": 51.51738436970849, "lng": -0.199037930291502}}}, "name": "The Oak W2", "place_id": "ChIJB3A0dQMQdkgRdYl7lc7MBY4", "types": ["bar", "restaurant", "food", "point_of_interest", "establishment"], "rating": 4.4, "user_ratings_total": 423}, "ChIJB3A0dQMQdkgREeDog7CPM9g": {"geometry": {"location": {"lat": 51.5187897, "lng": -0.1972006}, "viewport": {"northeast": {"lat": 51.5201386802915, "lng": -0.195851619708498}, "southwest": {"lat": 51.5174407197085, "lng": -0.198549580291502}}}, "name": "Domino's Pizza - London - Bayswater", "place_id": "ChIJB3A0dQMQdkgREeDog7CPM9g", "types": ["meal_takeaway", "restaurant", "food", "point_of_interest", "establishment"], "rating": 3.3, "user_ratings_total": 89}, "ChIJGdzNdAMQdkgRakypDYI9KBA": {"geometry": {"location": {"lat": 51.5188088, "lng": -0.1971017}, "viewport": {"northeast": {"lat": 51.52020813029149, "lng": -0.195779419708498}, "southwest": {"lat": 51.51751016970849, "lng": -0.198477380291502}}}, "name": "Tom Conran Restaurants", "place_id": "ChIJGdzNdAMQdkgRakypDYI9KBA", "types": ["restaurant", "food", "point_of_interest", "establishment"]}, "ChIJu6rtCgMQdkgRPpQ1NOb5rn8": {"geometry": {"location": {"lat": 51.51859990000001, "lng": -0.1972969}, "viewport": {"northeast": {"lat": 51.5199150802915, "lng": -0.195932519708498}, "southwest": {"lat": 51.5172171197085, "lng": -0.198630480291502}}}, "name": "Ardesia Design Ltd", "place_id": "ChIJu6rtCgMQdkgRPpQ1NOb5rn8", "types": ["general_contractor", "point_of_interest", "establishment"]}, "ChIJu6rtCgMQdkgRvK_EX1lrkF8": {"geometry": {"location": {"lat": 51.5186891, "lng": -0.1969517}, "viewport": {"northeast": {"lat": 51.5199912302915, "lng": -0.195581369708498}, "southwest": {"lat": 51.5172932697085, "lng": -0.198279330291502}}}, "name": "Alessandro Costa Photography", "place_id": "ChIJu6rtCgMQdkgRvK_EX1lrkF8", "types": ["point_of_interest", "establishment"]}, "ChIJD6TQmAMQdkgRsbRS3TXOVxw": {"geometry": {"location": {"lat": 51.518926, "lng": -0.196496}, "viewport": {"northeast": {"lat": 51.5203299302915, "lng": -0.195179369708498}, "southwest": {"lat": 51.51763196970851, "lng": -0.197877330291502}}}, "name": "La Maria", "place_id": "ChIJD6TQmAMQdkgRsbRS3TXOVxw", "types": ["restaurant", "food", "point_of_interest", "establishment"], "rating": 4, "user_ratings_total": 116}, "ChIJuQIdmQMQdkgR41ttleDX65s": {"geometry": {"location": {"lat": 51.5189351, "lng": -0.1964078}, "viewport": {"northeast": {"lat": 51.5203438802915, "lng": -0.195094019708498}, "southwest": {"lat": 51.5176459197085, "lng": -0.197791980291502}}}, "name": "AA Estate Agents Ltd", "place_id": "ChIJuQIdmQMQdkgR41ttleDX65s", "types": ["real_estate_agency", "point_of_interest", "establishment"], "rating": 4.5, "user_ratings_total": 2}, "ChIJFzm7BWwRdkgRLWOUae5Lssw": {"geometry": {"location": {"lat": 51.5188055, "lng": -0.1971143}, "viewport": {"northeast": {"lat": 51.52020513029149, "lng": -0.195792269708498}, "southwest": {"lat": 51.5175071697085, "lng": -0.198490230291502}}}, "name": "Chesire Cat", "place_id": "ChIJFzm7BWwRdkgRLWOUae5Lssw", "types": ["bar", "point_of_interest", "establishment"]}, "ChIJXwpD9lQRdkgR9fpAeMkt6XY": {"geometry": {"location": {"lat": 51.51869759999999, "lng": -0.1974213}, "viewport": {"northeast": {"lat": 51.52011703029149, "lng": -0.196110219708498}, "southwest": {"lat": 51.5174190697085, "lng": -0.198808180291502}}}, "name": "Pulse Conferences Ltd", "place_id": "ChIJXwpD9lQRdkgR9fpAeMkt6XY", "types": ["point_of_interest", "establishment"]}, "ChIJ79cddQMQdkgRWx30sG7EIt0": {"geometry": {"location": {"lat": 51.51888789999999, "lng": -0.197083}, "viewport": {"northeast": {"lat": 51.5202399302915, "lng": -0.195735669708498}, "southwest": {"lat": 51.5175419697085, "lng": -0.198433630291502}}}, "name": "ESB Charging Station", "place_id": "ChIJ79cddQMQdkgRWx30sG7EIt0", "types": ["point_of_interest", "establishment"]}, "ChIJ5ekpDQMQdkgR5Mj9jUuHSdw": {"geometry": {"location": {"lat": 51.51875889999999, "lng": -0.1974632}, "viewport": {"northeast": {"lat": 51.52014618029149, "lng": -0.196138469708498}, "southwest": {"lat": 51.51744821970849, "lng": -0.198836430291502}}}, "name": "Smiths's News ,Food & Wine", "place_id": "ChIJ5ekpDQMQdkgR5Mj9jUuHSdw", "types": ["point_of_interest", "establishment"], "rating": 1, "user_ratings_total": 1}, "ChIJ9zqevfARdkgRfjBzqWUQi4k": {"geometry": {"location": {"lat": 51.5187612, "lng": -0.197482}, "viewport": {"northeast": {"lat": 51.5201463802915, "lng": -0.1961481197084979}, "southwest": {"lat": 51.5174484197085, "lng": -0.198846080291502}}}, "name": "Westbourne Park MiniCabs", "place_id": "ChIJ9zqevfARdkgRfjBzqWUQi4k", "types": ["taxi_stand", "point_of_interest", "establishment"]}, "ChIJwxCqKJMRdkgRMqxnAZ8-wtk": {"geometry": {"location": {"lat": 51.51858919999999, "lng": -0.196806}, "viewport": {"northeast": {"lat": 51.5199303802915, "lng": -0.195453519708498}, "southwest": {"lat": 51.5172324197085, "lng": -0.198151480291502}}}, "name": "eTrain London", "place_id": "ChIJwxCqKJMRdkgRMqxnAZ8-wtk", "types": ["point_of_interest", "establishment"]}, "ChIJR47wcgMQdkgRiyItrpC7n8E": {"geometry": {"location": {"lat": 51.5189338, "lng": -0.1975016}, "viewport": {"northeast": {"lat": 51.5202395302915, "lng": -0.196129369708498}, "southwest": {"lat": 51.5175415697085, "lng": -0.198827330291502}}}, "name": "Shrewsbury Road Brunel Estate (Stop N)", "place_id": "ChIJR47wcgMQdkgRiyItrpC7n8E", "types": ["transit_station", "point_of_interest", "establishment"], "rating": 5, "user_ratings_total": 2}, "ChIJUX2znwMQdkgRA2_9pfj0HUo": {"geometry": {"location": {"lat": 51.518942, "lng": -0.196793}, "viewport": {"northeast": {"lat": 51.5203065802915, "lng": -0.195465969708498}, "southwest": {"lat": 51.5176086197085, "lng": -0.198163930291502}}}, "name": "ubitricity Charging Station", "place_id": "ChIJUX2znwMQdkgRA2_9pfj0HUo", "types": ["point_of_interest", "establishment"]}, "ChIJVVWZEgMQdkgRzjmUv3xCZ3w": {"geometry": {"location": {"lat": 51.51868139999999, "lng": -0.1976656}, "viewport": {"northeast": {"lat": 51.52008348029149, "lng": -0.196350969708498}, "southwest": {"lat": 51.51738551970849, "lng": -0.199048930291502}}}, "name": "Midvale Capital Management Ltd", "place_id": "ChIJVVWZEgMQdkgRzjmUv3xCZ3w", "types": ["finance", "point_of_interest", "establishment"]}, "ChIJa_VVgVURdkgRlbdc1Oy6dME": {"geometry": {"location": {"lat": 51.51896380000001, "lng": -0.1975791}, "viewport": {"northeast": {"lat": 51.5202487802915, "lng": -0.196195719708498}, "southwest": {"lat": 51.5175508197085, "lng": -0.198893680291502}}}, "name": "UPS Access Point", "place_id": "ChIJa_VVgVURdkgRlbdc1Oy6dME", "types": ["point_of_interest", "establishment"], "rating": 3.3, "user_ratings_total": 4}, "ChIJ6UlccgMQdkgR1LYJ-LOtDTg": {"geometry": {"location": {"lat": 51.51900370000001, "lng": -0.1975891}, "viewport": {"northeast": {"lat": 51.52026978029151, "lng": -0.196195569708498}, "southwest": {"lat": 51.51757181970851, "lng": -0.198893530291502}}}, "name": "Keyham Local", "place_id": "ChIJ6UlccgMQdkgR1LYJ-LOtDTg", "types": ["grocery_or_supermarket", "food", "point_of_interest", "store", "establishment"], "rating": 4, "user_ratings_total": 13}, "ChIJbdTiw2IRdkgRjX90g1WLnog": {"geometry": {"location": {"lat": 51.5183991, "lng": -0.1967259}, "viewport": {"northeast": {"lat": 51.5196895302915, "lng": -0.195350569708498}, "southwest": {"lat": 51.5169915697085, "lng": -0.198048530291502}}}, "name": "Boa Yoga", "place_id": "ChIJbdTiw2IRdkgRjX90g1WLnog", "types": ["school", "point_of_interest", "establishment"]}, "ChIJ_wlMEgMQdkgRhqfdyEGxOY8": {"geometry": {"location": {"lat": 51.518558, "lng": -0.197807}, "viewport": {"northeast": {"lat": 51.5199089802915, "lng": -0.196429669708498}, "southwest": {"lat": 51.5172110197085, "lng": -0.199127630291502}}}, "name": "Source London Charging Station", "place_id": "ChIJ_wlMEgMQdkgRhqfdyEGxOY8", "types": ["point_of_interest", "establishment"]}, "ChIJCR515DERdkgRSOxYxhMf76M": {"geometry": {"location": {"lat": 51.51867110000001, "lng": -0.197946}, "viewport": {"northeast": {"lat": 51.5200368802915, "lng": -0.1966086197084979}, "southwest": {"lat": 51.5173389197085, "lng": -0.199306580291502}}}, "name": "Electrical recycling", "place_id": "ChIJCR515DERdkgRSOxYxhMf76M", "types": ["point_of_interest", "establishment"]}, "ChIJ41LZpwMQdkgRfIzARHlpBI4": {"geometry": {"location": {"lat": 51.51836240000001, "lng": -0.1965603}, "viewport": {"northeast": {"lat": 51.51968318029151, "lng": -0.195198819708498}, "southwest": {"lat": 51.51698521970851, "lng": -0.197896780291502}}}, "name": "ubitricity Charging Station", "place_id": "ChIJ41LZpwMQdkgRfIzARHlpBI4", "types": ["point_of_interest", "establishment"]}, "ChIJTeQ_DwMQdkgR24HD_3UpSdg": {"geometry": {"location": {"lat": 51.518213, "lng": -0.197361}, "viewport": {"northeast": {"lat": 51.5195386802915, "lng": -0.195999819708498}, "southwest": {"lat": 51.5168407197085, "lng": -0.198697780291502}}}, "name": "ubitricity Charging Station", "place_id": "ChIJTeQ_DwMQdkgR24HD_3UpSdg", "types": ["point_of_interest", "establishment"]}, "ChIJ30iNEwMQdkgRvCW5CeD8xUM": {"geometry": {"location": {"lat": 51.51853910000001, "lng": -0.1979683}, "viewport": {"northeast": {"lat": 51.5199150302915, "lng": -0.196519119708498}, "southwest": {"lat": 51.5172170697085, "lng": -0.199217080291502}}}, "name": "Bayswater Children's Centre", "place_id": "ChIJ30iNEwMQdkgRvCW5CeD8xUM", "types": ["secondary_school", "school", "point_of_interest", "establishment"]}, "ChIJdTf5EAMQdkgRGoYU0QM-olQ": {"geometry": {"location": {"lat": 51.5182704, "lng": -0.1978467}, "viewport": {"northeast": {"lat": 51.51961704687414, "lng": -0.1964911573760054}, "southwest": {"lat": 51.51691908629114, "lng": -0.1991891179590095}}}, "name": "Parking lot", "place_id": "ChIJdTf5EAMQdkgRGoYU0QM-olQ", "types": ["parking", "premise", "point_of_interest", "establishment"]}, "ChIJfaB5W2IRdkgRZVbGQsdR0l4": {"geometry": {"location": {"lat": 51.518064, "lng": -0.1969412}, "viewport": {"northeast": {"lat": 51.5193814302915, "lng": -0.195577569708498}, "southwest": {"lat": 51.5166834697085, "lng": -0.198275530291502}}}, "name": "W2 Boxing Personal Training.", "place_id": "ChIJfaB5W2IRdkgRZVbGQsdR0l4", "types": ["health", "point_of_interest", "establishment"], "rating": 4.9, "user_ratings_total": 38}, "ChIJa4iMaOgRdkgRqvkRep4wmFk": {"geometry": {"location": {"lat": 51.5181536, "lng": -0.1971526}, "viewport": {"northeast": {"lat": 51.51951383029149, "lng": -0.195808669708498}, "southwest": {"lat": 51.51681586970849, "lng": -0.198506630291502}}}, "name": "St Stephen\u2019s Gardens Playground", "place_id": "ChIJa4iMaOgRdkgRqvkRep4wmFk", "types": ["point_of_interest", "establishment"], "rating": 4.3, "user_ratings_total": 3}, "ChIJwSCS6gQQdkgRXpwrN8nQJt4": {"geometry": {"location": {"lat": 51.52148447117953, "lng": -0.1980992202321261}, "viewport": {"northeast": {"lat": 51.5227888802915, "lng": -0.1961976}, "southwest": {"lat": 51.52009091970851, "lng": -0.2000504}}}, "name": "Westway", "place_id": "ChIJwSCS6gQQdkgRXpwrN8nQJt4", "types": ["route"]}, "ChIJIWqqxAQQdkgRLoh56qWroRQ": {"geometry": {"location": {"lat": 51.52218470000001, "lng": -0.1986428}, "viewport": {"northeast": {"lat": 51.5236116802915, "lng": -0.196993769708498}, "southwest": {"lat": 51.52091371970851, "lng": -0.1996917302915021}}}, "name": "Waterview Centre", "place_id": "ChIJIWqqxAQQdkgRLoh56qWroRQ", "types": ["health", "point_of_interest", "establishment"], "rating": 1, "user_ratings_total": 2}, "ChIJN2Nh1gQQdkgR9QAYxbxrOao": {"geometry": {"location": {"lat": 51.5224017, "lng": -0.199113}, "viewport": {"northeast": {"lat": 51.5239900302915, "lng": -0.197753619708498}, "southwest": {"lat": 51.52129206970851, "lng": -0.200451580291502}}}, "name": "Viewtalk", "place_id": "ChIJN2Nh1gQQdkgR9QAYxbxrOao", "types": ["point_of_interest", "establishment"]}, "ChIJLQijKhsQdkgRhnCCJr6OL3I": {"geometry": {"location": {"lat": 51.522415, "lng": -0.1999011}, "viewport": {"northeast": {"lat": 51.5237686116899, "lng": -0.1983697258094257}, "southwest": {"lat": 51.5210706511069, "lng": -0.2010676863924298}}}, "name": "Parking lot", "place_id": "ChIJLQijKhsQdkgRhnCCJr6OL3I", "types": ["parking", "premise", "point_of_interest", "establishment"]}, "ChIJV5V50wQQdkgRK7VJKY5XhcU": {"geometry": {"location": {"lat": 51.5224358, "lng": -0.1997401}, "viewport": {"northeast": {"lat": 51.52385467555617, "lng": -0.1983852465104838}, "southwest": {"lat": 51.52115671497317, "lng": -0.2010832070934879}}}, "name": "Parking lot", "place_id": "ChIJV5V50wQQdkgRK7VJKY5XhcU", "types": ["parking", "premise", "point_of_interest", "establishment"]}, "ChIJ3wJBVQMQdkgRpGS4E-8yJ7o": {"geometry": {"location": {"lat": 51.51976316076085, "lng": -0.1995299902697339}, "viewport": {"northeast": {"lat": 51.52111188029149, "lng": -0.198181719708498}, "southwest": {"lat": 51.51841391970849, "lng": -0.200879680291502}}}, "name": "Great Western Road", "place_id": "ChIJ3wJBVQMQdkgRpGS4E-8yJ7o", "types": ["route"]}, "ChIJEwGQXgMQdkgRUOEL0so-0x8": {"geometry": {"location": {"lat": 51.51981010000001, "lng": -0.1986179}, "viewport": {"northeast": {"lat": 51.5211875802915, "lng": -0.197303969708498}, "southwest": {"lat": 51.5184896197085, "lng": -0.200001930291502}}}, "name": "Truro House", "place_id": "ChIJEwGQXgMQdkgRUOEL0so-0x8", "types": ["point_of_interest", "establishment"], "rating": 4.3, "user_ratings_total": 3}, "ChIJb9zmTwMQdkgRW3hGDjCtf_g": {"geometry": {"location": {"lat": 51.51958659999999, "lng": -0.1992412}, "viewport": {"northeast": {"lat": 51.52091903029149, "lng": -0.1979388197084979}, "southwest": {"lat": 51.5182210697085, "lng": -0.200636780291502}}}, "name": "ubitricity Charging Station", "place_id": "ChIJb9zmTwMQdkgRW3hGDjCtf_g", "types": ["point_of_interest", "establishment"]}, "ChIJnxp2FQMQdkgREeVIi_BqRY0": {"geometry": {"location": {"lat": 51.51862325004593, "lng": -0.1983219500633358}, "viewport": {"northeast": {"lat": 51.51997223029149, "lng": -0.1969729697084979}, "southwest": {"lat": 51.51727426970849, "lng": -0.199670930291502}}}, "name": "Westbourne Park Road", "place_id": "ChIJnxp2FQMQdkgREeVIi_BqRY0", "types": ["route"]}, "ChIJHbRevzIRdkgRGd5239jzjxg": {"geometry": {"location": {"lat": 51.5187408, "lng": -0.1989774}, "viewport": {"northeast": {"lat": 51.52014588029149, "lng": -0.197471819708498}, "southwest": {"lat": 51.5174479197085, "lng": -0.200169780291502}}}, "name": "Prime Blooms", "place_id": "ChIJHbRevzIRdkgRGd5239jzjxg", "types": ["florist", "point_of_interest", "store", "establishment"], "rating": 5, "user_ratings_total": 10}, "ChIJT9PiRQMQdkgRr4coJMRZdP8": {"geometry": {"location": {"lat": 51.5189738, "lng": -0.1989432}, "viewport": {"northeast": {"lat": 51.5203452302915, "lng": -0.197533019708498}, "southwest": {"lat": 51.5176472697085, "lng": -0.200230980291502}}}, "name": "Brunel Estate (Stop P)", "place_id": "ChIJT9PiRQMQdkgRr4coJMRZdP8", "types": ["transit_station", "point_of_interest", "establishment"], "rating": 3, "user_ratings_total": 1}, "ChIJty0VOgMQdkgRkXq3TIK7204": {"geometry": {"location": {"lat": 51.518372, "lng": -0.19903}, "viewport": {"northeast": {"lat": 51.5197486302915, "lng": -0.197699619708498}, "southwest": {"lat": 51.5170506697085, "lng": -0.200397580291502}}}, "name": "Great Western Road (Stop M)", "place_id": "ChIJty0VOgMQdkgRkXq3TIK7204", "types": ["transit_station", "point_of_interest", "establishment"]}, "ChIJj2mZ10URdkgRg0zaWFnxm-Q": {"geometry": {"location": {"lat": 51.5187231, "lng": -0.1995281}, "viewport": {"northeast": {"lat": 51.5200257302915, "lng": -0.198313719708498}, "southwest": {"lat": 51.51732776970851, "lng": -0.201011680291502}}}, "name": "Taz Beauty", "place_id": "ChIJj2mZ10URdkgRg0zaWFnxm-Q", "types": ["beauty_salon", "hair_care", "spa", "point_of_interest", "establishment"], "rating": 5, "user_ratings_total": 7}, "ChIJ-Xw27lkRdkgR--bDw9Yc8s8": {"geometry": {"location": {"lat": 51.5187971, "lng": -0.1981498}, "viewport": {"northeast": {"lat": 51.5200838302915, "lng": -0.196974569708498}, "southwest": {"lat": 51.5173858697085, "lng": -0.199672530291502}}}, "name": "City Virtual", "place_id": "ChIJ-Xw27lkRdkgR--bDw9Yc8s8", "types": ["point_of_interest", "establishment"]}, "ChIJsXpyORsQdkgR0Hu0Di4pY9s": {"geometry": {"location": {"lat": 51.52165856246686, "lng": -0.2011568261626225}, "viewport": {"northeast": {"lat": 51.5230026302915, "lng": -0.1998066697084979}, "southwest": {"lat": 51.5203046697085, "lng": -0.202504630291502}}}, "name": "Westway", "place_id": "ChIJsXpyORsQdkgR0Hu0Di4pY9s", "types": ["route"]}, "ChIJPWKw5xoQdkgRvDmwAp2wyOY": {"geometry": {"location": {"lat": 51.5218597, "lng": -0.2007989}, "viewport": {"northeast": {"lat": 51.5231951802915, "lng": -0.199602369708498}, "southwest": {"lat": 51.5204972197085, "lng": -0.202300330291502}}}, "name": "Tower Transit", "place_id": "ChIJPWKw5xoQdkgRvDmwAp2wyOY", "types": ["point_of_interest", "establishment"], "rating": 3.9, "user_ratings_total": 80}, "ChIJT32uMRsQdkgR0R00YYHFRC8": {"geometry": {"location": {"lat": 51.52179460000001, "lng": -0.2006173}, "viewport": {"northeast": {"lat": 51.52309968029149, "lng": -0.199485119708498}, "southwest": {"lat": 51.5204017197085, "lng": -0.202183080291502}}}, "name": "Atda", "place_id": "ChIJT32uMRsQdkgR0R00YYHFRC8", "types": ["point_of_interest", "establishment"]}, "ChIJ0fWMOxsQdkgRFMAs5b8_qjE": {"geometry": {"location": {"lat": 51.52182740000001, "lng": -0.2009484}, "viewport": {"northeast": {"lat": 51.5231851302915, "lng": -0.199678569708498}, "southwest": {"lat": 51.5204871697085, "lng": -0.202376530291502}}}, "name": "Westbourne Park Garage", "place_id": "ChIJ0fWMOxsQdkgRFMAs5b8_qjE", "types": ["car_repair", "point_of_interest", "establishment"], "rating": 5, "user_ratings_total": 6}, "ChIJkdGnSywRdkgRQ_f8End3OEs": {"geometry": {"location": {"lat": 51.52217449999999, "lng": -0.200122}, "viewport": {"northeast": {"lat": 51.52352348029149, "lng": -0.1987730197084979}, "southwest": {"lat": 51.5208255197085, "lng": -0.201470980291502}}}, "name": "The Floating Boulangerie", "place_id": "ChIJkdGnSywRdkgRQ_f8End3OEs", "types": ["restaurant", "food", "point_of_interest", "establishment"]}, "ChIJ-1V_JBsQdkgRdLYwTHi2JYI": {"geometry": {"location": {"lat": 51.5222693, "lng": -0.2010276}, "viewport": {"northeast": {"lat": 51.52359662899932, "lng": -0.1996322307254253}, "southwest": {"lat": 51.52089866841632, "lng": -0.2023301913084293}}}, "name": "Parking lot", "place_id": "ChIJ-1V_JBsQdkgRdLYwTHi2JYI", "types": ["parking", "premise", "point_of_interest", "establishment"]}, "ChIJGeWCTxsQdkgRZ4fWqPglj-o": {"geometry": {"location": {"lat": 51.52091141197666, "lng": -0.2005694090680295}, "viewport": {"northeast": {"lat": 51.5222603802915, "lng": -0.199220469708498}, "southwest": {"lat": 51.5195624197085, "lng": -0.201918430291502}}}, "name": "84-82 A4207", "place_id": "ChIJGeWCTxsQdkgRZ4fWqPglj-o", "types": ["route"]}, "ChIJz4yrRRsQdkgR0Le7iu67-MA": {"geometry": {"location": {"lat": 51.52093319999999, "lng": -0.2007707}, "viewport": {"northeast": {"lat": 51.5222901802915, "lng": -0.199346069708498}, "southwest": {"lat": 51.5195922197085, "lng": -0.202044030291502}}}, "name": "Westbourne Park Station", "place_id": "ChIJz4yrRRsQdkgR0Le7iu67-MA", "types": ["transit_station", "point_of_interest", "establishment"]}, "ChIJf8tARBsQdkgRz-79-CFkbiY": {"geometry": {"location": {"lat": 51.5209566, "lng": -0.200717}, "viewport": {"northeast": {"lat": 51.5222482302915, "lng": -0.199279019708498}, "southwest": {"lat": 51.5195502697085, "lng": -0.201976980291502}}}, "name": "Westbourne Park", "place_id": "ChIJf8tARBsQdkgRz-79-CFkbiY", "types": ["subway_station", "transit_station", "point_of_interest", "establishment"], "rating": 4.1, "user_ratings_total": 51}, "ChIJK4VqRBsQdkgRCgpN7_FY6rc": {"geometry": {"location": {"lat": 51.5209886, "lng": -0.2008825}, "viewport": {"northeast": {"lat": 51.52233758029149, "lng": -0.199533519708498}, "southwest": {"lat": 51.5196396197085, "lng": -0.202231480291502}}}, "name": "Westbourne Park - All Saints Rd", "place_id": "ChIJK4VqRBsQdkgRCgpN7_FY6rc", "types": ["car_rental", "point_of_interest", "establishment"], "rating": 4.3, "user_ratings_total": 4}, "ChIJqYVSHhsQdkgRhkCUCZAKsR4": {"geometry": {"location": {"lat": 51.5212765, "lng": -0.2007624}, "viewport": {"northeast": {"lat": 51.52262003029149, "lng": -0.199432719708498}, "southwest": {"lat": 51.51992206970849, "lng": -0.202130680291502}}}, "name": "Tarmac Paddington Concrete", "place_id": "ChIJqYVSHhsQdkgRhkCUCZAKsR4", "types": ["point_of_interest", "establishment"], "rating": 4.6, "user_ratings_total": 5}, "ChIJPze7HcARdkgRSGCnlHSDqWQ": {"geometry": {"location": {"lat": 51.5208886, "lng": -0.2006939}, "viewport": {"northeast": {"lat": 51.5222545802915, "lng": -0.1992869197084979}, "southwest": {"lat": 51.5195566197085, "lng": -0.201984880291502}}}, "name": "Photo-me", "place_id": "ChIJPze7HcARdkgRSGCnlHSDqWQ", "types": ["point_of_interest", "establishment"]}, "ChIJjbtat-gRdkgRMqfnHAikwek": {"geometry": {"location": {"lat": 51.52089489999999, "lng": -0.2007295}, "viewport": {"northeast": {"lat": 51.52224388029149, "lng": -0.199380519708498}, "southwest": {"lat": 51.51954591970849, "lng": -0.202078480291502}}}, "name": "Taxi Westbourne Park\u00ae", "place_id": "ChIJjbtat-gRdkgRMqfnHAikwek", "types": ["taxi_stand", "point_of_interest", "establishment"]}, "ChIJK4VqRBsQdkgR72Cg9cZXCFM": {"geometry": {"location": {"lat": 51.52077079999999, "lng": -0.2006716}, "viewport": {"northeast": {"lat": 51.5221487802915, "lng": -0.199231419708498}, "southwest": {"lat": 51.5194508197085, "lng": -0.201929380291502}}}, "name": "ATM", "place_id": "ChIJK4VqRBsQdkgR72Cg9cZXCFM", "types": ["atm", "finance", "point_of_interest", "establishment"]}, "ChIJ1av60GARdkgRw1yhjJpcSAM": {"geometry": {"location": {"lat": 51.520829, "lng": -0.2007628}, "viewport": {"northeast": {"lat": 51.52220858029149, "lng": -0.1993091197084979}, "southwest": {"lat": 51.5195106197085, "lng": -0.202007080291502}}}, "name": "Bica", "place_id": "ChIJ1av60GARdkgRw1yhjJpcSAM", "types": ["food", "point_of_interest", "store", "establishment"], "rating": 5, "user_ratings_total": 5}, "ChIJKYVqRBsQdkgRvRpSBe1mxp8": {"geometry": {"location": {"lat": 51.5207571, "lng": -0.2006404000000001}, "viewport": {"northeast": {"lat": 51.5221288302915, "lng": -0.199214669708498}, "southwest": {"lat": 51.51943086970851, "lng": -0.2019126302915021}}}, "name": "Shan Stores", "place_id": "ChIJKYVqRBsQdkgRvRpSBe1mxp8", "types": ["convenience_store", "food", "point_of_interest", "store", "establishment"], "rating": 3.5, "user_ratings_total": 6}, "ChIJvak1ThsQdkgRsIXWE5E3hTs": {"geometry": {"location": {"lat": 51.5207484, "lng": -0.2006311}, "viewport": {"northeast": {"lat": 51.5221197802915, "lng": -0.199206419708498}, "southwest": {"lat": 51.5194218197085, "lng": -0.201904380291502}}}, "name": "ATC Systemwide Site", "place_id": "ChIJvak1ThsQdkgRsIXWE5E3hTs", "types": ["general_contractor", "point_of_interest", "establishment"]}, "ChIJkzCiU-MPdkgRj32HPxnLzuU": {"geometry": {"location": {"lat": 51.5211513, "lng": -0.2009526}, "viewport": {"northeast": {"lat": 51.52251133029149, "lng": -0.199510419708498}, "southwest": {"lat": 51.51981336970849, "lng": -0.202208380291502}}}, "name": "Granada School Of Motoring", "place_id": "ChIJkzCiU-MPdkgRj32HPxnLzuU", "types": ["point_of_interest", "establishment"], "rating": 3.7, "user_ratings_total": 23}, "ChIJb8K1WxsQdkgR2InrN3VtMsY": {"geometry": {"location": {"lat": 51.520509, "lng": -0.200804}, "viewport": {"northeast": {"lat": 51.52182608029151, "lng": -0.199422219708498}, "southwest": {"lat": 51.51912811970851, "lng": -0.202120180291502}}}, "name": "Santander Cycles", "place_id": "ChIJb8K1WxsQdkgR2InrN3VtMsY", "types": ["point_of_interest", "establishment"]}, "ChIJkU3ZRhsQdkgRxweIqtMVtY4": {"geometry": {"location": {"lat": 51.5212565, "lng": -0.2009015}, "viewport": {"northeast": {"lat": 51.5226091802915, "lng": -0.199539769708498}, "southwest": {"lat": 51.5199112197085, "lng": -0.202237730291502}}}, "name": "Westbourne Park Station (Stop A)", "place_id": "ChIJkU3ZRhsQdkgRxweIqtMVtY4", "types": ["bus_station", "transit_station", "point_of_interest", "establishment"], "rating": 4, "user_ratings_total": 1}, "ChIJn3QDm6gRdkgRxpBinnnShoM": {"geometry": {"location": {"lat": 51.52115999999999, "lng": -0.2012497}, "viewport": {"northeast": {"lat": 51.5225671802915, "lng": -0.199698369708498}, "southwest": {"lat": 51.5198692197085, "lng": -0.202396330291502}}}, "name": "Marcon Sidings", "place_id": "ChIJn3QDm6gRdkgRxpBinnnShoM", "types": ["point_of_interest", "establishment"]}, "ChIJ_9fDphwQdkgR8vWP1J2PI14": {"geometry": {"location": {"lat": 51.51958399999999, "lng": -0.200899}, "viewport": {"northeast": {"lat": 51.52096643029149, "lng": -0.199452819708498}, "southwest": {"lat": 51.5182684697085, "lng": -0.202150780291502}}}, "name": "BOLD & BEAUTY", "place_id": "ChIJ_9fDphwQdkgR8vWP1J2PI14", "types": ["beauty_salon", "hair_care", "point_of_interest", "establishment"], "rating": 4, "user_ratings_total": 4}, "ChIJ-8SYWBsQdkgRBWsLoGQLhvM": {"geometry": {"location": {"lat": 51.5201167, "lng": -0.200866}, "viewport": {"northeast": {"lat": 51.52143238029149, "lng": -0.199613769708498}, "southwest": {"lat": 51.51873441970849, "lng": -0.202311730291502}}}, "name": "Profko LTD", "place_id": "ChIJ-8SYWBsQdkgRBWsLoGQLhvM", "types": ["point_of_interest", "establishment"]}, "ChIJn1PXpBwQdkgRCQwVBqPlVHU": {"geometry": {"location": {"lat": 51.51935470000001, "lng": -0.2006774}, "viewport": {"northeast": {"lat": 51.5207347802915, "lng": -0.199238019708498}, "southwest": {"lat": 51.51803681970851, "lng": -0.2019359802915021}}}, "name": "The Garden Clinic", "place_id": "ChIJn1PXpBwQdkgRCQwVBqPlVHU", "types": ["health", "point_of_interest", "establishment"], "rating": 5, "user_ratings_total": 1}, "ChIJ-3RVZYEPdkgRfqGtK4VGngQ": {"geometry": {"location": {"lat": 51.5202374, "lng": -0.2003917}, "viewport": {"northeast": {"lat": 51.5216430302915, "lng": -0.198891669708498}, "southwest": {"lat": 51.5189450697085, "lng": -0.201589630291502}}}, "name": "Hylton Cleaning", "place_id": "ChIJ-3RVZYEPdkgRfqGtK4VGngQ", "types": ["point_of_interest", "establishment"]}, "ChIJvXbZWBsQdkgRfOPxN7Y7ycc": {"geometry": {"location": {"lat": 51.52024019999999, "lng": -0.2009083}, "viewport": {"northeast": {"lat": 51.52163598029149, "lng": -0.199608219708498}, "southwest": {"lat": 51.51893801970849, "lng": -0.202306180291502}}}, "name": "Cazalet Designs", "place_id": "ChIJvXbZWBsQdkgRfOPxN7Y7ycc", "types": ["point_of_interest", "establishment"], "rating": 5, "user_ratings_total": 1}, "ChIJp_kgpBwQdkgR3JSFKOSBIJU": {"geometry": {"location": {"lat": 51.5197329, "lng": -0.2008179}, "viewport": {"northeast": {"lat": 51.52108913029151, "lng": -0.199446069708498}, "southwest": {"lat": 51.51839116970851, "lng": -0.202144030291502}}}, "name": "ubitricity Charging Station", "place_id": "ChIJp_kgpBwQdkgR3JSFKOSBIJU", "types": ["point_of_interest", "establishment"], "rating": 2, "user_ratings_total": 1}, "ChIJm4SIrxwQdkgR4jOfq7vYRCk": {"geometry": {"location": {"lat": 51.5194913, "lng": -0.2006232}, "viewport": {"northeast": {"lat": 51.5208498302915, "lng": -0.199245419708498}, "southwest": {"lat": 51.5181518697085, "lng": -0.201943380291502}}}, "name": "ubitricity Charging Station", "place_id": "ChIJm4SIrxwQdkgR4jOfq7vYRCk", "types": ["point_of_interest", "establishment"]}, "ChIJGcYwqKERdkgRBkdCmvpXvdA": {"geometry": {"location": {"lat": 51.5194682, "lng": -0.2005203}, "viewport": {"northeast": {"lat": 51.5208266302915, "lng": -0.199143719708498}, "southwest": {"lat": 51.5181286697085, "lng": -0.201841680291502}}}, "name": "thatssocool", "place_id": "ChIJGcYwqKERdkgRBkdCmvpXvdA", "types": ["general_contractor", "point_of_interest", "establishment"]}, "ChIJ__9TVhsQdkgR7kK96GUT9Gw": {"geometry": {"location": {"lat": 51.5202374, "lng": -0.2003917}, "viewport": {"northeast": {"lat": 51.5216430302915, "lng": -0.198891669708498}, "southwest": {"lat": 51.5189450697085, "lng": -0.201589630291502}}}, "name": "Hardy House", "place_id": "ChIJ__9TVhsQdkgR7kK96GUT9Gw", "types": ["point_of_interest", "establishment"]}, "ChIJ__9TVhsQdkgRTfEwLc13CI8": {"geometry": {"location": {"lat": 51.5202374, "lng": -0.2003917}, "viewport": {"northeast": {"lat": 51.5216430302915, "lng": -0.198891669708498}, "southwest": {"lat": 51.5189450697085, "lng": -0.201589630291502}}}, "name": "Star IT Euro Ltd", "place_id": "ChIJ__9TVhsQdkgRTfEwLc13CI8", "types": ["point_of_interest", "establishment"]}, "ChIJRT2bXxsQdkgRFkiHkQ1eXsY": {"geometry": {"location": {"lat": 51.5201383, "lng": -0.2011817}, "viewport": {"northeast": {"lat": 51.5214835302915, "lng": -0.199843519708498}, "southwest": {"lat": 51.51878556970851, "lng": -0.202541480291502}}}, "name": "Zipcar", "place_id": "ChIJRT2bXxsQdkgRFkiHkQ1eXsY", "types": ["car_rental", "point_of_interest", "establishment"]}, "ChIJ0wEnvhwQdkgRXK4OXVjj2Tk": {"geometry": {"location": {"lat": 51.51898880015457, "lng": -0.201308105414393}, "viewport": {"northeast": {"lat": 51.52084070000004, "lng": -0.1996386500000001}, "southwest": {"lat": 51.51713389999996, "lng": -0.20298525}}}, "name": "2-54 Leamington Rd Villas", "place_id": "ChIJ0wEnvhwQdkgRXK4OXVjj2Tk", "types": ["route"]}, "ChIJBWeVwRwQdkgRdHAuDCmrgj0": {"geometry": {"location": {"lat": 51.5189222, "lng": -0.2009805}, "viewport": {"northeast": {"lat": 51.5202349802915, "lng": -0.199735119708498}, "southwest": {"lat": 51.5175370197085, "lng": -0.202433080291502}}}, "name": "High Spirits Events", "place_id": "ChIJBWeVwRwQdkgRdHAuDCmrgj0", "types": ["point_of_interest", "establishment"]}, "ChIJvYjnwxwQdkgRZjL4AGg3mDg": {"geometry": {"location": {"lat": 51.5184162, "lng": -0.2010447}, "viewport": {"northeast": {"lat": 51.5197981802915, "lng": -0.199601319708498}, "southwest": {"lat": 51.5171002197085, "lng": -0.2022992802915021}}}, "name": "Linda Jullian RSHom", "place_id": "ChIJvYjnwxwQdkgRZjL4AGg3mDg", "types": ["health", "point_of_interest", "establishment"]}, "ChIJg01pmxwQdkgRE7ySZUpO5-k": {"geometry": {"location": {"lat": 51.518198, "lng": -0.2005981}, "viewport": {"northeast": {"lat": 51.5195315802915, "lng": -0.199293519708498}, "southwest": {"lat": 51.5168336197085, "lng": -0.201991480291502}}}, "name": "CNC ELECTRICAL", "place_id": "ChIJg01pmxwQdkgRE7ySZUpO5-k", "types": ["electrician", "point_of_interest", "establishment"], "rating": 5, "user_ratings_total": 2}, "ChIJu7mbMwMQdkgR4skFO1OXLik": {"geometry": {"location": {"lat": 51.51895380000001, "lng": -0.2002763}, "viewport": {"northeast": {"lat": 51.5203280302915, "lng": -0.198854019708498}, "southwest": {"lat": 51.5176300697085, "lng": -0.201551980291502}}}, "name": "Louise Kugelberg", "place_id": "ChIJu7mbMwMQdkgR4skFO1OXLik", "types": ["general_contractor", "point_of_interest", "establishment"]}, "ChIJnYCuvxwQdkgRCQb_wTbB_TM": {"geometry": {"location": {"lat": 51.518885, "lng": -0.2011483}, "viewport": {"northeast": {"lat": 51.5202306802915, "lng": -0.199828219708498}, "southwest": {"lat": 51.5175327197085, "lng": -0.202526180291502}}}, "name": "ubitricity Charging Station", "place_id": "ChIJnYCuvxwQdkgRCQb_wTbB_TM", "types": ["point_of_interest", "establishment"]}, "ChIJlWaVwRwQdkgRcjtF1NmXwig": {"geometry": {"location": {"lat": 51.5187545, "lng": -0.2013188}, "viewport": {"northeast": {"lat": 51.5201323302915, "lng": -0.199887319708498}, "southwest": {"lat": 51.5174343697085, "lng": -0.202585280291502}}}, "name": "Bannister Creative Limited", "place_id": "ChIJlWaVwRwQdkgRcjtF1NmXwig", "types": ["point_of_interest", "establishment"]}, "ChIJ-QPcDBsQdkgRNidTfUO3_JQ": {"geometry": {"location": {"lat": 51.52145592712089, "lng": -0.2023714643829577}, "viewport": {"northeast": {"lat": 51.52276978029149, "lng": -0.2006076}, "southwest": {"lat": 51.5200718197085, "lng": -0.2040944}}}, "name": "Westway", "place_id": "ChIJ-QPcDBsQdkgRNidTfUO3_JQ", "types": ["route"]}, "ChIJm_-qqRsQdkgR7QANHwz92NI": {"geometry": {"location": {"lat": 51.5222025, "lng": -0.2026252}, "viewport": {"northeast": {"lat": 51.5236449802915, "lng": -0.201321669708498}, "southwest": {"lat": 51.5209470197085, "lng": -0.204019630291502}}}, "name": "Abbey Cars (UK) Ltd", "place_id": "ChIJm_-qqRsQdkgR7QANHwz92NI", "types": ["point_of_interest", "establishment"], "rating": 2.6, "user_ratings_total": 5}, "ChIJK55kqhsQdkgRYtRs_xJebhQ": {"geometry": {"location": {"lat": 51.52225379999999, "lng": -0.2022971}, "viewport": {"northeast": {"lat": 51.5236706302915, "lng": -0.201166169708498}, "southwest": {"lat": 51.5209726697085, "lng": -0.203864130291502}}}, "name": "Meanwhile Gardens Concrete Bowl Skatepark", "place_id": "ChIJK55kqhsQdkgRYtRs_xJebhQ", "types": ["point_of_interest", "establishment"], "rating": 4.3, "user_ratings_total": 65}, "ChIJm_-qqRsQdkgRf0R7-Cj1eA0": {"geometry": {"location": {"lat": 51.5221848, "lng": -0.2024077}, "viewport": {"northeast": {"lat": 51.5236361302915, "lng": -0.201221469708498}, "southwest": {"lat": 51.5209381697085, "lng": -0.2039194302915021}}}, "name": "Dr Juergen Kraemer", "place_id": "ChIJm_-qqRsQdkgRf0R7-Cj1eA0", "types": ["doctor", "health", "point_of_interest", "establishment"], "rating": 5, "user_ratings_total": 1}, "ChIJ___PBRsQdkgR-FINU72o3No": {"geometry": {"location": {"lat": 51.5221848, "lng": -0.2024077}, "viewport": {"northeast": {"lat": 51.5236361302915, "lng": -0.201221469708498}, "southwest": {"lat": 51.5209381697085, "lng": -0.2039194302915021}}}, "name": "The Orangery", "place_id": "ChIJ___PBRsQdkgR-FINU72o3No", "types": ["doctor", "health", "point_of_interest", "establishment"]}, "ChIJUYNTBhsQdkgRToP9FhaEyfM": {"geometry": {"location": {"lat": 51.5222025, "lng": -0.2026252}, "viewport": {"northeast": {"lat": 51.5236449802915, "lng": -0.201321669708498}, "southwest": {"lat": 51.5209470197085, "lng": -0.204019630291502}}}, "name": "grosvenor", "place_id": "ChIJUYNTBhsQdkgRToP9FhaEyfM", "types": ["lodging", "point_of_interest", "establishment"]}, "ChIJsehiqRsQdkgRRzNCMe2KD_o": {"geometry": {"location": {"lat": 51.522231, "lng": -0.2024291}, "viewport": {"northeast": {"lat": 51.5236592302915, "lng": -0.201232169708498}, "southwest": {"lat": 51.5209612697085, "lng": -0.2039301302915021}}}, "name": "Meanwhile Gardens Medical Centre", "place_id": "ChIJsehiqRsQdkgRRzNCMe2KD_o", "types": ["doctor", "health", "point_of_interest", "establishment"], "rating": 2.8, "user_ratings_total": 16}, "ChIJn524nBcQdkgR808GZE6rCN4": {"geometry": {"location": {"lat": 51.5222027, "lng": -0.202518}, "viewport": {"northeast": {"lat": 51.5236450802915, "lng": -0.201276619708498}, "southwest": {"lat": 51.5209471197085, "lng": -0.203974580291502}}}, "name": "Meanwhile Gardens Playhut", "place_id": "ChIJn524nBcQdkgR808GZE6rCN4", "types": ["point_of_interest", "establishment"], "rating": 4.9, "user_ratings_total": 12}, "ChIJezrDBBsQdkgR-ObfdaI9szA": {"geometry": {"location": {"lat": 51.5222774, "lng": -0.2022379}, "viewport": {"northeast": {"lat": 51.5236327302915, "lng": -0.2008852697084979}, "southwest": {"lat": 51.5209347697085, "lng": -0.203583230291502}}}, "name": "Elkstone Road/Great Western Road (Stop L)", "place_id": "ChIJezrDBBsQdkgR-ObfdaI9szA", "types": ["transit_station", "point_of_interest", "establishment"]}, "ChIJOaOlBhsQdkgR5Kj3M_KiHM8": {"geometry": {"location": {"lat": 51.52225439999999, "lng": -0.2027711}, "viewport": {"northeast": {"lat": 51.52367683029149, "lng": -0.2013895697084979}, "southwest": {"lat": 51.52097886970849, "lng": -0.204087530291502}}}, "name": "Sporting Clube de Londres", "place_id": "ChIJOaOlBhsQdkgR5Kj3M_KiHM8", "types": ["restaurant", "food", "point_of_interest", "establishment"], "rating": 4.1, "user_ratings_total": 239}, "ChIJ_csdFxsQdkgRpEonrlHihoI": {"geometry": {"location": {"lat": 51.521907, "lng": -0.201595}, "viewport": {"northeast": {"lat": 51.52328183029149, "lng": -0.200100869708498}, "southwest": {"lat": 51.5205838697085, "lng": -0.202798830291502}}}, "name": "Big Table Bed Shop", "place_id": "ChIJ_csdFxsQdkgRpEonrlHihoI", "types": ["furniture_store", "home_goods_store", "point_of_interest", "store", "establishment"], "rating": 4.8, "user_ratings_total": 60}, "ChIJ4zTmZMARdkgRysGQrbwJ1O0": {"geometry": {"location": {"lat": 51.5222801, "lng": -0.2028303}, "viewport": {"northeast": {"lat": 51.5236917802915, "lng": -0.201485819708498}, "southwest": {"lat": 51.5209938197085, "lng": -0.204183780291502}}}, "name": "Drummers Delight - Dhol Players", "place_id": "ChIJ4zTmZMARdkgRysGQrbwJ1O0", "types": ["electronics_store", "home_goods_store", "point_of_interest", "store", "establishment"], "rating": 5, "user_ratings_total": 23}, "ChIJOzr5AxsQdkgRjgJgregAMwQ": {"geometry": {"location": {"lat": 51.52240399999999, "lng": -0.2024290000000001}, "viewport": {"northeast": {"lat": 51.5237387302915, "lng": -0.201087119708498}, "southwest": {"lat": 51.5210407697085, "lng": -0.203785080291502}}}, "name": "ubitricity Charging Station", "place_id": "ChIJOzr5AxsQdkgRjgJgregAMwQ", "types": ["point_of_interest", "establishment"]}, "ChIJUSamT94RdkgRsh13AYe-8eM": {"geometry": {"location": {"lat": 51.5223112, "lng": -0.2028224}, "viewport": {"northeast": {"lat": 51.52370748029149, "lng": -0.201476819708498}, "southwest": {"lat": 51.52100951970849, "lng": -0.204174780291502}}}, "name": "Meanwhile Skate Park", "place_id": "ChIJUSamT94RdkgRsh13AYe-8eM", "types": ["point_of_interest", "establishment"], "rating": 4.4, "user_ratings_total": 5}, "ChIJnf-qqRsQdkgRvwW7lYiyssM": {"geometry": {"location": {"lat": 51.5222349, "lng": -0.2029956}, "viewport": {"northeast": {"lat": 51.5236682302915, "lng": -0.201515419708498}, "southwest": {"lat": 51.5209702697085, "lng": -0.204213380291502}}}, "name": "Free Dome", "place_id": "ChIJnf-qqRsQdkgRvwW7lYiyssM", "types": ["general_contractor", "point_of_interest", "establishment"]}, "ChIJT1Iw2VgRdkgRaVLgkP0qbd0": {"geometry": {"location": {"lat": 51.5222349, "lng": -0.2029956}, "viewport": {"northeast": {"lat": 51.5236682302915, "lng": -0.201515419708498}, "southwest": {"lat": 51.5209702697085, "lng": -0.204213380291502}}}, "name": "Kids Matter", "place_id": "ChIJT1Iw2VgRdkgRaVLgkP0qbd0", "types": ["point_of_interest", "establishment"]}, "ChIJm_-qqRsQdkgR7qDU8sX7F9I": {"geometry": {"location": {"lat": 51.5222248, "lng": -0.2030063}, "viewport": {"northeast": {"lat": 51.5236631802915, "lng": -0.201520769708498}, "southwest": {"lat": 51.5209652197085, "lng": -0.2042187302915021}}}, "name": "Dr Nalini Jasani", "place_id": "ChIJm_-qqRsQdkgR7qDU8sX7F9I", "types": ["doctor", "health", "point_of_interest", "establishment"]}, "ChIJm_-qqRsQdkgRZ2N9kayFS6A": {"geometry": {"location": {"lat": 51.5222943, "lng": -0.2029675}, "viewport": {"northeast": {"lat": 51.5236865802915, "lng": -0.201501369708498}, "southwest": {"lat": 51.5209886197085, "lng": -0.204199330291502}}}, "name": "Soundtracks", "place_id": "ChIJm_-qqRsQdkgRZ2N9kayFS6A", "types": ["electronics_store", "home_goods_store", "point_of_interest", "store", "establishment"]}, "ChIJ7yXCchsQdkgRcqkiupX8pyY": {"geometry": {"location": {"lat": 51.52138706729772, "lng": -0.2021866981058509}, "viewport": {"northeast": {"lat": 51.52268808029149, "lng": -0.20022765}, "southwest": {"lat": 51.5199901197085, "lng": -0.20409225}}}, "name": "Westway", "place_id": "ChIJ7yXCchsQdkgRcqkiupX8pyY", "types": ["route"]}, "ChIJUy6ceRsQdkgR590C-O7E4DI": {"geometry": {"location": {"lat": 51.5206448, "lng": -0.2023275}, "viewport": {"northeast": {"lat": 51.5219937802915, "lng": -0.200978519708498}, "southwest": {"lat": 51.5192958197085, "lng": -0.203676480291502}}}, "name": "Pixelution Plus", "place_id": "ChIJUy6ceRsQdkgR590C-O7E4DI", "types": ["point_of_interest", "establishment"]}, "ChIJuVxyexsQdkgRuxdhwY9DwuA": {"geometry": {"location": {"lat": 51.5206044, "lng": -0.2022502}, "viewport": {"northeast": {"lat": 51.52195338029149, "lng": -0.200901219708498}, "southwest": {"lat": 51.51925541970849, "lng": -0.203599180291502}}}, "name": "Lorella Belli Literary Agency", "place_id": "ChIJuVxyexsQdkgRuxdhwY9DwuA", "types": ["point_of_interest", "establishment"], "rating": 5, "user_ratings_total": 1}, "ChIJL_U_ehsQdkgRKiYCIdBuFdU": {"geometry": {"location": {"lat": 51.5204039, "lng": -0.2022475}, "viewport": {"northeast": {"lat": 51.5217986302915, "lng": -0.200873419708498}, "southwest": {"lat": 51.5191006697085, "lng": -0.203571380291502}}}, "name": "Tavistock Housing Ltd", "place_id": "ChIJL_U_ehsQdkgRKiYCIdBuFdU", "types": ["point_of_interest", "establishment"], "rating": 1, "user_ratings_total": 1}, "ChIJXzNqZBsQdkgRcoylHzFi4DI": {"geometry": {"location": {"lat": 51.52039419999999, "lng": -0.2019954}, "viewport": {"northeast": {"lat": 51.5217986302915, "lng": -0.200646319708498}, "southwest": {"lat": 51.5191006697085, "lng": -0.203344280291502}}}, "name": "Papua New Guinea Church Partnership (PNGCP)", "place_id": "ChIJXzNqZBsQdkgRcoylHzFi4DI", "types": ["church", "place_of_worship", "point_of_interest", "establishment"]}, "ChIJExF7d_4RdkgRmkYo0ACw8AY": {"geometry": {"location": {"lat": 51.5205958, "lng": -0.2023312}, "viewport": {"northeast": {"lat": 51.5218945802915, "lng": -0.200921119708498}, "southwest": {"lat": 51.5191966197085, "lng": -0.203619080291502}}}, "name": "Ladbrocke Pest control", "place_id": "ChIJExF7d_4RdkgRmkYo0ACw8AY", "types": ["home_goods_store", "point_of_interest", "store", "establishment"], "rating": 5, "user_ratings_total": 4}, "ChIJuVxyexsQdkgRsLBjPEpERtg": {"geometry": {"location": {"lat": 51.5204886, "lng": -0.2022182}, "viewport": {"northeast": {"lat": 51.52181308029149, "lng": -0.200858769708498}, "southwest": {"lat": 51.51911511970849, "lng": -0.203556730291502}}}, "name": "Ana Johns", "place_id": "ChIJuVxyexsQdkgRsLBjPEpERtg", "types": ["point_of_interest", "establishment"]}, "ChIJXzNqZBsQdkgRRKMIb9iMpj0": {"geometry": {"location": {"lat": 51.5204435, "lng": -0.2017787}, "viewport": {"northeast": {"lat": 51.52181968029149, "lng": -0.200428469708498}, "southwest": {"lat": 51.51912171970849, "lng": -0.203126430291502}}}, "name": "Anglican Alliance", "place_id": "ChIJXzNqZBsQdkgRRKMIb9iMpj0", "types": ["church", "place_of_worship", "point_of_interest", "establishment"]}, "ChIJd5-vghsQdkgRTGMb_nAZZmk": {"geometry": {"location": {"lat": 51.52076719999999, "lng": -0.2027886}, "viewport": {"northeast": {"lat": 51.52205939010111, "lng": -0.2014975775577513}, "southwest": {"lat": 51.51936142951811, "lng": -0.2041955381407554}}}, "name": "Parking lot", "place_id": "ChIJd5-vghsQdkgRTGMb_nAZZmk", "types": ["parking", "premise", "point_of_interest", "establishment"]}, "ChIJOQsBnhwQdkgR_wNrWwGFlNI": {"geometry": {"location": {"lat": 51.52001455622707, "lng": -0.2018683060782931}, "viewport": {"northeast": {"lat": 51.5213635302915, "lng": -0.200519319708498}, "southwest": {"lat": 51.5186655697085, "lng": -0.203217280291502}}}, "name": "9-11 Tavistock Rd", "place_id": "ChIJOQsBnhwQdkgR_wNrWwGFlNI", "types": ["route"]}, "ChIJsyTcmhwQdkgRSdgkXOfwW4M": {"geometry": {"location": {"lat": 51.519575, "lng": -0.2019902}, "viewport": {"northeast": {"lat": 51.5209446302915, "lng": -0.200581719708498}, "southwest": {"lat": 51.5182466697085, "lng": -0.2032796802915021}}}, "name": "AirHotels Experience in Maida & Notting Hill", "place_id": "ChIJsyTcmhwQdkgRSdgkXOfwW4M", "types": ["lodging", "point_of_interest", "establishment"]}, "ChIJCcbyhxwQdkgRxvaTwGcfQuQ": {"geometry": {"location": {"lat": 51.51952730000001, "lng": -0.2027392}, "viewport": {"northeast": {"lat": 51.5208458802915, "lng": -0.201482469708498}, "southwest": {"lat": 51.5181479197085, "lng": -0.204180430291502}}}, "name": "Tavistock Mansions", "place_id": "ChIJCcbyhxwQdkgRxvaTwGcfQuQ", "types": ["point_of_interest", "establishment"], "rating": 5, "user_ratings_total": 1}, "ChIJHRyXHbcRdkgRpiTBvdjZ87s": {"geometry": {"location": {"lat": 51.5201339, "lng": -0.2024816}, "viewport": {"northeast": {"lat": 51.5213553802915, "lng": -0.201015319708498}, "southwest": {"lat": 51.5186574197085, "lng": -0.203713280291502}}}, "name": "Head Tilt Photography", "place_id": "ChIJHRyXHbcRdkgRpiTBvdjZ87s", "types": ["point_of_interest", "establishment"], "rating": 5, "user_ratings_total": 3}, "ChIJfc2FnRwQdkgRMrweaijVsAs": {"geometry": {"location": {"lat": 51.52006799999999, "lng": -0.201851}, "viewport": {"northeast": {"lat": 51.52139948029149, "lng": -0.200484969708498}, "southwest": {"lat": 51.51870151970849, "lng": -0.203182930291502}}}, "name": "ubitricity Charging Station", "place_id": "ChIJfc2FnRwQdkgRMrweaijVsAs", "types": ["point_of_interest", "establishment"]}, "ChIJbcmymxwQdkgRELZIuXozbF8": {"geometry": {"location": {"lat": 51.51956029999999, "lng": -0.2017253}, "viewport": {"northeast": {"lat": 51.5208944802915, "lng": -0.200410819708498}, "southwest": {"lat": 51.5181965197085, "lng": -0.203108780291502}}}, "name": "ubitricity Charging Station", "place_id": "ChIJbcmymxwQdkgRELZIuXozbF8", "types": ["point_of_interest", "establishment"]}, "ChIJE-rMYRsQdkgR1RU-EDGfAfM": {"geometry": {"location": {"lat": 51.52026900000001, "lng": -0.2023676}, "viewport": {"northeast": {"lat": 51.5214552802915, "lng": -0.200867869708498}, "southwest": {"lat": 51.5187573197085, "lng": -0.203565830291502}}}, "name": "Westmead Residential Care Home", "place_id": "ChIJE-rMYRsQdkgR1RU-EDGfAfM", "types": ["point_of_interest", "establishment"], "rating": 3.9, "user_ratings_total": 16}, "ChIJnz73jnERdkgRBAU5VIHHBF4": {"geometry": {"location": {"lat": 51.519572, "lng": -0.2030318}, "viewport": {"northeast": {"lat": 51.5209437802915, "lng": -0.201707469708498}, "southwest": {"lat": 51.5182458197085, "lng": -0.204405430291502}}}, "name": "David Cass: Artist", "place_id": "ChIJnz73jnERdkgRBAU5VIHHBF4", "types": ["point_of_interest", "establishment"]}, "ChIJ__8rfBsQdkgR2LxcvRV_jE8": {"geometry": {"location": {"lat": 51.520275, "lng": -0.2024169}, "viewport": {"northeast": {"lat": 51.5214523802915, "lng": -0.2009089197084979}, "southwest": {"lat": 51.5187544197085, "lng": -0.203606880291502}}}, "name": "Westmead Elderly Resource Centre", "place_id": "ChIJ__8rfBsQdkgR2LxcvRV_jE8", "types": ["point_of_interest", "establishment"]}, "ChIJ7SnwWBwQdkgRn6ad1JG_28c": {"geometry": {"location": {"lat": 51.51831966635318, "lng": -0.2029465686328138}, "viewport": {"northeast": {"lat": 51.51966943029149, "lng": -0.20124175}, "southwest": {"lat": 51.51697146970849, "lng": -0.20465235}}}, "name": "28-2 Lancaster Rd", "place_id": "ChIJ7SnwWBwQdkgRn6ad1JG_28c", "types": ["route"]}, "ChIJafWw9BwQdkgRk_LrqDFOuWs": {"geometry": {"location": {"lat": 51.51874, "lng": -0.202487}, "viewport": {"northeast": {"lat": 51.52011573029149, "lng": -0.201057869708498}, "southwest": {"lat": 51.5174177697085, "lng": -0.203755830291502}}}, "name": "Lindholm Forres Books", "place_id": "ChIJafWw9BwQdkgRk_LrqDFOuWs", "types": ["book_store", "point_of_interest", "store", "establishment"]}, "ChIJ8YMtCYsSdkgRr9xAg2AqcM8": {"geometry": {"location": {"lat": 51.5184794, "lng": -0.2017711}, "viewport": {"northeast": {"lat": 51.51979053029149, "lng": -0.200528569708498}, "southwest": {"lat": 51.5170925697085, "lng": -0.203226530291502}}}, "name": "Urban Tails", "place_id": "ChIJ8YMtCYsSdkgRr9xAg2AqcM8", "types": ["point_of_interest", "establishment"], "rating": 4.3, "user_ratings_total": 3}, "ChIJXxvnPqARdkgRjC2nuryHpqA": {"geometry": {"location": {"lat": 51.5188014, "lng": -0.2023533}, "viewport": {"northeast": {"lat": 51.5201405802915, "lng": -0.201033519708498}, "southwest": {"lat": 51.5174426197085, "lng": -0.203731480291502}}}, "name": "24 Hrs Pharmacy Delivery Notting Hill", "place_id": "ChIJXxvnPqARdkgRjC2nuryHpqA", "types": ["point_of_interest", "establishment"]}, "ChIJxz96kcERdkgRleFulIn2zjw": {"geometry": {"location": {"lat": 51.51883710000001, "lng": -0.2026826}, "viewport": {"northeast": {"lat": 51.5202285302915, "lng": -0.201214269708498}, "southwest": {"lat": 51.51753056970851, "lng": -0.203912230291502}}}, "name": "W11 Emergency Plumbers & Boiler Repair", "place_id": "ChIJxz96kcERdkgRleFulIn2zjw", "types": ["point_of_interest", "establishment"], "rating": 5, "user_ratings_total": 6}, "ChIJI0SOUpwRdkgRTLRjCTRd3no": {"geometry": {"location": {"lat": 51.5189714, "lng": -0.2022118}, "viewport": {"northeast": {"lat": 51.5202831802915, "lng": -0.200967419708498}, "southwest": {"lat": 51.5175852197085, "lng": -0.2036653802915021}}}, "name": "Chary On Top", "place_id": "ChIJI0SOUpwRdkgRTLRjCTRd3no", "types": ["point_of_interest", "establishment"]}, "ChIJAQCvjRwQdkgRe_IgpSugd-k": {"geometry": {"location": {"lat": 51.5189714, "lng": -0.2022118}, "viewport": {"northeast": {"lat": 51.5202831802915, "lng": -0.200967419708498}, "southwest": {"lat": 51.5175852197085, "lng": -0.2036653802915021}}}, "name": "Smart Potato Ltd", "place_id": "ChIJAQCvjRwQdkgRe_IgpSugd-k", "types": ["point_of_interest", "establishment"]}, "ChIJ05hfhgwRdkgRzxyDOB_SQc4": {"geometry": {"location": {"lat": 51.5196576, "lng": -0.2032473}, "viewport": {"northeast": {"lat": 51.5210253802915, "lng": -0.201832969708498}, "southwest": {"lat": 51.5183274197085, "lng": -0.204530930291502}}}, "name": "William Henry Hudson Blue Plaque", "place_id": "ChIJ05hfhgwRdkgRzxyDOB_SQc4", "types": ["point_of_interest", "establishment"]}, "ChIJ49r8ZhwQdkgROisYDAxt1tw": {"geometry": {"location": {"lat": 51.5189511, "lng": -0.2033082}, "viewport": {"northeast": {"lat": 51.5202455302915, "lng": -0.201912869708498}, "southwest": {"lat": 51.5175475697085, "lng": -0.204610830291502}}}, "name": "Lyndons Arts Trust", "place_id": "ChIJ49r8ZhwQdkgROisYDAxt1tw", "types": ["point_of_interest", "establishment"]}, "ChIJgZtEigQQdkgRlOpEYZqx4iI": {"geometry": {"location": {"lat": 51.52110900064886, "lng": -0.1967700989584917}, "viewport": {"northeast": {"lat": 51.5224579802915, "lng": -0.195421119708498}, "southwest": {"lat": 51.5197600197085, "lng": -0.198119080291502}}}, "name": "Westway", "place_id": "ChIJgZtEigQQdkgRlOpEYZqx4iI", "types": ["route"]}, "ChIJoRtbZgQQdkgRsi5ns_Ucv7o": {"geometry": {"location": {"lat": 51.52119750000001, "lng": -0.1963337}, "viewport": {"northeast": {"lat": 51.5224560802915, "lng": -0.195055519708498}, "southwest": {"lat": 51.5197581197085, "lng": -0.197753480291502}}}, "name": "CLEO B", "place_id": "ChIJoRtbZgQQdkgRsi5ns_Ucv7o", "types": ["shoe_store", "point_of_interest", "store", "establishment"]}, "ChIJU8IpbQQQdkgRdVIQigGUizM": {"geometry": {"location": {"lat": 51.52120919999999, "lng": -0.196418}, "viewport": {"northeast": {"lat": 51.52247338029149, "lng": -0.195135419708498}, "southwest": {"lat": 51.51977541970849, "lng": -0.197833380291502}}}, "name": "Float", "place_id": "ChIJU8IpbQQQdkgRdVIQigGUizM", "types": ["point_of_interest", "establishment"]}, "ChIJTVz-ZgQQdkgRPHsRKQThlS0": {"geometry": {"location": {"lat": 51.5212418, "lng": -0.1963887}, "viewport": {"northeast": {"lat": 51.5225907802915, "lng": -0.195039719708498}, "southwest": {"lat": 51.5198928197085, "lng": -0.197737680291502}}}, "name": "Squarepeg", "place_id": "ChIJTVz-ZgQQdkgRPHsRKQThlS0", "types": ["point_of_interest", "establishment"]}, "ChIJxx42cSYQdkgRwzde9_Rmk64": {"geometry": {"location": {"lat": 51.52124130000001, "lng": -0.1964243}, "viewport": {"northeast": {"lat": 51.52259028029151, "lng": -0.195075319708498}, "southwest": {"lat": 51.51989231970851, "lng": -0.197773280291502}}}, "name": "Sophie Nguyen Architects Ltd", "place_id": "ChIJxx42cSYQdkgRwzde9_Rmk64", "types": ["point_of_interest", "establishment"], "rating": 5, "user_ratings_total": 5}, "ChIJ8cGcJJQcdkgRKRMB07OtUsk": {"geometry": {"location": {"lat": 51.52121289999999, "lng": -0.1964151}, "viewport": {"northeast": {"lat": 51.5225618802915, "lng": -0.195066119708498}, "southwest": {"lat": 51.5198639197085, "lng": -0.1977640802915021}}}, "name": "Snow Films", "place_id": "ChIJ8cGcJJQcdkgRKRMB07OtUsk", "types": ["point_of_interest", "establishment"]}, "ChIJqe9qbQQQdkgR0upT3U0ldKU": {"geometry": {"location": {"lat": 51.52121289999999, "lng": -0.1964151}, "viewport": {"northeast": {"lat": 51.5225618802915, "lng": -0.195066119708498}, "southwest": {"lat": 51.5198639197085, "lng": -0.1977640802915021}}}, "name": "Run For The Hills", "place_id": "ChIJqe9qbQQQdkgR0upT3U0ldKU", "types": ["general_contractor", "point_of_interest", "establishment"], "rating": 5, "user_ratings_total": 2}, "ChIJ6wmV3hAOdkgRbU64D0AqKig": {"geometry": {"location": {"lat": 51.52121289999999, "lng": -0.1964151}, "viewport": {"northeast": {"lat": 51.5225618802915, "lng": -0.195066119708498}, "southwest": {"lat": 51.5198639197085, "lng": -0.1977640802915021}}}, "name": "Tej Chauhan Ltd", "place_id": "ChIJ6wmV3hAOdkgRbU64D0AqKig", "types": ["point_of_interest", "establishment"], "rating": 5, "user_ratings_total": 1}, "ChIJNVpnDEkbdkgRYumqGSE5VHo": {"geometry": {"location": {"lat": 51.52120919999999, "lng": -0.196418}, "viewport": {"northeast": {"lat": 51.52247338029149, "lng": -0.195135419708498}, "southwest": {"lat": 51.51977541970849, "lng": -0.197833380291502}}}, "name": "Nico Warr Architects", "place_id": "ChIJNVpnDEkbdkgRYumqGSE5VHo", "types": ["point_of_interest", "establishment"]}, "ChIJEQn8aAQQdkgRYRzTI19ykNI": {"geometry": {"location": {"lat": 51.5211277, "lng": -0.1962841}, "viewport": {"northeast": {"lat": 51.5224083802915, "lng": -0.194988619708498}, "southwest": {"lat": 51.5197104197085, "lng": -0.197686580291502}}}, "name": "Pip Hackett Millinery", "place_id": "ChIJEQn8aAQQdkgRYRzTI19ykNI", "types": ["point_of_interest", "clothing_store", "store", "establishment"]}, "ChIJ___vZgQQdkgRT-t-LlRz_IY": {"geometry": {"location": {"lat": 51.5211905, "lng": -0.196287}, "viewport": {"northeast": {"lat": 51.52253948029149, "lng": -0.1949380197084979}, "southwest": {"lat": 51.51984151970849, "lng": -0.197635980291502}}}, "name": "Great Western Studios", "place_id": "ChIJ___vZgQQdkgRT-t-LlRz_IY", "types": ["point_of_interest", "establishment"]}, "ChIJCbr6ZgQQdkgRyBbiZPnI5w8": {"geometry": {"location": {"lat": 51.52121289999999, "lng": -0.1964151}, "viewport": {"northeast": {"lat": 51.5225618802915, "lng": -0.195066119708498}, "southwest": {"lat": 51.5198639197085, "lng": -0.1977640802915021}}}, "name": "The Duppy Share", "place_id": "ChIJCbr6ZgQQdkgRyBbiZPnI5w8", "types": ["point_of_interest", "establishment"]}, "ChIJCbr6ZgQQdkgR4J9UPnE60ME": {"geometry": {"location": {"lat": 51.52121289999999, "lng": -0.1964151}, "viewport": {"northeast": {"lat": 51.5225618802915, "lng": -0.195066119708498}, "southwest": {"lat": 51.5198639197085, "lng": -0.1977640802915021}}}, "name": "Nishura Pro", "place_id": "ChIJCbr6ZgQQdkgR4J9UPnE60ME", "types": ["point_of_interest", "establishment"]}, "ChIJCbr6ZgQQdkgRZ45i1-nV9vs": {"geometry": {"location": {"lat": 51.52121289999999, "lng": -0.1964151}, "viewport": {"northeast": {"lat": 51.5225618802915, "lng": -0.195066119708498}, "southwest": {"lat": 51.5198639197085, "lng": -0.1977640802915021}}}, "name": "12:24 SHOWROOM", "place_id": "ChIJCbr6ZgQQdkgRZ45i1-nV9vs", "types": ["point_of_interest", "store", "establishment"]}, "ChIJZan-hJMRdkgRPMgvZELKjvM": {"geometry": {"location": {"lat": 51.52121289999999, "lng": -0.1964151}, "viewport": {"northeast": {"lat": 51.5225618802915, "lng": -0.195066119708498}, "southwest": {"lat": 51.5198639197085, "lng": -0.1977640802915021}}}, "name": "Artefacteria", "place_id": "ChIJZan-hJMRdkgRPMgvZELKjvM", "types": ["art_gallery", "home_goods_store", "point_of_interest", "store", "establishment"]}, "ChIJKQnx50wRdkgRnN2pMxxfFYM": {"geometry": {"location": {"lat": 51.52121289999999, "lng": -0.1964151}, "viewport": {"northeast": {"lat": 51.5225618802915, "lng": -0.195066119708498}, "southwest": {"lat": 51.5198639197085, "lng": -0.1977640802915021}}}, "name": "London Events Atelier", "place_id": "ChIJKQnx50wRdkgRnN2pMxxfFYM", "types": ["point_of_interest", "establishment"], "rating": 5, "user_ratings_total": 10}, "ChIJ0ZRrI6MRdkgR1tK3qyGZmZA": {"geometry": {"location": {"lat": 51.52121289999999, "lng": -0.1964151}, "viewport": {"northeast": {"lat": 51.5225618802915, "lng": -0.195066119708498}, "southwest": {"lat": 51.5198639197085, "lng": -0.1977640802915021}}}, "name": "London Art Prints", "place_id": "ChIJ0ZRrI6MRdkgR1tK3qyGZmZA", "types": ["art_gallery", "point_of_interest", "establishment"], "rating": 5, "user_ratings_total": 23}, "ChIJE8tbSR4RdkgRzyFCvnu2HxY": {"geometry": {"location": {"lat": 51.52121289999999, "lng": -0.1964151}, "viewport": {"northeast": {"lat": 51.5225618802915, "lng": -0.195066119708498}, "southwest": {"lat": 51.5198639197085, "lng": -0.1977640802915021}}}, "name": "Haley McLane Ltd", "place_id": "ChIJE8tbSR4RdkgRzyFCvnu2HxY", "types": ["general_contractor", "point_of_interest", "establishment"], "rating": 5, "user_ratings_total": 9}, "ChIJtW7eoFQFdkgR7jRoLHn71sg": {"geometry": {"location": {"lat": 51.52121289999999, "lng": -0.1964151}, "viewport": {"northeast": {"lat": 51.5225618802915, "lng": -0.195066119708498}, "southwest": {"lat": 51.5198639197085, "lng": -0.1977640802915021}}}, "name": "Vovi", "place_id": "ChIJtW7eoFQFdkgR7jRoLHn71sg", "types": ["point_of_interest", "establishment"], "rating": 5, "user_ratings_total": 3}, "ChIJjeFGHscRdkgRZh6zEfqMBKY": {"geometry": {"location": {"lat": 51.52121289999999, "lng": -0.1964151}, "viewport": {"northeast": {"lat": 51.5225618802915, "lng": -0.195066119708498}, "southwest": {"lat": 51.5198639197085, "lng": -0.1977640802915021}}}, "name": "Port West Stationers", "place_id": "ChIJjeFGHscRdkgRZh6zEfqMBKY", "types": ["point_of_interest", "store", "establishment"], "rating": 5, "user_ratings_total": 2}, "ChIJoRtbZgQQdkgRabGWte8-wBA": {"geometry": {"location": {"lat": 51.52121289999999, "lng": -0.1964151}, "viewport": {"northeast": {"lat": 51.5225618802915, "lng": -0.195066119708498}, "southwest": {"lat": 51.5198639197085, "lng": -0.1977640802915021}}}, "name": "Style By Definition", "place_id": "ChIJoRtbZgQQdkgRabGWte8-wBA", "types": ["store", "point_of_interest", "establishment"]}, "ChIJja-ClxsQdkgRwqRZUCu4mE4": {"geometry": {"location": {"lat": 51.52121289999999, "lng": -0.1964151}, "viewport": {"northeast": {"lat": 51.5225618802915, "lng": -0.195066119708498}, "southwest": {"lat": 51.5198639197085, "lng": -0.1977640802915021}}}, "name": "Patrick Lewis Architects", "place_id": "ChIJja-ClxsQdkgRwqRZUCu4mE4", "types": ["point_of_interest", "establishment"], "rating": 4.5, "user_ratings_total": 2}, "ChIJAQDwZgQQdkgRgsi_xiwLpqg": {"geometry": {"location": {"lat": 51.52120919999999, "lng": -0.1964179}, "viewport": {"northeast": {"lat": 51.52247338029149, "lng": -0.195135369708498}, "southwest": {"lat": 51.51977541970849, "lng": -0.197833330291502}}}, "name": "Studio 60", "place_id": "ChIJAQDwZgQQdkgRgsi_xiwLpqg", "types": ["point_of_interest", "establishment"]}, "ChIJAQDwZgQQdkgR-XJM4-BtDgo": {"geometry": {"location": {"lat": 51.52120919999999, "lng": -0.1964179}, "viewport": {"northeast": {"lat": 51.52247338029149, "lng": -0.195135369708498}, "southwest": {"lat": 51.51977541970849, "lng": -0.197833330291502}}}, "name": "The Creative Project Foundation", "place_id": "ChIJAQDwZgQQdkgR-XJM4-BtDgo", "types": ["point_of_interest", "establishment"]}, "ChIJS28D4Z8RdkgRjVM_R26v5b8": {"geometry": {"location": {"lat": 51.52120919999999, "lng": -0.196418}, "viewport": {"northeast": {"lat": 51.52247338029149, "lng": -0.195135419708498}, "southwest": {"lat": 51.51977541970849, "lng": -0.197833380291502}}}, "name": "Spekk", "place_id": "ChIJS28D4Z8RdkgRjVM_R26v5b8", "types": ["point_of_interest", "establishment"]}, "ChIJD3WON9IRdkgRpNv8pvLDLs4": {"geometry": {"location": {"lat": 51.52120919999999, "lng": -0.196418}, "viewport": {"northeast": {"lat": 51.52247338029149, "lng": -0.195135419708498}, "southwest": {"lat": 51.51977541970849, "lng": -0.197833380291502}}}, "name": "TO Interior Design", "place_id": "ChIJD3WON9IRdkgRpNv8pvLDLs4", "types": ["general_contractor", "point_of_interest", "establishment"]}, "ChIJCxmKiCgRdkgRmpZvaSlk2NU": {"geometry": {"location": {"lat": 51.52120919999999, "lng": -0.196418}, "viewport": {"northeast": {"lat": 51.52247338029149, "lng": -0.195135419708498}, "southwest": {"lat": 51.51977541970849, "lng": -0.197833380291502}}}, "name": "Thurstan", "place_id": "ChIJCxmKiCgRdkgRmpZvaSlk2NU", "types": ["general_contractor", "point_of_interest", "establishment"], "rating": 5, "user_ratings_total": 1}, "ChIJ___vZgQQdkgRlndXNc1XUns": {"geometry": {"location": {"lat": 51.52120919999999, "lng": -0.196418}, "viewport": {"northeast": {"lat": 51.52247338029149, "lng": -0.195135419708498}, "southwest": {"lat": 51.51977541970849, "lng": -0.197833380291502}}}, "name": "emma stevenson", "place_id": "ChIJ___vZgQQdkgRlndXNc1XUns", "types": ["general_contractor", "point_of_interest", "establishment"]}, "ChIJ1bC-mwMQdkgRbDNETkQ1prw": {"geometry": {"location": {"lat": 51.51921350000001, "lng": -0.1964291}, "viewport": {"northeast": {"lat": 51.5205122302915, "lng": -0.195041719708498}, "southwest": {"lat": 51.5178142697085, "lng": -0.197739680291502}}}, "name": "Mickleton House", "place_id": "ChIJ1bC-mwMQdkgRbDNETkQ1prw", "types": ["point_of_interest", "establishment"]}, "ChIJ36_QpwMQdkgRB16k7RP4GAU": {"geometry": {"location": {"lat": 51.5182112, "lng": -0.1964429}, "viewport": {"northeast": {"lat": 51.51961158029149, "lng": -0.195117019708498}, "southwest": {"lat": 51.5169136197085, "lng": -0.1978149802915021}}}, "name": "St Stephen's Gardens", "place_id": "ChIJ36_QpwMQdkgRB16k7RP4GAU", "types": ["park", "tourist_attraction", "point_of_interest", "establishment"], "rating": 4.4, "user_ratings_total": 87}, "ChIJSQUDY3sRdkgRz2AMVR8gKkI": {"geometry": {"location": {"lat": 51.5181578, "lng": -0.1965658}, "viewport": {"northeast": {"lat": 51.5194630802915, "lng": -0.1951965197084979}, "southwest": {"lat": 51.5167651197085, "lng": -0.197894480291502}}}, "name": "Bagpiper For Hire London", "place_id": "ChIJSQUDY3sRdkgRz2AMVR8gKkI", "types": ["electronics_store", "home_goods_store", "point_of_interest", "store", "establishment"], "rating": 5, "user_ratings_total": 6}, "ChIJKxGn_gQQdkgRol650xoXN4o": {"geometry": {"location": {"lat": 51.52245707419117, "lng": -0.1973405705570768}, "viewport": {"northeast": {"lat": 51.5238070302915, "lng": -0.195992069708498}, "southwest": {"lat": 51.5211090697085, "lng": -0.198690030291502}}}, "name": "6-10 Elmfield Way", "place_id": "ChIJKxGn_gQQdkgRol650xoXN4o", "types": ["route"]}, "ChIJyy8rKAUQdkgRGnPYjJBNqfo": {"geometry": {"location": {"lat": 51.5222747, "lng": -0.1978061}, "viewport": {"northeast": {"lat": 51.5236859302915, "lng": -0.196503069708498}, "southwest": {"lat": 51.5209879697085, "lng": -0.1992010302915021}}}, "name": "London CBT Training Centre", "place_id": "ChIJyy8rKAUQdkgRGnPYjJBNqfo", "types": ["point_of_interest", "establishment"], "rating": 3.7, "user_ratings_total": 3}, "ChIJSySn1RoQdkgRGzxrsmaK15U": {"geometry": {"location": {"lat": 51.5222747, "lng": -0.1978061}, "viewport": {"northeast": {"lat": 51.5236859302915, "lng": -0.196503069708498}, "southwest": {"lat": 51.5209879697085, "lng": -0.1992010302915021}}}, "name": "Bluebell Lodge", "place_id": "ChIJSySn1RoQdkgRGzxrsmaK15U", "types": ["health", "point_of_interest", "establishment"], "rating": 4.7, "user_ratings_total": 3}, "ChIJyy8rKAUQdkgRroD4xXbpHWM": {"geometry": {"location": {"lat": 51.5222995, "lng": -0.1978887}, "viewport": {"northeast": {"lat": 51.5236923302915, "lng": -0.196560569708498}, "southwest": {"lat": 51.5209943697085, "lng": -0.199258530291502}}}, "name": "Westminster Camhs", "place_id": "ChIJyy8rKAUQdkgRroD4xXbpHWM", "types": ["hospital", "health", "point_of_interest", "establishment"], "rating": 4.2, "user_ratings_total": 5}, "ChIJW3xn4QQQdkgRArWOvuJ57bs": {"geometry": {"location": {"lat": 51.5224591, "lng": -0.1980605}, "viewport": {"northeast": {"lat": 51.52382949073375, "lng": -0.1967211232255439}, "southwest": {"lat": 51.52113153015076, "lng": -0.199419083808548}}}, "name": "Parking lot", "place_id": "ChIJW3xn4QQQdkgRArWOvuJ57bs", "types": ["parking", "premise", "point_of_interest", "establishment"]}, "ChIJD_WflQQQdkgRboauO-UIDAM": {"geometry": {"location": {"lat": 51.52150484643936, "lng": -0.1988016375116272}, "viewport": {"northeast": {"lat": 51.52275788029149, "lng": -0.19609895}, "southwest": {"lat": 51.52005991970849, "lng": -0.20157515}}}, "name": "Westway", "place_id": "ChIJD_WflQQQdkgRboauO-UIDAM", "types": ["route"]}, "ChIJm5U56wQQdkgRmmlhv46SlvA": {"geometry": {"location": {"lat": 51.5214587, "lng": -0.1981399}, "viewport": {"northeast": {"lat": 51.5228068302915, "lng": -0.196791469708498}, "southwest": {"lat": 51.5201088697085, "lng": -0.199489430291502}}}, "name": "Young Ldn", "place_id": "ChIJm5U56wQQdkgRmmlhv46SlvA", "types": ["point_of_interest", "establishment"], "rating": 5, "user_ratings_total": 1}, "ChIJZVwf6wQQdkgRQuUE54zieDs": {"geometry": {"location": {"lat": 51.5214955, "lng": -0.1981963}, "viewport": {"northeast": {"lat": 51.52282313029149, "lng": -0.196858519708498}, "southwest": {"lat": 51.52012516970849, "lng": -0.199556480291502}}}, "name": "Joseph", "place_id": "ChIJZVwf6wQQdkgRQuUE54zieDs", "types": ["clothing_store", "point_of_interest", "store", "establishment"]}, "ChIJ3wJBVQMQdkgRJ7EA7Mn1zFo": {"geometry": {"location": {"lat": 51.52034495284617, "lng": -0.2000839751740505}, "viewport": {"northeast": {"lat": 51.5216939802915, "lng": -0.198734869708498}, "southwest": {"lat": 51.5189960197085, "lng": -0.201432830291502}}}, "name": "Great Western Road", "place_id": "ChIJ3wJBVQMQdkgRJ7EA7Mn1zFo", "types": ["route"]}, "ChIJdwHaVBsQdkgRbTdk1PemW14": {"geometry": {"location": {"lat": 51.520275, "lng": -0.199906}, "viewport": {"northeast": {"lat": 51.5216099302915, "lng": -0.198594469708498}, "southwest": {"lat": 51.5189119697085, "lng": -0.201292430291502}}}, "name": "Westbourne Park Station (Stop B)", "place_id": "ChIJdwHaVBsQdkgRbTdk1PemW14", "types": ["transit_station", "point_of_interest", "establishment"], "rating": 2, "user_ratings_total": 1}, "ChIJa65xVQMQdkgRuAKiRZVrBaE": {"geometry": {"location": {"lat": 51.5200629, "lng": -0.1996897}, "viewport": {"northeast": {"lat": 51.5213960302915, "lng": -0.198385869708498}, "southwest": {"lat": 51.5186980697085, "lng": -0.201083830291502}}}, "name": "ubitricity Charging Station", "place_id": "ChIJa65xVQMQdkgRuAKiRZVrBaE", "types": ["point_of_interest", "establishment"]}, "ChIJcfDf2iYRdkgRYY6UGF5mIds": {"geometry": {"location": {"lat": 51.5193036, "lng": -0.2000974}, "viewport": {"northeast": {"lat": 51.5206132302915, "lng": -0.198862669708498}, "southwest": {"lat": 51.5179152697085, "lng": -0.201560630291502}}}, "name": "Sardar Patel Blue Plaque", "place_id": "ChIJcfDf2iYRdkgRYY6UGF5mIds", "types": ["point_of_interest", "establishment"], "rating": 4, "user_ratings_total": 1}, "ChIJ1zFZsBwQdkgRbssVeAaOlTQ": {"geometry": {"location": {"lat": 51.51925869999999, "lng": -0.2004117}, "viewport": {"northeast": {"lat": 51.5206164302915, "lng": -0.199037819708498}, "southwest": {"lat": 51.5179184697085, "lng": -0.201735780291502}}}, "name": "ubitricity Charging Station", "place_id": "ChIJ1zFZsBwQdkgRbssVeAaOlTQ", "types": ["point_of_interest", "establishment"]}, "ChIJn8h2zRwQdkgRgbw3CD0nYXU": {"geometry": {"location": {"lat": 51.51818665098023, "lng": -0.1999951013289853}, "viewport": {"northeast": {"lat": 51.5195356302915, "lng": -0.198646119708498}, "southwest": {"lat": 51.5168376697085, "lng": -0.2013440802915021}}}, "name": "168-160 Westbourne Park Rd", "place_id": "ChIJn8h2zRwQdkgRgbw3CD0nYXU", "types": ["route"]}, "ChIJ2armMgMQdkgRrZG28D_afAg": {"geometry": {"location": {"lat": 51.51826699999999, "lng": -0.199734}, "viewport": {"northeast": {"lat": 51.51962943029149, "lng": -0.198358719708498}, "southwest": {"lat": 51.5169314697085, "lng": -0.201056680291502}}}, "name": "ubitricity Charging Station", "place_id": "ChIJ2armMgMQdkgRrZG28D_afAg", "types": ["point_of_interest", "establishment"]}, "ChIJ8xqN4WQRdkgRjoiDFUgEQ7A": {"geometry": {"location": {"lat": 51.5183127, "lng": -0.1995149}, "viewport": {"northeast": {"lat": 51.5196616802915, "lng": -0.198165919708498}, "southwest": {"lat": 51.5169637197085, "lng": -0.200863880291502}}}, "name": "Right Build Group - Builders in London", "place_id": "ChIJ8xqN4WQRdkgRjoiDFUgEQ7A", "types": ["point_of_interest", "establishment"]}, "ChIJ_yjDqCARdkgRQR6YYL1GITc": {"geometry": {"location": {"lat": 51.5181969, "lng": -0.2003127}, "viewport": {"northeast": {"lat": 51.5195061302915, "lng": -0.1989367697084979}, "southwest": {"lat": 51.5168081697085, "lng": -0.201634730291502}}}, "name": "Solo Motorcycles Only", "place_id": "ChIJ_yjDqCARdkgRQR6YYL1GITc", "types": ["parking", "point_of_interest", "establishment"], "rating": 5, "user_ratings_total": 1}, "ChIJwSmOGBsQdkgRXu1p5DM8M3w": {"geometry": {"location": {"lat": 51.5223514082063, "lng": -0.2014240586788611}, "viewport": {"northeast": {"lat": 51.52370038029149, "lng": -0.200075169708498}, "southwest": {"lat": 51.52100241970849, "lng": -0.202773130291502}}}, "name": "54-42 A4207", "place_id": "ChIJwSmOGBsQdkgRXu1p5DM8M3w", "types": ["route"]}, "ChIJG7VE7BoQdkgR51Yq7MAuFT0": {"geometry": {"location": {"lat": 51.5224079, "lng": -0.2013034}, "viewport": {"northeast": {"lat": 51.52375688029149, "lng": -0.1999544197084979}, "southwest": {"lat": 51.52105891970849, "lng": -0.202652380291502}}}, "name": "Tyres Direct & West London Tyres", "place_id": "ChIJG7VE7BoQdkgR51Yq7MAuFT0", "types": ["car_repair", "point_of_interest", "establishment"], "rating": 4.5, "user_ratings_total": 40}, "ChIJOQsBnhwQdkgRaTH4mO2o1iY": {"geometry": {"location": {"lat": 51.52018085014267, "lng": -0.2014048002644888}, "viewport": {"northeast": {"lat": 51.5215298302915, "lng": -0.200055819708498}, "southwest": {"lat": 51.5188318697085, "lng": -0.202753780291502}}}, "name": "5-9 Tavistock Rd", "place_id": "ChIJOQsBnhwQdkgRaTH4mO2o1iY", "types": ["route"]}, "ChIJieyvYxsQdkgR0POGW2F585A": {"geometry": {"location": {"lat": 51.5203996, "lng": -0.2016354}, "viewport": {"northeast": {"lat": 51.5217971802915, "lng": -0.2002864197084979}, "southwest": {"lat": 51.5190992197085, "lng": -0.202984380291502}}}, "name": "Anglican Communion Office & Consultative Council", "place_id": "ChIJieyvYxsQdkgR0POGW2F585A", "types": ["point_of_interest", "establishment"], "rating": 5, "user_ratings_total": 4}, "ChIJXzNqZBsQdkgR6kNQcTzYDGo": {"geometry": {"location": {"lat": 51.5204473, "lng": -0.2017333}, "viewport": {"northeast": {"lat": 51.5218188802915, "lng": -0.2003832697084979}, "southwest": {"lat": 51.5191209197085, "lng": -0.203081230291502}}}, "name": "The Lambeth Conference Ltd", "place_id": "ChIJXzNqZBsQdkgR6kNQcTzYDGo", "types": ["church", "place_of_worship", "point_of_interest", "establishment"]}, "ChIJASavlhwQdkgRvOaqJMGSuAw": {"geometry": {"location": {"lat": 51.51912899999999, "lng": -0.2016593999999999}, "viewport": {"northeast": {"lat": 51.52050713029149, "lng": -0.200226969708498}, "southwest": {"lat": 51.5178091697085, "lng": -0.202924930291502}}}, "name": "Paige Birnie Photos", "place_id": "ChIJASavlhwQdkgRvOaqJMGSuAw", "types": ["point_of_interest", "establishment"]}, "ChIJ6UtblhwQdkgRpddPxk49PdE": {"geometry": {"location": {"lat": 51.519213, "lng": -0.201467}, "viewport": {"northeast": {"lat": 51.5205661302915, "lng": -0.200106019708498}, "southwest": {"lat": 51.5178681697085, "lng": -0.202803980291502}}}, "name": "ubitricity Charging Station", "place_id": "ChIJ6UtblhwQdkgRpddPxk49PdE", "types": ["point_of_interest", "establishment"]}, "ChIJ__p_rYcRdkgRrtkcwaiT9WY": {"geometry": {"location": {"lat": 51.5191218, "lng": -0.2016568}, "viewport": {"northeast": {"lat": 51.5205011302915, "lng": -0.200220369708498}, "southwest": {"lat": 51.5178031697085, "lng": -0.202918330291502}}}, "name": "CBD Naturae Ltd", "place_id": "ChIJ__p_rYcRdkgRrtkcwaiT9WY", "types": ["grocery_or_supermarket", "food", "point_of_interest", "store", "establishment"]}, "ChIJ46iVlRwQdkgRM6ed0aVBsV4": {"geometry": {"location": {"lat": 51.519013, "lng": -0.201409}, "viewport": {"northeast": {"lat": 51.5203676302915, "lng": -0.200043819708498}, "southwest": {"lat": 51.5176696697085, "lng": -0.202741780291502}}}, "name": "ubitricity Charging Station", "place_id": "ChIJ46iVlRwQdkgRM6ed0aVBsV4", "types": ["point_of_interest", "establishment"]}, "ChIJo4eR7xwQdkgRRSCQlEM14tU": {"geometry": {"location": {"lat": 51.5181513, "lng": -0.201922}, "viewport": {"northeast": {"lat": 51.5195230802915, "lng": -0.200508969708498}, "southwest": {"lat": 51.5168251197085, "lng": -0.203206930291502}}}, "name": "Daska Hatton", "place_id": "ChIJo4eR7xwQdkgRRSCQlEM14tU", "types": ["health", "point_of_interest", "establishment"], "rating": 5, "user_ratings_total": 5}, "ChIJCbOF5RwQdkgRYEQTgKg_Wcs": {"geometry": {"location": {"lat": 51.51809249999999, "lng": -0.2018367}, "viewport": {"northeast": {"lat": 51.5194590302915, "lng": -0.200435219708498}, "southwest": {"lat": 51.5167610697085, "lng": -0.203133180291502}}}, "name": "Naga Partners Limited", "place_id": "ChIJCbOF5RwQdkgRYEQTgKg_Wcs", "types": ["finance", "point_of_interest", "establishment"]}, "ChIJ9TzSxBwQdkgRldG6DYLNIJ8": {"geometry": {"location": {"lat": 51.51816830000001, "lng": -0.2006401}, "viewport": {"northeast": {"lat": 51.5195198302915, "lng": -0.199283869708498}, "southwest": {"lat": 51.5168218697085, "lng": -0.201981830291502}}}, "name": "Zipcar", "place_id": "ChIJ9TzSxBwQdkgRldG6DYLNIJ8", "types": ["car_rental", "point_of_interest", "establishment"], "rating": 4, "user_ratings_total": 1}, "ChIJR4C6BhsQdkgRyw1dpzkfor4": {"geometry": {"location": {"lat": 51.52239855062485, "lng": -0.2029478820610936}, "viewport": {"northeast": {"lat": 51.52374583029149, "lng": -0.201598419708498}, "southwest": {"lat": 51.52104786970849, "lng": -0.204296380291502}}}, "name": "Elkstone Road", "place_id": "ChIJR4C6BhsQdkgRyw1dpzkfor4", "types": ["route"]}, "ChIJv7rAmxcQdkgR7T4j-8XatoI": {"geometry": {"location": {"lat": 51.522306, "lng": -0.203027}, "viewport": {"northeast": {"lat": 51.5236865802915, "lng": -0.201531119708498}, "southwest": {"lat": 51.5209886197085, "lng": -0.2042290802915021}}}, "name": "GSP Limited", "place_id": "ChIJv7rAmxcQdkgR7T4j-8XatoI", "types": ["point_of_interest", "establishment"], "rating": 5, "user_ratings_total": 3}, "ChIJ75sXqhsQdkgR_bw6qC98ztI": {"geometry": {"location": {"lat": 51.522434, "lng": -0.202906}, "viewport": {"northeast": {"lat": 51.52378298029151, "lng": -0.201557019708498}, "southwest": {"lat": 51.52108501970851, "lng": -0.204254980291502}}}, "name": "Westbourne Park Bus Garage (Stop AP)", "place_id": "ChIJ75sXqhsQdkgR_bw6qC98ztI", "types": ["transit_station", "point_of_interest", "establishment"], "rating": 5, "user_ratings_total": 2}, "ChIJm_-qqRsQdkgRPbUqH9qZEow": {"geometry": {"location": {"lat": 51.5223101, "lng": -0.2030403}, "viewport": {"northeast": {"lat": 51.5236865802915, "lng": -0.201537769708498}, "southwest": {"lat": 51.5209886197085, "lng": -0.204235730291502}}}, "name": "Crystals Coaches", "place_id": "ChIJm_-qqRsQdkgRPbUqH9qZEow", "types": ["point_of_interest", "establishment"], "rating": 5, "user_ratings_total": 1}, "ChIJN0nClxsQdkgRniCXcEvUdTY": {"geometry": {"location": {"lat": 51.52143780000001, "lng": -0.2031284}, "viewport": {"northeast": {"lat": 51.5226917802915, "lng": -0.202000719708498}, "southwest": {"lat": 51.5199938197085, "lng": -0.204698680291502}}}, "name": "The Mac People", "place_id": "ChIJN0nClxsQdkgRniCXcEvUdTY", "types": ["point_of_interest", "establishment"]}, "ChIJLxeNlxsQdkgR7OKGA3qwdaA": {"geometry": {"location": {"lat": 51.5214566, "lng": -0.2030691999999999}, "viewport": {"northeast": {"lat": 51.5227011802915, "lng": -0.201971119708498}, "southwest": {"lat": 51.5200032197085, "lng": -0.204669080291502}}}, "name": "Katana Creative Media", "place_id": "ChIJLxeNlxsQdkgR7OKGA3qwdaA", "types": ["point_of_interest", "establishment"]}, "ChIJSTg6lRsQdkgR5kAOkw6T-zA": {"geometry": {"location": {"lat": 51.5214442, "lng": -0.2031387}, "viewport": {"northeast": {"lat": 51.5226949802915, "lng": -0.202005869708498}, "southwest": {"lat": 51.5199970197085, "lng": -0.204703830291502}}}, "name": "Rumour Jewellery", "place_id": "ChIJSTg6lRsQdkgR5kAOkw6T-zA", "types": ["jewelry_store", "point_of_interest", "store", "establishment"]}, "ChIJJzWrahoQdkgRHk-O98lWTd0": {"geometry": {"location": {"lat": 51.52145520000001, "lng": -0.2030546}, "viewport": {"northeast": {"lat": 51.5227004802915, "lng": -0.201963819708498}, "southwest": {"lat": 51.52000251970851, "lng": -0.2046617802915021}}}, "name": "Locksley Architects", "place_id": "ChIJJzWrahoQdkgRHk-O98lWTd0", "types": ["point_of_interest", "establishment"], "rating": 4.6, "user_ratings_total": 18}, "ChIJsRvvlRsQdkgRRJ8tsHp5nsg": {"geometry": {"location": {"lat": 51.5214442, "lng": -0.2031387}, "viewport": {"northeast": {"lat": 51.5226949802915, "lng": -0.202005869708498}, "southwest": {"lat": 51.5199970197085, "lng": -0.204703830291502}}}, "name": "Redthread", "place_id": "ChIJsRvvlRsQdkgRRJ8tsHp5nsg", "types": ["general_contractor", "point_of_interest", "establishment"]}, "ChIJU8xhnxsQdkgRKNB9aDVEWpI": {"geometry": {"location": {"lat": 51.5214551, "lng": -0.2030546}, "viewport": {"northeast": {"lat": 51.52270043029149, "lng": -0.201963819708498}, "southwest": {"lat": 51.52000246970849, "lng": -0.2046617802915021}}}, "name": "Charlick & Nicholson Architects", "place_id": "ChIJU8xhnxsQdkgRKNB9aDVEWpI", "types": ["point_of_interest", "establishment"]}, "ChIJmQwymBsQdkgRc-Yn0iFc2d0": {"geometry": {"location": {"lat": 51.5214442, "lng": -0.2031387}, "viewport": {"northeast": {"lat": 51.5226949802915, "lng": -0.202005869708498}, "southwest": {"lat": 51.5199970197085, "lng": -0.204703830291502}}}, "name": "Ballistic Ltd", "place_id": "ChIJmQwymBsQdkgRc-Yn0iFc2d0", "types": ["point_of_interest", "establishment"]}, "ChIJja-ClxsQdkgR-E3gdkiEhmI": {"geometry": {"location": {"lat": 51.5214551, "lng": -0.2030546}, "viewport": {"northeast": {"lat": 51.52270043029149, "lng": -0.201963819708498}, "southwest": {"lat": 51.52000246970849, "lng": -0.2046617802915021}}}, "name": "Hatch", "place_id": "ChIJja-ClxsQdkgR-E3gdkiEhmI", "types": ["point_of_interest", "establishment"], "rating": 5, "user_ratings_total": 1}, "ChIJDdxe28kPdkgRoK2twp83vUY": {"geometry": {"location": {"lat": 51.52144369999999, "lng": -0.2031343}, "viewport": {"northeast": {"lat": 51.52269473029149, "lng": -0.202003669708498}, "southwest": {"lat": 51.51999676970849, "lng": -0.204701630291502}}}, "name": "Deadeye Design", "place_id": "ChIJDdxe28kPdkgRoK2twp83vUY", "types": ["point_of_interest", "establishment"]}, "ChIJezXooRsQdkgRyWBbEzjTHpA": {"geometry": {"location": {"lat": 51.5214566, "lng": -0.2030691999999999}, "viewport": {"northeast": {"lat": 51.5227011802915, "lng": -0.201971119708498}, "southwest": {"lat": 51.5200032197085, "lng": -0.204669080291502}}}, "name": "twotwentyseven", "place_id": "ChIJezXooRsQdkgRyWBbEzjTHpA", "types": ["point_of_interest", "establishment"], "rating": 5, "user_ratings_total": 1}, "ChIJR8fTlxsQdkgRKeQWhuMWHJ0": {"geometry": {"location": {"lat": 51.5214551, "lng": -0.2030546}, "viewport": {"northeast": {"lat": 51.52270043029149, "lng": -0.201963819708498}, "southwest": {"lat": 51.52000246970849, "lng": -0.2046617802915021}}}, "name": "Big Fish Music Partnerships Limited", "place_id": "ChIJR8fTlxsQdkgRKeQWhuMWHJ0", "types": ["point_of_interest", "establishment"], "rating": 2, "user_ratings_total": 1}, "ChIJ08OolxsQdkgRvnYAzjusyUE": {"geometry": {"location": {"lat": 51.5214442, "lng": -0.2031387}, "viewport": {"northeast": {"lat": 51.5226949802915, "lng": -0.202005869708498}, "southwest": {"lat": 51.5199970197085, "lng": -0.204703830291502}}}, "name": "Sports New Media", "place_id": "ChIJ08OolxsQdkgRvnYAzjusyUE", "types": ["point_of_interest", "establishment"]}, "ChIJ01nQbBsQdkgR0da_gYzirWg": {"geometry": {"location": {"lat": 51.5214566, "lng": -0.2030691999999999}, "viewport": {"northeast": {"lat": 51.5227011802915, "lng": -0.201971119708498}, "southwest": {"lat": 51.5200032197085, "lng": -0.204669080291502}}}, "name": "Amplified Media", "place_id": "ChIJ01nQbBsQdkgR0da_gYzirWg", "types": ["point_of_interest", "establishment"]}, "ChIJR8fTlxsQdkgRj9luUEAbb4Q": {"geometry": {"location": {"lat": 51.5214551, "lng": -0.2030546}, "viewport": {"northeast": {"lat": 51.52270043029149, "lng": -0.201963819708498}, "southwest": {"lat": 51.52000246970849, "lng": -0.2046617802915021}}}, "name": "Adam Poller Advertising", "place_id": "ChIJR8fTlxsQdkgRj9luUEAbb4Q", "types": ["point_of_interest", "establishment"]}, "ChIJjUdQvs4PdkgRKB8V_Op6nx4": {"geometry": {"location": {"lat": 51.5214551, "lng": -0.2030546}, "viewport": {"northeast": {"lat": 51.52270043029149, "lng": -0.201963819708498}, "southwest": {"lat": 51.52000246970849, "lng": -0.2046617802915021}}}, "name": "YouSoft Ltd", "place_id": "ChIJjUdQvs4PdkgRKB8V_Op6nx4", "types": ["point_of_interest", "establishment"]}, "ChIJi33nLG4QdkgRME0yCs438Bw": {"geometry": {"location": {"lat": 51.521361, "lng": -0.2031985}, "viewport": {"northeast": {"lat": 51.5226456802915, "lng": -0.202028369708498}, "southwest": {"lat": 51.5199477197085, "lng": -0.204726330291502}}}, "name": "i5 Health", "place_id": "ChIJi33nLG4QdkgRME0yCs438Bw", "types": ["point_of_interest", "establishment"]}, "ChIJja-ClxsQdkgRBb-TM8dngWk": {"geometry": {"location": {"lat": 51.5214442, "lng": -0.2031387}, "viewport": {"northeast": {"lat": 51.5226949802915, "lng": -0.202005869708498}, "southwest": {"lat": 51.5199970197085, "lng": -0.204703830291502}}}, "name": "Steffan Tollgard Interior Design", "place_id": "ChIJja-ClxsQdkgRBb-TM8dngWk", "types": ["general_contractor", "point_of_interest", "establishment"]}, "ChIJja-ClxsQdkgRafDjQWXDKHw": {"geometry": {"location": {"lat": 51.5214442, "lng": -0.2031386}, "viewport": {"northeast": {"lat": 51.5226949802915, "lng": -0.202005819708498}, "southwest": {"lat": 51.5199970197085, "lng": -0.204703780291502}}}, "name": "Leigh Keily", "place_id": "ChIJja-ClxsQdkgRafDjQWXDKHw", "types": ["point_of_interest", "establishment"]}, "ChIJja-ClxsQdkgRRdax9gYkpjc": {"geometry": {"location": {"lat": 51.52144369999999, "lng": -0.2031343}, "viewport": {"northeast": {"lat": 51.52269473029149, "lng": -0.202003669708498}, "southwest": {"lat": 51.51999676970849, "lng": -0.204701630291502}}}, "name": "Charlotte McDougall Associates", "place_id": "ChIJja-ClxsQdkgRRdax9gYkpjc", "types": ["point_of_interest", "establishment"]}, "ChIJja-ClxsQdkgRNsP1p-3ailM": {"geometry": {"location": {"lat": 51.52143780000001, "lng": -0.2031284}, "viewport": {"northeast": {"lat": 51.5226917802915, "lng": -0.202000719708498}, "southwest": {"lat": 51.5199938197085, "lng": -0.204698680291502}}}, "name": "Factor-m", "place_id": "ChIJja-ClxsQdkgRNsP1p-3ailM", "types": ["point_of_interest", "establishment"], "rating": 5, "user_ratings_total": 1}, "ChIJeX85xKUcdkgRVLES5giEi78": {"geometry": {"location": {"lat": 51.52143780000001, "lng": -0.2031284}, "viewport": {"northeast": {"lat": 51.5226917802915, "lng": -0.202000719708498}, "southwest": {"lat": 51.5199938197085, "lng": -0.204698680291502}}}, "name": "VidOps | Streamlined Media Creation", "place_id": "ChIJeX85xKUcdkgRVLES5giEi78", "types": ["point_of_interest", "establishment"], "rating": 4.9, "user_ratings_total": 152}, "ChIJja-ClxsQdkgRpfF0bfgXR9o": {"geometry": {"location": {"lat": 51.52143780000001, "lng": -0.2031284}, "viewport": {"northeast": {"lat": 51.5226917802915, "lng": -0.202000719708498}, "southwest": {"lat": 51.5199938197085, "lng": -0.204698680291502}}}, "name": "Cloud Nine Media (UK) Ltd", "place_id": "ChIJja-ClxsQdkgRpfF0bfgXR9o", "types": ["point_of_interest", "establishment"], "rating": 5, "user_ratings_total": 7}, "ChIJp9oCfUsbdkgRvNh5BJNHPPo": {"geometry": {"location": {"lat": 51.52143780000001, "lng": -0.2031284}, "viewport": {"northeast": {"lat": 51.5226917802915, "lng": -0.202000719708498}, "southwest": {"lat": 51.5199938197085, "lng": -0.204698680291502}}}, "name": "Crowd2Fund", "place_id": "ChIJp9oCfUsbdkgRvNh5BJNHPPo", "types": ["finance", "point_of_interest", "establishment"], "rating": 3.9, "user_ratings_total": 10}, "ChIJv9Fw4xcQdkgR-FScI4jKuq0": {"geometry": {"location": {"lat": 51.52143780000001, "lng": -0.2031284}, "viewport": {"northeast": {"lat": 51.5226917802915, "lng": -0.202000719708498}, "southwest": {"lat": 51.5199938197085, "lng": -0.204698680291502}}}, "name": "Richard Brendon", "place_id": "ChIJv9Fw4xcQdkgR-FScI4jKuq0", "types": ["point_of_interest", "establishment"]}, "ChIJ4QvloRsQdkgRepo8v0MWH5M": {"geometry": {"location": {"lat": 51.5214379, "lng": -0.2031283}, "viewport": {"northeast": {"lat": 51.52269183029149, "lng": -0.202000669708498}, "southwest": {"lat": 51.5199938697085, "lng": -0.204698630291502}}}, "name": "Esther Eyre", "place_id": "ChIJ4QvloRsQdkgRepo8v0MWH5M", "types": ["jewelry_store", "point_of_interest", "store", "establishment"]}, "ChIJWQnloRsQdkgRFYmBv9RPb68": {"geometry": {"location": {"lat": 51.52143780000001, "lng": -0.2031284}, "viewport": {"northeast": {"lat": 51.5226917802915, "lng": -0.202000719708498}, "southwest": {"lat": 51.5199938197085, "lng": -0.204698680291502}}}, "name": "Creative Semiotics", "place_id": "ChIJWQnloRsQdkgRFYmBv9RPb68", "types": ["point_of_interest", "establishment"]}, "ChIJWQnloRsQdkgRcg3-d8uA0Tc": {"geometry": {"location": {"lat": 51.52143780000001, "lng": -0.2031284}, "viewport": {"northeast": {"lat": 51.5226917802915, "lng": -0.202000719708498}, "southwest": {"lat": 51.5199938197085, "lng": -0.204698680291502}}}, "name": "Web Made Good", "place_id": "ChIJWQnloRsQdkgRcg3-d8uA0Tc", "types": ["point_of_interest", "establishment"]}, "ChIJg6XQ-BcQdkgRe5m_bBpiCq8": {"geometry": {"location": {"lat": 51.52143780000001, "lng": -0.2031284}, "viewport": {"northeast": {"lat": 51.5226917802915, "lng": -0.202000719708498}, "southwest": {"lat": 51.5199938197085, "lng": -0.204698680291502}}}, "name": "Ferrum", "place_id": "ChIJg6XQ-BcQdkgRe5m_bBpiCq8", "types": ["point_of_interest", "establishment"]}, "ChIJAQBwy-IPdkgRSeRohgUWon8": {"geometry": {"location": {"lat": 51.52143780000001, "lng": -0.2031284}, "viewport": {"northeast": {"lat": 51.5226917802915, "lng": -0.202000719708498}, "southwest": {"lat": 51.5199938197085, "lng": -0.204698680291502}}}, "name": "Gens Fabia Knowlwdge + People Ltd", "place_id": "ChIJAQBwy-IPdkgRSeRohgUWon8", "types": ["point_of_interest", "establishment"], "rating": 3, "user_ratings_total": 1}, "ChIJWQnloRsQdkgRCIIE_wBYyD8": {"geometry": {"location": {"lat": 51.52143780000001, "lng": -0.2031284}, "viewport": {"northeast": {"lat": 51.5226917802915, "lng": -0.202000719708498}, "southwest": {"lat": 51.5199938197085, "lng": -0.204698680291502}}}, "name": "Workspace Meeting Rooms - Westbourne Studios", "place_id": "ChIJWQnloRsQdkgRCIIE_wBYyD8", "types": ["point_of_interest", "establishment"]}, "ChIJ4QvloRsQdkgRtsoqUT_wpfE": {"geometry": {"location": {"lat": 51.5214379, "lng": -0.2031283}, "viewport": {"northeast": {"lat": 51.52269183029149, "lng": -0.202000669708498}, "southwest": {"lat": 51.5199938697085, "lng": -0.204698630291502}}}, "name": "Toxification", "place_id": "ChIJ4QvloRsQdkgRtsoqUT_wpfE", "types": ["point_of_interest", "establishment"]}, "ChIJDx0T_PkPdkgRt9LnJEbTbb8": {"geometry": {"location": {"lat": 51.521361, "lng": -0.2031985}, "viewport": {"northeast": {"lat": 51.5226456802915, "lng": -0.202028369708498}, "southwest": {"lat": 51.5199477197085, "lng": -0.204726330291502}}}, "name": "Homie", "place_id": "ChIJDx0T_PkPdkgRt9LnJEbTbb8", "types": ["real_estate_agency", "point_of_interest", "establishment"], "rating": 4.7, "user_ratings_total": 117}, "ChIJ0SPzlxsQdkgRri6AZ3L-jqU": {"geometry": {"location": {"lat": 51.5214566, "lng": -0.2030691999999999}, "viewport": {"northeast": {"lat": 51.5227011802915, "lng": -0.201971119708498}, "southwest": {"lat": 51.5200032197085, "lng": -0.204669080291502}}}, "name": "Nine Tomorrows", "place_id": "ChIJ0SPzlxsQdkgRri6AZ3L-jqU", "types": ["point_of_interest", "establishment"]}, "ChIJPx-lohsQdkgRAUwQ0sRQJXE": {"geometry": {"location": {"lat": 51.5214566, "lng": -0.2030691999999999}, "viewport": {"northeast": {"lat": 51.5227011802915, "lng": -0.201971119708498}, "southwest": {"lat": 51.5200032197085, "lng": -0.204669080291502}}}, "name": "Apertura", "place_id": "ChIJPx-lohsQdkgRAUwQ0sRQJXE", "types": ["point_of_interest", "establishment"]}, "ChIJVXjEoRsQdkgRUGpe0XiSfzo": {"geometry": {"location": {"lat": 51.5214566, "lng": -0.2030691}, "viewport": {"northeast": {"lat": 51.5227011802915, "lng": -0.201971069708498}, "southwest": {"lat": 51.5200032197085, "lng": -0.204669030291502}}}, "name": "Sample Tools by Cr2", "place_id": "ChIJVXjEoRsQdkgRUGpe0XiSfzo", "types": ["point_of_interest", "establishment"]}, "ChIJZ1q92CsFdkgROfA0Z79xg2A": {"geometry": {"location": {"lat": 51.52145699999999, "lng": -0.203069}, "viewport": {"northeast": {"lat": 51.52272913029149, "lng": -0.201659619708498}, "southwest": {"lat": 51.5200311697085, "lng": -0.204357580291502}}}, "name": "Tamweel Capital", "place_id": "ChIJZ1q92CsFdkgROfA0Z79xg2A", "types": ["finance", "point_of_interest", "establishment"]}, "ChIJV3jEoRsQdkgR-i5w9m9d17w": {"geometry": {"location": {"lat": 51.5214566, "lng": -0.2030691999999999}, "viewport": {"northeast": {"lat": 51.5227011802915, "lng": -0.201971119708498}, "southwest": {"lat": 51.5200032197085, "lng": -0.204669080291502}}}, "name": "Knabu Distributed Systems Ltd.", "place_id": "ChIJV3jEoRsQdkgR-i5w9m9d17w", "types": ["finance", "point_of_interest", "establishment"], "rating": 5, "user_ratings_total": 1}, "ChIJV3jEoRsQdkgRG5yD_wv_qvc": {"geometry": {"location": {"lat": 51.5214566, "lng": -0.2030691999999999}, "viewport": {"northeast": {"lat": 51.5227011802915, "lng": -0.201971119708498}, "southwest": {"lat": 51.5200032197085, "lng": -0.204669080291502}}},