{"E00024114": {"ChIJwYuPKtUadkgR6QIMU0mS8rk": {"geometry": {"location": {"lat": 51.51501920016313, "lng": -0.1440799001062276}, "viewport": {"northeast": {"lat": 51.51636818029149, "lng": -0.1427309197084979}, "southwest": {"lat": 51.51367021970849, "lng": -0.145428880291502}}}, "name": "272-268 A40", "place_id": "ChIJwYuPKtUadkgR6QIMU0mS8rk", "types": ["route"]}, "ChIJKb8wNtYadkgRV8h5WPCfzoM": {"geometry": {"location": {"lat": 51.5154992, "lng": -0.1436318}, "viewport": {"northeast": {"lat": 51.5168481802915, "lng": -0.142282819708498}, "southwest": {"lat": 51.5141502197085, "lng": -0.144980780291502}}}, "name": "London College of Fashion", "place_id": "ChIJKb8wNtYadkgRV8h5WPCfzoM", "types": ["university", "point_of_interest", "establishment"], "rating": 4.1, "user_ratings_total": 92}, "ChIJSYgMKdUadkgRwy0tyMQkfLU": {"geometry": {"location": {"lat": 51.5152778, "lng": -0.1436111}, "viewport": {"northeast": {"lat": 51.51653313029151, "lng": -0.142230219708498}, "southwest": {"lat": 51.51383516970851, "lng": -0.144928180291502}}}, "name": "Clarks", "place_id": "ChIJSYgMKdUadkgRwy0tyMQkfLU", "types": ["shoe_store", "point_of_interest", "store", "establishment"], "rating": 4.3, "user_ratings_total": 559}, "ChIJr2Hr3NQadkgR3Ar9z65-xK8": {"geometry": {"location": {"lat": 51.5158771, "lng": -0.1444658}, "viewport": {"northeast": {"lat": 51.5173180302915, "lng": -0.143191519708498}, "southwest": {"lat": 51.5146200697085, "lng": -0.145889480291502}}}, "name": "The Royal Bank of Scotland", "place_id": "ChIJr2Hr3NQadkgR3Ar9z65-xK8", "types": ["bank", "atm", "finance", "point_of_interest", "establishment"], "rating": 2.3, "user_ratings_total": 27}, "ChIJiXctwCwbdkgRaZLRYOZRPh4": {"geometry": {"location": {"lat": 51.5157926, "lng": -0.1441488}, "viewport": {"northeast": {"lat": 51.5173041802915, "lng": -0.142832119708498}, "southwest": {"lat": 51.5146062197085, "lng": -0.145530080291502}}}, "name": "Hawkey Cleaning & Support Services", "place_id": "ChIJiXctwCwbdkgRaZLRYOZRPh4", "types": ["laundry", "home_goods_store", "point_of_interest", "store", "establishment"], "rating": 5, "user_ratings_total": 4}, "ChIJAV6t0dQadkgRhdDWmHG239c": {"geometry": {"location": {"lat": 51.5157258, "lng": -0.1444469}, "viewport": {"northeast": {"lat": 51.51724353029149, "lng": -0.143175619708498}, "southwest": {"lat": 51.5145455697085, "lng": -0.145873580291502}}}, "name": "Mayfair Tai Chi", "place_id": "ChIJAV6t0dQadkgRhdDWmHG239c", "types": ["health", "point_of_interest", "establishment"]}, "ChIJ6UvPdNUadkgRnzF-y1sq2UQ": {"geometry": {"location": {"lat": 51.5157926, "lng": -0.1441488}, "viewport": {"northeast": {"lat": 51.5173041802915, "lng": -0.142832119708498}, "southwest": {"lat": 51.5146062197085, "lng": -0.145530080291502}}}, "name": "LMG Media", "place_id": "ChIJ6UvPdNUadkgRnzF-y1sq2UQ", "types": ["point_of_interest", "establishment"], "rating": 5, "user_ratings_total": 5}, "ChIJNQtNQykbdkgRsO6apCFivSE": {"geometry": {"location": {"lat": 51.5157926, "lng": -0.1441488}, "viewport": {"northeast": {"lat": 51.5173041802915, "lng": -0.142832119708498}, "southwest": {"lat": 51.5146062197085, "lng": -0.145530080291502}}}, "name": "Fox Curtis Murray (FCM)", "place_id": "ChIJNQtNQykbdkgRsO6apCFivSE", "types": ["point_of_interest", "establishment"]}, "ChIJYT3k3tQadkgR0emiNN6Jb4I": {"geometry": {"location": {"lat": 51.51567619999999, "lng": -0.1441984}, "viewport": {"northeast": {"lat": 51.5172381302915, "lng": -0.143040769708498}, "southwest": {"lat": 51.5145401697085, "lng": -0.145738730291502}}}, "name": "Rightster", "place_id": "ChIJYT3k3tQadkgR0emiNN6Jb4I", "types": ["point_of_interest", "establishment"]}, "ChIJ4YAT1tQadkgR06wVShfpb5Y": {"geometry": {"location": {"lat": 51.51521149999999, "lng": -0.1438677}, "viewport": {"northeast": {"lat": 51.51648163029149, "lng": -0.142490869708498}, "southwest": {"lat": 51.51378366970849, "lng": -0.145188830291502}}}, "name": "Geox", "place_id": "ChIJ4YAT1tQadkgR06wVShfpb5Y", "types": ["shoe_store", "point_of_interest", "clothing_store", "store", "establishment"], "rating": 4.2, "user_ratings_total": 230}, "ChIJHwtiMdUadkgR935eZSocnu4": {"geometry": {"location": {"lat": 51.51559959999999, "lng": -0.1437636}, "viewport": {"northeast": {"lat": 51.5170554302915, "lng": -0.142094219708498}, "southwest": {"lat": 51.51435746970851, "lng": -0.144792180291502}}}, "name": "London Arts Com Ltd", "place_id": "ChIJHwtiMdUadkgR935eZSocnu4", "types": ["point_of_interest", "establishment"]}, "ChIJ6dDQJ9UadkgRFDTL4i3ilRU": {"geometry": {"location": {"lat": 51.51559959999999, "lng": -0.1437636}, "viewport": {"northeast": {"lat": 51.5170554302915, "lng": -0.142094219708498}, "southwest": {"lat": 51.51435746970851, "lng": -0.144792180291502}}}, "name": "Cultures in Dialogue", "place_id": "ChIJ6dDQJ9UadkgRFDTL4i3ilRU", "types": ["point_of_interest", "establishment"]}, "ChIJQ9cpKisFdkgRIXOfPVAa7go": {"geometry": {"location": {"lat": 51.5151682, "lng": -0.1438895}, "viewport": {"northeast": {"lat": 51.5164575302915, "lng": -0.142565019708498}, "southwest": {"lat": 51.5137595697085, "lng": -0.145262980291502}}}, "name": "Prime Energy", "place_id": "ChIJQ9cpKisFdkgRIXOfPVAa7go", "types": ["point_of_interest", "establishment"], "rating": 5, "user_ratings_total": 1}, "ChIJb_w3oCoFdkgRehwbph8LP7g": {"geometry": {"location": {"lat": 51.5157926, "lng": -0.1441488}, "viewport": {"northeast": {"lat": 51.5173041802915, "lng": -0.142832119708498}, "southwest": {"lat": 51.5146062197085, "lng": -0.145530080291502}}}, "name": "Flying Formations", "place_id": "ChIJb_w3oCoFdkgRehwbph8LP7g", "types": ["point_of_interest", "establishment"], "rating": 5, "user_ratings_total": 52}, "ChIJ48FiEPEEdkgRO24ooRy1waI": {"geometry": {"location": {"lat": 51.5157926, "lng": -0.1441488}, "viewport": {"northeast": {"lat": 51.5173041802915, "lng": -0.142832119708498}, "southwest": {"lat": 51.5146062197085, "lng": -0.145530080291502}}}, "name": "Brite Green Ltd", "place_id": "ChIJ48FiEPEEdkgRO24ooRy1waI", "types": ["point_of_interest", "establishment"]}, "ChIJJckfGCsFdkgRVnsNLD6Ts4I": {"geometry": {"location": {"lat": 51.5157926, "lng": -0.1441488}, "viewport": {"northeast": {"lat": 51.5173041802915, "lng": -0.142832119708498}, "southwest": {"lat": 51.5146062197085, "lng": -0.145530080291502}}}, "name": "M&M Asset Management", "place_id": "ChIJJckfGCsFdkgRVnsNLD6Ts4I", "types": ["point_of_interest", "establishment"], "rating": 5, "user_ratings_total": 1}, "ChIJObd6mtQadkgR9mbieeUOx9U": {"geometry": {"location": {"lat": 51.5157926, "lng": -0.1441488}, "viewport": {"northeast": {"lat": 51.5173041802915, "lng": -0.142832119708498}, "southwest": {"lat": 51.5146062197085, "lng": -0.145530080291502}}}, "name": "PP Asset Management", "place_id": "ChIJObd6mtQadkgR9mbieeUOx9U", "types": ["finance", "point_of_interest", "establishment"]}, "ChIJy9sj8isbdkgRFk7e0usEwR0": {"geometry": {"location": {"lat": 51.5157926, "lng": -0.1441488}, "viewport": {"northeast": {"lat": 51.5173041802915, "lng": -0.142832119708498}, "southwest": {"lat": 51.5146062197085, "lng": -0.145530080291502}}}, "name": "Rex Procter and Partners", "place_id": "ChIJy9sj8isbdkgRFk7e0usEwR0", "types": ["point_of_interest", "establishment"]}, "ChIJw8H3pyoFdkgRssvETUEEywk": {"geometry": {"location": {"lat": 51.5157926, "lng": -0.1441488}, "viewport": {"northeast": {"lat": 51.5173041802915, "lng": -0.142832119708498}, "southwest": {"lat": 51.5146062197085, "lng": -0.145530080291502}}}, "name": "HelloCanvas", "place_id": "ChIJw8H3pyoFdkgRssvETUEEywk", "types": ["point_of_interest", "store", "establishment"], "rating": 3.8, "user_ratings_total": 25}, "ChIJ92JlMCsFdkgRjer1mrJrKDU": {"geometry": {"location": {"lat": 51.5157926, "lng": -0.1441488}, "viewport": {"northeast": {"lat": 51.5173041802915, "lng": -0.142832119708498}, "southwest": {"lat": 51.5146062197085, "lng": -0.145530080291502}}}, "name": "G N 2", "place_id": "ChIJ92JlMCsFdkgRjer1mrJrKDU", "types": ["point_of_interest", "establishment"], "rating": 4, "user_ratings_total": 2}, "ChIJYT3k3tQadkgRCTEHXi9Zj5w": {"geometry": {"location": {"lat": 51.5157926, "lng": -0.1441488}, "viewport": {"northeast": {"lat": 51.5173041802915, "lng": -0.142832119708498}, "southwest": {"lat": 51.5146062197085, "lng": -0.145530080291502}}}, "name": "Ampersand", "place_id": "ChIJYT3k3tQadkgRCTEHXi9Zj5w", "types": ["point_of_interest", "store", "establishment"]}, "ChIJ2a_YgP0PdkgR9X6DBuIIOMU": {"geometry": {"location": {"lat": 51.5157926, "lng": -0.1441488}, "viewport": {"northeast": {"lat": 51.5173041802915, "lng": -0.142832119708498}, "southwest": {"lat": 51.5146062197085, "lng": -0.145530080291502}}}, "name": "Talent Village", "place_id": "ChIJ2a_YgP0PdkgR9X6DBuIIOMU", "types": ["point_of_interest", "establishment"], "rating": 4.9, "user_ratings_total": 58}, "ChIJb-GN3NQadkgRu5esTUqLAms": {"geometry": {"location": {"lat": 51.5157412, "lng": -0.143728}, "viewport": {"northeast": {"lat": 51.51717663029149, "lng": -0.142119819708498}, "southwest": {"lat": 51.5144786697085, "lng": -0.144817780291502}}}, "name": "Axispoint Solutions Ltd", "place_id": "ChIJb-GN3NQadkgRu5esTUqLAms", "types": ["electronics_store", "point_of_interest", "store", "establishment"]}, "ChIJHdB2JisFdkgRnbtunddQkn8": {"geometry": {"location": {"lat": 51.5157412, "lng": -0.143728}, "viewport": {"northeast": {"lat": 51.51717663029149, "lng": -0.142119819708498}, "southwest": {"lat": 51.5144786697085, "lng": -0.144817780291502}}}, "name": "Garrett Cooper Montague Legal Services", "place_id": "ChIJHdB2JisFdkgRnbtunddQkn8", "types": ["lawyer", "point_of_interest", "establishment"]}, "ChIJZeKw2NQadkgR1M38sbnKlNw": {"geometry": {"location": {"lat": 51.5158368, "lng": -0.1440567}, "viewport": {"northeast": {"lat": 51.5173349802915, "lng": -0.142772469708498}, "southwest": {"lat": 51.5146370197085, "lng": -0.145470430291502}}}, "name": "Avatar Affinity", "place_id": "ChIJZeKw2NQadkgR1M38sbnKlNw", "types": ["point_of_interest", "establishment"]}, "ChIJI46n39QadkgRtBiFykS03cQ": {"geometry": {"location": {"lat": 51.5157412, "lng": -0.143728}, "viewport": {"northeast": {"lat": 51.51717663029149, "lng": -0.142119819708498}, "southwest": {"lat": 51.5144786697085, "lng": -0.144817780291502}}}, "name": "Maxam Property UK Ltd", "place_id": "ChIJI46n39QadkgRtBiFykS03cQ", "types": ["general_contractor", "point_of_interest", "establishment"]}, "ChIJI46n39QadkgR-c3BySF9Gzw": {"geometry": {"location": {"lat": 51.5157412, "lng": -0.143728}, "viewport": {"northeast": {"lat": 51.51717663029149, "lng": -0.142119819708498}, "southwest": {"lat": 51.5144786697085, "lng": -0.144817780291502}}}, "name": "Keystone Nutrition", "place_id": "ChIJI46n39QadkgR-c3BySF9Gzw", "types": ["health", "point_of_interest", "establishment"]}, "ChIJs3hBis4EdkgRolwxhlntK4k": {"geometry": {"location": {"lat": 51.5157412, "lng": -0.143728}, "viewport": {"northeast": {"lat": 51.51717663029149, "lng": -0.142119819708498}, "southwest": {"lat": 51.5144786697085, "lng": -0.144817780291502}}}, "name": "Centerboard Partners", "place_id": "ChIJs3hBis4EdkgRolwxhlntK4k", "types": ["accounting", "finance", "point_of_interest", "establishment"]}, "ChIJ9e9A59QadkgRAcAXv0bKpFs": {"geometry": {"location": {"lat": 51.5157996, "lng": -0.1444757}, "viewport": {"northeast": {"lat": 51.5171295802915, "lng": -0.143201769708498}, "southwest": {"lat": 51.51443161970851, "lng": -0.145899730291502}}}, "name": "Cavendish Square Car", "place_id": "ChIJ9e9A59QadkgRAcAXv0bKpFs", "types": ["parking", "point_of_interest", "establishment"], "rating": 2.3, "user_ratings_total": 3}, "ChIJYT3k3tQadkgRM970c5cq-eM": {"geometry": {"location": {"lat": 51.5158513, "lng": -0.1440533}, "viewport": {"northeast": {"lat": 51.51734298029151, "lng": -0.142766269708498}, "southwest": {"lat": 51.51464501970851, "lng": -0.145464230291502}}}, "name": "Lee Hecht Harrison | Penna - Senior Directors Unit", "place_id": "ChIJYT3k3tQadkgRM970c5cq-eM", "types": ["point_of_interest", "establishment"]}, "ChIJeYqsydQadkgR5b9pV3CevnY": {"geometry": {"location": {"lat": 51.51521990000001, "lng": -0.1438204}, "viewport": {"northeast": {"lat": 51.5164897302915, "lng": -0.142444469708498}, "southwest": {"lat": 51.5137917697085, "lng": -0.145142430291502}}}, "name": "Coast", "place_id": "ChIJeYqsydQadkgR5b9pV3CevnY", "types": ["clothing_store", "point_of_interest", "store", "establishment"], "rating": 4, "user_ratings_total": 65}, "ChIJI46n39QadkgRG6twoTGqbZY": {"geometry": {"location": {"lat": 51.51578139999999, "lng": -0.1435908}, "viewport": {"northeast": {"lat": 51.51719453029149, "lng": -0.142049369708498}, "southwest": {"lat": 51.51449656970849, "lng": -0.144747330291502}}}, "name": "Fundsmith LLP", "place_id": "ChIJI46n39QadkgRG6twoTGqbZY", "types": ["point_of_interest", "establishment"], "rating": 3.7, "user_ratings_total": 6}, "ChIJA-zcTNMadkgRwlXHjYEWrVk": {"geometry": {"location": {"lat": 51.5150837, "lng": -0.1447955}, "viewport": {"northeast": {"lat": 51.5163499802915, "lng": -0.1434991197084979}, "southwest": {"lat": 51.5136520197085, "lng": -0.146197080291502}}}, "name": "CLINIQUE", "place_id": "ChIJA-zcTNMadkgRwlXHjYEWrVk", "types": ["point_of_interest", "store", "establishment"], "rating": 4, "user_ratings_total": 2}, "ChIJZZmpzywFdkgRm2EdvaikMuk": {"geometry": {"location": {"lat": 51.5151315, "lng": -0.1448102}, "viewport": {"northeast": {"lat": 51.5163738802915, "lng": -0.143506469708498}, "southwest": {"lat": 51.5136759197085, "lng": -0.146204430291502}}}, "name": "Origins", "place_id": "ChIJZZmpzywFdkgRm2EdvaikMuk", "types": ["beauty_salon", "point_of_interest", "store", "establishment"], "rating": 4.4, "user_ratings_total": 5}, "ChIJyQ-NJ9UadkgRfzYHWvMpHrk": {"geometry": {"location": {"lat": 51.5159343, "lng": -0.144358}, "viewport": {"northeast": {"lat": 51.5173630302915, "lng": -0.143120569708498}, "southwest": {"lat": 51.5146650697085, "lng": -0.145818530291502}}}, "name": "TCii", "place_id": "ChIJyQ-NJ9UadkgRfzYHWvMpHrk", "types": ["point_of_interest", "establishment"]}, "ChIJQ55oKdUadkgRqInj5C7P3Ag": {"geometry": {"location": {"lat": 51.5151717, "lng": -0.1434531}, "viewport": {"northeast": {"lat": 51.5164876802915, "lng": -0.142092469708498}, "southwest": {"lat": 51.5137897197085, "lng": -0.144790430291502}}}, "name": "Oxford Circus Station (Stop OH)", "place_id": "ChIJQ55oKdUadkgRqInj5C7P3Ag", "types": ["bus_station", "transit_station", "point_of_interest", "establishment"], "rating": 5, "user_ratings_total": 2}, "ChIJj_FX3tQadkgRuJzvb49y2Pw": {"geometry": {"location": {"lat": 51.5159343, "lng": -0.144358}, "viewport": {"northeast": {"lat": 51.5172832802915, "lng": -0.143009019708498}, "southwest": {"lat": 51.5145853197085, "lng": -0.145706980291502}}}, "name": "Lexam Partners LLP", "place_id": "ChIJj_FX3tQadkgRuJzvb49y2Pw", "types": ["bank", "atm", "finance", "point_of_interest", "establishment"]}, "ChIJyQ-NJ9UadkgRanMNGUG953s": {"geometry": {"location": {"lat": 51.5155317, "lng": -0.1442407}, "viewport": {"northeast": {"lat": 51.5166247802915, "lng": -0.142761669708498}, "southwest": {"lat": 51.5139268197085, "lng": -0.145459630291502}}}, "name": "Catalyst Capital", "place_id": "ChIJyQ-NJ9UadkgRanMNGUG953s", "types": ["point_of_interest", "establishment"]}, "ChIJndX70SwFdkgRz2AfvctcXzA": {"geometry": {"location": {"lat": 51.5157926, "lng": -0.1441488}, "viewport": {"northeast": {"lat": 51.5173041802915, "lng": -0.142832119708498}, "southwest": {"lat": 51.5146062197085, "lng": -0.145530080291502}}}, "name": "Centre for Jewish Life", "place_id": "ChIJndX70SwFdkgRz2AfvctcXzA", "types": ["point_of_interest", "establishment"], "rating": 5, "user_ratings_total": 5}, "ChIJrfHX0tQadkgREeGMXPL9Crw": {"geometry": {"location": {"lat": 51.5153987, "lng": -0.1443135}, "viewport": {"northeast": {"lat": 51.5165512802915, "lng": -0.142798069708498}, "southwest": {"lat": 51.51385331970851, "lng": -0.145496030291502}}}, "name": "website design", "place_id": "ChIJrfHX0tQadkgREeGMXPL9Crw", "types": ["point_of_interest", "establishment"]}, "ChIJ5TJl3tQadkgRnrJOaNzBRjE": {"geometry": {"location": {"lat": 51.51593339999999, "lng": -0.1442009}, "viewport": {"northeast": {"lat": 51.5173752802915, "lng": -0.142827919708498}, "southwest": {"lat": 51.5146773197085, "lng": -0.145525880291502}}}, "name": "Pret A Manger", "place_id": "ChIJ5TJl3tQadkgRnrJOaNzBRjE", "types": ["cafe", "restaurant", "food", "point_of_interest", "store", "establishment"], "rating": 4.1, "user_ratings_total": 154}, "ChIJP0EgrNQadkgRrPRwHLf4NAQ": {"geometry": {"location": {"lat": 51.5153724, "lng": -0.144967}, "viewport": {"northeast": {"lat": 51.51678508029151, "lng": -0.143388519708498}, "southwest": {"lat": 51.51408711970851, "lng": -0.146086480291502}}}, "name": "L.K.Bennett - John Lewis", "place_id": "ChIJP0EgrNQadkgRrPRwHLf4NAQ", "types": ["shoe_store", "point_of_interest", "store", "establishment"], "rating": 4.5, "user_ratings_total": 2}, "ChIJp1GwROYPdkgRiuaWveQjZCQ": {"geometry": {"location": {"lat": 51.5155317, "lng": -0.1442407}, "viewport": {"northeast": {"lat": 51.5166247802915, "lng": -0.142761669708498}, "southwest": {"lat": 51.5139268197085, "lng": -0.145459630291502}}}, "name": "The Women's India Association of the UK", "place_id": "ChIJp1GwROYPdkgRiuaWveQjZCQ", "types": ["point_of_interest", "establishment"]}, "ChIJx16ERCYbdkgRGtJ_dVJ3fzM": {"geometry": {"location": {"lat": 51.5155155, "lng": -0.1443718}, "viewport": {"northeast": {"lat": 51.5171383802915, "lng": -0.143138069708498}, "southwest": {"lat": 51.51444041970851, "lng": -0.145836030291502}}}, "name": "Market Hall West End", "place_id": "ChIJx16ERCYbdkgRGtJ_dVJ3fzM", "types": ["food", "point_of_interest", "establishment"], "rating": 4.5, "user_ratings_total": 352}, "ChIJvZ5ww78bdkgR1zhSF7PPM38": {"geometry": {"location": {"lat": 51.5152677, "lng": -0.1440494}, "viewport": {"northeast": {"lat": 51.5165007802915, "lng": -0.142649419708498}, "southwest": {"lat": 51.5138028197085, "lng": -0.145347380291502}}}, "name": "Kingdom of sweets", "place_id": "ChIJvZ5ww78bdkgR1zhSF7PPM38", "types": ["food", "point_of_interest", "store", "establishment"], "rating": 2.9, "user_ratings_total": 18}, "ChIJyQ-NJ9UadkgRty-g42MnLvY": {"geometry": {"location": {"lat": 51.51567619999999, "lng": -0.1441984}, "viewport": {"northeast": {"lat": 51.5172381302915, "lng": -0.143040769708498}, "southwest": {"lat": 51.5145401697085, "lng": -0.145738730291502}}}, "name": "Corgi Engineers", "place_id": "ChIJyQ-NJ9UadkgRty-g42MnLvY", "types": ["electrician", "point_of_interest", "establishment"]}, "ChIJyQ-NJ9UadkgRc9vMKDiEk00": {"geometry": {"location": {"lat": 51.51567619999999, "lng": -0.1441984}, "viewport": {"northeast": {"lat": 51.5172381302915, "lng": -0.143040769708498}, "southwest": {"lat": 51.5145401697085, "lng": -0.145738730291502}}}, "name": "Swiss Finance Corporation", "place_id": "ChIJyQ-NJ9UadkgRc9vMKDiEk00", "types": ["finance", "point_of_interest", "establishment"]}, "ChIJV-W19TAbdkgRCci_0KdHwN8": {"geometry": {"location": {"lat": 51.5152084, "lng": -0.1439619}, "viewport": {"northeast": {"lat": 51.5164736802915, "lng": -0.142595019708498}, "southwest": {"lat": 51.5137757197085, "lng": -0.145292980291502}}}, "name": "POLICE LIFESTYLE", "place_id": "ChIJV-W19TAbdkgRCci_0KdHwN8", "types": ["clothing_store", "point_of_interest", "store", "establishment"], "rating": 5, "user_ratings_total": 1}, "ChIJJejv1dMbdkgReKLLgY4e1Vg": {"geometry": {"location": {"lat": 51.51566700000001, "lng": -0.1438736}, "viewport": {"northeast": {"lat": 51.5171295302915, "lng": -0.142184019708498}, "southwest": {"lat": 51.5144315697085, "lng": -0.144881980291502}}}, "name": "JBM Solar UK", "place_id": "ChIJJejv1dMbdkgReKLLgY4e1Vg", "types": ["point_of_interest", "establishment"]}, "ChIJ6dDQJ9UadkgRb0rt0CVEtv8": {"geometry": {"location": {"lat": 51.51559959999999, "lng": -0.1437636}, "viewport": {"northeast": {"lat": 51.5170554302915, "lng": -0.142094219708498}, "southwest": {"lat": 51.51435746970851, "lng": -0.144792180291502}}}, "name": "Fashion Innovation Agency", "place_id": "ChIJ6dDQJ9UadkgRb0rt0CVEtv8", "types": ["point_of_interest", "establishment"]}, "ChIJy_UQ2dQadkgRQWrIIeIgMnU": {"geometry": {"location": {"lat": 51.51513199999999, "lng": -0.1441774}, "viewport": {"northeast": {"lat": 51.5164238802915, "lng": -0.142730019708498}, "southwest": {"lat": 51.51372591970851, "lng": -0.145427980291502}}}, "name": "STAR Real Estate", "place_id": "ChIJy_UQ2dQadkgRQWrIIeIgMnU", "types": ["real_estate_agency", "point_of_interest", "establishment"]}, "ChIJpR2cKtUadkgRFgwmT7flIoM": {"geometry": {"location": {"lat": 51.5151589, "lng": -0.1438644}, "viewport": {"northeast": {"lat": 51.5164543302915, "lng": -0.142496469708498}, "southwest": {"lat": 51.5137563697085, "lng": -0.145194430291502}}}, "name": "Soletrader", "place_id": "ChIJpR2cKtUadkgRFgwmT7flIoM", "types": ["shoe_store", "point_of_interest", "store", "establishment"], "rating": 4.2, "user_ratings_total": 25}, "ChIJRTzk3tQadkgRF7K3elL1obM": {"geometry": {"location": {"lat": 51.5157621, "lng": -0.1440424}, "viewport": {"northeast": {"lat": 51.5171110802915, "lng": -0.142693419708498}, "southwest": {"lat": 51.5144131197085, "lng": -0.145391380291502}}}, "name": "Intertek Group Plc", "place_id": "ChIJRTzk3tQadkgRF7K3elL1obM", "types": ["point_of_interest", "establishment"], "rating": 2.6, "user_ratings_total": 8}, "ChIJZ64xLucbdkgRGvQAhTFAoLg": {"geometry": {"location": {"lat": 51.5157258, "lng": -0.1444469}, "viewport": {"northeast": {"lat": 51.51724353029149, "lng": -0.143175619708498}, "southwest": {"lat": 51.5145455697085, "lng": -0.145873580291502}}}, "name": "goodbirds", "place_id": "ChIJZ64xLucbdkgRGvQAhTFAoLg", "types": ["restaurant", "food", "point_of_interest", "establishment"], "rating": 3.3, "user_ratings_total": 3}, "ChIJzyb-zP0bdkgRdSe-AvRmbAo": {"geometry": {"location": {"lat": 51.5157258, "lng": -0.1444469}, "viewport": {"northeast": {"lat": 51.51724353029149, "lng": -0.143175619708498}, "southwest": {"lat": 51.5145455697085, "lng": -0.145873580291502}}}, "name": "Pleasant Lady Jian Bing Trading Stall, Market Hall West End", "place_id": "ChIJzyb-zP0bdkgRdSe-AvRmbAo", "types": ["restaurant", "food", "point_of_interest", "establishment"]}, "ChIJvbwqzdQadkgR8NBjSlqedUk": {"geometry": {"location": {"lat": 51.5153684, "lng": -0.144712}, "viewport": {"northeast": {"lat": 51.5167830802915, "lng": -0.143274569708498}, "southwest": {"lat": 51.5140851197085, "lng": -0.145972530291502}}}, "name": "Toga School", "place_id": "ChIJvbwqzdQadkgR8NBjSlqedUk", "types": ["school", "point_of_interest", "establishment"]}, "ChIJy_UQ2dQadkgR2OREqgBo0oE": {"geometry": {"location": {"lat": 51.5157926, "lng": -0.1441488}, "viewport": {"northeast": {"lat": 51.5173041802915, "lng": -0.142832119708498}, "southwest": {"lat": 51.5146062197085, "lng": -0.145530080291502}}}, "name": "Creditdata", "place_id": "ChIJy_UQ2dQadkgR2OREqgBo0oE", "types": ["point_of_interest", "establishment"]}, "ChIJy_UQ2dQadkgRfcL5CqQthNs": {"geometry": {"location": {"lat": 51.5157926, "lng": -0.1441488}, "viewport": {"northeast": {"lat": 51.5173041802915, "lng": -0.142832119708498}, "southwest": {"lat": 51.5146062197085, "lng": -0.145530080291502}}}, "name": "Jenny Allan Design", "place_id": "ChIJy_UQ2dQadkgRfcL5CqQthNs", "types": ["point_of_interest", "establishment"]}, "ChIJy_UQ2dQadkgRL-29rHKgzao": {"geometry": {"location": {"lat": 51.5157926, "lng": -0.1441488}, "viewport": {"northeast": {"lat": 51.5173041802915, "lng": -0.142832119708498}, "southwest": {"lat": 51.5146062197085, "lng": -0.145530080291502}}}, "name": "Progenii Limited", "place_id": "ChIJy_UQ2dQadkgRL-29rHKgzao", "types": ["point_of_interest", "establishment"]}, "ChIJJQt71yoFdkgRZLQlFpD1Uhc": {"geometry": {"location": {"lat": 51.51438117703847, "lng": -0.1437425882474855}, "viewport": {"northeast": {"lat": 51.5157240802915, "lng": -0.142397369708498}, "southwest": {"lat": 51.51302611970851, "lng": -0.145095330291502}}}, "name": "13 Hanover Square", "place_id": "ChIJJQt71yoFdkgRZLQlFpD1Uhc", "types": ["route"]}, "ChIJH4h2LisFdkgReXOSw7FbPXM": {"geometry": {"location": {"lat": 51.5147169, "lng": -0.1443795}, "viewport": {"northeast": {"lat": 51.51608503029149, "lng": -0.142926869708498}, "southwest": {"lat": 51.51338706970849, "lng": -0.145624830291502}}}, "name": "Subway", "place_id": "ChIJH4h2LisFdkgReXOSw7FbPXM", "types": ["meal_takeaway", "restaurant", "food", "point_of_interest", "establishment"], "rating": 3.3, "user_ratings_total": 270}, "ChIJC1MqLisFdkgRqDjM0yNNn6o": {"geometry": {"location": {"lat": 51.5143026, "lng": -0.1447776}, "viewport": {"northeast": {"lat": 51.5156874302915, "lng": -0.143031169708498}, "southwest": {"lat": 51.5129894697085, "lng": -0.145729130291502}}}, "name": "P&N Security Group", "place_id": "ChIJC1MqLisFdkgRqDjM0yNNn6o", "types": ["point_of_interest", "establishment"], "rating": 4, "user_ratings_total": 2}, "ChIJ-zAsxSoFdkgRSgbOvILK5Ks": {"geometry": {"location": {"lat": 51.5144761, "lng": -0.1433686}, "viewport": {"northeast": {"lat": 51.5157726802915, "lng": -0.142042119708498}, "southwest": {"lat": 51.51307471970851, "lng": -0.144740080291502}}}, "name": "Dirty Martini Hanover Square", "place_id": "ChIJ-zAsxSoFdkgRSgbOvILK5Ks", "types": ["bar", "point_of_interest", "establishment"], "rating": 3.9, "user_ratings_total": 572}, "ChIJeyPBKisFdkgRsff9lJ-iAyM": {"geometry": {"location": {"lat": 51.514854, "lng": -0.144013}, "viewport": {"northeast": {"lat": 51.5161854802915, "lng": -0.142758819708498}, "southwest": {"lat": 51.5134875197085, "lng": -0.145456780291502}}}, "name": "Luxury Apartment in Centre of London", "place_id": "ChIJeyPBKisFdkgRsff9lJ-iAyM", "types": ["lodging", "point_of_interest", "establishment"]}, "ChIJ0516vyoFdkgR7ZS7eAyVMdQ": {"geometry": {"location": {"lat": 51.5146111, "lng": -0.1443426}, "viewport": {"northeast": {"lat": 51.51598038029149, "lng": -0.142883769708498}, "southwest": {"lat": 51.51328241970849, "lng": -0.145581730291502}}}, "name": "Freedom Advocacy & Law", "place_id": "ChIJ0516vyoFdkgR7ZS7eAyVMdQ", "types": ["point_of_interest", "establishment"]}, "ChIJz9Vb8dUEdkgRtQzADTY6gKs": {"geometry": {"location": {"lat": 51.5145036, "lng": -0.1435762}, "viewport": {"northeast": {"lat": 51.51579458029149, "lng": -0.142238819708498}, "southwest": {"lat": 51.5130966197085, "lng": -0.144936780291502}}}, "name": "Summit Partners", "place_id": "ChIJz9Vb8dUEdkgRtQzADTY6gKs", "types": ["finance", "point_of_interest", "establishment"]}, "ChIJq7qT6CoFdkgRvG0urzjL6jk": {"geometry": {"location": {"lat": 51.5143645, "lng": -0.1445712}, "viewport": {"northeast": {"lat": 51.5156938802915, "lng": -0.142927969708498}, "southwest": {"lat": 51.5129959197085, "lng": -0.145625930291502}}}, "name": "Easy Offices", "place_id": "ChIJq7qT6CoFdkgRvG0urzjL6jk", "types": ["real_estate_agency", "point_of_interest", "establishment"]}, "ChIJJRMKxzQFdkgRN9JpmFldxqA": {"geometry": {"location": {"lat": 51.514398, "lng": -0.1441902}, "viewport": {"northeast": {"lat": 51.51589183029149, "lng": -0.1427916697084979}, "southwest": {"lat": 51.5131938697085, "lng": -0.145489630291502}}}, "name": "Herefords Employment Solicitors", "place_id": "ChIJJRMKxzQFdkgRN9JpmFldxqA", "types": ["point_of_interest", "establishment"], "rating": 5, "user_ratings_total": 66}, "ChIJWxf_JSsFdkgREgoKS4lNnb0": {"geometry": {"location": {"lat": 51.5143645, "lng": -0.1445712}, "viewport": {"northeast": {"lat": 51.5156938802915, "lng": -0.142927969708498}, "southwest": {"lat": 51.5129959197085, "lng": -0.145625930291502}}}, "name": "Tosin Firewalker Ltd", "place_id": "ChIJWxf_JSsFdkgREgoKS4lNnb0", "types": ["point_of_interest", "establishment"]}, "ChIJTTR0JisFdkgRL4qi8-zFsQY": {"geometry": {"location": {"lat": 51.51435859999999, "lng": -0.1446009}, "viewport": {"northeast": {"lat": 51.5156938802915, "lng": -0.142942819708498}, "southwest": {"lat": 51.5129959197085, "lng": -0.145640780291502}}}, "name": "Finlux Direct", "place_id": "ChIJTTR0JisFdkgRL4qi8-zFsQY", "types": ["point_of_interest", "store", "establishment"], "rating": 2, "user_ratings_total": 7}, "ChIJSSgYJisFdkgRTOM5PJBTWSU": {"geometry": {"location": {"lat": 51.5143905, "lng": -0.1442594}, "viewport": {"northeast": {"lat": 51.5158880802915, "lng": -0.142792869708498}, "southwest": {"lat": 51.5131901197085, "lng": -0.145490830291502}}}, "name": "Sanderson Alternatives", "place_id": "ChIJSSgYJisFdkgRTOM5PJBTWSU", "types": ["finance", "point_of_interest", "establishment"]}, "ChIJH4h2LisFdkgRVqfozRgg7Sk": {"geometry": {"location": {"lat": 51.5143646, "lng": -0.1444333}, "viewport": {"northeast": {"lat": 51.5156938802915, "lng": -0.142859019708498}, "southwest": {"lat": 51.5129959197085, "lng": -0.145556980291502}}}, "name": "Alcove Entertainment", "place_id": "ChIJH4h2LisFdkgRVqfozRgg7Sk", "types": ["point_of_interest", "establishment"]}, "ChIJWxf_JSsFdkgRkbj7DeOs1G0": {"geometry": {"location": {"lat": 51.5143645, "lng": -0.1445712}, "viewport": {"northeast": {"lat": 51.5156938802915, "lng": -0.142927969708498}, "southwest": {"lat": 51.5129959197085, "lng": -0.145625930291502}}}, "name": "Socrates Capital Limited", "place_id": "ChIJWxf_JSsFdkgRkbj7DeOs1G0", "types": ["finance", "point_of_interest", "establishment"]}, "ChIJC1fi2ioFdkgRXLKg8y7gQqY": {"geometry": {"location": {"lat": 51.514387, "lng": -0.144199}, "viewport": {"northeast": {"lat": 51.5158863302915, "lng": -0.142789619708498}, "southwest": {"lat": 51.5131883697085, "lng": -0.145487580291502}}}, "name": "Alan Solomons & Co Chartered Accountants Mayfair London", "place_id": "ChIJC1fi2ioFdkgRXLKg8y7gQqY", "types": ["accounting", "finance", "point_of_interest", "establishment"], "rating": 5, "user_ratings_total": 1}, "ChIJJV2n1VIDdkgRT1648HpH_o0": {"geometry": {"location": {"lat": 51.51455619999999, "lng": -0.1438838}, "viewport": {"northeast": {"lat": 51.5158887802915, "lng": -0.142623769708498}, "southwest": {"lat": 51.5131908197085, "lng": -0.145321730291502}}}, "name": "Riverhouse Partners Limited", "place_id": "ChIJJV2n1VIDdkgRT1648HpH_o0", "types": ["point_of_interest", "establishment"]}, "ChIJ9Rn_JSsFdkgRz2aTmSA9f9k": {"geometry": {"location": {"lat": 51.5143645, "lng": -0.1445712}, "viewport": {"northeast": {"lat": 51.5156938802915, "lng": -0.142927969708498}, "southwest": {"lat": 51.5129959197085, "lng": -0.145625930291502}}}, "name": "Regaltek Ltd.", "place_id": "ChIJ9Rn_JSsFdkgRz2aTmSA9f9k", "types": ["point_of_interest", "establishment"]}, "ChIJHdB2JisFdkgRG1mqctiTDPU": {"geometry": {"location": {"lat": 51.5143441, "lng": -0.1447515}, "viewport": {"northeast": {"lat": 51.5156938802915, "lng": -0.143018119708498}, "southwest": {"lat": 51.5129959197085, "lng": -0.145716080291502}}}, "name": "CPR LDN (Creative Print Run London Ltd)", "place_id": "ChIJHdB2JisFdkgRG1mqctiTDPU", "types": ["point_of_interest", "store", "establishment"]}, "ChIJ7aQXJisFdkgR4esLmgYijzg": {"geometry": {"location": {"lat": 51.51435859999999, "lng": -0.1446009}, "viewport": {"northeast": {"lat": 51.5156938802915, "lng": -0.142942819708498}, "southwest": {"lat": 51.5129959197085, "lng": -0.145640780291502}}}, "name": "40SOUTH ENERGY LIMITED", "place_id": "ChIJ7aQXJisFdkgR4esLmgYijzg", "types": ["point_of_interest", "establishment"]}, "ChIJC1MqLisFdkgRo6ecdMY-BCc": {"geometry": {"location": {"lat": 51.5143645, "lng": -0.1445712}, "viewport": {"northeast": {"lat": 51.5156938802915, "lng": -0.142927969708498}, "southwest": {"lat": 51.5129959197085, "lng": -0.145625930291502}}}, "name": "askOSD LLP", "place_id": "ChIJC1MqLisFdkgRo6ecdMY-BCc", "types": ["point_of_interest", "establishment"]}, "ChIJLdB-7sBsdkgRQfeZ79xnfj4": {"geometry": {"location": {"lat": 51.51426730000001, "lng": -0.1446}, "viewport": {"northeast": {"lat": 51.51568793029149, "lng": -0.142955269708498}, "southwest": {"lat": 51.51298996970849, "lng": -0.145653230291502}}}, "name": "Gulfvisa", "place_id": "ChIJLdB-7sBsdkgRQfeZ79xnfj4", "types": ["travel_agency", "point_of_interest", "establishment"], "rating": 4.9, "user_ratings_total": 157}, "ChIJSSgYJisFdkgR-h4HVVOZaFk": {"geometry": {"location": {"lat": 51.51455619999999, "lng": -0.1438838}, "viewport": {"northeast": {"lat": 51.5158887802915, "lng": -0.142623769708498}, "southwest": {"lat": 51.5131908197085, "lng": -0.145321730291502}}}, "name": "Absolute Workspace ltd", "place_id": "ChIJSSgYJisFdkgR-h4HVVOZaFk", "types": ["general_contractor", "point_of_interest", "establishment"]}, "ChIJS0FVwCoFdkgRPC_DZla5DRY": {"geometry": {"location": {"lat": 51.5143922, "lng": -0.1441256}, "viewport": {"northeast": {"lat": 51.5158889302915, "lng": -0.142787869708498}, "southwest": {"lat": 51.5131909697085, "lng": -0.145485830291502}}}, "name": "AiDS Orphan", "place_id": "ChIJS0FVwCoFdkgRPC_DZla5DRY", "types": ["point_of_interest", "establishment"], "rating": 5, "user_ratings_total": 1}, "ChIJN5bL2CoFdkgR5m0xv24A0ds": {"geometry": {"location": {"lat": 51.51439250000001, "lng": -0.1441249}, "viewport": {"northeast": {"lat": 51.5158890802915, "lng": -0.142787869708498}, "southwest": {"lat": 51.5131911197085, "lng": -0.145485830291502}}}, "name": "Reeves Projects Ltd", "place_id": "ChIJN5bL2CoFdkgR5m0xv24A0ds", "types": ["general_contractor", "point_of_interest", "establishment"]}, "ChIJy9UF2yoFdkgRmpbXgq6pLfE": {"geometry": {"location": {"lat": 51.5143858, "lng": -0.144293}, "viewport": {"northeast": {"lat": 51.5158857302915, "lng": -0.142807569708498}, "southwest": {"lat": 51.5131877697085, "lng": -0.145505530291502}}}, "name": "Brains Software", "place_id": "ChIJy9UF2yoFdkgRmpbXgq6pLfE", "types": ["point_of_interest", "establishment"]}, "ChIJ07e8Y8APdkgRutqssKiCSA4": {"geometry": {"location": {"lat": 51.5143858, "lng": -0.144293}, "viewport": {"northeast": {"lat": 51.5158857302915, "lng": -0.142807569708498}, "southwest": {"lat": 51.5131877697085, "lng": -0.145505530291502}}}, "name": "Dominic Payte", "place_id": "ChIJ07e8Y8APdkgRutqssKiCSA4", "types": ["general_contractor", "point_of_interest", "establishment"], "rating": 5, "user_ratings_total": 1}, "ChIJ5aFXIisFdkgROXaUIxdTFt4": {"geometry": {"location": {"lat": 51.5143858, "lng": -0.144293}, "viewport": {"northeast": {"lat": 51.5158857302915, "lng": -0.142807569708498}, "southwest": {"lat": 51.5131877697085, "lng": -0.145505530291502}}}, "name": "Television Affairs Consultancy Limited", "place_id": "ChIJ5aFXIisFdkgROXaUIxdTFt4", "types": ["point_of_interest", "establishment"]}, "ChIJOfgtLysFdkgRLDGcRdSdzJg": {"geometry": {"location": {"lat": 51.5143858, "lng": -0.144293}, "viewport": {"northeast": {"lat": 51.5158857302915, "lng": -0.142807569708498}, "southwest": {"lat": 51.5131877697085, "lng": -0.145505530291502}}}, "name": "TechFocus Consulting", "place_id": "ChIJOfgtLysFdkgRLDGcRdSdzJg", "types": ["point_of_interest", "establishment"]}, "ChIJye-NJSsFdkgRqWmc_tdK_Bc": {"geometry": {"location": {"lat": 51.5143413, "lng": -0.1444316}, "viewport": {"northeast": {"lat": 51.5156938802915, "lng": -0.142858169708498}, "southwest": {"lat": 51.5129959197085, "lng": -0.145556130291502}}}, "name": "MACOM Consulting Ltd", "place_id": "ChIJye-NJSsFdkgRqWmc_tdK_Bc", "types": ["point_of_interest", "establishment"]}, "ChIJO7sf4PYPdkgRzRPub0HtBUs": {"geometry": {"location": {"lat": 51.514358, "lng": -0.1444282}, "viewport": {"northeast": {"lat": 51.5156935802915, "lng": -0.142855819708498}, "southwest": {"lat": 51.5129956197085, "lng": -0.145553780291502}}}, "name": "Negentropy Capital Partners Limited", "place_id": "ChIJO7sf4PYPdkgRzRPub0HtBUs", "types": ["finance", "point_of_interest", "establishment"]}, "ChIJAQAMLysFdkgRveL8Q3Jt3g0": {"geometry": {"location": {"lat": 51.51436459999999, "lng": -0.1444332}, "viewport": {"northeast": {"lat": 51.5156938802915, "lng": -0.142858969708498}, "southwest": {"lat": 51.5129959197085, "lng": -0.145556930291502}}}, "name": "Flare Path", "place_id": "ChIJAQAMLysFdkgRveL8Q3Jt3g0", "types": ["finance", "point_of_interest", "establishment"]}, "ChIJAQAMLysFdkgRKTBlJGgVnaY": {"geometry": {"location": {"lat": 51.51436459999999, "lng": -0.1444332}, "viewport": {"northeast": {"lat": 51.5156938802915, "lng": -0.142858969708498}, "southwest": {"lat": 51.5129959197085, "lng": -0.145556930291502}}}, "name": "Casper Douglas Solutions", "place_id": "ChIJAQAMLysFdkgRKTBlJGgVnaY", "types": ["point_of_interest", "establishment"]}, "ChIJMdSgLysFdkgRRHeRw_ulGFE": {"geometry": {"location": {"lat": 51.514384, "lng": -0.144436}, "viewport": {"northeast": {"lat": 51.5156987302915, "lng": -0.142860369708498}, "southwest": {"lat": 51.5130007697085, "lng": -0.145558330291502}}}, "name": "Time Retail Partners", "place_id": "ChIJMdSgLysFdkgRRHeRw_ulGFE", "types": ["finance", "real_estate_agency", "point_of_interest", "establishment"]}, "ChIJKaYILysFdkgRHo_giWolvrM": {"geometry": {"location": {"lat": 51.5143844, "lng": -0.1444363}, "viewport": {"northeast": {"lat": 51.5156989302915, "lng": -0.142860519708498}, "southwest": {"lat": 51.5130009697085, "lng": -0.145558480291502}}}, "name": "VADO Group", "place_id": "ChIJKaYILysFdkgRHo_giWolvrM", "types": ["point_of_interest", "establishment"], "rating": 5, "user_ratings_total": 1}, "ChIJKaYILysFdkgRpzTOJWW5jTY": {"geometry": {"location": {"lat": 51.5143844, "lng": -0.1444363}, "viewport": {"northeast": {"lat": 51.5156989302915, "lng": -0.142860519708498}, "southwest": {"lat": 51.5130009697085, "lng": -0.145558480291502}}}, "name": "Casper Douglas Properties", "place_id": "ChIJKaYILysFdkgRpzTOJWW5jTY", "types": ["point_of_interest", "establishment"]}, "ChIJKaYILysFdkgRtV7Azn8d0rU": {"geometry": {"location": {"lat": 51.5143844, "lng": -0.1444363}, "viewport": {"northeast": {"lat": 51.5156989302915, "lng": -0.142860519708498}, "southwest": {"lat": 51.5130009697085, "lng": -0.145558480291502}}}, "name": "Movinhand", "place_id": "ChIJKaYILysFdkgRtV7Azn8d0rU", "types": ["point_of_interest", "establishment"], "rating": 5, "user_ratings_total": 2}, "ChIJMdSgLysFdkgRJ3lf21wCZso": {"geometry": {"location": {"lat": 51.5143635, "lng": -0.1444669}, "viewport": {"northeast": {"lat": 51.5157124802915, "lng": -0.143117919708498}, "southwest": {"lat": 51.51301451970851, "lng": -0.145815880291502}}}, "name": "BCS LTD", "place_id": "ChIJMdSgLysFdkgRJ3lf21wCZso", "types": ["point_of_interest", "establishment"]}, "ChIJSSgYJisFdkgRfnwpoFTZUes": {"geometry": {"location": {"lat": 51.5145329, "lng": -0.144274}, "viewport": {"northeast": {"lat": 51.5159592802915, "lng": -0.142829519708498}, "southwest": {"lat": 51.5132613197085, "lng": -0.145527480291502}}}, "name": "UNICASA INTERNATIONAL LIMITED", "place_id": "ChIJSSgYJisFdkgRfnwpoFTZUes", "types": ["point_of_interest", "establishment"]}, "ChIJ7UPFLysFdkgRZMkjpQO3Df0": {"geometry": {"location": {"lat": 51.5145329, "lng": -0.144274}, "viewport": {"northeast": {"lat": 51.5159592802915, "lng": -0.142829519708498}, "southwest": {"lat": 51.5132613197085, "lng": -0.145527480291502}}}, "name": "Mayfair Worldwide Ltd", "place_id": "ChIJ7UPFLysFdkgRZMkjpQO3Df0", "types": ["finance", "point_of_interest", "establishment"]}, "ChIJXUZr4jUadkgR8mr4i1eRLRo": {"geometry": {"location": {"lat": 51.51434789999999, "lng": -0.1445363}, "viewport": {"northeast": {"lat": 51.5156938802915, "lng": -0.142910519708498}, "southwest": {"lat": 51.5129959197085, "lng": -0.145608480291502}}}, "name": "The Graham Agency", "place_id": "ChIJXUZr4jUadkgR8mr4i1eRLRo", "types": ["point_of_interest", "establishment"], "rating": 3.6, "user_ratings_total": 41}, "ChIJoevcLysFdkgRb5a3cLehjtY": {"geometry": {"location": {"lat": 51.5143563, "lng": -0.1445484}, "viewport": {"northeast": {"lat": 51.5156938802915, "lng": -0.142916569708498}, "southwest": {"lat": 51.5129959197085, "lng": -0.145614530291502}}}, "name": "My Signature Style", "place_id": "ChIJoevcLysFdkgRb5a3cLehjtY", "types": ["point_of_interest", "establishment"], "rating": 5, "user_ratings_total": 2}, "ChIJA_A71ioFdkgRHj7_-moK4Bc": {"geometry": {"location": {"lat": 51.514486, "lng": -0.1438395}, "viewport": {"northeast": {"lat": 51.5158384302915, "lng": -0.142584419708498}, "southwest": {"lat": 51.5131404697085, "lng": -0.145282380291502}}}, "name": "Tamil Shout", "place_id": "ChIJA_A71ioFdkgRHj7_-moK4Bc", "types": ["point_of_interest", "establishment"]}, "ChIJoc_LLysFdkgRNZYnpjthRsw": {"geometry": {"location": {"lat": 51.5143645, "lng": -0.1445712}, "viewport": {"northeast": {"lat": 51.5157134802915, "lng": -0.143222219708498}, "southwest": {"lat": 51.5130155197085, "lng": -0.145920180291502}}}, "name": "UK Work Adviser", "place_id": "ChIJoc_LLysFdkgRNZYnpjthRsw", "types": ["point_of_interest", "establishment"]}, "ChIJywmggn4FdkgRjMChpu6779I": {"geometry": {"location": {"lat": 51.51437199999999, "lng": -0.1445762}, "viewport": {"northeast": {"lat": 51.5156938802915, "lng": -0.142930469708498}, "southwest": {"lat": 51.5129959197085, "lng": -0.145628430291502}}}, "name": "Tifosy", "place_id": "ChIJywmggn4FdkgRjMChpu6779I", "types": ["finance", "point_of_interest", "establishment"]}, "ChIJWUARm9YEdkgR3kpqF0RA6ek": {"geometry": {"location": {"lat": 51.51437199999999, "lng": -0.1445762}, "viewport": {"northeast": {"lat": 51.5156935802915, "lng": -0.142929819708498}, "southwest": {"lat": 51.5129956197085, "lng": -0.145627780291502}}}, "name": "Virtual Headquarters", "place_id": "ChIJWUARm9YEdkgR3kpqF0RA6ek", "types": ["real_estate_agency", "point_of_interest", "establishment"]}, "ChIJHdB2JisFdkgRpLKCJvvV6Zw": {"geometry": {"location": {"lat": 51.5143097, "lng": -0.1447782}, "viewport": {"northeast": {"lat": 51.5156909802915, "lng": -0.143031469708498}, "southwest": {"lat": 51.5129930197085, "lng": -0.145729430291502}}}, "name": "Access Scaffolding Services", "place_id": "ChIJHdB2JisFdkgRpLKCJvvV6Zw", "types": ["point_of_interest", "establishment"]}, "ChIJMdSgLysFdkgRvt-aJburge0": {"geometry": {"location": {"lat": 51.5143938, "lng": -0.1445788}, "viewport": {"northeast": {"lat": 51.5157036302915, "lng": -0.142931769708498}, "southwest": {"lat": 51.51300566970851, "lng": -0.145629730291502}}}, "name": "J D Retail Property", "place_id": "ChIJMdSgLysFdkgRvt-aJburge0", "types": ["general_contractor", "point_of_interest", "establishment"]}, "ChIJMdSgLysFdkgR_zf-l36HfMY": {"geometry": {"location": {"lat": 51.5143938, "lng": -0.1445788}, "viewport": {"northeast": {"lat": 51.5157036302915, "lng": -0.142931769708498}, "southwest": {"lat": 51.51300566970851, "lng": -0.145629730291502}}}, "name": "Abbott Management Ltd", "place_id": "ChIJMdSgLysFdkgR_zf-l36HfMY", "types": ["real_estate_agency", "point_of_interest", "establishment"], "rating": 1.3, "user_ratings_total": 4}, "ChIJ9Ww7RVYxcEERDbLzVjZF5aM": {"geometry": {"location": {"lat": 51.5145024, "lng": -0.1438227}, "viewport": {"northeast": {"lat": 51.5158445302915, "lng": -0.1425789197084979}, "southwest": {"lat": 51.5131465697085, "lng": -0.145276880291502}}}, "name": "Gordon Brothers", "place_id": "ChIJ9Ww7RVYxcEERDbLzVjZF5aM", "types": ["finance", "point_of_interest", "establishment"]}, "ChIJ70PFLysFdkgRxvk9HD-CJv0": {"geometry": {"location": {"lat": 51.5143813, "lng": -0.1445897}, "viewport": {"northeast": {"lat": 51.51569738029151, "lng": -0.142937219708498}, "southwest": {"lat": 51.51299941970851, "lng": -0.145635180291502}}}, "name": "I-Style Consultancy Limited", "place_id": "ChIJ70PFLysFdkgRxvk9HD-CJv0", "types": ["point_of_interest", "store", "establishment"]}, "ChIJ8UPFLysFdkgRQmEJMOtSCIc": {"geometry": {"location": {"lat": 51.5143813, "lng": -0.1445898}, "viewport": {"northeast": {"lat": 51.51569738029151, "lng": -0.142937269708498}, "southwest": {"lat": 51.51299941970851, "lng": -0.145635230291502}}}, "name": "Cardinal Lysander Ltd", "place_id": "ChIJ8UPFLysFdkgRQmEJMOtSCIc", "types": ["point_of_interest", "establishment"]}, "ChIJm7waeUC4cEgRcTR1Kx3Bo9k": {"geometry": {"location": {"lat": 51.5143813, "lng": -0.1445898}, "viewport": {"northeast": {"lat": 51.51569738029151, "lng": -0.142937269708498}, "southwest": {"lat": 51.51299941970851, "lng": -0.145635230291502}}}, "name": "Sach Capital Limited", "place_id": "ChIJm7waeUC4cEgRcTR1Kx3Bo9k", "types": ["finance", "point_of_interest", "establishment"]}, "ChIJoevcLysFdkgRxfd0C110BoM": {"geometry": {"location": {"lat": 51.51435859999999, "lng": -0.1446009}, "viewport": {"northeast": {"lat": 51.5156938802915, "lng": -0.142942819708498}, "southwest": {"lat": 51.5129959197085, "lng": -0.145640780291502}}}, "name": "Solang & Hansen Limited", "place_id": "ChIJoevcLysFdkgRxfd0C110BoM", "types": ["point_of_interest", "establishment"]}, "ChIJoevcLysFdkgRmQMhZHnuNn4": {"geometry": {"location": {"lat": 51.51435859999999, "lng": -0.1446009}, "viewport": {"northeast": {"lat": 51.5156938802915, "lng": -0.142942819708498}, "southwest": {"lat": 51.5129959197085, "lng": -0.145640780291502}}}, "name": "FDM RE", "place_id": "ChIJoevcLysFdkgRmQMhZHnuNn4", "types": ["point_of_interest", "establishment"]}, "ChIJoevcLysFdkgRsXcok57sFBM": {"geometry": {"location": {"lat": 51.51435859999999, "lng": -0.1446009}, "viewport": {"northeast": {"lat": 51.5156938802915, "lng": -0.142942819708498}, "southwest": {"lat": 51.5129959197085, "lng": -0.145640780291502}}}, "name": "CITY EXECUTIVE CLUB", "place_id": "ChIJoevcLysFdkgRsXcok57sFBM", "types": ["point_of_interest", "establishment"]}, "ChIJSSgYJisFdkgRzlKvvsKI4YI": {"geometry": {"location": {"lat": 51.51435859999999, "lng": -0.1446009}, "viewport": {"northeast": {"lat": 51.5156938802915, "lng": -0.142942819708498}, "southwest": {"lat": 51.5129959197085, "lng": -0.145640780291502}}}, "name": "Vischarge", "place_id": "ChIJSSgYJisFdkgRzlKvvsKI4YI", "types": ["point_of_interest", "establishment"], "rating": 3.7, "user_ratings_total": 6}, "ChIJoevcLysFdkgRxpfGDzN9DtM": {"geometry": {"location": {"lat": 51.51435859999999, "lng": -0.1446009}, "viewport": {"northeast": {"lat": 51.5156938802915, "lng": -0.142942819708498}, "southwest": {"lat": 51.5129959197085, "lng": -0.145640780291502}}}, "name": "www.Moveplot.co.uk", "place_id": "ChIJoevcLysFdkgRxpfGDzN9DtM", "types": ["real_estate_agency", "point_of_interest", "establishment"]}, "ChIJB2KjhzgFdkgRqAHEhSusJ5U": {"geometry": {"location": {"lat": 51.5145525, "lng": -0.143878}, "viewport": {"northeast": {"lat": 51.5158847302915, "lng": -0.142619819708498}, "southwest": {"lat": 51.5131867697085, "lng": -0.1453177802915021}}}, "name": "Eco Energy World", "place_id": "ChIJB2KjhzgFdkgRqAHEhSusJ5U", "types": ["point_of_interest", "establishment"]}, "ChIJ81n_giwFdkgRmsnnelkl8Ao": {"geometry": {"location": {"lat": 51.51455619999999, "lng": -0.1438838}, "viewport": {"northeast": {"lat": 51.5158887802915, "lng": -0.142623769708498}, "southwest": {"lat": 51.5131908197085, "lng": -0.145321730291502}}}, "name": "Kalido Private Office", "place_id": "ChIJ81n_giwFdkgRmsnnelkl8Ao", "types": ["lawyer", "finance", "point_of_interest", "establishment"], "rating": 5, "user_ratings_total": 1}, "ChIJa2AWFysFdkgRUxZe4AofZiM": {"geometry": {"location": {"lat": 51.51341395017995, "lng": -0.1444845501574068}, "viewport": {"northeast": {"lat": 51.5147629302915, "lng": -0.143135569708498}, "southwest": {"lat": 51.5120649697085, "lng": -0.145833530291502}}}, "name": "Brook Street", "place_id": "ChIJa2AWFysFdkgRUxZe4AofZiM", "types": ["route"]}, "ChIJq7qT6CoFdkgRJ0UTXHADkoE": {"geometry": {"location": {"lat": 51.5130451, "lng": -0.1436878}, "viewport": {"northeast": {"lat": 51.5144213802915, "lng": -0.142220819708498}, "southwest": {"lat": 51.5117234197085, "lng": -0.144918780291502}}}, "name": "Embassy of Mexico", "place_id": "ChIJq7qT6CoFdkgRJ0UTXHADkoE", "types": ["embassy", "point_of_interest", "establishment"], "rating": 4.1, "user_ratings_total": 51}, "ChIJnSvn4SoFdkgRkPpqkoQ6rDo": {"geometry": {"location": {"lat": 51.51323119999999, "lng": -0.1439362}, "viewport": {"northeast": {"lat": 51.51468293029149, "lng": -0.1426300697084979}, "southwest": {"lat": 51.51198496970849, "lng": -0.145328030291502}}}, "name": "Wright & Partners", "place_id": "ChIJnSvn4SoFdkgRkPpqkoQ6rDo", "types": ["real_estate_agency", "point_of_interest", "establishment"]}, "ChIJuXFd4CoFdkgRhHrPsXQnyi0": {"geometry": {"location": {"lat": 51.5132996, "lng": -0.1438096}, "viewport": {"northeast": {"lat": 51.5147609802915, "lng": -0.142448119708498}, "southwest": {"lat": 51.5120630197085, "lng": -0.145146080291502}}}, "name": "Ten Health & Fitness Mayfair", "place_id": "ChIJuXFd4CoFdkgRhHrPsXQnyi0", "types": ["physiotherapist", "gym", "health", "point_of_interest", "establishment"], "rating": 4.7, "user_ratings_total": 64}, "ChIJJWoe6dQEdkgRxTQDLLEBAoY": {"geometry": {"location": {"lat": 51.51331, "lng": -0.143942}, "viewport": {"northeast": {"lat": 51.5147241802915, "lng": -0.142624719708498}, "southwest": {"lat": 51.5120262197085, "lng": -0.145322680291502}}}, "name": "NP6", "place_id": "ChIJJWoe6dQEdkgRxTQDLLEBAoY", "types": ["point_of_interest", "establishment"]}, "ChIJ32fwHSsFdkgRxY32YC6YUas": {"geometry": {"location": {"lat": 51.51323589999999, "lng": -0.1439449}, "viewport": {"northeast": {"lat": 51.51468528029149, "lng": -0.1426344197084979}, "southwest": {"lat": 51.5119873197085, "lng": -0.145332380291502}}}, "name": "Right Track Records & Distribution", "place_id": "ChIJ32fwHSsFdkgRxY32YC6YUas", "types": ["electronics_store", "home_goods_store", "point_of_interest", "store", "establishment"], "rating": 5, "user_ratings_total": 1}, "ChIJ32fwHSsFdkgR8PhNWKDdObg": {"geometry": {"location": {"lat": 51.51323119999999, "lng": -0.1439362}, "viewport": {"northeast": {"lat": 51.51468293029149, "lng": -0.1426300697084979}, "southwest": {"lat": 51.51198496970849, "lng": -0.145328030291502}}}, "name": "Brown McLeod", "place_id": "ChIJ32fwHSsFdkgR8PhNWKDdObg", "types": ["accounting", "finance", "point_of_interest", "establishment"]}, "ChIJASWpHSsFdkgRWizLHrAYAX0": {"geometry": {"location": {"lat": 51.51331, "lng": -0.143942}, "viewport": {"northeast": {"lat": 51.5147241802915, "lng": -0.142624719708498}, "southwest": {"lat": 51.5120262197085, "lng": -0.145322680291502}}}, "name": "TLC Property Asset Management Ltd", "place_id": "ChIJASWpHSsFdkgRWizLHrAYAX0", "types": ["point_of_interest", "establishment"]}, "ChIJASWpHSsFdkgRj3BlC42cy7o": {"geometry": {"location": {"lat": 51.51331, "lng": -0.143942}, "viewport": {"northeast": {"lat": 51.5147241802915, "lng": -0.142624719708498}, "southwest": {"lat": 51.5120262197085, "lng": -0.145322680291502}}}, "name": "Clarendon House Capital", "place_id": "ChIJASWpHSsFdkgRj3BlC42cy7o", "types": ["point_of_interest", "establishment"]}, "ChIJfep1HCsFdkgRGxryJ_KIlqA": {"geometry": {"location": {"lat": 51.51331, "lng": -0.143942}, "viewport": {"northeast": {"lat": 51.5147241802915, "lng": -0.142624719708498}, "southwest": {"lat": 51.5120262197085, "lng": -0.145322680291502}}}, "name": "Rob White Security Ltd", "place_id": "ChIJfep1HCsFdkgRGxryJ_KIlqA", "types": ["point_of_interest", "establishment"]}, "ChIJTZSCHisFdkgRRuXN6KoFYKg": {"geometry": {"location": {"lat": 51.51331, "lng": -0.143942}, "viewport": {"northeast": {"lat": 51.5147241802915, "lng": -0.142624719708498}, "southwest": {"lat": 51.5120262197085, "lng": -0.145322680291502}}}, "name": "Giovanni Beruccio of London LTD", "place_id": "ChIJTZSCHisFdkgRRuXN6KoFYKg", "types": ["point_of_interest", "establishment"]}, "ChIJPZqgHisFdkgRxXEe4DqDoyM": {"geometry": {"location": {"lat": 51.51331, "lng": -0.143942}, "viewport": {"northeast": {"lat": 51.5147241802915, "lng": -0.142624719708498}, "southwest": {"lat": 51.5120262197085, "lng": -0.145322680291502}}}, "name": "StayPrivate", "place_id": "ChIJPZqgHisFdkgRxXEe4DqDoyM", "types": ["point_of_interest", "establishment"]}, "ChIJASWpHSsFdkgRkJSmNw9hkoU": {"geometry": {"location": {"lat": 51.51331, "lng": -0.143942}, "viewport": {"northeast": {"lat": 51.5147222802915, "lng": -0.142643169708498}, "southwest": {"lat": 51.5120243197085, "lng": -0.145341130291502}}}, "name": "Adaptive Neural Biometrics Ltd.", "place_id": "ChIJASWpHSsFdkgRkJSmNw9hkoU", "types": ["point_of_interest", "establishment"]}, "ChIJASWpHSsFdkgRlKvfXR82wEY": {"geometry": {"location": {"lat": 51.51331, "lng": -0.143942}, "viewport": {"northeast": {"lat": 51.5147241802915, "lng": -0.142624719708498}, "southwest": {"lat": 51.5120262197085, "lng": -0.145322680291502}}}, "name": "anuua Ltd", "place_id": "ChIJASWpHSsFdkgRlKvfXR82wEY", "types": ["point_of_interest", "establishment"]}, "ChIJTZSCHisFdkgRYYf3TvBraPM": {"geometry": {"location": {"lat": 51.51331, "lng": -0.143942}, "viewport": {"northeast": {"lat": 51.5147241802915, "lng": -0.142624719708498}, "southwest": {"lat": 51.5120262197085, "lng": -0.145322680291502}}}, "name": "Tank Financial", "place_id": "ChIJTZSCHisFdkgRYYf3TvBraPM", "types": ["real_estate_agency", "point_of_interest", "establishment"]}, "ChIJTZSCHisFdkgRQJTvnt1LDkI": {"geometry": {"location": {"lat": 51.51331, "lng": -0.143942}, "viewport": {"northeast": {"lat": 51.5147241802915, "lng": -0.142624719708498}, "southwest": {"lat": 51.5120262197085, "lng": -0.145322680291502}}}, "name": "Startup Empire", "place_id": "ChIJTZSCHisFdkgRQJTvnt1LDkI", "types": ["point_of_interest", "establishment"]}, "ChIJTZSCHisFdkgRkJ5IPLc1ayM": {"geometry": {"location": {"lat": 51.51331, "lng": -0.143942}, "viewport": {"northeast": {"lat": 51.5147241802915, "lng": -0.142624719708498}, "southwest": {"lat": 51.5120262197085, "lng": -0.145322680291502}}}, "name": "Mannai Technological Facilitations W.L.L.", "place_id": "ChIJTZSCHisFdkgRkJ5IPLc1ayM", "types": ["point_of_interest", "establishment"]}, "ChIJAyWpHSsFdkgRnJRISPOP3OU": {"geometry": {"location": {"lat": 51.51331, "lng": -0.143942}, "viewport": {"northeast": {"lat": 51.5147241802915, "lng": -0.142624719708498}, "southwest": {"lat": 51.5120262197085, "lng": -0.145322680291502}}}, "name": "Appirio London Office", "place_id": "ChIJAyWpHSsFdkgRnJRISPOP3OU", "types": ["point_of_interest", "establishment"]}, "ChIJASWpHSsFdkgRgo0HRow8uRw": {"geometry": {"location": {"lat": 51.51331, "lng": -0.143942}, "viewport": {"northeast": {"lat": 51.5147241802915, "lng": -0.142624719708498}, "southwest": {"lat": 51.5120262197085, "lng": -0.145322680291502}}}, "name": "Battalion Security", "place_id": "ChIJASWpHSsFdkgRgo0HRow8uRw", "types": ["point_of_interest", "establishment"]}, "ChIJASWpHSsFdkgRQsnRLIFbwgM": {"geometry": {"location": {"lat": 51.51331, "lng": -0.143942}, "viewport": {"northeast": {"lat": 51.5147241802915, "lng": -0.142624719708498}, "southwest": {"lat": 51.5120262197085, "lng": -0.145322680291502}}}, "name": "A & Co Lifestyle", "place_id": "ChIJASWpHSsFdkgRQsnRLIFbwgM", "types": ["point_of_interest", "establishment"]}, "ChIJASWpHSsFdkgRaL1wRdDu9r4": {"geometry": {"location": {"lat": 51.51331, "lng": -0.143942}, "viewport": {"northeast": {"lat": 51.5147241802915, "lng": -0.142624719708498}, "southwest": {"lat": 51.5120262197085, "lng": -0.145322680291502}}}, "name": "Skadman and Co Law", "place_id": "ChIJASWpHSsFdkgRaL1wRdDu9r4", "types": ["point_of_interest", "establishment"]}, "ChIJASWpHSsFdkgRLbEOQ36_7cc": {"geometry": {"location": {"lat": 51.51331, "lng": -0.143942}, "viewport": {"northeast": {"lat": 51.5147241802915, "lng": -0.142624719708498}, "southwest": {"lat": 51.5120262197085, "lng": -0.145322680291502}}}, "name": "Rockwell Property", "place_id": "ChIJASWpHSsFdkgRLbEOQ36_7cc", "types": ["general_contractor", "point_of_interest", "establishment"]}, "ChIJASWpHSsFdkgRP-R8DbiSH2I": {"geometry": {"location": {"lat": 51.51331, "lng": -0.143942}, "viewport": {"northeast": {"lat": 51.5147241802915, "lng": -0.142624719708498}, "southwest": {"lat": 51.5120262197085, "lng": -0.145322680291502}}}, "name": "Helpful Marketing", "place_id": "ChIJASWpHSsFdkgRP-R8DbiSH2I", "types": ["point_of_interest", "establishment"]}, "ChIJAyWpHSsFdkgRMmMpv2nq63Q": {"geometry": {"location": {"lat": 51.51331, "lng": -0.143942}, "viewport": {"northeast": {"lat": 51.5147241802915, "lng": -0.142624719708498}, "southwest": {"lat": 51.5120262197085, "lng": -0.145322680291502}}}, "name": "Omni Capital Partners Ltd", "place_id": "ChIJAyWpHSsFdkgRMmMpv2nq63Q", "types": ["finance", "point_of_interest", "establishment"]}, "ChIJAyWpHSsFdkgRy9KbUg6M4HQ": {"geometry": {"location": {"lat": 51.51331, "lng": -0.143942}, "viewport": {"northeast": {"lat": 51.5147241802915, "lng": -0.142624719708498}, "southwest": {"lat": 51.5120262197085, "lng": -0.145322680291502}}}, "name": "Project Resource", "place_id": "ChIJAyWpHSsFdkgRy9KbUg6M4HQ", "types": ["point_of_interest", "establishment"]}, "ChIJAyWpHSsFdkgReFPIixGfpCM": {"geometry": {"location": {"lat": 51.51331, "lng": -0.143942}, "viewport": {"northeast": {"lat": 51.5147241802915, "lng": -0.142624719708498}, "southwest": {"lat": 51.5120262197085, "lng": -0.145322680291502}}}, "name": "Caldes", "place_id": "ChIJAyWpHSsFdkgReFPIixGfpCM", "types": ["point_of_interest", "establishment"]}, "ChIJASWpHSsFdkgR3wTFFAQeUHw": {"geometry": {"location": {"lat": 51.51331, "lng": -0.143942}, "viewport": {"northeast": {"lat": 51.5147241802915, "lng": -0.142624719708498}, "southwest": {"lat": 51.5120262197085, "lng": -0.145322680291502}}}, "name": "European Business Group", "place_id": "ChIJASWpHSsFdkgR3wTFFAQeUHw", "types": ["point_of_interest", "establishment"]}, "ChIJASWpHSsFdkgRMwwAnEaihGc": {"geometry": {"location": {"lat": 51.51331, "lng": -0.143942}, "viewport": {"northeast": {"lat": 51.5147241802915, "lng": -0.142624719708498}, "southwest": {"lat": 51.5120262197085, "lng": -0.145322680291502}}}, "name": "capital futures", "place_id": "ChIJASWpHSsFdkgRMwwAnEaihGc", "types": ["finance", "point_of_interest", "establishment"]}, "ChIJV3PxHysFdkgR-ioKuGDeFL0": {"geometry": {"location": {"lat": 51.51331, "lng": -0.143942}, "viewport": {"northeast": {"lat": 51.5147241802915, "lng": -0.142624719708498}, "southwest": {"lat": 51.5120262197085, "lng": -0.145322680291502}}}, "name": "I 2 Office", "place_id": "ChIJV3PxHysFdkgR-ioKuGDeFL0", "types": ["point_of_interest", "establishment"]}, "ChIJlUuIHCsFdkgRc0CHERfKSgI": {"geometry": {"location": {"lat": 51.51331, "lng": -0.143942}, "viewport": {"northeast": {"lat": 51.5147241802915, "lng": -0.142624719708498}, "southwest": {"lat": 51.5120262197085, "lng": -0.145322680291502}}}, "name": "Oaktree Interiors Ltd", "place_id": "ChIJlUuIHCsFdkgRc0CHERfKSgI", "types": ["general_contractor", "point_of_interest", "establishment"], "rating": 5, "user_ratings_total": 1}, "ChIJy-JSHCsFdkgRsCJMC8pUjvU": {"geometry": {"location": {"lat": 51.51331, "lng": -0.143942}, "viewport": {"northeast": {"lat": 51.5147241802915, "lng": -0.142624719708498}, "southwest": {"lat": 51.5120262197085, "lng": -0.145322680291502}}}, "name": "Bellgravia", "place_id": "ChIJy-JSHCsFdkgRsCJMC8pUjvU", "types": ["real_estate_agency", "point_of_interest", "establishment"]}, "ChIJh_nxq8BqdkgRJC-pgMPQfa8": {"geometry": {"location": {"lat": 51.51331, "lng": -0.143942}, "viewport": {"northeast": {"lat": 51.5147241802915, "lng": -0.142624719708498}, "southwest": {"lat": 51.5120262197085, "lng": -0.145322680291502}}}, "name": "Fortwell Capital Limited", "place_id": "ChIJh_nxq8BqdkgRJC-pgMPQfa8", "types": ["finance", "point_of_interest", "establishment"]}, "ChIJV3PxHysFdkgRg_tk2F2jzqc": {"geometry": {"location": {"lat": 51.51331, "lng": -0.143942}, "viewport": {"northeast": {"lat": 51.5147241802915, "lng": -0.142624719708498}, "southwest": {"lat": 51.5120262197085, "lng": -0.145322680291502}}}, "name": "Swift Locksmith London", "place_id": "ChIJV3PxHysFdkgRg_tk2F2jzqc", "types": ["locksmith", "point_of_interest", "establishment"], "rating": 4, "user_ratings_total": 39}, "ChIJd3DjoZ0bcUgRv4-IInHL_mw": {"geometry": {"location": {"lat": 51.51331, "lng": -0.143942}, "viewport": {"northeast": {"lat": 51.5147241802915, "lng": -0.142624719708498}, "southwest": {"lat": 51.5120262197085, "lng": -0.145322680291502}}}, "name": "Brompton Lettings", "place_id": "ChIJd3DjoZ0bcUgRv4-IInHL_mw", "types": ["real_estate_agency", "point_of_interest", "establishment"], "rating": 5, "user_ratings_total": 1}, "ChIJASWpHSsFdkgRx3IjqXTQwBc": {"geometry": {"location": {"lat": 51.51313, "lng": -0.14405}, "viewport": {"northeast": {"lat": 51.5146322802915, "lng": -0.142696169708498}, "southwest": {"lat": 51.5119343197085, "lng": -0.145394130291502}}}, "name": "Aspire Management", "place_id": "ChIJASWpHSsFdkgRx3IjqXTQwBc", "types": ["point_of_interest", "establishment"]}, "ChIJTZSCHisFdkgRzVZwHxqZFsQ": {"geometry": {"location": {"lat": 51.51331, "lng": -0.143942}, "viewport": {"northeast": {"lat": 51.5147241802915, "lng": -0.142624719708498}, "southwest": {"lat": 51.5120262197085, "lng": -0.145322680291502}}}, "name": "NOVEMBER FASHION GROUP", "place_id": "ChIJTZSCHisFdkgRzVZwHxqZFsQ", "types": ["point_of_interest", "establishment"]}, "ChIJsZWCHisFdkgRhaUXZkmhCo8": {"geometry": {"location": {"lat": 51.51331, "lng": -0.143942}, "viewport": {"northeast": {"lat": 51.5147241802915, "lng": -0.142624719708498}, "southwest": {"lat": 51.5120262197085, "lng": -0.145322680291502}}}, "name": "Astra Consrtruction Ltd", "place_id": "ChIJsZWCHisFdkgRhaUXZkmhCo8", "types": ["point_of_interest", "establishment"]}, "ChIJTZSCHisFdkgRiE8WUaedfOQ": {"geometry": {"location": {"lat": 51.51331, "lng": -0.143942}, "viewport": {"northeast": {"lat": 51.5147241802915, "lng": -0.142624719708498}, "southwest": {"lat": 51.5120262197085, "lng": -0.145322680291502}}}, "name": "JCA Interiors", "place_id": "ChIJTZSCHisFdkgRiE8WUaedfOQ", "types": ["general_contractor", "point_of_interest", "establishment"]}, "ChIJTZSCHisFdkgR7d95tIk5Y1Y": {"geometry": {"location": {"lat": 51.51331, "lng": -0.143942}, "viewport": {"northeast": {"lat": 51.5147241802915, "lng": -0.142624719708498}, "southwest": {"lat": 51.5120262197085, "lng": -0.145322680291502}}}, "name": "Savoy Partners UK Ltd.", "place_id": "ChIJTZSCHisFdkgR7d95tIk5Y1Y", "types": ["point_of_interest", "establishment"]}, "ChIJTZSCHisFdkgRstkOU9Q5ZBY": {"geometry": {"location": {"lat": 51.51331, "lng": -0.143942}, "viewport": {"northeast": {"lat": 51.5147241802915, "lng": -0.142624719708498}, "southwest": {"lat": 51.5120262197085, "lng": -0.145322680291502}}}, "name": "ICON", "place_id": "ChIJTZSCHisFdkgRstkOU9Q5ZBY", "types": ["point_of_interest", "establishment"]}, "ChIJASWpHSsFdkgRa5nFJioci5U": {"geometry": {"location": {"lat": 51.51331, "lng": -0.143942}, "viewport": {"northeast": {"lat": 51.5147241802915, "lng": -0.142624719708498}, "southwest": {"lat": 51.5120262197085, "lng": -0.145322680291502}}}, "name": "London Irish Partners", "place_id": "ChIJASWpHSsFdkgRa5nFJioci5U", "types": ["real_estate_agency", "point_of_interest", "establishment"]}, "ChIJAyWpHSsFdkgRVAEhN2z0jts": {"geometry": {"location": {"lat": 51.51331, "lng": -0.143942}, "viewport": {"northeast": {"lat": 51.5147241802915, "lng": -0.142624719708498}, "southwest": {"lat": 51.5120262197085, "lng": -0.145322680291502}}}, "name": "Go Find It", "place_id": "ChIJAyWpHSsFdkgRVAEhN2z0jts", "types": ["point_of_interest", "establishment"]}, "ChIJV3PxHysFdkgRzBZJP1EBn1M": {"geometry": {"location": {"lat": 51.51331, "lng": -0.143942}, "viewport": {"northeast": {"lat": 51.5147241802915, "lng": -0.142624719708498}, "southwest": {"lat": 51.5120262197085, "lng": -0.145322680291502}}}, "name": "Raaza Publications", "place_id": "ChIJV3PxHysFdkgRzBZJP1EBn1M", "types": ["point_of_interest", "establishment"], "rating": 5, "user_ratings_total": 1}, "ChIJfep1HCsFdkgRZx-SvywjY-k": {"geometry": {"location": {"lat": 51.5131124, "lng": -0.1442127}, "viewport": {"northeast": {"lat": 51.51462318029149, "lng": -0.142934469708498}, "southwest": {"lat": 51.5119252197085, "lng": -0.145632430291502}}}, "name": "ACHICA", "place_id": "ChIJfep1HCsFdkgRZx-SvywjY-k", "types": ["point_of_interest", "establishment"], "rating": 1.1, "user_ratings_total": 12}, "ChIJOSuIHCsFdkgR6kvONdTD-1c": {"geometry": {"location": {"lat": 51.5131115, "lng": -0.1442087}, "viewport": {"northeast": {"lat": 51.5146230302915, "lng": -0.142930819708498}, "southwest": {"lat": 51.5119250697085, "lng": -0.145628780291502}}}, "name": "AP Interior Ltd.", "place_id": "ChIJOSuIHCsFdkgR6kvONdTD-1c", "types": ["general_contractor", "point_of_interest", "establishment"]}, "ChIJ03mSHysFdkgRyQ5W_hzzIkU": {"geometry": {"location": {"lat": 51.5131115, "lng": -0.1442087}, "viewport": {"northeast": {"lat": 51.5146230302915, "lng": -0.142930819708498}, "southwest": {"lat": 51.5119250697085, "lng": -0.145628780291502}}}, "name": "The Legal Broker", "place_id": "ChIJ03mSHysFdkgRyQ5W_hzzIkU", "types": ["point_of_interest", "establishment"]}, "ChIJx2_eHysFdkgRLK6Ji28SLiY": {"geometry": {"location": {"lat": 51.5131063, "lng": -0.1442095}, "viewport": {"northeast": {"lat": 51.5146201802915, "lng": -0.142932619708498}, "southwest": {"lat": 51.5119222197085, "lng": -0.145630580291502}}}, "name": "The 22nd Century Law Firm Ltd", "place_id": "ChIJx2_eHysFdkgRLK6Ji28SLiY", "types": ["lawyer", "point_of_interest", "establishment"]}, "ChIJ4ekU4CoFdkgRY3UICzpxanA": {"geometry": {"location": {"lat": 51.51322949999999, "lng": -0.1438619}, "viewport": {"northeast": {"lat": 51.5147261302915, "lng": -0.142477569708498}, "southwest": {"lat": 51.5120281697085, "lng": -0.145175530291502}}}, "name": "Knight Vinke Asset Management (UK) Limited", "place_id": "ChIJ4ekU4CoFdkgRY3UICzpxanA", "types": ["finance", "point_of_interest", "establishment"]}, "ChIJ4ekU4CoFdkgRhqaX3C1RxXk": {"geometry": {"location": {"lat": 51.51322949999999, "lng": -0.1438619}, "viewport": {"northeast": {"lat": 51.51472603029149, "lng": -0.142476869708498}, "southwest": {"lat": 51.5120280697085, "lng": -0.145174830291502}}}, "name": "Knightvinke", "place_id": "ChIJ4ekU4CoFdkgRhqaX3C1RxXk", "types": ["point_of_interest", "establishment"]}, "ChIJJZjh8P0zcEERjelYEnMWS8g": {"geometry": {"location": {"lat": 51.5132691, "lng": -0.143859}, "viewport": {"northeast": {"lat": 51.5147458302915, "lng": -0.142475419708498}, "southwest": {"lat": 51.5120478697085, "lng": -0.145173380291502}}}, "name": "Crescent Credit Europe LLP", "place_id": "ChIJJZjh8P0zcEERjelYEnMWS8g", "types": ["finance", "point_of_interest", "establishment"]}, "ChIJOSuIHCsFdkgRE4MFQ6vgXWs": {"geometry": {"location": {"lat": 51.5130303, "lng": -0.1441736}, "viewport": {"northeast": {"lat": 51.51458248029149, "lng": -0.142763269708498}, "southwest": {"lat": 51.5118845197085, "lng": -0.145461230291502}}}, "name": "Orouge Ltd", "place_id": "ChIJOSuIHCsFdkgRE4MFQ6vgXWs", "types": ["point_of_interest", "establishment"]}, "ChIJV3PxHysFdkgRizawzKvh9dc": {"geometry": {"location": {"lat": 51.5130303, "lng": -0.1441736}, "viewport": {"northeast": {"lat": 51.51458248029149, "lng": -0.142763269708498}, "southwest": {"lat": 51.5118845197085, "lng": -0.145461230291502}}}, "name": "Demaax Ltd", "place_id": "ChIJV3PxHysFdkgRizawzKvh9dc", "types": ["point_of_interest", "establishment"]}, "ChIJz2SQ9yoFdkgRhGPIIRZPhkI": {"geometry": {"location": {"lat": 51.5130861, "lng": -0.1437964}, "viewport": {"northeast": {"lat": 51.51447108029149, "lng": -0.142292569708498}, "southwest": {"lat": 51.5117731197085, "lng": -0.144990530291502}}}, "name": "Lamprell", "place_id": "ChIJz2SQ9yoFdkgRhGPIIRZPhkI", "types": ["point_of_interest", "establishment"]}, "ChIJmwrJIysFdkgRKCntrK-kGk0": {"geometry": {"location": {"lat": 51.5135168, "lng": -0.1445259}, "viewport": {"northeast": {"lat": 51.51488328029149, "lng": -0.142946019708498}, "southwest": {"lat": 51.51218531970849, "lng": -0.1456439802915021}}}, "name": "Chempetitive Group", "place_id": "ChIJmwrJIysFdkgRKCntrK-kGk0", "types": ["point_of_interest", "establishment"]}, "ChIJz4vuHysFdkgR-xqo2oWDg8c": {"geometry": {"location": {"lat": 51.5135548, "lng": -0.1439451}, "viewport": {"northeast": {"lat": 51.5149037802915, "lng": -0.1425961197084979}, "southwest": {"lat": 51.51220581970851, "lng": -0.145294080291502}}}, "name": "Project Sunblock Ltd", "place_id": "ChIJz4vuHysFdkgR-xqo2oWDg8c", "types": ["point_of_interest", "establishment"]}, "ChIJ5Rb52ioFdkgRhRP7CwOTQHA": {"geometry": {"location": {"lat": 51.51358159999999, "lng": -0.1443225}, "viewport": {"northeast": {"lat": 51.51489193029149, "lng": -0.142845019708498}, "southwest": {"lat": 51.51219396970849, "lng": -0.145542980291502}}}, "name": "Barclays Bank", "place_id": "ChIJ5Rb52ioFdkgRhRP7CwOTQHA", "types": ["bank", "finance", "point_of_interest", "establishment"], "rating": 2.6, "user_ratings_total": 16}, "ChIJCemE9wk0cEERMi8QXIO8efY": {"geometry": {"location": {"lat": 51.5130028, "lng": -0.1437224}, "viewport": {"northeast": {"lat": 51.5143831302915, "lng": -0.142228169708498}, "southwest": {"lat": 51.5116851697085, "lng": -0.144926130291502}}}, "name": "Mexican Consulate", "place_id": "ChIJCemE9wk0cEERMi8QXIO8efY", "types": ["embassy", "point_of_interest", "establishment"], "rating": 5, "user_ratings_total": 11}, "ChIJz_ImGCsFdkgRAuRLI39QkAE": {"geometry": {"location": {"lat": 51.5134939, "lng": -0.1446185}, "viewport": {"northeast": {"lat": 51.5147950802915, "lng": -0.1432486197084979}, "southwest": {"lat": 51.5120971197085, "lng": -0.145946580291502}}}, "name": "UBL UK", "place_id": "ChIJz_ImGCsFdkgRAuRLI39QkAE", "types": ["bank", "finance", "point_of_interest", "establishment"], "rating": 2.7, "user_ratings_total": 30}, "ChIJ28gfGCsFdkgRrJg8hYe-Aqc": {"geometry": {"location": {"lat": 51.51353080000001, "lng": -0.1446312}, "viewport": {"northeast": {"lat": 51.5148138302915, "lng": -0.143253369708498}, "southwest": {"lat": 51.5121158697085, "lng": -0.1459513302915021}}}, "name": "United Bank UK", "place_id": "ChIJ28gfGCsFdkgRrJg8hYe-Aqc", "types": ["point_of_interest", "establishment"], "rating": 1, "user_ratings_total": 1}, "ChIJ99mWpysFdkgRt0RmSNXqB6k": {"geometry": {"location": {"lat": 51.51224225028012, "lng": -0.144720600391346}, "viewport": {"northeast": {"lat": 51.5135912302915, "lng": -0.143371619708498}, "southwest": {"lat": 51.5108932697085, "lng": -0.146069580291502}}}, "name": "84-81 Grosvenor St", "place_id": "ChIJ99mWpysFdkgRt0RmSNXqB6k", "types": ["route"]}, "ChIJMV9bqysFdkgRXZSuVbJbt80": {"geometry": {"location": {"lat": 51.5119999, "lng": -0.144009}, "viewport": {"northeast": {"lat": 51.51332813029151, "lng": -0.1427109197084979}, "southwest": {"lat": 51.51063016970851, "lng": -0.145408880291502}}}, "name": "Smythson of Bond Street", "place_id": "ChIJMV9bqysFdkgRXZSuVbJbt80", "types": ["point_of_interest", "store", "establishment"], "rating": 4.5, "user_ratings_total": 37}, "ChIJRdtAqSsFdkgREiS0EpMMNzg": {"geometry": {"location": {"lat": 51.512017, "lng": -0.144363}, "viewport": {"northeast": {"lat": 51.5133931802915, "lng": -0.142943219708498}, "southwest": {"lat": 51.5106952197085, "lng": -0.1456411802915021}}}, "name": "Opera Gallery London", "place_id": "ChIJRdtAqSsFdkgREiS0EpMMNzg", "types": ["art_gallery", "point_of_interest", "establishment"], "rating": 4.5, "user_ratings_total": 40}, "ChIJG6be6ywFdkgRcLc8ssjdv9s": {"geometry": {"location": {"lat": 51.51232829999999, "lng": -0.1439277}, "viewport": {"northeast": {"lat": 51.5137270802915, "lng": -0.142610869708498}, "southwest": {"lat": 51.5110291197085, "lng": -0.145308830291502}}}, "name": "The Antique Jewellery Company", "place_id": "ChIJG6be6ywFdkgRcLc8ssjdv9s", "types": ["jewelry_store", "point_of_interest", "store", "establishment"], "rating": 4.9, "user_ratings_total": 361}, "ChIJxXAPUyoFdkgRAit20zK29po": {"geometry": {"location": {"lat": 51.5117986, "lng": -0.1437049}, "viewport": {"northeast": {"lat": 51.5131475802915, "lng": -0.142355919708498}, "southwest": {"lat": 51.5104496197085, "lng": -0.145053880291502}}}, "name": "Sotheby's Cafe", "place_id": "ChIJxXAPUyoFdkgRAit20zK29po", "types": ["cafe", "bar", "restaurant", "food", "point_of_interest", "establishment"], "rating": 4.1, "user_ratings_total": 74}, "ChIJ1UhDVSoFdkgR1sqAU1_F9v4": {"geometry": {"location": {"lat": 51.5123707, "lng": -0.1439019}, "viewport": {"northeast": {"lat": 51.5137539802915, "lng": -0.142575119708498}, "southwest": {"lat": 51.51105601970851, "lng": -0.145273080291502}}}, "name": "RMS Recruitment Ltd", "place_id": "ChIJ1UhDVSoFdkgR1sqAU1_F9v4", "types": ["point_of_interest", "establishment"], "rating": 4.6, "user_ratings_total": 94}, "ChIJrSRBACsFdkgREzfTRSsTkY0": {"geometry": {"location": {"lat": 51.51232829999999, "lng": -0.1439277}, "viewport": {"northeast": {"lat": 51.5137270802915, "lng": -0.142610869708498}, "southwest": {"lat": 51.5110291197085, "lng": -0.145308830291502}}}, "name": "Pendulum of Mayfair Antique Clocks Ltd", "place_id": "ChIJrSRBACsFdkgREzfTRSsTkY0", "types": ["furniture_store", "home_goods_store", "general_contractor", "point_of_interest", "store", "establishment"], "rating": 4.6, "user_ratings_total": 32}, "ChIJ1UhDVSoFdkgR0HEUaVXKv-U": {"geometry": {"location": {"lat": 51.5123845, "lng": -0.1438618}, "viewport": {"northeast": {"lat": 51.5137661802915, "lng": -0.142533969708498}, "southwest": {"lat": 51.5110682197085, "lng": -0.145231930291502}}}, "name": "G.J. Dennis", "place_id": "ChIJ1UhDVSoFdkgR0HEUaVXKv-U", "types": ["jewelry_store", "point_of_interest", "store", "establishment"], "rating": 5, "user_ratings_total": 2}, "ChIJea5S_ioFdkgRdpARYUR_1dg": {"geometry": {"location": {"lat": 51.5123401, "lng": -0.1436536}, "viewport": {"northeast": {"lat": 51.51376333029149, "lng": -0.142352569708498}, "southwest": {"lat": 51.51106536970849, "lng": -0.145050530291502}}}, "name": "Andreas Woywod", "place_id": "ChIJea5S_ioFdkgRdpARYUR_1dg", "types": ["electronics_store", "home_goods_store", "point_of_interest", "store", "establishment"]}, "ChIJ2fzi_tUEdkgRM8JZYl7KjZk": {"geometry": {"location": {"lat": 51.5118647, "lng": -0.1443813}, "viewport": {"northeast": {"lat": 51.5131395302915, "lng": -0.143113069708498}, "southwest": {"lat": 51.5104415697085, "lng": -0.145811030291502}}}, "name": "Brunello Cucinelli", "place_id": "ChIJ2fzi_tUEdkgRM8JZYl7KjZk", "types": ["point_of_interest", "clothing_store", "store", "establishment"], "rating": 4.9, "user_ratings_total": 10}, "ChIJ1w5wjSoFdkgRMrbO8KQ-QCE": {"geometry": {"location": {"lat": 51.5123401, "lng": -0.1436536}, "viewport": {"northeast": {"lat": 51.51376333029149, "lng": -0.142352569708498}, "southwest": {"lat": 51.51106536970849, "lng": -0.145050530291502}}}, "name": "Ben Elwes", "place_id": "ChIJ1w5wjSoFdkgRMrbO8KQ-QCE", "types": ["point_of_interest", "establishment"], "rating": 5, "user_ratings_total": 1}, "ChIJXQpQqisFdkgRSl-yfCNuDLo": {"geometry": {"location": {"lat": 51.512168, "lng": -0.1441232}, "viewport": {"northeast": {"lat": 51.51349273029149, "lng": -0.142844469708498}, "southwest": {"lat": 51.5107947697085, "lng": -0.145542430291502}}}, "name": "I A F", "place_id": "ChIJXQpQqisFdkgRSl-yfCNuDLo", "types": ["finance", "point_of_interest", "establishment"]}, "ChIJBR27QMIxdkgRma00ddPIU7o": {"geometry": {"location": {"lat": 51.5121511, "lng": -0.1441649}, "viewport": {"northeast": {"lat": 51.51349243029149, "lng": -0.142865019708498}, "southwest": {"lat": 51.51079446970849, "lng": -0.145562980291502}}}, "name": "Academy21", "place_id": "ChIJBR27QMIxdkgRma00ddPIU7o", "types": ["point_of_interest", "establishment"], "rating": 5, "user_ratings_total": 2}, "ChIJ0VZzqisFdkgRJi0_D0b7Y78": {"geometry": {"location": {"lat": 51.5122691, "lng": -0.1441671}, "viewport": {"northeast": {"lat": 51.51358398029149, "lng": -0.142909119708498}, "southwest": {"lat": 51.51088601970849, "lng": -0.145607080291502}}}, "name": "A.HARRIES", "place_id": "ChIJ0VZzqisFdkgRJi0_D0b7Y78", "types": ["jewelry_store", "point_of_interest", "store", "establishment"]}, "ChIJa93g8YLBeUgRjd6PHKdGjCI": {"geometry": {"location": {"lat": 51.5122526, "lng": -0.1442948}, "viewport": {"northeast": {"lat": 51.5135886302915, "lng": -0.142979169708498}, "southwest": {"lat": 51.5108906697085, "lng": -0.145677130291502}}}, "name": "The New Layout", "place_id": "ChIJa93g8YLBeUgRjd6PHKdGjCI", "types": ["general_contractor", "point_of_interest", "establishment"], "rating": 5, "user_ratings_total": 3}, "ChIJBTHmqSsFdkgRqIP0ogm88HY": {"geometry": {"location": {"lat": 51.512273, "lng": -0.144292}, "viewport": {"northeast": {"lat": 51.5136035802915, "lng": -0.142989169708498}, "southwest": {"lat": 51.5109056197085, "lng": -0.145687130291502}}}, "name": "Landsberg & Son Antiques Ltd", "place_id": "ChIJBTHmqSsFdkgRqIP0ogm88HY", "types": ["home_goods_store", "point_of_interest", "store", "establishment"]}, "ChIJP0AUqysFdkgRyKV0F-Ui6JE": {"geometry": {"location": {"lat": 51.51206000000001, "lng": -0.1440017}, "viewport": {"northeast": {"lat": 51.51338028029151, "lng": -0.142728969708498}, "southwest": {"lat": 51.51068231970851, "lng": -0.145426930291502}}}, "name": "Fasanara Capital", "place_id": "ChIJP0AUqysFdkgRyKV0F-Ui6JE", "types": ["point_of_interest", "establishment"], "rating": 5, "user_ratings_total": 1}, "ChIJnT7-qCsFdkgR367RvlpVzBc": {"geometry": {"location": {"lat": 51.512112, "lng": -0.144449}, "viewport": {"northeast": {"lat": 51.51348678029151, "lng": -0.143031869708498}, "southwest": {"lat": 51.51078881970851, "lng": -0.145729830291502}}}, "name": "Smythson of Bond Street", "place_id": "ChIJnT7-qCsFdkgR367RvlpVzBc", "types": ["point_of_interest", "store", "establishment"], "rating": 4.5, "user_ratings_total": 57}, "ChIJz2sSqisFdkgRqxWo_Of4wvw": {"geometry": {"location": {"lat": 51.51236119999999, "lng": -0.1439696}, "viewport": {"northeast": {"lat": 51.51374128029149, "lng": -0.142640719708498}, "southwest": {"lat": 51.5110433197085, "lng": -0.145338680291502}}}, "name": "Morelle Davidson", "place_id": "ChIJz2sSqisFdkgRqxWo_Of4wvw", "types": ["jewelry_store", "point_of_interest", "store", "establishment"], "rating": 5, "user_ratings_total": 3}, "ChIJYdaUeioFdkgR_-a3zD9OGf8": {"geometry": {"location": {"lat": 51.51208629999999, "lng": -0.1438471}, "viewport": {"northeast": {"lat": 51.5133817302915, "lng": -0.142640319708498}, "southwest": {"lat": 51.5106837697085, "lng": -0.145338280291502}}}, "name": "Method Investments and Advisory Ltd", "place_id": "ChIJYdaUeioFdkgR_-a3zD9OGf8", "types": ["finance", "point_of_interest", "establishment"]}, "ChIJzfkOheYPdkgRa5bewPbe0Cc": {"geometry": {"location": {"lat": 51.512484, "lng": -0.1439154}, "viewport": {"northeast": {"lat": 51.5138303802915, "lng": -0.142564819708498}, "southwest": {"lat": 51.5111324197085, "lng": -0.1452627802915021}}}, "name": "Zoltan hair", "place_id": "ChIJzfkOheYPdkgRa5bewPbe0Cc", "types": ["hair_care", "point_of_interest", "establishment"], "rating": 4.3, "user_ratings_total": 46}, "ChIJu6dv_yoFdkgRhL1fbDMDehk": {"geometry": {"location": {"lat": 51.5123401, "lng": -0.1436536}, "viewport": {"northeast": {"lat": 51.51376333029149, "lng": -0.142352569708498}, "southwest": {"lat": 51.51106536970849, "lng": -0.145050530291502}}}, "name": "Craig Pinder", "place_id": "ChIJu6dv_yoFdkgRhL1fbDMDehk", "types": ["point_of_interest", "establishment"]}, "ChIJvadv_yoFdkgRbG62OvjOjAE": {"geometry": {"location": {"lat": 51.5123401, "lng": -0.1436535}, "viewport": {"northeast": {"lat": 51.51376333029149, "lng": -0.142352469708498}, "southwest": {"lat": 51.51106536970849, "lng": -0.145050430291502}}}, "name": "Joel Beckett", "place_id": "ChIJvadv_yoFdkgRbG62OvjOjAE", "types": ["point_of_interest", "establishment"]}, "ChIJvadv_yoFdkgRpdYfC2qnbsw": {"geometry": {"location": {"lat": 51.5123401, "lng": -0.1436535}, "viewport": {"northeast": {"lat": 51.51376333029149, "lng": -0.142352469708498}, "southwest": {"lat": 51.51106536970849, "lng": -0.145050430291502}}}, "name": "Martin Parr Director", "place_id": "ChIJvadv_yoFdkgRpdYfC2qnbsw", "types": ["point_of_interest", "establishment"]}, "ChIJDd8KAykFdkgRuy55bEFyjdk": {"geometry": {"location": {"lat": 51.51242329999999, "lng": -0.1437227}, "viewport": {"northeast": {"lat": 51.5138032802915, "lng": -0.142393719708498}, "southwest": {"lat": 51.5111053197085, "lng": -0.145091680291502}}}, "name": "Burlington Estates", "place_id": "ChIJDd8KAykFdkgRuy55bEFyjdk", "types": ["point_of_interest", "establishment"], "rating": 4.6, "user_ratings_total": 84}, "ChIJffeeASsFdkgRn5WAba24EGE": {"geometry": {"location": {"lat": 51.5125506, "lng": -0.1440669}, "viewport": {"northeast": {"lat": 51.5138386802915, "lng": -0.142678569708498}, "southwest": {"lat": 51.5111407197085, "lng": -0.145376530291502}}}, "name": "Luke Frost", "place_id": "ChIJffeeASsFdkgRn5WAba24EGE", "types": ["point_of_interest", "establishment"]}, "ChIJ0Ybn_ioFdkgRDGnuwqeQrIQ": {"geometry": {"location": {"lat": 51.5123675, "lng": -0.1435356}, "viewport": {"northeast": {"lat": 51.51379163029151, "lng": -0.142235169708498}, "southwest": {"lat": 51.51109366970851, "lng": -0.144933130291502}}}, "name": "MMX Retail LLP", "place_id": "ChIJ0Ybn_ioFdkgRDGnuwqeQrIQ", "types": ["point_of_interest", "establishment"]}, "ChIJ_eA8CCsFdkgR_3kEgG6imoA": {"geometry": {"location": {"lat": 51.5123373, "lng": -0.1447338}, "viewport": {"northeast": {"lat": 51.51372068029151, "lng": -0.143298519708498}, "southwest": {"lat": 51.51102271970851, "lng": -0.145996480291502}}}, "name": "HSBC", "place_id": "ChIJ_eA8CCsFdkgR_3kEgG6imoA", "types": ["bank", "finance", "point_of_interest", "establishment"], "rating": 3, "user_ratings_total": 25}, "ChIJ6zHvUCsFdkgRwiXBKEF5blc": {"geometry": {"location": {"lat": 51.512164, "lng": -0.1448325}, "viewport": {"northeast": {"lat": 51.51352448029149, "lng": -0.143491519708498}, "southwest": {"lat": 51.5108265197085, "lng": -0.1461894802915021}}}, "name": "Hilco Capital", "place_id": "ChIJ6zHvUCsFdkgRwiXBKEF5blc", "types": ["finance", "point_of_interest", "establishment"]}, "ChIJb72wjNUEdkgR8pRW2rvgyrY": {"geometry": {"location": {"lat": 51.512164, "lng": -0.1448325}, "viewport": {"northeast": {"lat": 51.51351298029149, "lng": -0.1434835197084979}, "southwest": {"lat": 51.5108150197085, "lng": -0.146181480291502}}}, "name": "Venturi UK Ltd", "place_id": "ChIJb72wjNUEdkgR8pRW2rvgyrY", "types": ["point_of_interest", "establishment"]}, "ChIJHcNW_ioFdkgR1v7Crni0e-Y": {"geometry": {"location": {"lat": 51.5124515, "lng": -0.1436311}, "viewport": {"northeast": {"lat": 51.51382868029151, "lng": -0.142300319708498}, "southwest": {"lat": 51.51113071970851, "lng": -0.144998280291502}}}, "name": "Cortesi Gallery", "place_id": "ChIJHcNW_ioFdkgR1v7Crni0e-Y", "types": ["art_gallery", "point_of_interest", "establishment"], "rating": 5, "user_ratings_total": 2}, "ChIJnQqYBisFdkgRjxUre-myBhM": {"geometry": {"location": {"lat": 51.51258310000001, "lng": -0.1443552}, "viewport": {"northeast": {"lat": 51.51387723029151, "lng": -0.143143819708498}, "southwest": {"lat": 51.51117926970851, "lng": -0.145841780291502}}}, "name": "Waterbeach Barracks", "place_id": "ChIJnQqYBisFdkgRjxUre-myBhM", "types": ["point_of_interest", "establishment"]}, "ChIJnQqYBisFdkgRUsytkDGGBHA": {"geometry": {"location": {"lat": 51.51258310000001, "lng": -0.1443552}, "viewport": {"northeast": {"lat": 51.51387723029151, "lng": -0.143143819708498}, "southwest": {"lat": 51.51117926970851, "lng": -0.145841780291502}}}, "name": "Urban&Civic plc", "place_id": "ChIJnQqYBisFdkgRUsytkDGGBHA", "types": ["general_contractor", "point_of_interest", "establishment"]}, "ChIJfVOUASsFdkgRpbr6YIG6Vdo": {"geometry": {"location": {"lat": 51.5125463, "lng": -0.143804}, "viewport": {"northeast": {"lat": 51.5138591302915, "lng": -0.142475819708498}, "southwest": {"lat": 51.5111611697085, "lng": -0.145173780291502}}}, "name": "Beaux Arts", "place_id": "ChIJfVOUASsFdkgRpbr6YIG6Vdo", "types": ["art_gallery", "point_of_interest", "establishment"], "rating": 4.6, "user_ratings_total": 16}, "ChIJHWznHNYEdkgR1yXcc9ZRd8c": {"geometry": {"location": {"lat": 51.51255099999999, "lng": -0.143766}, "viewport": {"northeast": {"lat": 51.5138719302915, "lng": -0.1423988697084979}, "southwest": {"lat": 51.5111739697085, "lng": -0.145096830291502}}}, "name": "Day & Faber", "place_id": "ChIJHWznHNYEdkgR1yXcc9ZRd8c", "types": ["art_gallery", "point_of_interest", "establishment"]}, "ChIJ5fFK_yoFdkgRH3ORM16EQCA": {"geometry": {"location": {"lat": 51.5123675, "lng": -0.1435356}, "viewport": {"northeast": {"lat": 51.51379163029151, "lng": -0.142235169708498}, "southwest": {"lat": 51.51109366970851, "lng": -0.144933130291502}}}, "name": "Glenbrook", "place_id": "ChIJ5fFK_yoFdkgRH3ORM16EQCA", "types": ["general_contractor", "point_of_interest", "establishment"]}, "ChIJbe0c0SAFdkgRU_YO00ryS8I": {"geometry": {"location": {"lat": 51.5123675, "lng": -0.1435356}, "viewport": {"northeast": {"lat": 51.51379163029151, "lng": -0.142235169708498}, "southwest": {"lat": 51.51109366970851, "lng": -0.144933130291502}}}, "name": "Panacea Publishing International", "place_id": "ChIJbe0c0SAFdkgRU_YO00ryS8I", "types": ["point_of_interest", "establishment"], "rating": 5, "user_ratings_total": 1}, "ChIJ5fFK_yoFdkgRtn_UpBjJyZI": {"geometry": {"location": {"lat": 51.5123675, "lng": -0.1435356}, "viewport": {"northeast": {"lat": 51.51379163029151, "lng": -0.142235169708498}, "southwest": {"lat": 51.51109366970851, "lng": -0.144933130291502}}}, "name": "Panacea Media", "place_id": "ChIJ5fFK_yoFdkgRtn_UpBjJyZI", "types": ["point_of_interest", "establishment"]}, "ChIJf_pArCsFdkgRrvkjYijGKI4": {"geometry": {"location": {"lat": 51.5117681, "lng": -0.1442445}, "viewport": {"northeast": {"lat": 51.5131733302915, "lng": -0.142787469708498}, "southwest": {"lat": 51.5104753697085, "lng": -0.145485430291502}}}, "name": "IWC Schaffhausen Flagship Boutique \u2013 London", "place_id": "ChIJf_pArCsFdkgRrvkjYijGKI4", "types": ["point_of_interest", "store", "establishment"], "rating": 4.4, "user_ratings_total": 82}, "ChIJS0D6WCoFdkgRDpUTIlencDI": {"geometry": {"location": {"lat": 51.5124568, "lng": -0.1436147}, "viewport": {"northeast": {"lat": 51.51383298029151, "lng": -0.142283219708498}, "southwest": {"lat": 51.51113501970851, "lng": -0.144981180291502}}}, "name": "Shapero Modern", "place_id": "ChIJS0D6WCoFdkgRDpUTIlencDI", "types": ["art_gallery", "point_of_interest", "establishment"], "rating": 5, "user_ratings_total": 1}, "ChIJB0BJmywFdkgRRaHVvI1LIvs": {"geometry": {"location": {"lat": 51.5124568, "lng": -0.1436147}, "viewport": {"northeast": {"lat": 51.51383298029151, "lng": -0.142283219708498}, "southwest": {"lat": 51.51113501970851, "lng": -0.144981180291502}}}, "name": "Var Capital", "place_id": "ChIJB0BJmywFdkgRRaHVvI1LIvs", "types": ["bank", "finance", "point_of_interest", "establishment"], "rating": 5, "user_ratings_total": 3}, "ChIJIS39qisFdkgRIwAEVb9dp4g": {"geometry": {"location": {"lat": 51.5125766, "lng": -0.1445503}, "viewport": {"northeast": {"lat": 51.5138929302915, "lng": -0.143260869708498}, "southwest": {"lat": 51.5111949697085, "lng": -0.145958830291502}}}, "name": "Mulberry", "place_id": "ChIJIS39qisFdkgRIwAEVb9dp4g", "types": ["point_of_interest", "clothing_store", "store", "establishment"], "rating": 4.5, "user_ratings_total": 100}, "ChIJoQ1YpysFdkgRAZ6LldtF-M0": {"geometry": {"location": {"lat": 51.51225849999999, "lng": -0.144901}, "viewport": {"northeast": {"lat": 51.5135908802915, "lng": -0.143515969708498}, "southwest": {"lat": 51.5108929197085, "lng": -0.146213930291502}}}, "name": "Agent Provocateur, Grosvenor Street", "place_id": "ChIJoQ1YpysFdkgRAZ6LldtF-M0", "types": ["point_of_interest", "clothing_store", "store", "establishment"], "rating": 4.7, "user_ratings_total": 23}, "ChIJBRMyjdUEdkgREratySdoD1k": {"geometry": {"location": {"lat": 51.5123537, "lng": -0.1434119}, "viewport": {"northeast": {"lat": 51.51374493029149, "lng": -0.1419005197084979}, "southwest": {"lat": 51.5110469697085, "lng": -0.144598480291502}}}, "name": "Martin Nicholls London Ltd", "place_id": "ChIJBRMyjdUEdkgREratySdoD1k", "types": ["point_of_interest", "establishment"]}, "ChIJe2OXTioFdkgRjC0NFHhAyeI": {"geometry": {"location": {"lat": 51.51182370000001, "lng": -0.1437481}, "viewport": {"northeast": {"lat": 51.51313798029151, "lng": -0.142471419708498}, "southwest": {"lat": 51.51044001970851, "lng": -0.145169380291502}}}, "name": "Sotheby's - London", "place_id": "ChIJe2OXTioFdkgRjC0NFHhAyeI", "types": ["point_of_interest", "establishment"], "rating": 4.6, "user_ratings_total": 218}, "ChIJd7cQqSsFdkgRTBDszMJrYqM": {"geometry": {"location": {"lat": 51.5120613, "lng": -0.1443627}, "viewport": {"northeast": {"lat": 51.51342693029151, "lng": -0.142954969708498}, "southwest": {"lat": 51.51072896970851, "lng": -0.145652930291502}}}, "name": "Church's London New Bond St. Store", "place_id": "ChIJd7cQqSsFdkgRTBDszMJrYqM", "types": ["shoe_store", "point_of_interest", "store", "establishment"], "rating": 4.4, "user_ratings_total": 43}, "ChIJG5qpVCoFdkgRK7V58RQ8jms": {"geometry": {"location": {"lat": 51.5118822, "lng": -0.1437865}, "viewport": {"northeast": {"lat": 51.5132311802915, "lng": -0.142437519708498}, "southwest": {"lat": 51.5105332197085, "lng": -0.145135480291502}}}, "name": "Ermenegildo Zegna Global Store", "place_id": "ChIJG5qpVCoFdkgRK7V58RQ8jms", "types": ["shoe_store", "point_of_interest", "clothing_store", "store", "establishment"], "rating": 4.4, "user_ratings_total": 54}, "ChIJZXX1qisFdkgRXsimjphZ_b4": {"geometry": {"location": {"lat": 51.5121677, "lng": -0.1441183}, "viewport": {"northeast": {"lat": 51.5135052302915, "lng": -0.142854769708498}, "southwest": {"lat": 51.51080726970851, "lng": -0.145552730291502}}}, "name": "Wempe Jewellers London \u2013 Exquisite Timepieces & Jewellery", "place_id": "ChIJZXX1qisFdkgRXsimjphZ_b4", "types": ["jewelry_store", "point_of_interest", "store", "establishment"], "rating": 4.3, "user_ratings_total": 60}, "ChIJrRhfBdUEdkgRPe6v_EfDKBc": {"geometry": {"location": {"lat": 51.5119813, "lng": -0.143968}, "viewport": {"northeast": {"lat": 51.5133064802915, "lng": -0.142677419708498}, "southwest": {"lat": 51.5106085197085, "lng": -0.145375380291502}}}, "name": "RM Sotheby's", "place_id": "ChIJrRhfBdUEdkgRPe6v_EfDKBc", "types": ["point_of_interest", "establishment"], "rating": 4.5, "user_ratings_total": 2}, "ChIJwbZnVSoFdkgRYPJz8EMOO2o": {"geometry": {"location": {"lat": 51.51242329999999, "lng": -0.1443919}, "viewport": {"northeast": {"lat": 51.5137315302915, "lng": -0.143017219708498}, "southwest": {"lat": 51.5110335697085, "lng": -0.145715180291502}}}, "name": "Milne & Yardley", "place_id": "ChIJwbZnVSoFdkgRYPJz8EMOO2o", "types": ["point_of_interest", "establishment"], "rating": 5, "user_ratings_total": 8}, "ChIJF3xGqCsFdkgROpLzHKcvluY": {"geometry": {"location": {"lat": 51.5121712, "lng": -0.1446684}, "viewport": {"northeast": {"lat": 51.5135740802915, "lng": -0.1432573197084979}, "southwest": {"lat": 51.5108761197085, "lng": -0.145955280291502}}}, "name": "Breitling Boutique", "place_id": "ChIJF3xGqCsFdkgROpLzHKcvluY", "types": ["point_of_interest", "store", "establishment"], "rating": 4.2, "user_ratings_total": 110}, "ChIJc3msrSsFdkgRstLsc0dVZpI": {"geometry": {"location": {"lat": 51.51177039999999, "lng": -0.1441203}, "viewport": {"northeast": {"lat": 51.51314963029149, "lng": -0.142698669708498}, "southwest": {"lat": 51.51045166970849, "lng": -0.145396630291502}}}, "name": "Graus Antiques", "place_id": "ChIJc3msrSsFdkgRstLsc0dVZpI", "types": ["home_goods_store", "point_of_interest", "store", "establishment"]}, "ChIJXQpQqisFdkgRDWbKzq3VIus": {"geometry": {"location": {"lat": 51.5121677, "lng": -0.1441183}, "viewport": {"northeast": {"lat": 51.51349193029149, "lng": -0.142841219708498}, "southwest": {"lat": 51.5107939697085, "lng": -0.145539180291502}}}, "name": "Terra Quant Associates", "place_id": "ChIJXQpQqisFdkgRDWbKzq3VIus", "types": ["point_of_interest", "establishment"]}, "ChIJXQpQqisFdkgRTPhKQsi2Ncw": {"geometry": {"location": {"lat": 51.5121677, "lng": -0.1441183}, "viewport": {"northeast": {"lat": 51.51349193029149, "lng": -0.142841219708498}, "southwest": {"lat": 51.5107939697085, "lng": -0.145539180291502}}}, "name": "Benjamin Proust Fine Art", "place_id": "ChIJXQpQqisFdkgRTPhKQsi2Ncw", "types": ["art_gallery", "point_of_interest", "establishment"]}, "ChIJXwpQqisFdkgRn_Qbrn1t_5A": {"geometry": {"location": {"lat": 51.5121677, "lng": -0.1441182}, "viewport": {"northeast": {"lat": 51.51349193029149, "lng": -0.142841169708498}, "southwest": {"lat": 51.5107939697085, "lng": -0.1455391302915021}}}, "name": "Pan-European Investor Relations Limited", "place_id": "ChIJXwpQqisFdkgRn_Qbrn1t_5A", "types": ["point_of_interest", "establishment"]}, "ChIJXwpQqisFdkgRXyHt72jELSM": {"geometry": {"location": {"lat": 51.5121677, "lng": -0.1441182}, "viewport": {"northeast": {"lat": 51.51349193029149, "lng": -0.142841169708498}, "southwest": {"lat": 51.5107939697085, "lng": -0.1455391302915021}}}, "name": "Arev", "place_id": "ChIJXwpQqisFdkgRXyHt72jELSM", "types": ["point_of_interest", "establishment"]}, "ChIJq6p2qisFdkgRLc9DFpbsFrk": {"geometry": {"location": {"lat": 51.51227069999999, "lng": -0.1441467}, "viewport": {"northeast": {"lat": 51.5135823302915, "lng": -0.142896519708498}, "southwest": {"lat": 51.5108843697085, "lng": -0.145594480291502}}}, "name": "LJ CREATIONS LTD", "place_id": "ChIJq6p2qisFdkgRLc9DFpbsFrk", "types": ["point_of_interest", "establishment"]}, "ChIJq6p2qisFdkgRzud6vdhsDx8": {"geometry": {"location": {"lat": 51.51227069999999, "lng": -0.1441467}, "viewport": {"northeast": {"lat": 51.5135823302915, "lng": -0.142896519708498}, "southwest": {"lat": 51.5108843697085, "lng": -0.145594480291502}}}, "name": "Crystal Vantage Ltd", "place_id": "ChIJq6p2qisFdkgRzud6vdhsDx8", "types": ["point_of_interest", "establishment"]}, "ChIJq6p2qisFdkgR4nZZIVlGDEc": {"geometry": {"location": {"lat": 51.51227069999999, "lng": -0.1441467}, "viewport": {"northeast": {"lat": 51.5135823302915, "lng": -0.142896519708498}, "southwest": {"lat": 51.5108843697085, "lng": -0.145594480291502}}}, "name": "LJ CREATIONS", "place_id": "ChIJq6p2qisFdkgR4nZZIVlGDEc", "types": ["point_of_interest", "establishment"]}, "ChIJtx1trSsFdkgRZxIhGlD9E7Q": {"geometry": {"location": {"lat": 51.5115931, "lng": -0.1441203}, "viewport": {"northeast": {"lat": 51.5129997302915, "lng": -0.142632819708498}, "southwest": {"lat": 51.51030176970851, "lng": -0.1453307802915021}}}, "name": "Meta", "place_id": "ChIJtx1trSsFdkgRZxIhGlD9E7Q", "types": ["point_of_interest", "establishment"]}, "ChIJw80Mu9QadkgR3fN9Bbm2yAk": {"geometry": {"location": {"lat": 51.51582415014438, "lng": -0.1459466001547658}, "viewport": {"northeast": {"lat": 51.5171731302915, "lng": -0.144597619708498}, "southwest": {"lat": 51.5144751697085, "lng": -0.147295580291502}}}, "name": "Henrietta Place", "place_id": "ChIJw80Mu9QadkgR3fN9Bbm2yAk", "types": ["route"]}, "ChIJI6IWjywbdkgRZCa6K6ZF4UI": {"geometry": {"location": {"lat": 51.5154229, "lng": -0.1452416}, "viewport": {"northeast": {"lat": 51.5168540802915, "lng": -0.1434791}, "southwest": {"lat": 51.51415611970851, "lng": -0.1469735}}}, "name": "John Lewis & Partners", "place_id": "ChIJI6IWjywbdkgRZCa6K6ZF4UI", "types": ["department_store", "hardware_store", "furniture_store", "home_goods_store", "point_of_interest", "store", "establishment"], "rating": 4.3, "user_ratings_total": 7933}, "ChIJ18nsUisFdkgRMZ_2yCubYAE": {"geometry": {"location": {"lat": 51.5150689, "lng": -0.1463406}, "viewport": {"northeast": {"lat": 51.5165624802915, "lng": -0.144816319708498}, "southwest": {"lat": 51.5138645197085, "lng": -0.147514280291502}}}, "name": "House of Fraser", "place_id": "ChIJ18nsUisFdkgRMZ_2yCubYAE", "types": ["clothing_store", "shoe_store", "home_goods_store", "point_of_interest", "store", "establishment"], "rating": 4.1, "user_ratings_total": 3913}, "ChIJeYqsydQadkgRBlkQggNQMtM": {"geometry": {"location": {"lat": 51.5154006, "lng": -0.1452248}, "viewport": {"northeast": {"lat": 51.5167991802915, "lng": -0.143517419708498}, "southwest": {"lat": 51.5141012197085, "lng": -0.146215380291502}}}, "name": "JAEGER", "place_id": "ChIJeYqsydQadkgRBlkQggNQMtM", "types": ["clothing_store", "point_of_interest", "store", "establishment"], "rating": 4, "user_ratings_total": 5}, "ChIJP0EgrNQadkgRiVEvA86dvNY": {"geometry": {"location": {"lat": 51.51555579999999, "lng": -0.1465953}, "viewport": {"northeast": {"lat": 51.5169793802915, "lng": -0.145217719708498}, "southwest": {"lat": 51.5142814197085, "lng": -0.147915680291502}}}, "name": "HOUSE OF FRASER OXFORD ST - LONDON", "place_id": "ChIJP0EgrNQadkgRiVEvA86dvNY", "types": ["jewelry_store", "point_of_interest", "store", "establishment"], "rating": 3.9, "user_ratings_total": 68}, "ChIJ32vSvdQadkgRklx-ItB3C2A": {"geometry": {"location": {"lat": 51.5158395, "lng": -0.1463767}, "viewport": {"northeast": {"lat": 51.5171432802915, "lng": -0.145006619708498}, "southwest": {"lat": 51.5144453197085, "lng": -0.1477045802915021}}}, "name": "Royal College of Nursing", "place_id": "ChIJ32vSvdQadkgRklx-ItB3C2A", "types": ["university", "point_of_interest", "establishment"], "rating": 4.1, "user_ratings_total": 10}, "ChIJ18nsUisFdkgRP6Awkvc5eJU": {"geometry": {"location": {"lat": 51.51508049999999, "lng": -0.1463462}, "viewport": {"northeast": {"lat": 51.5165508802915, "lng": -0.1447871697084979}, "southwest": {"lat": 51.5138529197085, "lng": -0.147485130291502}}}, "name": "Diesel", "place_id": "ChIJ18nsUisFdkgRP6Awkvc5eJU", "types": ["point_of_interest", "clothing_store", "store", "establishment"], "rating": 3.4, "user_ratings_total": 14}, "ChIJ18nsUisFdkgRbRBru33fYIQ": {"geometry": {"location": {"lat": 51.5154109, "lng": -0.145197}, "viewport": {"northeast": {"lat": 51.51680433029151, "lng": -0.143503519708498}, "southwest": {"lat": 51.51410636970851, "lng": -0.146201480291502}}}, "name": "Benefit Cosmetics Brow Bar", "place_id": "ChIJ18nsUisFdkgRbRBru33fYIQ", "types": ["beauty_salon", "hair_care", "point_of_interest", "store", "establishment"], "rating": 4.5, "user_ratings_total": 6}, "ChIJ9TGOytQadkgRsdB8immA8e8": {"geometry": {"location": {"lat": 51.51533610000001, "lng": -0.1452081}, "viewport": {"northeast": {"lat": 51.51676693029151, "lng": -0.143509069708498}, "southwest": {"lat": 51.51406896970851, "lng": -0.146207030291502}}}, "name": "John Lewis Roof Garden", "place_id": "ChIJ9TGOytQadkgRsdB8immA8e8", "types": ["restaurant", "hardware_store", "furniture_store", "home_goods_store", "food", "point_of_interest", "store", "establishment"], "rating": 4.1, "user_ratings_total": 365}, "ChIJ18nsUisFdkgRY5grG1etFf4": {"geometry": {"location": {"lat": 51.5154155, "lng": -0.1465417}, "viewport": {"northeast": {"lat": 51.5169092302915, "lng": -0.145209319708498}, "southwest": {"lat": 51.5142112697085, "lng": -0.147907280291502}}}, "name": "ALDO Shoes", "place_id": "ChIJ18nsUisFdkgRY5grG1etFf4", "types": ["shoe_store", "point_of_interest", "store", "establishment"], "rating": 3.8, "user_ratings_total": 4}, "ChIJhbMfrNQadkgRPqfxlD8u2hU": {"geometry": {"location": {"lat": 51.5156213, "lng": -0.1464861}, "viewport": {"northeast": {"lat": 51.5170106802915, "lng": -0.145183319708498}, "southwest": {"lat": 51.5143127197085, "lng": -0.147881280291502}}}, "name": "MANGO", "place_id": "ChIJhbMfrNQadkgRPqfxlD8u2hU", "types": ["point_of_interest", "establishment"]}, "ChIJhbMfrNQadkgRIyKtW-naRjY": {"geometry": {"location": {"lat": 51.515081, "lng": -0.1462983}, "viewport": {"northeast": {"lat": 51.5165511302915, "lng": -0.144763219708498}, "southwest": {"lat": 51.5138531697085, "lng": -0.147461180291502}}}, "name": "BOSS Womenswear Shop", "place_id": "ChIJhbMfrNQadkgRIyKtW-naRjY", "types": ["shoe_store", "point_of_interest", "clothing_store", "store", "establishment"], "rating": 3.7, "user_ratings_total": 3}, "ChIJJdq_qNQadkgRRQnlvprU1Jw": {"geometry": {"location": {"lat": 51.5154986, "lng": -0.1465747}, "viewport": {"northeast": {"lat": 51.5169507802915, "lng": -0.145209319708498}, "southwest": {"lat": 51.5142528197085, "lng": -0.147907280291502}}}, "name": "Azendi", "place_id": "ChIJJdq_qNQadkgRRQnlvprU1Jw", "types": ["jewelry_store", "point_of_interest", "store", "establishment"]}, "ChIJVVUVyNQadkgRcAIqWE0CQPw": {"geometry": {"location": {"lat": 51.515607, "lng": -0.1451907}, "viewport": {"northeast": {"lat": 51.5171199802915, "lng": -0.143931719708498}, "southwest": {"lat": 51.5144220197085, "lng": -0.146629680291502}}}, "name": "Hobbs Within John Lewis", "place_id": "ChIJVVUVyNQadkgRcAIqWE0CQPw", "types": ["point_of_interest", "clothing_store", "store", "establishment"], "rating": 3.8, "user_ratings_total": 4}, "ChIJhbMfrNQadkgRDUPFcQWiXZA": {"geometry": {"location": {"lat": 51.5156011, "lng": -0.1465403}, "viewport": {"northeast": {"lat": 51.51700203029149, "lng": -0.145209319708498}, "southwest": {"lat": 51.51430406970849, "lng": -0.147907280291502}}},