{"E00023818": {"ChIJa3yGCCgbdkgRcQGuKY8ssVA": {"geometry": {"location": {"lat": 51.5252544500073, "lng": -0.1402853499325915}, "viewport": {"northeast": {"lat": 51.52660343029149, "lng": -0.138936369708498}, "southwest": {"lat": 51.5239054697085, "lng": -0.141634330291502}}}, "name": "Triton Square", "place_id": "ChIJa3yGCCgbdkgRcQGuKY8ssVA", "types": ["route"]}, "ChIJa3oAiUgbdkgRZDLQzs-bVMI": {"geometry": {"location": {"lat": 51.524894, "lng": -0.140736}, "viewport": {"northeast": {"lat": 51.5263865802915, "lng": -0.139172869708498}, "southwest": {"lat": 51.5236886197085, "lng": -0.141870830291502}}}, "name": "Santander Bank Plc", "place_id": "ChIJa3oAiUgbdkgRZDLQzs-bVMI", "types": ["bank", "finance", "point_of_interest", "establishment"], "rating": 3.2, "user_ratings_total": 34}, "ChIJ4fsL-dcadkgRDWVUnObi9Qo": {"geometry": {"location": {"lat": 51.5251871, "lng": -0.1416478}, "viewport": {"northeast": {"lat": 51.5263394802915, "lng": -0.140677019708498}, "southwest": {"lat": 51.52364151970851, "lng": -0.143374980291502}}}, "name": "Rhum and Clay", "place_id": "ChIJ4fsL-dcadkgRDWVUnObi9Qo", "types": ["point_of_interest", "establishment"]}, "ChIJORKg_ScbdkgRj5yBD0zNPzY": {"geometry": {"location": {"lat": 51.52552379999999, "lng": -0.1404717}, "viewport": {"northeast": {"lat": 51.5268724802915, "lng": -0.139124219708498}, "southwest": {"lat": 51.5241745197085, "lng": -0.141822180291502}}}, "name": "Be Onsite", "place_id": "ChIJORKg_ScbdkgRj5yBD0zNPzY", "types": ["point_of_interest", "establishment"]}, "ChIJc4Nkqi4bdkgRmUJ5iQDeaPA": {"geometry": {"location": {"lat": 51.5254385, "lng": -0.1408237}, "viewport": {"northeast": {"lat": 51.5268253302915, "lng": -0.1392708197084979}, "southwest": {"lat": 51.5241273697085, "lng": -0.141968780291502}}}, "name": "Sunrise Brokers", "place_id": "ChIJc4Nkqi4bdkgRmUJ5iQDeaPA", "types": ["finance", "point_of_interest", "establishment"], "rating": 3, "user_ratings_total": 2}, "ChIJr5YM_ScbdkgRwUaRaVy7LRw": {"geometry": {"location": {"lat": 51.52508049999999, "lng": -0.14021}, "viewport": {"northeast": {"lat": 51.5264794302915, "lng": -0.138925769708498}, "southwest": {"lat": 51.5237814697085, "lng": -0.141623730291502}}}, "name": "Cater Allen Private Bank", "place_id": "ChIJr5YM_ScbdkgRwUaRaVy7LRw", "types": ["bank", "finance", "point_of_interest", "establishment"], "rating": 1.8, "user_ratings_total": 34}, "ChIJmWG9AygbdkgR7jg8FsAlXzA": {"geometry": {"location": {"lat": 51.5253767, "lng": -0.1410769}, "viewport": {"northeast": {"lat": 51.5267256802915, "lng": -0.139727919708498}, "southwest": {"lat": 51.5240277197085, "lng": -0.142425880291502}}}, "name": "Set Hair", "place_id": "ChIJmWG9AygbdkgR7jg8FsAlXzA", "types": ["hair_care", "point_of_interest", "establishment"], "rating": 5, "user_ratings_total": 5}, "ChIJR1MdACgbdkgRunBo1YZeVEU": {"geometry": {"location": {"lat": 51.5253956, "lng": -0.1410176}, "viewport": {"northeast": {"lat": 51.52683993029149, "lng": -0.1400468197084979}, "southwest": {"lat": 51.5241419697085, "lng": -0.142744780291502}}}, "name": "apex fling express", "place_id": "ChIJR1MdACgbdkgRunBo1YZeVEU", "types": ["point_of_interest", "establishment"]}, "ChIJi4JqAygbdkgRj81k14YBGPo": {"geometry": {"location": {"lat": 51.525009, "lng": -0.1408094}, "viewport": {"northeast": {"lat": 51.5264420802915, "lng": -0.139057669708498}, "southwest": {"lat": 51.5237441197085, "lng": -0.141755630291502}}}, "name": "Abbey Covered Bonds Llp", "place_id": "ChIJi4JqAygbdkgRj81k14YBGPo", "types": ["point_of_interest", "establishment"]}, "ChIJIaBR-NcadkgR7ReJneqDDwc": {"geometry": {"location": {"lat": 51.5252976, "lng": -0.1416054}, "viewport": {"northeast": {"lat": 51.52682918029151, "lng": -0.140324669708498}, "southwest": {"lat": 51.52413121970851, "lng": -0.143022630291502}}}, "name": "Talented Talkers", "place_id": "ChIJIaBR-NcadkgR7ReJneqDDwc", "types": ["point_of_interest", "establishment"]}, "ChIJqWau-9cadkgR26ED3C3-jqU": {"geometry": {"location": {"lat": 51.5251871, "lng": -0.1416478}, "viewport": {"northeast": {"lat": 51.5263394802915, "lng": -0.140677019708498}, "southwest": {"lat": 51.52364151970851, "lng": -0.143374980291502}}}, "name": "Aindrea Contemporary", "place_id": "ChIJqWau-9cadkgR26ED3C3-jqU", "types": ["art_gallery", "point_of_interest", "establishment"]}, "ChIJyQWiAdgadkgRb_A2xLQXGos": {"geometry": {"location": {"lat": 51.52557830000001, "lng": -0.1412944}, "viewport": {"northeast": {"lat": 51.5270198802915, "lng": -0.140070719708498}, "southwest": {"lat": 51.52432191970851, "lng": -0.142768680291502}}}, "name": "Ultra TradingFx", "place_id": "ChIJyQWiAdgadkgRb_A2xLQXGos", "types": ["finance", "point_of_interest", "establishment"]}, "ChIJi4JqAygbdkgRJet2gkP5YxU": {"geometry": {"location": {"lat": 51.52557830000001, "lng": -0.1412944}, "viewport": {"northeast": {"lat": 51.5270198802915, "lng": -0.140070719708498}, "southwest": {"lat": 51.52432191970851, "lng": -0.142768680291502}}}, "name": "Cater Allen Private Bank", "place_id": "ChIJi4JqAygbdkgRJet2gkP5YxU", "types": ["point_of_interest", "establishment"]}, "ChIJwdJyAdgadkgRzQ3CGurIAhc": {"geometry": {"location": {"lat": 51.5256339, "lng": -0.1412967}, "viewport": {"northeast": {"lat": 51.52705888029149, "lng": -0.140050569708498}, "southwest": {"lat": 51.52436091970849, "lng": -0.142748530291502}}}, "name": "Camden Cleaner", "place_id": "ChIJwdJyAdgadkgRzQ3CGurIAhc", "types": ["point_of_interest", "establishment"]}, "ChIJ230q_icbdkgR__DbdQJfBMs": {"geometry": {"location": {"lat": 51.5255142, "lng": -0.1404159}, "viewport": {"northeast": {"lat": 51.5268541802915, "lng": -0.1391154197084979}, "southwest": {"lat": 51.5241562197085, "lng": -0.141813380291502}}}, "name": "Anix Group Limited", "place_id": "ChIJ230q_icbdkgR__DbdQJfBMs", "types": ["point_of_interest", "establishment"]}, "ChIJ0fND4NcadkgRDdXNGI9hTQE": {"geometry": {"location": {"lat": 51.52423090002424, "lng": -0.1411083000323319}, "viewport": {"northeast": {"lat": 51.52557988029151, "lng": -0.139759319708498}, "southwest": {"lat": 51.52288191970851, "lng": -0.142457280291502}}}, "name": "355 A501", "place_id": "ChIJ0fND4NcadkgRDdXNGI9hTQE", "types": ["route"]}, "ChIJq0DYJigbdkgRzbM2gAvqJPs": {"geometry": {"location": {"lat": 51.52377399999999, "lng": -0.140852}, "viewport": {"northeast": {"lat": 51.52516783029149, "lng": -0.139493019708498}, "southwest": {"lat": 51.52246986970849, "lng": -0.142190980291502}}}, "name": "Honey & Co.", "place_id": "ChIJq0DYJigbdkgRzbM2gAvqJPs", "types": ["meal_takeaway", "restaurant", "food", "point_of_interest", "establishment"], "rating": 4.5, "user_ratings_total": 986}, "ChIJbeIduSobdkgRnqO8V3KZHPw": {"geometry": {"location": {"lat": 51.5240807, "lng": -0.1412706}, "viewport": {"northeast": {"lat": 51.5254775302915, "lng": -0.139951269708498}, "southwest": {"lat": 51.5227795697085, "lng": -0.142649230291502}}}, "name": "Ten Group", "place_id": "ChIJbeIduSobdkgRnqO8V3KZHPw", "types": ["travel_agency", "point_of_interest", "establishment"], "rating": 4.2, "user_ratings_total": 23}, "ChIJqeG2JigbdkgRPS6JDf32de8": {"geometry": {"location": {"lat": 51.5237835, "lng": -0.1407372}, "viewport": {"northeast": {"lat": 51.5251797302915, "lng": -0.139413969708498}, "southwest": {"lat": 51.5224817697085, "lng": -0.142111930291502}}}, "name": "The Tanning Shop Warren Street", "place_id": "ChIJqeG2JigbdkgRPS6JDf32de8", "types": ["point_of_interest", "establishment"], "rating": 4.3, "user_ratings_total": 28}, "ChIJKdbtFCgbdkgRucmA5oQqPSk": {"geometry": {"location": {"lat": 51.5242407, "lng": -0.140477}, "viewport": {"northeast": {"lat": 51.5256339302915, "lng": -0.139155369708498}, "southwest": {"lat": 51.5229359697085, "lng": -0.141853330291502}}}, "name": "Margolis Furniture - London", "place_id": "ChIJKdbtFCgbdkgRucmA5oQqPSk", "types": ["furniture_store", "home_goods_store", "point_of_interest", "store", "establishment"], "rating": 4.8, "user_ratings_total": 8}, "ChIJpxil5dcadkgRXIUYyv0lb5c": {"geometry": {"location": {"lat": 51.5244589, "lng": -0.1414471}, "viewport": {"northeast": {"lat": 51.5257303302915, "lng": -0.140053269708498}, "southwest": {"lat": 51.5230323697085, "lng": -0.142751230291502}}}, "name": "SELL CAR IN LONDON", "place_id": "ChIJpxil5dcadkgRXIUYyv0lb5c", "types": ["car_dealer", "point_of_interest", "store", "establishment"], "rating": 5, "user_ratings_total": 6}, "ChIJpxil5dcadkgRUhSFoMUOfbQ": {"geometry": {"location": {"lat": 51.5244589, "lng": -0.1414471}, "viewport": {"northeast": {"lat": 51.5257303302915, "lng": -0.140053269708498}, "southwest": {"lat": 51.5230323697085, "lng": -0.142751230291502}}}, "name": "Buy my car now", "place_id": "ChIJpxil5dcadkgRUhSFoMUOfbQ", "types": ["car_dealer", "point_of_interest", "store", "establishment"], "rating": 1, "user_ratings_total": 1}, "ChIJ23yTqNUEdkgRCtTUnMHRKEI": {"geometry": {"location": {"lat": 51.5239792, "lng": -0.1410999}, "viewport": {"northeast": {"lat": 51.5252533802915, "lng": -0.139710169708498}, "southwest": {"lat": 51.5225554197085, "lng": -0.142408130291502}}}, "name": "Whizz Kid Entertainment", "place_id": "ChIJ23yTqNUEdkgRCtTUnMHRKEI", "types": ["point_of_interest", "establishment"], "rating": 4.3, "user_ratings_total": 4}, "ChIJwWGQ39cadkgRO9AOfHoXj3A": {"geometry": {"location": {"lat": 51.5240826, "lng": -0.140685}, "viewport": {"northeast": {"lat": 51.52545643029151, "lng": -0.139267219708498}, "southwest": {"lat": 51.52275846970851, "lng": -0.141965180291502}}}, "name": "GFW Practice", "place_id": "ChIJwWGQ39cadkgRO9AOfHoXj3A", "types": ["health", "point_of_interest", "establishment"]}, "ChIJAYXguCobdkgR3pRiRAh9M7w": {"geometry": {"location": {"lat": 51.5240848, "lng": -0.1412452}, "viewport": {"northeast": {"lat": 51.5254824802915, "lng": -0.139926369708498}, "southwest": {"lat": 51.5227845197085, "lng": -0.142624330291502}}}, "name": "Ten Lifestyle Group plc", "place_id": "ChIJAYXguCobdkgR3pRiRAh9M7w", "types": ["point_of_interest", "establishment"]}, "ChIJKxqK39cadkgRnC-AjV0NpUM": {"geometry": {"location": {"lat": 51.5240837, "lng": -0.1412523}, "viewport": {"northeast": {"lat": 51.5254811302915, "lng": -0.139933319708498}, "southwest": {"lat": 51.5227831697085, "lng": -0.142631280291502}}}, "name": "Ten Concierge", "place_id": "ChIJKxqK39cadkgRnC-AjV0NpUM", "types": ["point_of_interest", "establishment"], "rating": 1, "user_ratings_total": 1}, "ChIJsfkRPSgbdkgRLKrKsvOsUec": {"geometry": {"location": {"lat": 51.52388570000001, "lng": -0.1410721}, "viewport": {"northeast": {"lat": 51.52520458029151, "lng": -0.139705719708498}, "southwest": {"lat": 51.52250661970851, "lng": -0.142403680291502}}}, "name": "Entertainment One Films", "place_id": "ChIJsfkRPSgbdkgRLKrKsvOsUec", "types": ["point_of_interest", "establishment"], "rating": 3.5, "user_ratings_total": 24}, "ChIJGyOl5dcadkgROAtkEjZVSYo": {"geometry": {"location": {"lat": 51.5243784, "lng": -0.1415308}, "viewport": {"northeast": {"lat": 51.5256791802915, "lng": -0.140122719708498}, "southwest": {"lat": 51.5229812197085, "lng": -0.142820680291502}}}, "name": "Dr Pav Kaliray", "place_id": "ChIJGyOl5dcadkgROAtkEjZVSYo", "types": ["doctor", "local_government_office", "health", "point_of_interest", "establishment"]}, "ChIJpxil5dcadkgR9oK4gkny56M": {"geometry": {"location": {"lat": 51.5244589, "lng": -0.1414471}, "viewport": {"northeast": {"lat": 51.5257303302915, "lng": -0.140053269708498}, "southwest": {"lat": 51.5230323697085, "lng": -0.142751230291502}}}, "name": "Elliot Marsh Ltd", "place_id": "ChIJpxil5dcadkgR9oK4gkny56M", "types": ["point_of_interest", "establishment"]}, "ChIJ20_cFSgbdkgR2jpZA2Pi3uY": {"geometry": {"location": {"lat": 51.52417980000001, "lng": -0.1404576}, "viewport": {"northeast": {"lat": 51.5255106802915, "lng": -0.139158769708498}, "southwest": {"lat": 51.52281271970851, "lng": -0.141856730291502}}}, "name": "Events Photographer London", "place_id": "ChIJ20_cFSgbdkgR2jpZA2Pi3uY", "types": ["point_of_interest", "establishment"], "rating": 5, "user_ratings_total": 93}, "ChIJVVWRx9IEdkgRnE9rVw3WRtY": {"geometry": {"location": {"lat": 51.5239425, "lng": -0.1415221}, "viewport": {"northeast": {"lat": 51.52526278029151, "lng": -0.140248019708498}, "southwest": {"lat": 51.52256481970851, "lng": -0.142945980291502}}}, "name": "Bill's Head Office", "place_id": "ChIJVVWRx9IEdkgRnE9rVw3WRtY", "types": ["restaurant", "food", "point_of_interest", "establishment"], "rating": 4, "user_ratings_total": 9}, "ChIJpxil5dcadkgR7aoIhIcQuMo": {"geometry": {"location": {"lat": 51.5244589, "lng": -0.1414471}, "viewport": {"northeast": {"lat": 51.5257303302915, "lng": -0.140053269708498}, "southwest": {"lat": 51.5230323697085, "lng": -0.142751230291502}}}, "name": "MPP Global Solutions Ltd", "place_id": "ChIJpxil5dcadkgR7aoIhIcQuMo", "types": ["point_of_interest", "establishment"]}, "ChIJeREnx9cadkgR7-aUTW4gE6w": {"geometry": {"location": {"lat": 51.5237669, "lng": -0.1409677}, "viewport": {"northeast": {"lat": 51.5251487802915, "lng": -0.1396366197084979}, "southwest": {"lat": 51.5224508197085, "lng": -0.142334580291502}}}, "name": "LEQ Ltd", "place_id": "ChIJeREnx9cadkgR7-aUTW4gE6w", "types": ["point_of_interest", "establishment"]}, "ChIJGyOl5dcadkgRP70emY-OROs": {"geometry": {"location": {"lat": 51.5244594, "lng": -0.1414474}, "viewport": {"northeast": {"lat": 51.5257305802915, "lng": -0.140042069708498}, "southwest": {"lat": 51.5230326197085, "lng": -0.142740030291502}}}, "name": "CCM Consulting Europe", "place_id": "ChIJGyOl5dcadkgRP70emY-OROs", "types": ["point_of_interest", "establishment"]}, "ChIJG_LXFigbdkgRNoc60Aqx_E0": {"geometry": {"location": {"lat": 51.5244606, "lng": -0.1414384}, "viewport": {"northeast": {"lat": 51.5257323302915, "lng": -0.140049169708498}, "southwest": {"lat": 51.5230343697085, "lng": -0.142747130291502}}}, "name": "Examdoctor", "place_id": "ChIJG_LXFigbdkgRNoc60Aqx_E0", "types": ["point_of_interest", "establishment"]}, "ChIJGRVaGCgbdkgRVVWhNwO1lWc": {"geometry": {"location": {"lat": 51.5242419, "lng": -0.1404336}, "viewport": {"northeast": {"lat": 51.52563913029149, "lng": -0.139114469708498}, "southwest": {"lat": 51.5229411697085, "lng": -0.141812430291502}}}, "name": "Just Office Furniture", "place_id": "ChIJGRVaGCgbdkgRVVWhNwO1lWc", "types": ["point_of_interest", "establishment"]}, "ChIJe88qGCgbdkgRVKDYTE5f_wQ": {"geometry": {"location": {"lat": 51.5242419, "lng": -0.1404336}, "viewport": {"northeast": {"lat": 51.52563913029149, "lng": -0.139114469708498}, "southwest": {"lat": 51.5229411697085, "lng": -0.141812430291502}}}, "name": "Fresh Office Ideas", "place_id": "ChIJe88qGCgbdkgRVKDYTE5f_wQ", "types": ["point_of_interest", "establishment"]}, "ChIJe88qGCgbdkgRqKGagd2cvb8": {"geometry": {"location": {"lat": 51.5242418, "lng": -0.1404335}, "viewport": {"northeast": {"lat": 51.52563913029149, "lng": -0.139114419708498}, "southwest": {"lat": 51.5229411697085, "lng": -0.141812380291502}}}, "name": "WestWon Asset Finance & Leasing London", "place_id": "ChIJe88qGCgbdkgRqKGagd2cvb8", "types": ["finance", "point_of_interest", "establishment"]}, "ChIJTR-l5dcadkgRiXI0L2wb69c": {"geometry": {"location": {"lat": 51.5244181, "lng": -0.1414823}, "viewport": {"northeast": {"lat": 51.5257023802915, "lng": -0.140086419708498}, "southwest": {"lat": 51.5230044197085, "lng": -0.142784380291502}}}, "name": "Franklin Watts", "place_id": "ChIJTR-l5dcadkgRiXI0L2wb69c", "types": ["point_of_interest", "establishment"]}, "ChIJIwId5NcadkgRNuo-xBRb-D8": {"geometry": {"location": {"lat": 51.5244606, "lng": -0.1414383}, "viewport": {"northeast": {"lat": 51.5257323802915, "lng": -0.140049119708498}, "southwest": {"lat": 51.5230344197085, "lng": -0.142747080291502}}}, "name": "RMIaccountancy Ltd.", "place_id": "ChIJIwId5NcadkgRNuo-xBRb-D8", "types": ["accounting", "finance", "point_of_interest", "establishment"]}, "ChIJO-W6QuO-2EcRzYEJDjlx2qE": {"geometry": {"location": {"lat": 51.52383409999999, "lng": -0.1405827}, "viewport": {"northeast": {"lat": 51.52518308029148, "lng": -0.139233719708498}, "southwest": {"lat": 51.52248511970849, "lng": -0.141931680291502}}}, "name": "The Television and Radio Industries Club", "place_id": "ChIJO-W6QuO-2EcRzYEJDjlx2qE", "types": ["point_of_interest", "establishment"]}, "ChIJCbzxIygbdkgRU6ruIO8aorc": {"geometry": {"location": {"lat": 51.52382900000001, "lng": -0.1405819}, "viewport": {"northeast": {"lat": 51.52517798029151, "lng": -0.139232919708498}, "southwest": {"lat": 51.52248001970851, "lng": -0.1419308802915021}}}, "name": "Seventeen 0 Seven London", "place_id": "ChIJCbzxIygbdkgRU6ruIO8aorc", "types": ["restaurant", "food", "point_of_interest", "establishment"], "rating": 4.3, "user_ratings_total": 38}, "ChIJeREnx9cadkgRmHud92NO77s": {"geometry": {"location": {"lat": 51.52372219999999, "lng": -0.1409764}, "viewport": {"northeast": {"lat": 51.52512298029149, "lng": -0.139657369708498}, "southwest": {"lat": 51.52242501970849, "lng": -0.142355330291502}}}, "name": "Texxi", "place_id": "ChIJeREnx9cadkgRmHud92NO77s", "types": ["point_of_interest", "establishment"]}, "ChIJdxEnx9cadkgRl12yHDC3ogU": {"geometry": {"location": {"lat": 51.52372219999999, "lng": -0.1409764}, "viewport": {"northeast": {"lat": 51.52512298029149, "lng": -0.139657369708498}, "southwest": {"lat": 51.52242501970849, "lng": -0.142355330291502}}}, "name": "HJ Manicure Ltd", "place_id": "ChIJdxEnx9cadkgRl12yHDC3ogU", "types": ["point_of_interest", "establishment"], "rating": 5, "user_ratings_total": 1}, "ChIJdxEnx9cadkgR1yDSOfN9QZA": {"geometry": {"location": {"lat": 51.52372219999999, "lng": -0.1409764}, "viewport": {"northeast": {"lat": 51.52512298029149, "lng": -0.139657369708498}, "southwest": {"lat": 51.52242501970849, "lng": -0.142355330291502}}}, "name": "Tentacle Films", "place_id": "ChIJdxEnx9cadkgR1yDSOfN9QZA", "types": ["point_of_interest", "establishment"]}, "ChIJeREnx9cadkgRQdFmuvgN7eg": {"geometry": {"location": {"lat": 51.52372219999999, "lng": -0.1409764}, "viewport": {"northeast": {"lat": 51.52512298029149, "lng": -0.139657369708498}, "southwest": {"lat": 51.52242501970849, "lng": -0.142355330291502}}}, "name": "MEY Designs", "place_id": "ChIJeREnx9cadkgRQdFmuvgN7eg", "types": ["point_of_interest", "establishment"]}, "ChIJeREnx9cadkgRpuV5D3lAEs8": {"geometry": {"location": {"lat": 51.52372219999999, "lng": -0.1409764}, "viewport": {"northeast": {"lat": 51.52512298029149, "lng": -0.139657369708498}, "southwest": {"lat": 51.52242501970849, "lng": -0.142355330291502}}}, "name": "Jerk Express", "place_id": "ChIJeREnx9cadkgRpuV5D3lAEs8", "types": ["point_of_interest", "establishment"]}, "ChIJeREnx9cadkgRSs0v7OjIIMs": {"geometry": {"location": {"lat": 51.52372219999999, "lng": -0.1409764}, "viewport": {"northeast": {"lat": 51.52512298029149, "lng": -0.139657369708498}, "southwest": {"lat": 51.52242501970849, "lng": -0.142355330291502}}}, "name": "Sarah Castle Consultancy", "place_id": "ChIJeREnx9cadkgRSs0v7OjIIMs", "types": ["point_of_interest", "establishment"]}, "ChIJdxEnx9cadkgR2RzXNL-l7z0": {"geometry": {"location": {"lat": 51.52372219999999, "lng": -0.1409764}, "viewport": {"northeast": {"lat": 51.52512298029149, "lng": -0.139657369708498}, "southwest": {"lat": 51.52242501970849, "lng": -0.142355330291502}}}, "name": "Modulo2 Ltd", "place_id": "ChIJdxEnx9cadkgR2RzXNL-l7z0", "types": ["point_of_interest", "establishment"], "rating": 5, "user_ratings_total": 1}, "ChIJrynjxtcadkgRK5O22mdDqlQ": {"geometry": {"location": {"lat": 51.52372219999999, "lng": -0.1409764}, "viewport": {"northeast": {"lat": 51.52512298029149, "lng": -0.139657369708498}, "southwest": {"lat": 51.52242501970849, "lng": -0.142355330291502}}}, "name": "Walnut Partners Limited", "place_id": "ChIJrynjxtcadkgRK5O22mdDqlQ", "types": ["point_of_interest", "establishment"]}, "ChIJIQCzIigbdkgRv-KdA8oLUQU": {"geometry": {"location": {"lat": 51.5240926, "lng": -0.1403347}, "viewport": {"northeast": {"lat": 51.5254198302915, "lng": -0.139050719708498}, "southwest": {"lat": 51.5227218697085, "lng": -0.141748680291502}}}, "name": "Form - Digital Recruitment Experts", "place_id": "ChIJIQCzIigbdkgRv-KdA8oLUQU", "types": ["point_of_interest", "establishment"]}, "ChIJsZ4i5NcadkgRDW6G3K-YMNI": {"geometry": {"location": {"lat": 51.5244855, "lng": -0.1414758}, "viewport": {"northeast": {"lat": 51.5257425302915, "lng": -0.1400601697084979}, "southwest": {"lat": 51.5230445697085, "lng": -0.142758130291502}}}, "name": "Kontiki", "place_id": "ChIJsZ4i5NcadkgRDW6G3K-YMNI", "types": ["electronics_store", "point_of_interest", "store", "establishment"]}, "ChIJLRlR2TsFdkgRn1WU_zgShp4": {"geometry": {"location": {"lat": 51.52385580000001, "lng": -0.1405017}, "viewport": {"northeast": {"lat": 51.5252350302915, "lng": -0.139073969708498}, "southwest": {"lat": 51.52253706970851, "lng": -0.141771930291502}}}, "name": "MARA Intelligence Ltd", "place_id": "ChIJLRlR2TsFdkgRn1WU_zgShp4", "types": ["point_of_interest", "establishment"]}, "ChIJrZcvC2kEdkgRdtlZLoZJGT4": {"geometry": {"location": {"lat": 51.52385580000001, "lng": -0.1405017}, "viewport": {"northeast": {"lat": 51.5252047802915, "lng": -0.139152719708498}, "southwest": {"lat": 51.5225068197085, "lng": -0.1418506802915021}}}, "name": "Denmark Street Management", "place_id": "ChIJrZcvC2kEdkgRdtlZLoZJGT4", "types": ["point_of_interest", "establishment"]}, "ChIJNTPRwQkbdkgRtCtDLDE2zvg": {"geometry": {"location": {"lat": 51.52385580000001, "lng": -0.1405017}, "viewport": {"northeast": {"lat": 51.52523488029151, "lng": -0.139076019708498}, "southwest": {"lat": 51.52253691970851, "lng": -0.1417739802915021}}}, "name": "Synergy Property Partners Ltd", "place_id": "ChIJNTPRwQkbdkgRtCtDLDE2zvg", "types": ["general_contractor", "point_of_interest", "establishment"], "rating": 4, "user_ratings_total": 4}, "ChIJV4volxoEdkgROb1BAd2UGqg": {"geometry": {"location": {"lat": 51.52385580000001, "lng": -0.1405017}, "viewport": {"northeast": {"lat": 51.5252047802915, "lng": -0.139152719708498}, "southwest": {"lat": 51.5225068197085, "lng": -0.1418506802915021}}}, "name": "Flash Pack", "place_id": "ChIJV4volxoEdkgROb1BAd2UGqg", "types": ["point_of_interest", "establishment"], "rating": 4.6, "user_ratings_total": 71}, "ChIJ5ReMhEsbdkgR443ngkgEzYo": {"geometry": {"location": {"lat": 51.52385580000001, "lng": -0.1405017}, "viewport": {"northeast": {"lat": 51.5252047802915, "lng": -0.139152719708498}, "southwest": {"lat": 51.5225068197085, "lng": -0.1418506802915021}}}, "name": "Foxcomm", "place_id": "ChIJ5ReMhEsbdkgR443ngkgEzYo", "types": ["storage", "point_of_interest", "establishment"], "rating": 5, "user_ratings_total": 1}, "ChIJV0TqL_MadkgRqMlx1sepZlk": {"geometry": {"location": {"lat": 51.52385580000001, "lng": -0.1405017}, "viewport": {"northeast": {"lat": 51.5252047802915, "lng": -0.139152719708498}, "southwest": {"lat": 51.5225068197085, "lng": -0.1418506802915021}}}, "name": "Farima Perry Florals & Events", "place_id": "ChIJV0TqL_MadkgRqMlx1sepZlk", "types": ["florist", "point_of_interest", "store", "establishment"], "rating": 4.8, "user_ratings_total": 11}, "ChIJgT1A5tcadkgRE-p49Q3eyPM": {"geometry": {"location": {"lat": 51.5244313, "lng": -0.141613}, "viewport": {"northeast": {"lat": 51.5256948802915, "lng": -0.140192419708498}, "southwest": {"lat": 51.5229969197085, "lng": -0.142890380291502}}}, "name": "Easy Accountancy Accountants", "place_id": "ChIJgT1A5tcadkgRE-p49Q3eyPM", "types": ["accounting", "finance", "point_of_interest", "establishment"]}, "ChIJASRIhNYEdkgRqAAGhfFPqFI": {"geometry": {"location": {"lat": 51.524468, "lng": -0.141533}, "viewport": {"northeast": {"lat": 51.5257256302915, "lng": -0.140117819708498}, "southwest": {"lat": 51.5230276697085, "lng": -0.142815780291502}}}, "name": "TIME Investments", "place_id": "ChIJASRIhNYEdkgRqAAGhfFPqFI", "types": ["finance", "point_of_interest", "establishment"], "rating": 4, "user_ratings_total": 4}, "ChIJIQCzIigbdkgRfr1mUozpxqg": {"geometry": {"location": {"lat": 51.5240703, "lng": -0.1403043}, "viewport": {"northeast": {"lat": 51.5253942802915, "lng": -0.139024619708498}, "southwest": {"lat": 51.5226963197085, "lng": -0.141722580291502}}}, "name": "Thoughtbubble", "place_id": "ChIJIQCzIigbdkgRfr1mUozpxqg", "types": ["point_of_interest", "establishment"], "rating": 5, "user_ratings_total": 1}, "ChIJI5SbIygbdkgRJBu3W7BvaGk": {"geometry": {"location": {"lat": 51.52385, "lng": -0.1404876}, "viewport": {"northeast": {"lat": 51.5252280802915, "lng": -0.139062869708498}, "southwest": {"lat": 51.5225301197085, "lng": -0.141760830291502}}}, "name": "Revolution Fuel", "place_id": "ChIJI5SbIygbdkgRJBu3W7BvaGk", "types": ["point_of_interest", "establishment"]}, "ChIJv6fd-VAbdkgRlZjXIceq2n0": {"geometry": {"location": {"lat": 51.5238254, "lng": -0.1405173}, "viewport": {"northeast": {"lat": 51.52521103029149, "lng": -0.139075019708498}, "southwest": {"lat": 51.5225130697085, "lng": -0.141772980291502}}}, "name": "REED FAMILY LINEN", "place_id": "ChIJv6fd-VAbdkgRlZjXIceq2n0", "types": ["home_goods_store", "point_of_interest", "store", "establishment"], "rating": 5, "user_ratings_total": 2}, "ChIJVep6Pbe-dkgRS8TIJEQUPgk": {"geometry": {"location": {"lat": 51.5238716, "lng": -0.140447}, "viewport": {"northeast": {"lat": 51.5252205802915, "lng": -0.139098019708498}, "southwest": {"lat": 51.5225226197085, "lng": -0.141795980291502}}}, "name": "Glue Films", "place_id": "ChIJVep6Pbe-dkgRS8TIJEQUPgk", "types": ["point_of_interest", "establishment"]}, "ChIJfcMlGCgbdkgR-ePMQpLfmEo": {"geometry": {"location": {"lat": 51.5242403, "lng": -0.1403045}, "viewport": {"northeast": {"lat": 51.5256516802915, "lng": -0.138994169708498}, "southwest": {"lat": 51.5229537197085, "lng": -0.141692130291502}}}, "name": "Central London Estates| Commercial| Sales| Lettings| Investments| Management", "place_id": "ChIJfcMlGCgbdkgR-ePMQpLfmEo", "types": ["point_of_interest", "establishment"], "rating": 4.9, "user_ratings_total": 35}, "ChIJCSYEGCgbdkgR0pFT1wgZ6RQ": {"geometry": {"location": {"lat": 51.5242418, "lng": -0.1404335}, "viewport": {"northeast": {"lat": 51.52563913029149, "lng": -0.139114419708498}, "southwest": {"lat": 51.5229411697085, "lng": -0.141812380291502}}}, "name": "Want Dont Want.Com", "place_id": "ChIJCSYEGCgbdkgR0pFT1wgZ6RQ", "types": ["furniture_store", "home_goods_store", "point_of_interest", "store", "establishment"], "rating": 4.8, "user_ratings_total": 19}, "ChIJVc2Y2dcadkgR7ARgNZhMiFM": {"geometry": {"location": {"lat": 51.5236723, "lng": -0.1412468}, "viewport": {"northeast": {"lat": 51.5249917802915, "lng": -0.139971469708498}, "southwest": {"lat": 51.5222938197085, "lng": -0.142669430291502}}}, "name": "Gardner Herrity", "place_id": "ChIJVc2Y2dcadkgR7ARgNZhMiFM", "types": ["point_of_interest", "establishment"], "rating": 5, "user_ratings_total": 3}, "ChIJUSIQ2dcadkgRIlYD9CFRKNQ": {"geometry": {"location": {"lat": 51.5236723, "lng": -0.1412468}, "viewport": {"northeast": {"lat": 51.5249917802915, "lng": -0.139971469708498}, "southwest": {"lat": 51.5222938197085, "lng": -0.142669430291502}}}, "name": "Marlene Sidaway", "place_id": "ChIJUSIQ2dcadkgRIlYD9CFRKNQ", "types": ["point_of_interest", "establishment"]}, "ChIJIQCzIigbdkgRaObufYtsz-I": {"geometry": {"location": {"lat": 51.52412160000001, "lng": -0.14023}, "viewport": {"northeast": {"lat": 51.52541323029151, "lng": -0.138849919708498}, "southwest": {"lat": 51.52271526970851, "lng": -0.1415478802915021}}}, "name": "Fitzrovia Group Analytic Practice", "place_id": "ChIJIQCzIigbdkgRaObufYtsz-I", "types": ["health", "point_of_interest", "establishment"]}, "ChIJGc63GVQbdkgRF2IuNs-YMdw": {"geometry": {"location": {"lat": 51.5238026, "lng": -0.1404591}, "viewport": {"northeast": {"lat": 51.52515158029149, "lng": -0.139110119708498}, "southwest": {"lat": 51.5224536197085, "lng": -0.141808080291502}}}, "name": "Boostbase", "place_id": "ChIJGc63GVQbdkgRF2IuNs-YMdw", "types": ["point_of_interest", "establishment"]}, "ChIJXfSE2NcadkgRe3D78iXOn1s": {"geometry": {"location": {"lat": 51.5237476, "lng": -0.1410556}, "viewport": {"northeast": {"lat": 51.52512928029149, "lng": -0.139725519708498}, "southwest": {"lat": 51.5224313197085, "lng": -0.142423480291502}}}, "name": "Smugglers Tavern", "place_id": "ChIJXfSE2NcadkgRe3D78iXOn1s", "types": ["bar", "restaurant", "food", "point_of_interest", "establishment"], "rating": 4.3, "user_ratings_total": 532}, "ChIJQe93IygbdkgRRodIcpc5QMk": {"geometry": {"location": {"lat": 51.52385580000001, "lng": -0.1405017}, "viewport": {"northeast": {"lat": 51.5252350302915, "lng": -0.139073969708498}, "southwest": {"lat": 51.52253706970851, "lng": -0.141771930291502}}}, "name": "Pall Mall Barbers Fitzrovia, London", "place_id": "ChIJQe93IygbdkgRRodIcpc5QMk", "types": ["hair_care", "health", "point_of_interest", "establishment"], "rating": 4.8, "user_ratings_total": 655}, "ChIJl0MM2dcadkgR9emXI3qJOkI": {"geometry": {"location": {"lat": 51.5236561, "lng": -0.1412711}, "viewport": {"northeast": {"lat": 51.52497983029151, "lng": -0.139983719708498}, "southwest": {"lat": 51.52228186970851, "lng": -0.142681680291502}}}, "name": "Karma Creative", "place_id": "ChIJl0MM2dcadkgR9emXI3qJOkI", "types": ["point_of_interest", "establishment"]}, "ChIJ1U1cJygbdkgRe71nZdRI2Ao": {"geometry": {"location": {"lat": 51.52368860000001, "lng": -0.1409348}, "viewport": {"northeast": {"lat": 51.52510823029151, "lng": -0.139626919708498}, "southwest": {"lat": 51.52241026970851, "lng": -0.142324880291502}}}, "name": "Alec Tiranti", "place_id": "ChIJ1U1cJygbdkgRe71nZdRI2Ao", "types": ["point_of_interest", "store", "establishment"], "rating": 4.1, "user_ratings_total": 65}, "ChIJNx0rLdYadkgRvYHrk1e-ASI": {"geometry": {"location": {"lat": 51.52280664064705, "lng": -0.1415390887879331}, "viewport": {"northeast": {"lat": 51.5241552802915, "lng": -0.1401908197084979}, "southwest": {"lat": 51.5214573197085, "lng": -0.142888780291502}}}, "name": "131-151 Cleveland St", "place_id": "ChIJNx0rLdYadkgRvYHrk1e-ASI", "types": ["route"]}, "ChIJPbUV3CkbdkgRhrOXvTvTU8Q": {"geometry": {"location": {"lat": 51.52297339999999, "lng": -0.1416052}, "viewport": {"northeast": {"lat": 51.52430098029149, "lng": -0.140300519708498}, "southwest": {"lat": 51.52160301970849, "lng": -0.142998480291502}}}, "name": "Western Printers", "place_id": "ChIJPbUV3CkbdkgRhrOXvTvTU8Q", "types": ["point_of_interest", "store", "establishment"], "rating": 4.3, "user_ratings_total": 19}, "ChIJU4Xh1dcadkgRwoc0XFqDWOo": {"geometry": {"location": {"lat": 51.5231439, "lng": -0.141151}, "viewport": {"northeast": {"lat": 51.5245379802915, "lng": -0.139726619708498}, "southwest": {"lat": 51.5218400197085, "lng": -0.142424580291502}}}, "name": "Southbank International School Westminster - Conway Street", "place_id": "ChIJU4Xh1dcadkgRwoc0XFqDWOo", "types": ["secondary_school", "school", "point_of_interest", "establishment"], "rating": 5, "user_ratings_total": 4}, "ChIJm_-fE9YadkgRuJ8x3Fc_SHA": {"geometry": {"location": {"lat": 51.52264, "lng": -0.141149}, "viewport": {"northeast": {"lat": 51.5239889802915, "lng": -0.139800019708498}, "southwest": {"lat": 51.5212910197085, "lng": -0.1424979802915021}}}, "name": "Sweatband.com", "place_id": "ChIJm_-fE9YadkgRuJ8x3Fc_SHA", "types": ["point_of_interest", "store", "establishment"], "rating": 3.5, "user_ratings_total": 90}, "ChIJ0dMN09cadkgRP6D1SfcTN8I": {"geometry": {"location": {"lat": 51.5231778, "lng": -0.1411461}, "viewport": {"northeast": {"lat": 51.5245549302915, "lng": -0.139724169708498}, "southwest": {"lat": 51.5218569697085, "lng": -0.142422130291502}}}, "name": "Search Engine Optimization London Ltd", "place_id": "ChIJ0dMN09cadkgRP6D1SfcTN8I", "types": ["point_of_interest", "establishment"]}, "ChIJ8QeJhgcbdkgR6IjfCN2_vRc": {"geometry": {"location": {"lat": 51.52281509999999, "lng": -0.1409138}, "viewport": {"northeast": {"lat": 51.52429193029149, "lng": -0.139440319708498}, "southwest": {"lat": 51.52159396970849, "lng": -0.1421382802915021}}}, "name": "Brand Genetics Ltd", "place_id": "ChIJ8QeJhgcbdkgR6IjfCN2_vRc", "types": ["point_of_interest", "establishment"]}, "ChIJ96DR09cadkgRTrS_HVckQRQ": {"geometry": {"location": {"lat": 51.5230745, "lng": -0.1416282}, "viewport": {"northeast": {"lat": 51.5244520302915, "lng": -0.140210219708498}, "southwest": {"lat": 51.5217540697085, "lng": -0.142908180291502}}}, "name": "Walbrook Architectural Appointments", "place_id": "ChIJ96DR09cadkgRTrS_HVckQRQ", "types": ["point_of_interest", "establishment"]}, "ChIJW07W75en2EcRq-FwBIhfZxs": {"geometry": {"location": {"lat": 51.5230344, "lng": -0.1410623}, "viewport": {"northeast": {"lat": 51.5244229302915, "lng": -0.139617819708498}, "southwest": {"lat": 51.5217249697085, "lng": -0.142315780291502}}}, "name": "WellTax Limited", "place_id": "ChIJW07W75en2EcRq-FwBIhfZxs", "types": ["accounting", "finance", "point_of_interest", "establishment"], "rating": 4.7, "user_ratings_total": 14}, "ChIJzdZW5NcadkgR6EU5fIOJefw": {"geometry": {"location": {"lat": 51.5230344, "lng": -0.1410623}, "viewport": {"northeast": {"lat": 51.5244229302915, "lng": -0.139617819708498}, "southwest": {"lat": 51.5217249697085, "lng": -0.142315780291502}}}, "name": "Hotelplanner Ltd", "place_id": "ChIJzdZW5NcadkgR6EU5fIOJefw", "types": ["travel_agency", "point_of_interest", "establishment"], "rating": 5, "user_ratings_total": 1}, "ChIJu1rMKygbdkgRgQpCs8J3W1Y": {"geometry": {"location": {"lat": 51.5230588, "lng": -0.1409146}, "viewport": {"northeast": {"lat": 51.5244195302915, "lng": -0.139537169708498}, "southwest": {"lat": 51.5217215697085, "lng": -0.142235130291502}}}, "name": "Sinequa Ltd.", "place_id": "ChIJu1rMKygbdkgRgQpCs8J3W1Y", "types": ["point_of_interest", "establishment"], "rating": 5, "user_ratings_total": 1}, "ChIJY0TUtCkbdkgRDd3y22BEK0U": {"geometry": {"location": {"lat": 51.5230205, "lng": -0.1411143}, "viewport": {"northeast": {"lat": 51.5244185802915, "lng": -0.139646619708498}, "southwest": {"lat": 51.5217206197085, "lng": -0.142344580291502}}}, "name": "Ktesius Projects", "place_id": "ChIJY0TUtCkbdkgRDd3y22BEK0U", "types": ["real_estate_agency", "point_of_interest", "establishment"]}, "ChIJky_QKygbdkgRh-WtYWuzMAo": {"geometry": {"location": {"lat": 51.52309820000001, "lng": -0.1407869}, "viewport": {"northeast": {"lat": 51.5244649302915, "lng": -0.1394571197084979}, "southwest": {"lat": 51.5217669697085, "lng": -0.142155080291502}}}, "name": "London Rugby League Foundation", "place_id": "ChIJky_QKygbdkgRh-WtYWuzMAo", "types": ["point_of_interest", "establishment"]}, "ChIJnY2CKSgbdkgRGRm-HrNiTEo": {"geometry": {"location": {"lat": 51.5231757, "lng": -0.1408156}, "viewport": {"northeast": {"lat": 51.5244897302915, "lng": -0.139428769708498}, "southwest": {"lat": 51.5217917697085, "lng": -0.142126730291502}}}, "name": "Photocopier.org.uk", "place_id": "ChIJnY2CKSgbdkgRGRm-HrNiTEo", "types": ["point_of_interest", "establishment"]}, "ChIJnY2CKSgbdkgRx6-K9QkkUuw": {"geometry": {"location": {"lat": 51.5231757, "lng": -0.1408156}, "viewport": {"northeast": {"lat": 51.5244897302915, "lng": -0.139428769708498}, "southwest": {"lat": 51.5217917697085, "lng": -0.142126730291502}}}, "name": "ConnectedHR", "place_id": "ChIJnY2CKSgbdkgRx6-K9QkkUuw", "types": ["point_of_interest", "establishment"]}, "ChIJzUjPDyobdkgRHdOh7Og0VN4": {"geometry": {"location": {"lat": 51.52303240000001, "lng": -0.1413654}, "viewport": {"northeast": {"lat": 51.5244021802915, "lng": -0.140090519708498}, "southwest": {"lat": 51.5217042197085, "lng": -0.142788480291502}}}, "name": "Pfeffer Sal", "place_id": "ChIJzUjPDyobdkgRHdOh7Og0VN4", "types": ["beauty_salon", "spa", "health", "point_of_interest", "establishment"], "rating": 4.7, "user_ratings_total": 71}, "ChIJn5sKKigbdkgRvJn8Miqt6vc": {"geometry": {"location": {"lat": 51.52281509999999, "lng": -0.1409137}, "viewport": {"northeast": {"lat": 51.5241222302915, "lng": -0.139664769708498}, "southwest": {"lat": 51.5214242697085, "lng": -0.142362730291502}}}, "name": "Genie Film", "place_id": "ChIJn5sKKigbdkgRvJn8Miqt6vc", "types": ["point_of_interest", "establishment"]}, "ChIJE8Be09cadkgR7KM0RtxYGUo": {"geometry": {"location": {"lat": 51.52287399999999, "lng": -0.141391}, "viewport": {"northeast": {"lat": 51.5241879802915, "lng": -0.140114419708498}, "southwest": {"lat": 51.5214900197085, "lng": -0.142812380291502}}}, "name": "Cosmetic Facial UK", "place_id": "ChIJE8Be09cadkgR7KM0RtxYGUo", "types": ["point_of_interest", "establishment"], "rating": 4.3, "user_ratings_total": 63}, "ChIJZcP70tcadkgRjEC-lYc9sbc": {"geometry": {"location": {"lat": 51.5229484, "lng": -0.1415887}, "viewport": {"northeast": {"lat": 51.52427828029149, "lng": -0.140279119708498}, "southwest": {"lat": 51.52158031970849, "lng": -0.142977080291502}}}, "name": "Fame Music Ltd", "place_id": "ChIJZcP70tcadkgRjEC-lYc9sbc", "types": ["point_of_interest", "establishment"]}, "ChIJR1FhK9YadkgRNzjcILoi84M": {"geometry": {"location": {"lat": 51.522725, "lng": -0.1412437}, "viewport": {"northeast": {"lat": 51.5240739802915, "lng": -0.139894719708498}, "southwest": {"lat": 51.5213760197085, "lng": -0.142592680291502}}}, "name": "Ginkgo Health & Beauty", "place_id": "ChIJR1FhK9YadkgRNzjcILoi84M", "types": ["health", "point_of_interest", "establishment"], "rating": 3.7, "user_ratings_total": 7}, "ChIJ-y2KzdcadkgRY1YjLO6Pi40": {"geometry": {"location": {"lat": 51.52302530000001, "lng": -0.1416786}, "viewport": {"northeast": {"lat": 51.5243541802915, "lng": -0.140371219708498}, "southwest": {"lat": 51.5216562197085, "lng": -0.143069180291502}}}, "name": "Charles D Hunter", "place_id": "ChIJ-y2KzdcadkgRY1YjLO6Pi40", "types": ["real_estate_agency", "point_of_interest", "establishment"]}, "ChIJx7n11dcadkgRh_N23tv3stY": {"geometry": {"location": {"lat": 51.5226556, "lng": -0.141201}, "viewport": {"northeast": {"lat": 51.5239821302915, "lng": -0.139899119708498}, "southwest": {"lat": 51.5212841697085, "lng": -0.142597080291502}}}, "name": "Movie Parties", "place_id": "ChIJx7n11dcadkgRh_N23tv3stY", "types": ["point_of_interest", "establishment"]}, "ChIJGYjnvpAadkgRTT0WJikOyGA": {"geometry": {"location": {"lat": 51.5226644, "lng": -0.1411665}, "viewport": {"northeast": {"lat": 51.5239841302915, "lng": -0.139878869708498}, "southwest": {"lat": 51.5212861697085, "lng": -0.142576830291502}}}, "name": "Chinese Medicine", "place_id": "ChIJGYjnvpAadkgRTT0WJikOyGA", "types": ["point_of_interest", "establishment"], "rating": 3.6, "user_ratings_total": 9}, "ChIJ29MN09cadkgRQhJVR_5UyOk": {"geometry": {"location": {"lat": 51.5233521, "lng": -0.141581}, "viewport": {"northeast": {"lat": 51.52468158029149, "lng": -0.140280319708498}, "southwest": {"lat": 51.5219836197085, "lng": -0.142978280291502}}}, "name": "Jackie Gill Management limited", "place_id": "ChIJ29MN09cadkgRQhJVR_5UyOk", "types": ["point_of_interest", "establishment"]}, "ChIJX-9JKigbdkgRh3OIkoA07IU": {"geometry": {"location": {"lat": 51.5226195, "lng": -0.1411572}, "viewport": {"northeast": {"lat": 51.52394613029151, "lng": -0.139855069708498}, "southwest": {"lat": 51.52124816970851, "lng": -0.142553030291502}}}, "name": "Haandi", "place_id": "ChIJX-9JKigbdkgRh3OIkoA07IU", "types": ["restaurant", "food", "point_of_interest", "establishment"]}, "ChIJOQUsKtYadkgRyZZi6d2YIkA": {"geometry": {"location": {"lat": 51.5225915, "lng": -0.1410758}, "viewport": {"northeast": {"lat": 51.5239404802915, "lng": -0.139726819708498}, "southwest": {"lat": 51.5212425197085, "lng": -0.142424780291502}}}, "name": "Luxe Hair, Nails and Beauty", "place_id": "ChIJOQUsKtYadkgRyZZi6d2YIkA", "types": ["beauty_salon", "point_of_interest", "establishment"], "rating": 3.3, "user_ratings_total": 95}, "ChIJT6CO1SkbdkgR3XR4UCHXheQ": {"geometry": {"location": {"lat": 51.5225825, "lng": -0.140983}, "viewport": {"northeast": {"lat": 51.5239211802915, "lng": -0.139653719708498}, "southwest": {"lat": 51.5212232197085, "lng": -0.142351680291502}}}, "name": "BODY Charity", "place_id": "ChIJT6CO1SkbdkgR3XR4UCHXheQ", "types": ["point_of_interest", "establishment"]}, "ChIJj40yLigbdkgR2Fn_plICDkY": {"geometry": {"location": {"lat": 51.5234251, "lng": -0.1404634}, "viewport": {"northeast": {"lat": 51.5247015302915, "lng": -0.139037969708498}, "southwest": {"lat": 51.52200356970851, "lng": -0.1417359302915021}}}, "name": "Mya St Luke's Hospital", "place_id": "ChIJj40yLigbdkgR2Fn_plICDkY", "types": ["doctor", "health", "point_of_interest", "establishment"]}, "ChIJYTLFOCgbdkgRSqCrUPOrgCk": {"geometry": {"location": {"lat": 51.5226242, "lng": -0.1406925}, "viewport": {"northeast": {"lat": 51.5241964802915, "lng": -0.139336919708498}, "southwest": {"lat": 51.5214985197085, "lng": -0.142034880291502}}}, "name": "Landhold Capital", "place_id": "ChIJYTLFOCgbdkgRSqCrUPOrgCk", "types": ["finance", "point_of_interest", "establishment"]}, "ChIJ9VF1K9YadkgR61AktvWgn2Q": {"geometry": {"location": {"lat": 51.52265629999999, "lng": -0.1412086}, "viewport": {"northeast": {"lat": 51.52400528029149, "lng": -0.139859619708498}, "southwest": {"lat": 51.5213073197085, "lng": -0.1425575802915021}}}, "name": "The Four Lanterns", "place_id": "ChIJ9VF1K9YadkgR61AktvWgn2Q", "types": ["restaurant", "food", "point_of_interest", "establishment"], "rating": 4.4, "user_ratings_total": 170}, "ChIJTWhmKigbdkgR7cRD3O8ljsY": {"geometry": {"location": {"lat": 51.5232249, "lng": -0.1412656}, "viewport": {"northeast": {"lat": 51.5246183302915, "lng": -0.139826069708498}, "southwest": {"lat": 51.5219203697085, "lng": -0.142524030291502}}}, "name": "Embassy of Croatia", "place_id": "ChIJTWhmKigbdkgR7cRD3O8ljsY", "types": ["embassy", "point_of_interest", "establishment"], "rating": 3.5, "user_ratings_total": 87}, "ChIJnyA2KigbdkgR5jlkP7AEAOo": {"geometry": {"location": {"lat": 51.52281509999999, "lng": -0.1409137}, "viewport": {"northeast": {"lat": 51.5241222302915, "lng": -0.139664769708498}, "southwest": {"lat": 51.5214242697085, "lng": -0.142362730291502}}}, "name": "The Harvey-rix Investment Company Ltd", "place_id": "ChIJnyA2KigbdkgR5jlkP7AEAOo", "types": ["general_contractor", "point_of_interest", "establishment"]}, "ChIJYcpvKigbdkgRm3Y8J3xgcMA": {"geometry": {"location": {"lat": 51.5230002, "lng": -0.1409528}, "viewport": {"northeast": {"lat": 51.5243844802915, "lng": -0.1395402697084979}, "southwest": {"lat": 51.5216865197085, "lng": -0.142238230291502}}}, "name": "Mozambique High Commission", "place_id": "ChIJYcpvKigbdkgRm3Y8J3xgcMA", "types": ["embassy", "point_of_interest", "establishment"], "rating": 2.9, "user_ratings_total": 17}, "ChIJZT42KigbdkgR7NWlk3mwhqY": {"geometry": {"location": {"lat": 51.52281509999999, "lng": -0.1409138}, "viewport": {"northeast": {"lat": 51.52429193029149, "lng": -0.139440319708498}, "southwest": {"lat": 51.52159396970849, "lng": -0.1421382802915021}}}, "name": "Young Film Academy", "place_id": "ChIJZT42KigbdkgR7NWlk3mwhqY", "types": ["point_of_interest", "establishment"], "rating": 4.6, "user_ratings_total": 14}, "ChIJrXOlLNYadkgRiohqRNt8BSY": {"geometry": {"location": {"lat": 51.52277709999999, "lng": -0.1413624}, "viewport": {"northeast": {"lat": 51.5241260802915, "lng": -0.140013419708498}, "southwest": {"lat": 51.5214281197085, "lng": -0.142711380291502}}}, "name": "Oriental Dragon Restaurant", "place_id": "ChIJrXOlLNYadkgRiohqRNt8BSY", "types": ["meal_takeaway", "restaurant", "food", "point_of_interest", "establishment"], "rating": 4, "user_ratings_total": 262}, "ChIJmw54cmUbdkgRMiDVhad_eCs": {"geometry": {"location": {"lat": 51.5228206, "lng": -0.1414065}, "viewport": {"northeast": {"lat": 51.52419468029149, "lng": -0.139986519708498}, "southwest": {"lat": 51.52149671970849, "lng": -0.142684480291502}}}, "name": "Happy Health Clinics", "place_id": "ChIJmw54cmUbdkgRMiDVhad_eCs", "types": ["health", "point_of_interest", "establishment"], "rating": 1, "user_ratings_total": 1}, "ChIJ17BlQSkbdkgRBqIg_9odRlA": {"geometry": {"location": {"lat": 51.5228038, "lng": -0.1406778}, "viewport": {"northeast": {"lat": 51.5242862802915, "lng": -0.139400219708498}, "southwest": {"lat": 51.5215883197085, "lng": -0.142098180291502}}}, "name": "SupportWizard", "place_id": "ChIJ17BlQSkbdkgRBqIg_9odRlA", "types": ["point_of_interest", "establishment"], "rating": 5, "user_ratings_total": 3}, "ChIJn-enKigbdkgR9Jqzz0r4fOM": {"geometry": {"location": {"lat": 51.5228641, "lng": -0.140962}, "viewport": {"northeast": {"lat": 51.5243164302915, "lng": -0.139544869708498}, "southwest": {"lat": 51.5216184697085, "lng": -0.142242830291502}}}, "name": "Embassy of the Republic of Liberia", "place_id": "ChIJn-enKigbdkgR9Jqzz0r4fOM", "types": ["embassy", "point_of_interest", "establishment"], "rating": 4.6, "user_ratings_total": 10}, "ChIJ0dMN09cadkgRdggUkjpBc-o": {"geometry": {"location": {"lat": 51.5229401, "lng": -0.1414877}, "viewport": {"northeast": {"lat": 51.5243560302915, "lng": -0.140121769708498}, "southwest": {"lat": 51.5216580697085, "lng": -0.142819730291502}}}, "name": "First Night Records", "place_id": "ChIJ0dMN09cadkgRdggUkjpBc-o", "types": ["electronics_store", "home_goods_store", "point_of_interest", "store", "establishment"]}, "ChIJFSiS1dcadkgR-ub-StRH5nU": {"geometry": {"location": {"lat": 51.5230344, "lng": -0.1410623}, "viewport": {"northeast": {"lat": 51.5244229302915, "lng": -0.139617819708498}, "southwest": {"lat": 51.5217249697085, "lng": -0.142315780291502}}}, "name": "Morgan Allen Associates", "place_id": "ChIJFSiS1dcadkgR-ub-StRH5nU", "types": ["point_of_interest", "establishment"]}, "ChIJ66MU9R0PdkgR9K1vXIuh02E": {"geometry": {"location": {"lat": 51.5230344, "lng": -0.1410623}, "viewport": {"northeast": {"lat": 51.5244229302915, "lng": -0.139617819708498}, "southwest": {"lat": 51.5217249697085, "lng": -0.142315780291502}}}, "name": "Ohana Mental Health", "place_id": "ChIJ66MU9R0PdkgR9K1vXIuh02E", "types": ["health", "point_of_interest", "establishment"], "rating": 5, "user_ratings_total": 1}, "ChIJFSiS1dcadkgR1Fu7l1_BBYw": {"geometry": {"location": {"lat": 51.5230344, "lng": -0.1410623}, "viewport": {"northeast": {"lat": 51.5244229302915, "lng": -0.139617819708498}, "southwest": {"lat": 51.5217249697085, "lng": -0.142315780291502}}}, "name": "Ringside Studio", "place_id": "ChIJFSiS1dcadkgR1Fu7l1_BBYw", "types": ["point_of_interest", "establishment"]}, "ChIJFSiS1dcadkgRdyEiGszQ5eU": {"geometry": {"location": {"lat": 51.5230344, "lng": -0.1410623}, "viewport": {"northeast": {"lat": 51.5244229302915, "lng": -0.139617819708498}, "southwest": {"lat": 51.5217249697085, "lng": -0.142315780291502}}}, "name": "Kitty-lynne Jones Interior Design B I I D", "place_id": "ChIJFSiS1dcadkgRdyEiGszQ5eU", "types": ["general_contractor", "point_of_interest", "establishment"]}, "ChIJ_3OU1dcadkgRfIOQogm-7no": {"geometry": {"location": {"lat": 51.5230405, "lng": -0.1410779}, "viewport": {"northeast": {"lat": 51.52443033029149, "lng": -0.139630269708498}, "southwest": {"lat": 51.5217323697085, "lng": -0.142328230291502}}}, "name": "HoppyX", "place_id": "ChIJ_3OU1dcadkgRfIOQogm-7no", "types": ["point_of_interest", "establishment"]}, "ChIJzQHPKygbdkgRoUZaYNrYqYw": {"geometry": {"location": {"lat": 51.5230588, "lng": -0.1409146}, "viewport": {"northeast": {"lat": 51.5244195302915, "lng": -0.139537169708498}, "southwest": {"lat": 51.5217215697085, "lng": -0.142235130291502}}}, "name": "Green Road Solutions", "place_id": "ChIJzQHPKygbdkgRoUZaYNrYqYw", "types": ["general_contractor", "point_of_interest", "establishment"]}, "ChIJ9apTX_0bdkgRkYFxRfJeBcc": {"geometry": {"location": {"lat": 51.5230217, "lng": -0.1408716}, "viewport": {"northeast": {"lat": 51.5243948802915, "lng": -0.139518069708498}, "southwest": {"lat": 51.5216969197085, "lng": -0.142216030291502}}}, "name": "Blue Plaque: Robert Gascoyne-Cecil", "place_id": "ChIJ9apTX_0bdkgRkYFxRfJeBcc", "types": ["point_of_interest", "establishment"]}, "ChIJFco0KigbdkgR3b90A5jIi_Y": {"geometry": {"location": {"lat": 51.5230701, "lng": -0.1408249}, "viewport": {"northeast": {"lat": 51.5244190802915, "lng": -0.139475919708498}, "southwest": {"lat": 51.5217211197085, "lng": -0.142173880291502}}}, "name": "MAFOODS", "place_id": "ChIJFco0KigbdkgR3b90A5jIi_Y", "types": ["grocery_or_supermarket", "food", "point_of_interest", "store", "establishment"]}, "ChIJT8M_QTYbdkgRPi_PA48NxFQ": {"geometry": {"location": {"lat": 51.5229522, "lng": -0.1411078}, "viewport": {"northeast": {"lat": 51.52436048029149, "lng": -0.139617769708498}, "southwest": {"lat": 51.52166251970849, "lng": -0.142315730291502}}}, "name": "Octa Investment", "place_id": "ChIJT8M_QTYbdkgRPi_PA48NxFQ", "types": ["finance", "point_of_interest", "establishment"]}, "ChIJ1SehKSgbdkgRF2t7Lai9lCs": {"geometry": {"location": {"lat": 51.5231703, "lng": -0.1408293}, "viewport": {"northeast": {"lat": 51.52448418029149, "lng": -0.139442319708498}, "southwest": {"lat": 51.5217862197085, "lng": -0.142140280291502}}}, "name": "Jpr Media Limited", "place_id": "ChIJ1SehKSgbdkgRF2t7Lai9lCs", "types": ["point_of_interest", "establishment"]}, "ChIJnY2CKSgbdkgRWOvimbcJ3GA": {"geometry": {"location": {"lat": 51.5232271, "lng": -0.1408135}, "viewport": {"northeast": {"lat": 51.5245228302915, "lng": -0.139408369708498}, "southwest": {"lat": 51.5218248697085, "lng": -0.142106330291502}}}, "name": "INV Digital Production", "place_id": "ChIJnY2CKSgbdkgRWOvimbcJ3GA", "types": ["point_of_interest", "establishment"]}, "ChIJlzc12uEbdkgRCy-eHwDdXio": {"geometry": {"location": {"lat": 51.52297550000001, "lng": -0.1413945}, "viewport": {"northeast": {"lat": 51.5242541802915, "lng": -0.139980119708498}, "southwest": {"lat": 51.5215562197085, "lng": -0.1426780802915021}}}, "name": "TC-A", "place_id": "ChIJlzc12uEbdkgRCy-eHwDdXio", "types": ["point_of_interest", "establishment"]}, "ChIJy53KKigbdkgRAc-4FSpk634": {"geometry": {"location": {"lat": 51.52281509999999, "lng": -0.1409138}, "viewport": {"northeast": {"lat": 51.52429193029149, "lng": -0.139440319708498}, "southwest": {"lat": 51.52159396970849, "lng": -0.1421382802915021}}}, "name": "C P A Management Services", "place_id": "ChIJy53KKigbdkgRAc-4FSpk634", "types": ["accounting", "finance", "point_of_interest", "establishment"]}, "ChIJx7n11dcadkgR7Q_vg2pYNVQ": {"geometry": {"location": {"lat": 51.52281509999999, "lng": -0.1409137}, "viewport": {"northeast": {"lat": 51.5241222302915, "lng": -0.139664769708498}, "southwest": {"lat": 51.5214242697085, "lng": -0.142362730291502}}}, "name": "Magma Pictures Ltd", "place_id": "ChIJx7n11dcadkgR7Q_vg2pYNVQ", "types": ["point_of_interest", "establishment"]}, "ChIJEyhS1SkbdkgRVzuV_E2CphI": {"geometry": {"location": {"lat": 51.5227881, "lng": -0.1409691}, "viewport": {"northeast": {"lat": 51.5241073802915, "lng": -0.139691019708498}, "southwest": {"lat": 51.5214094197085, "lng": -0.142388980291502}}}, "name": "Fitzroy Investments Limited", "place_id": "ChIJEyhS1SkbdkgRVzuV_E2CphI", "types": ["point_of_interest", "establishment"]}, "ChIJEyhS1SkbdkgR5767juXSYx0": {"geometry": {"location": {"lat": 51.5227881, "lng": -0.1409691}, "viewport": {"northeast": {"lat": 51.5241073802915, "lng": -0.139691019708498}, "southwest": {"lat": 51.5214094197085, "lng": -0.142388980291502}}}, "name": "Solargise Uk Limited", "place_id": "ChIJEyhS1SkbdkgR5767juXSYx0", "types": ["point_of_interest", "establishment"]}, "ChIJh7fME1AbdkgRVxblFANw1BA": {"geometry": {"location": {"lat": 51.5228698, "lng": -0.1413832}, "viewport": {"northeast": {"lat": 51.5241834302915, "lng": -0.140107419708498}, "southwest": {"lat": 51.5214854697085, "lng": -0.142805380291502}}}, "name": "Your Italian Dentist in London", "place_id": "ChIJh7fME1AbdkgRVxblFANw1BA", "types": ["dentist", "health", "point_of_interest", "establishment"]}, "ChIJ0dMN09cadkgRNsonuIzpMeY": {"geometry": {"location": {"lat": 51.5229401, "lng": -0.1414876}, "viewport": {"northeast": {"lat": 51.5243560302915, "lng": -0.140121769708498}, "southwest": {"lat": 51.5216580697085, "lng": -0.142819730291502}}}, "name": "Lynn Faulds Wood", "place_id": "ChIJ0dMN09cadkgRNsonuIzpMeY", "types": ["point_of_interest", "establishment"]}, "ChIJjcWp8kMbdkgRtUsoJZ0doLg": {"geometry": {"location": {"lat": 51.5229401, "lng": -0.1414877}, "viewport": {"northeast": {"lat": 51.52423683029151, "lng": -0.140027119708498}, "southwest": {"lat": 51.52153886970851, "lng": -0.142725080291502}}}, "name": "Trisha Chauhan Architecture", "place_id": "ChIJjcWp8kMbdkgRtUsoJZ0doLg", "types": ["point_of_interest", "establishment"]}, "ChIJdxRW09cadkgRIkNtTz2IhR0": {"geometry": {"location": {"lat": 51.5228323, "lng": -0.141379}, "viewport": {"northeast": {"lat": 51.52415233029149, "lng": -0.140089969708498}, "southwest": {"lat": 51.52145436970849, "lng": -0.142787930291502}}}, "name": "GP Private", "place_id": "ChIJdxRW09cadkgRIkNtTz2IhR0", "types": ["health", "point_of_interest", "establishment"]}, "ChIJ37tS09cadkgRfeNTqoau3ug": {"geometry": {"location": {"lat": 51.52281130000001, "lng": -0.1414157}, "viewport": {"northeast": {"lat": 51.52416028029151, "lng": -0.140066719708498}, "southwest": {"lat": 51.52146231970851, "lng": -0.1427646802915021}}}, "name": "Maple Dental Clinic", "place_id": "ChIJ37tS09cadkgRfeNTqoau3ug", "types": ["dentist", "health", "point_of_interest", "establishment"], "rating": 3.4, "user_ratings_total": 5}, "ChIJm8FF2ykbdkgR0g-_xKIRIpE": {"geometry": {"location": {"lat": 51.5218924566936, "lng": -0.1404179415219302}, "viewport": {"northeast": {"lat": 51.52324153029151, "lng": -0.139068769708498}, "southwest": {"lat": 51.52054356970851, "lng": -0.141766730291502}}}, "name": "84-56 Cleveland St", "place_id": "ChIJm8FF2ykbdkgR0g-_xKIRIpE", "types": ["route"]}, "ChIJ7z5P2ikbdkgRJbLXb5y1uWs": {"geometry": {"location": {"lat": 51.52208100000001, "lng": -0.140495}, "viewport": {"northeast": {"lat": 51.5234073302915, "lng": -0.1391942697084979}, "southwest": {"lat": 51.52070936970851, "lng": -0.141892230291502}}}, "name": "Fish Bone", "place_id": "ChIJ7z5P2ikbdkgRJbLXb5y1uWs", "types": ["meal_takeaway", "restaurant", "food", "point_of_interest", "establishment"], "rating": 4.3, "user_ratings_total": 294}, "ChIJM9s33CkbdkgRDjejRgjbWNk": {"geometry": {"location": {"lat": 51.5219937, "lng": -0.1408197}, "viewport": {"northeast": {"lat": 51.52338418029149, "lng": -0.139381419708498}, "southwest": {"lat": 51.52068621970849, "lng": -0.142079380291502}}}, "name": "Be Do Have TV", "place_id": "ChIJM9s33CkbdkgRDjejRgjbWNk", "types": ["point_of_interest", "establishment"]}, "ChIJM9s33CkbdkgRyX-D-m1K0m8": {"geometry": {"location": {"lat": 51.5222113, "lng": -0.1409542}, "viewport": {"northeast": {"lat": 51.5235829302915, "lng": -0.139557719708498}, "southwest": {"lat": 51.5208849697085, "lng": -0.142255680291502}}}, "name": "Boutique TV", "place_id": "ChIJM9s33CkbdkgRyX-D-m1K0m8", "types": ["point_of_interest", "establishment"]}, "ChIJF07v1ykbdkgRFVLZTSEXWLY": {"geometry": {"location": {"lat": 51.5222113, "lng": -0.1409542}, "viewport": {"northeast": {"lat": 51.5235829302915, "lng": -0.139557719708498}, "southwest": {"lat": 51.5208849697085, "lng": -0.142255680291502}}}, "name": "Alan Colegrave productions", "place_id": "ChIJF07v1ykbdkgRFVLZTSEXWLY", "types": ["point_of_interest", "establishment"]}, "ChIJx3C22SkbdkgRkv-0EPzizdY": {"geometry": {"location": {"lat": 51.5222402, "lng": -0.1409892}, "viewport": {"northeast": {"lat": 51.52361173029151, "lng": -0.1395929197084979}, "southwest": {"lat": 51.52091376970851, "lng": -0.142290880291502}}}, "name": "EMGA Limited", "place_id": "ChIJx3C22SkbdkgRkv-0EPzizdY", "types": ["point_of_interest", "establishment"]}, "ChIJJyy12CkbdkgR8L6H1TnqzjQ": {"geometry": {"location": {"lat": 51.52168930000001, "lng": -0.1409792}, "viewport": {"northeast": {"lat": 51.5229457802915, "lng": -0.139531969708498}, "southwest": {"lat": 51.5202478197085, "lng": -0.142229930291502}}}, "name": "Clipstone Street - London", "place_id": "ChIJJyy12CkbdkgR8L6H1TnqzjQ", "types": ["parking", "point_of_interest", "establishment"], "rating": 3.7, "user_ratings_total": 30}, "ChIJr9qM0CkbdkgRnPUOch6UoAQ": {"geometry": {"location": {"lat": 51.5222135, "lng": -0.1404287}, "viewport": {"northeast": {"lat": 51.5235975802915, "lng": -0.139117919708498}, "southwest": {"lat": 51.5208996197085, "lng": -0.141815880291502}}}, "name": "Adrian Ensor", "place_id": "ChIJr9qM0CkbdkgRnPUOch6UoAQ", "types": ["point_of_interest", "establishment"], "rating": 4.3, "user_ratings_total": 3}, "ChIJ20JDF9EadkgRsImVF9WSI1E": {"geometry": {"location": {"lat": 51.5219637, "lng": -0.1402826}, "viewport": {"northeast": {"lat": 51.52327963029149, "lng": -0.139004419708498}, "southwest": {"lat": 51.52058166970849, "lng": -0.141702380291502}}}, "name": "The Laurel Centre", "place_id": "ChIJ20JDF9EadkgRsImVF9WSI1E", "types": ["health", "point_of_interest", "establishment"]}, "ChIJj2azxCkbdkgRAnzVtvLe1Pw": {"geometry": {"location": {"lat": 51.52188329999999, "lng": -0.1402592}, "viewport": {"northeast": {"lat": 51.5232095302915, "lng": -0.138959319708498}, "southwest": {"lat": 51.5205115697085, "lng": -0.141657280291502}}}, "name": "Safecoms", "place_id": "ChIJj2azxCkbdkgRAnzVtvLe1Pw", "types": ["point_of_interest", "establishment"]}, "ChIJh9Kv1ikbdkgRT92VqdD4Uig": {"geometry": {"location": {"lat": 51.5224593, "lng": -0.1409356}, "viewport": {"northeast": {"lat": 51.52382418029149, "lng": -0.139548669708498}, "southwest": {"lat": 51.52112621970849, "lng": -0.142246630291502}}}, "name": "Agile Ideas Ltd.", "place_id": "ChIJh9Kv1ikbdkgRT92VqdD4Uig", "types": ["point_of_interest", "establishment"]}, "ChIJe6nVINMEdkgRs8YiiqopxqQ": {"geometry": {"location": {"lat": 51.52236259999999, "lng": -0.1405414}, "viewport": {"northeast": {"lat": 51.5236793302915, "lng": -0.139157169708498}, "southwest": {"lat": 51.5209813697085, "lng": -0.141855130291502}}}, "name": "Yoodoo", "place_id": "ChIJe6nVINMEdkgRs8YiiqopxqQ", "types": ["point_of_interest", "establishment"]}, "ChIJl4gX0SkbdkgRZC1ZV8NKeU4": {"geometry": {"location": {"lat": 51.52236259999999, "lng": -0.1405414}, "viewport": {"northeast": {"lat": 51.5236793302915, "lng": -0.139157169708498}, "southwest": {"lat": 51.5209813697085, "lng": -0.141855130291502}}}, "name": "MyKleener.com", "place_id": "ChIJl4gX0SkbdkgRZC1ZV8NKeU4", "types": ["point_of_interest", "establishment"]}, "ChIJmYgX0SkbdkgRfzk25jPmBaQ": {"geometry": {"location": {"lat": 51.52236259999999, "lng": -0.1405412}, "viewport": {"northeast": {"lat": 51.52367938029149, "lng": -0.139157019708498}, "southwest": {"lat": 51.5209814197085, "lng": -0.141854980291502}}}, "name": "Shindi Interiors Ltd", "place_id": "ChIJmYgX0SkbdkgRfzk25jPmBaQ", "types": ["general_contractor", "point_of_interest", "establishment"]}, "ChIJWQEd1ikbdkgRHat1UtmoTG8": {"geometry": {"location": {"lat": 51.52246580000001, "lng": -0.1409761}, "viewport": {"northeast": {"lat": 51.5237936802915, "lng": -0.139671419708498}, "southwest": {"lat": 51.5210957197085, "lng": -0.142369380291502}}}, "name": "Sensations", "place_id": "ChIJWQEd1ikbdkgRHat1UtmoTG8", "types": ["cafe", "food", "point_of_interest", "establishment"], "rating": 4.6, "user_ratings_total": 12}, "ChIJX5sc1ikbdkgRRhZxEc7tfLM": {"geometry": {"location": {"lat": 51.52246580000001, "lng": -0.1409761}, "viewport": {"northeast": {"lat": 51.5237936802915, "lng": -0.139671419708498}, "southwest": {"lat": 51.5210957197085, "lng": -0.142369380291502}}}, "name": "Oscar William Shoemakers Ltd", "place_id": "ChIJX5sc1ikbdkgRRhZxEc7tfLM", "types": ["point_of_interest", "establishment"], "rating": 4.7, "user_ratings_total": 27}, "ChIJBcIG1ikbdkgRy2edfR2cRJk": {"geometry": {"location": {"lat": 51.52246580000001, "lng": -0.140976}, "viewport": {"northeast": {"lat": 51.5237936302915, "lng": -0.139671369708498}, "southwest": {"lat": 51.5210956697085, "lng": -0.142369330291502}}}, "name": "Sheooz", "place_id": "ChIJBcIG1ikbdkgRy2edfR2cRJk", "types": ["shoe_store", "point_of_interest", "store", "establishment"]}, "ChIJ6fs41ikbdkgR3rm_aB1sNaQ": {"geometry": {"location": {"lat": 51.5223798, "lng": -0.1408747}, "viewport": {"northeast": {"lat": 51.5237083302915, "lng": -0.139568619708498}, "southwest": {"lat": 51.52101036970851, "lng": -0.142266580291502}}}, "name": "BRODIE\u2019S", "place_id": "ChIJ6fs41ikbdkgR3rm_aB1sNaQ", "types": ["point_of_interest", "establishment"], "rating": 4.5, "user_ratings_total": 38}, "ChIJ8U0jxSkbdkgRuGlhfzUzH1M": {"geometry": {"location": {"lat": 51.5220279, "lng": -0.1401949}, "viewport": {"northeast": {"lat": 51.5233939302915, "lng": -0.138778519708498}, "southwest": {"lat": 51.5206959697085, "lng": -0.141476480291502}}}, "name": "Ocean Design", "place_id": "ChIJ8U0jxSkbdkgRuGlhfzUzH1M", "types": ["general_contractor", "point_of_interest", "establishment"]}, "ChIJn-cqPdYadkgRJh_FPiJRRiQ": {"geometry": {"location": {"lat": 51.52179719999999, "lng": -0.1411478}, "viewport": {"northeast": {"lat": 51.5230231802915, "lng": -0.139638819708498}, "southwest": {"lat": 51.5203252197085, "lng": -0.142336780291502}}}, "name": "Holcroft Nursery & Pre-School", "place_id": "ChIJn-cqPdYadkgRJh_FPiJRRiQ", "types": ["school", "point_of_interest", "establishment"], "rating": 3, "user_ratings_total": 2}, "ChIJXwEd1ikbdkgRtU48TL323Kk": {"geometry": {"location": {"lat": 51.5224352, "lng": -0.1409573}, "viewport": {"northeast": {"lat": 51.52376673029149, "lng": -0.139644869708498}, "southwest": {"lat": 51.52106876970849, "lng": -0.142342830291502}}}, "name": "Fitzroy Cleaners", "place_id": "ChIJXwEd1ikbdkgRtU48TL323Kk", "types": ["laundry", "point_of_interest", "establishment"], "rating": 2.9, "user_ratings_total": 14}, "ChIJZ837HtYadkgR8RHFp3INqP8": {"geometry": {"location": {"lat": 51.5216994, "lng": -0.1410467}, "viewport": {"northeast": {"lat": 51.5229696802915, "lng": -0.139588269708498}, "southwest": {"lat": 51.5202717197085, "lng": -0.142286230291502}}}, "name": "Rentals for Professionals", "place_id": "ChIJZ837HtYadkgR8RHFp3INqP8", "types": ["real_estate_agency", "travel_agency", "point_of_interest", "establishment"]}, "ChIJewSw2CkbdkgRE3Hmlout9qs": {"geometry": {"location": {"lat": 51.5218544, "lng": -0.1410082}, "viewport": {"northeast": {"lat": 51.5232102302915, "lng": -0.139620769708498}, "southwest": {"lat": 51.5205122697085, "lng": -0.142318730291502}}}, "name": "Tesla Destination Charger", "place_id": "ChIJewSw2CkbdkgRE3Hmlout9qs", "types": ["point_of_interest", "establishment"]}, "ChIJd22V2gwbdkgRQP4NZ5oAkU0": {"geometry": {"location": {"lat": 51.5218071, "lng": -0.1409889}, "viewport": {"northeast": {"lat": 51.5230154802915, "lng": -0.139569219708498}, "southwest": {"lat": 51.5203175197085, "lng": -0.142267180291502}}}, "name": "Holcroft Court", "place_id": "ChIJd22V2gwbdkgRQP4NZ5oAkU0", "types": ["point_of_interest", "establishment"]}, "ChIJH0Nb3ykbdkgRJX1YP2MlOFI": {"geometry": {"location": {"lat": 51.5217896, "lng": -0.1409811}, "viewport": {"northeast": {"lat": 51.5230067302915, "lng": -0.139565469708498}, "southwest": {"lat": 51.5203087697085, "lng": -0.142263430291502}}}, "name": "Selfstore London - Business and Personal Storage in Central London", "place_id": "ChIJH0Nb3ykbdkgRJX1YP2MlOFI", "types": ["storage", "point_of_interest", "establishment"], "rating": 4.5, "user_ratings_total": 15}, "ChIJM9s33CkbdkgRpzcXrGFlr3g": {"geometry": {"location": {"lat": 51.5221063, "lng": -0.1408434}, "viewport": {"northeast": {"lat": 51.5234801802915, "lng": -0.139440869708498}, "southwest": {"lat": 51.5207822197085, "lng": -0.142138830291502}}}, "name": "Mason Joyce", "place_id": "ChIJM9s33CkbdkgRpzcXrGFlr3g", "types": ["point_of_interest", "establishment"]}, "ChIJq6qqqlMFdkgRe6mVvJwbBzA": {"geometry": {"location": {"lat": 51.5216893, "lng": -0.1409791}, "viewport": {"northeast": {"lat": 51.5229597302915, "lng": -0.139554469708498}, "southwest": {"lat": 51.5202617697085, "lng": -0.142252430291502}}}, "name": "Miracle Network", "place_id": "ChIJq6qqqlMFdkgRe6mVvJwbBzA", "types": ["point_of_interest", "establishment"]}, "ChIJ97oP2ikbdkgR0mCIE9noXZo": {"geometry": {"location": {"lat": 51.5221177, "lng": -0.140581}, "viewport": {"northeast": {"lat": 51.52345293029149, "lng": -0.139261569708498}, "southwest": {"lat": 51.5207549697085, "lng": -0.141959530291502}}}, "name": "Charrington's Fine Ales And Stout", "place_id": "ChIJ97oP2ikbdkgR0mCIE9noXZo", "types": ["bar", "point_of_interest", "establishment"]}, "ChIJjXRP2ykbdkgR3qB4uwl_2tA": {"geometry": {"location": {"lat": 51.52192789999999, "lng": -0.1402384}, "viewport": {"northeast": {"lat": 51.5232455302915, "lng": -0.138962769708498}, "southwest": {"lat": 51.5205475697085, "lng": -0.141660730291502}}}, "name": "Esthetique Dental Care", "place_id": "ChIJjXRP2ykbdkgR3qB4uwl_2tA", "types": ["dentist", "health", "point_of_interest", "establishment"], "rating": 4.1, "user_ratings_total": 21}, "ChIJpbTk1ikbdkgREKtmqa_N9PI": {"geometry": {"location": {"lat": 51.5222849, "lng": -0.1407352}, "viewport": {"northeast": {"lat": 51.5236103302915, "lng": -0.139436819708498}, "southwest": {"lat": 51.5209123697085, "lng": -0.142134780291502}}}, "name": "Fitzroy Wine Cellar & Kitchen", "place_id": "ChIJpbTk1ikbdkgREKtmqa_N9PI", "types": ["cafe", "bar", "restaurant", "food", "point_of_interest", "establishment"], "rating": 4.5, "user_ratings_total": 82}, "ChIJVX9Y2ikbdkgRgran6KodNLA": {"geometry": {"location": {"lat": 51.5220492, "lng": -0.1404279}, "viewport": {"northeast": {"lat": 51.52337128029149, "lng": -0.139136219708498}, "southwest": {"lat": 51.52067331970849, "lng": -0.141834180291502}}}, "name": "Passyunk Avenue", "place_id": "ChIJVX9Y2ikbdkgRgran6KodNLA", "types": ["restaurant", "food", "point_of_interest", "establishment"], "rating": 4.6, "user_ratings_total": 941}, "ChIJzbRaSNYadkgR6EmFcctme9o": {"geometry": {"location": {"lat": 51.52170820000001, "lng": -0.1405709}, "viewport": {"northeast": {"lat": 51.5230345802915, "lng": -0.139358269708498}, "southwest": {"lat": 51.5203366197085, "lng": -0.142056230291502}}}, "name": "The Junction", "place_id": "ChIJzbRaSNYadkgR6EmFcctme9o", "types": ["restaurant", "food", "point_of_interest", "establishment"], "rating": 1.7, "user_ratings_total": 3}, "ChIJGxHliTgbdkgRipe579mdDi8": {"geometry": {"location": {"lat": 51.5223116, "lng": -0.1407375}, "viewport": {"northeast": {"lat": 51.5236321302915, "lng": -0.139448219708498}, "southwest": {"lat": 51.5209341697085, "lng": -0.142146180291502}}}, "name": "Enterprise Car Club - 86 Cleveland Street London W1T 6NH", "place_id": "ChIJGxHliTgbdkgRipe579mdDi8", "types": ["car_rental", "point_of_interest", "establishment"]}, "ChIJPXxW1ikbdkgRc_s_cY2seX4": {"geometry": {"location": {"lat": 51.52233769999999, "lng": -0.1408305}, "viewport": {"northeast": {"lat": 51.5236673802915, "lng": -0.1395220197084979}, "southwest": {"lat": 51.5209694197085, "lng": -0.142219980291502}}}, "name": "Laundrette", "place_id": "ChIJPXxW1ikbdkgRc_s_cY2seX4", "types": ["laundry", "point_of_interest", "establishment"], "rating": 3.4, "user_ratings_total": 34}, "ChIJe7Y13CkbdkgRYtPkkL9uiaU": {"geometry": {"location": {"lat": 51.52167379999999, "lng": -0.1405508}, "viewport": {"northeast": {"lat": 51.5230816802915, "lng": -0.139074619708498}, "southwest": {"lat": 51.5203837197085, "lng": -0.141772580291502}}}, "name": "VISION TV Network Hellenic TV", "place_id": "ChIJe7Y13CkbdkgRYtPkkL9uiaU", "types": ["point_of_interest", "establishment"]}, "ChIJTXB37d8bdkgRdbQkr69Q9-E": {"geometry": {"location": {"lat": 51.52194859999999, "lng": -0.1403406}, "viewport": {"northeast": {"lat": 51.5232759302915, "lng": -0.139038019708498}, "southwest": {"lat": 51.5205779697085, "lng": -0.141735980291502}}}, "name": "Free! Recovery", "place_id": "ChIJTXB37d8bdkgRdbQkr69Q9-E", "types": ["point_of_interest", "establishment"]}, "ChIJT6WM0CkbdkgRmmSCJV48Alc": {"geometry": {"location": {"lat": 51.5222312, "lng": -0.1404775}, "viewport": {"northeast": {"lat": 51.5235957802915, "lng": -0.139145819708498}, "southwest": {"lat": 51.5208978197085, "lng": -0.141843780291502}}}, "name": "JUST FOX", "place_id": "ChIJT6WM0CkbdkgRmmSCJV48Alc", "types": ["point_of_interest", "clothing_store", "store", "establishment"]}, "ChIJPZlfcycbdkgRqkaow_TwNwQ": {"geometry": {"location": {"lat": 51.5223457, "lng": -0.1405794}, "viewport": {"northeast": {"lat": 51.52366308029149, "lng": -0.1391947197084979}, "southwest": {"lat": 51.5209651197085, "lng": -0.141892680291502}}}, "name": "Room3, Regents Park, London", "place_id": "ChIJPZlfcycbdkgRqkaow_TwNwQ", "types": ["bar", "point_of_interest", "establishment"], "rating": 2.5, "user_ratings_total": 2}, "ChIJGwWxxCkbdkgRfLtcq_W7n9E": {"geometry": {"location": {"lat": 51.5218832, "lng": -0.1402594}, "viewport": {"northeast": {"lat": 51.5232094802915, "lng": -0.138959419708498}, "southwest": {"lat": 51.5205115197085, "lng": -0.141657380291502}}}, "name": "Gbp Magic Ltd", "place_id": "ChIJGwWxxCkbdkgRfLtcq_W7n9E", "types": ["restaurant", "food", "point_of_interest", "establishment"]}, "ChIJj2azxCkbdkgRjTcgeL_RwnM": {"geometry": {"location": {"lat": 51.52188329999999, "lng": -0.1402592}, "viewport": {"northeast": {"lat": 51.5232102302915, "lng": -0.138957469708498}, "southwest": {"lat": 51.5205122697085, "lng": -0.141655430291502}}}, "name": "The Raag Restaurant", "place_id": "ChIJj2azxCkbdkgRjTcgeL_RwnM", "types": ["restaurant", "food", "point_of_interest", "establishment"]}, "ChIJLSYQ87IbdkgRrNc9XHGgUzc": {"geometry": {"location": {"lat": 51.5221874, "lng": -0.1403331}, "viewport": {"northeast": {"lat": 51.52359373029149, "lng": -0.139048369708498}, "southwest": {"lat": 51.5208957697085, "lng": -0.141746330291502}}}, "name": "Kinderway", "place_id": "ChIJLSYQ87IbdkgRrNc9XHGgUzc", "types": ["point_of_interest", "establishment"], "rating": 5, "user_ratings_total": 1}, "ChIJ6SAX3ykbdkgRZ-k4ccSWg2o": {"geometry": {"location": {"lat": 51.52150049999999, "lng": -0.1408131}, "viewport": {"northeast": {"lat": 51.5228473802915, "lng": -0.139476619708498}, "southwest": {"lat": 51.5201494197085, "lng": -0.142174580291502}}}, "name": "ParkBee CitiPark - Fitzrovia Clipstone Mews", "place_id": "ChIJ6SAX3ykbdkgRZ-k4ccSWg2o", "types": ["parking", "point_of_interest", "establishment"], "rating": 3.7, "user_ratings_total": 31}, "ChIJT5oB1ikbdkgRdC6YAXtNmdU": {"geometry": {"location": {"lat": 51.5224616, "lng": -0.1409836}, "viewport": {"northeast": {"lat": 51.5237913802915, "lng": -0.139674919708498}, "southwest": {"lat": 51.5210934197085, "lng": -0.142372880291502}}}, "name": "The Wall Street Journal", "place_id": "ChIJT5oB1ikbdkgRdC6YAXtNmdU", "types": ["point_of_interest", "establishment"]}, "ChIJl4gX0SkbdkgRfE_tW9ae0eg": {"geometry": {"location": {"lat": 51.52236259999999, "lng": -0.1405414}, "viewport": {"northeast": {"lat": 51.5236793302915, "lng": -0.139157169708498}, "southwest": {"lat": 51.5209813697085, "lng": -0.141855130291502}}}, "name": "QSPCIS", "place_id": "ChIJl4gX0SkbdkgRfE_tW9ae0eg", "types": ["point_of_interest", "establishment"]}, "ChIJmYgX0SkbdkgRKLXCz6_VFFc": {"geometry": {"location": {"lat": 51.52236259999999, "lng": -0.1405412}, "viewport": {"northeast": {"lat": 51.52367938029149, "lng": -0.139157019708498}, "southwest": {"lat": 51.5209814197085, "lng": -0.141854980291502}}}, "name": "Tip Top TV", "place_id": "ChIJmYgX0SkbdkgRKLXCz6_VFFc", "types": ["point_of_interest", "establishment"]}, "ChIJefRCpAcbdkgRRZwnYf6EM3g": {"geometry": {"location": {"lat": 51.5218954, "lng": -0.1402318}, "viewport": {"northeast": {"lat": 51.52321603029149, "lng": -0.138943519708498}, "southwest": {"lat": 51.5205180697085, "lng": -0.141641480291502}}}, "name": "Catalina's", "place_id": "ChIJefRCpAcbdkgRRZwnYf6EM3g", "types": ["restaurant", "food", "point_of_interest", "establishment"], "rating": 5, "user_ratings_total": 5}, "ChIJE7lai7gbdkgRq5TDgzt9y0k": {"geometry": {"location": {"lat": 51.5218954, "lng": -0.1402318}, "viewport": {"northeast": {"lat": 51.52321603029149, "lng": -0.138943519708498}, "southwest": {"lat": 51.5205180697085, "lng": -0.141641480291502}}}, "name": "Talula Eats", "place_id": "ChIJE7lai7gbdkgRq5TDgzt9y0k", "types": ["restaurant", "food", "point_of_interest", "establishment"]}, "ChIJBcIG1ikbdkgRVIQMTZr51QE": {"geometry": {"location": {"lat": 51.52246580000001, "lng": -0.140976}, "viewport": {"northeast": {"lat": 51.5237936302915, "lng": -0.139671369708498}, "southwest": {"lat": 51.5210956697085, "lng": -0.142369330291502}}}, "name": "ORCA", "place_id": "ChIJBcIG1ikbdkgRVIQMTZr51QE", "types": ["travel_agency", "point_of_interest", "establishment"]}, "ChIJq3UF98wadkgR4t8JvnJya1A": {"geometry": {"location": {"lat": 51.5220279, "lng": -0.140195}, "viewport": {"northeast": {"lat": 51.5233939302915, "lng": -0.138778569708498}, "southwest": {"lat": 51.5206959697085, "lng": -0.141476530291502}}}, "name": "LMS Capital plc", "place_id": "ChIJq3UF98wadkgR4t8JvnJya1A", "types": ["finance", "point_of_interest", "establishment"]}, "ChIJ900jxSkbdkgRY3miIZl8CeI": {"geometry": {"location": {"lat": 51.5220279, "lng": -0.140195}, "viewport": {"northeast": {"lat": 51.5233939302915, "lng": -0.138778569708498}, "southwest": {"lat": 51.5206959697085, "lng": -0.141476530291502}}}, "name": "The Jfr Charitable Trust", "place_id": "ChIJ900jxSkbdkgRY3miIZl8CeI", "types": ["point_of_interest", "establishment"]}, "ChIJ8exk_ikbdkgRrtc5qPBtEc8": {"geometry": {"location": {"lat": 51.52045880010451, "lng": -0.1408246000846977}, "viewport": {"northeast": {"lat": 51.5218077802915, "lng": -0.139475619708498}, "southwest": {"lat": 51.5191098197085, "lng": -0.142173580291502}}}, "name": "134-132 New Cavendish St", "place_id": "ChIJ8exk_ikbdkgRrtc5qPBtEc8", "types": ["route"]}, "ChIJYXYLENYadkgRQLLvAoLHVkA": {"geometry": {"location": {"lat": 51.5209415, "lng": -0.1417536}, "viewport": {"northeast": {"lat": 51.52229678029149, "lng": -0.140369819708498}, "southwest": {"lat": 51.5195988197085, "lng": -0.143067780291502}}}, "name": "Conchiglia", "place_id": "ChIJYXYLENYadkgRQLLvAoLHVkA", "types": ["restaurant", "food", "point_of_interest", "establishment"], "rating": 4.5, "user_ratings_total": 346}, "ChIJfQNDhdUadkgRMgMz2YoQTsM": {"geometry": {"location": {"lat": 51.5207547, "lng": -0.1410879}, "viewport": {"northeast": {"lat": 51.52215188029149, "lng": -0.139598569708498}, "southwest": {"lat": 51.51945391970849, "lng": -0.142296530291502}}}, "name": "Central London Assessment Services (CLASS)", "place_id": "ChIJfQNDhdUadkgRMgMz2YoQTsM", "types": ["university", "health", "point_of_interest", "establishment"]}, "ChIJfTsVAtYadkgRJteM4ay3Maw": {"geometry": {"location": {"lat": 51.5205475, "lng": -0.1409096}, "viewport": {"northeast": {"lat": 51.52184853029149, "lng": -0.139541169708498}, "southwest": {"lat": 51.5191505697085, "lng": -0.142239130291502}}}, "name": "Secret Home", "place_id": "ChIJfTsVAtYadkgRJteM4ay3Maw", "types": ["lodging", "point_of_interest", "establishment"]}, "ChIJHVXI4ikbdkgROLSTPcMq9z4": {"geometry": {"location": {"lat": 51.5208665, "lng": -0.1409141}, "viewport": {"northeast": {"lat": 51.5222056302915, "lng": -0.139533769708498}, "southwest": {"lat": 51.5195076697085, "lng": -0.142231730291502}}}, "name": "Structuretone", "place_id": "ChIJHVXI4ikbdkgROLSTPcMq9z4", "types": ["general_contractor", "point_of_interest", "establishment"]}, "ChIJQarn4ikbdkgRTNbgftdLf9I": {"geometry": {"location": {"lat": 51.5209286, "lng": -0.1408478}, "viewport": {"northeast": {"lat": 51.5222681802915, "lng": -0.139554519708498}, "southwest": {"lat": 51.5195702197085, "lng": -0.142252480291502}}}, "name": "Green Fiscal Commission", "place_id": "ChIJQarn4ikbdkgRTNbgftdLf9I", "types": ["point_of_interest", "establishment"]}, "ChIJzY923f9qdkgRmPIqealc1Zo": {"geometry": {"location": {"lat": 51.5207547, "lng": -0.1410879}, "viewport": {"northeast": {"lat": 51.52215188029149, "lng": -0.139598569708498}, "southwest": {"lat": 51.51945391970849, "lng": -0.142296530291502}}}, "name": "Camelot Lottery Solutions.", "place_id": "ChIJzY923f9qdkgRmPIqealc1Zo", "types": ["point_of_interest", "store", "establishment"], "rating": 4.4, "user_ratings_total": 20}, "ChIJ2zB5xqMPdkgRjvE2hFuR2Rw": {"geometry": {"location": {"lat": 51.5207547, "lng": -0.1410879}, "viewport": {"northeast": {"lat": 51.52215188029149, "lng": -0.139598569708498}, "southwest": {"lat": 51.51945391970849, "lng": -0.142296530291502}}}, "name": "iwoca", "place_id": "ChIJ2zB5xqMPdkgRjvE2hFuR2Rw", "types": ["finance", "point_of_interest", "establishment"], "rating": 4.4, "user_ratings_total": 232}, "ChIJLQn4ItQadkgRdxaoRUa-4Rs": {"geometry": {"location": {"lat": 51.5207532, "lng": -0.1409313}, "viewport": {"northeast": {"lat": 51.5221138302915, "lng": -0.139515869708498}, "southwest": {"lat": 51.5194158697085, "lng": -0.142213830291502}}}, "name": "Royal Mail West End Delivery Office", "place_id": "ChIJLQn4ItQadkgRdxaoRUa-4Rs", "types": ["point_of_interest", "establishment"], "rating": 3.9, "user_ratings_total": 64}, "ChIJj55z_CkbdkgRyHQXJqKZu5Y": {"geometry": {"location": {"lat": 51.5207134, "lng": -0.1406505}, "viewport": {"northeast": {"lat": 51.5220410802915, "lng": -0.139345219708498}, "southwest": {"lat": 51.5193431197085, "lng": -0.142043180291502}}}, "name": "University of Westminster Polyclinic", "place_id": "ChIJj55z_CkbdkgRyHQXJqKZu5Y", "types": ["university", "hospital", "health", "point_of_interest", "establishment"], "rating": 3, "user_ratings_total": 2}, "ChIJLTmv6NUadkgRnb72eUf67A4": {"geometry": {"location": {"lat": 51.52058029999999, "lng": -0.1409742}, "viewport": {"northeast": {"lat": 51.5218743302915, "lng": -0.139531469708498}, "southwest": {"lat": 51.5191763697085, "lng": -0.1422294302915021}}}, "name": "Tesco Express", "place_id": "ChIJLTmv6NUadkgRnb72eUf67A4", "types": ["supermarket", "convenience_store", "grocery_or_supermarket", "food", "point_of_interest", "store", "establishment"], "rating": 3.1, "user_ratings_total": 56}, "ChIJJ-ncuNIEdkgRQykP3assB1M": {"geometry": {"location": {"lat": 51.5205439, "lng": -0.1412136}, "viewport": {"northeast": {"lat": 51.5218222302915, "lng": -0.139828569708498}, "southwest": {"lat": 51.51912426970851, "lng": -0.142526530291502}}}, "name": "MyChiropractic.Marketing", "place_id": "ChIJJ-ncuNIEdkgRQykP3assB1M", "types": ["point_of_interest", "establishment"]}, "ChIJo3NYpzUbdkgRQlBUqWG0y2E": {"geometry": {"location": {"lat": 51.5204834, "lng": -0.1412202}, "viewport": {"northeast": {"lat": 51.52178883029149, "lng": -0.139849369708498}, "southwest": {"lat": 51.5190908697085, "lng": -0.142547330291502}}}, "name": "Camelot Lottery Solutions", "place_id": "ChIJo3NYpzUbdkgRQlBUqWG0y2E", "types": ["point_of_interest", "establishment"], "rating": 4.8, "user_ratings_total": 10}, "ChIJuUD24isbdkgRsEmlYrGJqc4": {"geometry": {"location": {"lat": 51.52047169999999, "lng": -0.1413025}, "viewport": {"northeast": {"lat": 51.52177518029149, "lng": -0.139930669708498}, "southwest": {"lat": 51.5190772197085, "lng": -0.142628630291502}}}, "name": "British Olympic Association - Team GB", "place_id": "ChIJuUD24isbdkgRsEmlYrGJqc4", "types": ["point_of_interest", "establishment"], "rating": 4.3, "user_ratings_total": 3}, "ChIJXUxlGtYadkgRaFjC4amhrJg": {"geometry": {"location": {"lat": 51.5209206, "lng": -0.1417746}, "viewport": {"northeast": {"lat": 51.52231398029151, "lng": -0.140445019708498}, "southwest": {"lat": 51.51961601970851, "lng": -0.143142980291502}}}, "name": "Pinta Production", "place_id": "ChIJXUxlGtYadkgRaFjC4amhrJg", "types": ["point_of_interest", "establishment"]}, "ChIJOViZ-ikbdkgR2WPK981cVSQ": {"geometry": {"location": {"lat": 51.52073559999999, "lng": -0.1402866}, "viewport": {"northeast": {"lat": 51.52204583029149, "lng": -0.139166419708498}, "southwest": {"lat": 51.5193478697085, "lng": -0.141864380291502}}}, "name": "Smoke Media", "place_id": "ChIJOViZ-ikbdkgR2WPK981cVSQ", "types": ["point_of_interest", "establishment"]}, "ChIJOViZ-ikbdkgR1AdMWnpYN8Y": {"geometry": {"location": {"lat": 51.52073559999999, "lng": -0.1402866}, "viewport": {"northeast": {"lat": 51.52204583029149, "lng": -0.139166419708498}, "southwest": {"lat": 51.5193478697085, "lng": -0.141864380291502}}}, "name": "UoW", "place_id": "ChIJOViZ-ikbdkgR1AdMWnpYN8Y", "types": ["university", "point_of_interest", "establishment"]}, "ChIJX7jGD9YadkgR9tYST5XtAoo": {"geometry": {"location": {"lat": 51.5207777, "lng": -0.1418257}, "viewport": {"northeast": {"lat": 51.52214668029149, "lng": -0.1403664197084979}, "southwest": {"lat": 51.5194487197085, "lng": -0.143064380291502}}}, "name": "Handwoodflooring", "place_id": "ChIJX7jGD9YadkgR9tYST5XtAoo", "types": ["home_goods_store", "general_contractor", "point_of_interest", "store", "establishment"]}, "ChIJycWdD9YadkgRYdodF-x4OR0": {"geometry": {"location": {"lat": 51.52067890000001, "lng": -0.1417959}, "viewport": {"northeast": {"lat": 51.5220492802915, "lng": -0.140329019708498}, "southwest": {"lat": 51.51935131970851, "lng": -0.143026980291502}}}, "name": "Cloud Pioneer", "place_id": "ChIJycWdD9YadkgRYdodF-x4OR0", "types": ["point_of_interest", "establishment"]}, "ChIJhVAg1bcadkgRFNGXO66mDm0": {"geometry": {"location": {"lat": 51.52076999999999, "lng": -0.14185}, "viewport": {"northeast": {"lat": 51.52214133029149, "lng": -0.140377819708498}, "southwest": {"lat": 51.51944336970849, "lng": -0.143075780291502}}}, "name": "Embodiment Works - Holistic Massage, Somatic Bodywork, Somatic Counsellor, Acupuncture", "place_id": "ChIJhVAg1bcadkgRFNGXO66mDm0", "types": ["physiotherapist", "health", "point_of_interest", "establishment"], "rating": 5, "user_ratings_total": 91}, "ChIJB1qY8SkbdkgR5-ES7YYoVvI": {"geometry": {"location": {"lat": 51.5207147, "lng": -0.1402143}, "viewport": {"northeast": {"lat": 51.52202208029149, "lng": -0.138679219708498}, "southwest": {"lat": 51.51932411970849, "lng": -0.141377180291502}}}, "name": "Westminster Business Consultants", "place_id": "ChIJB1qY8SkbdkgR5-ES7YYoVvI", "types": ["point_of_interest", "establishment"], "rating": 5, "user_ratings_total": 3}, "ChIJJVhl4ykbdkgRCYSPJY8TRjw": {"geometry": {"location": {"lat": 51.52093900000001, "lng": -0.1407544}, "viewport": {"northeast": {"lat": 51.52227818029152, "lng": -0.139471969708498}, "southwest": {"lat": 51.51958021970852, "lng": -0.142169930291502}}}, "name": "Latimer House", "place_id": "ChIJJVhl4ykbdkgRCYSPJY8TRjw", "types": ["health", "point_of_interest", "establishment"]}, "ChIJq6rqAtYadkgRcBFefGLcnjE": {"geometry": {"location": {"lat": 51.5207547, "lng": -0.1410879}, "viewport": {"northeast": {"lat": 51.52215188029149, "lng": -0.139598569708498}, "southwest": {"lat": 51.51945391970849, "lng": -0.142296530291502}}}, "name": "Blis Media Limited", "place_id": "ChIJq6rqAtYadkgRcBFefGLcnjE", "types": ["point_of_interest", "establishment"]}, "ChIJc8WvubEbdkgR-Vt1LbkXyhI": {"geometry": {"location": {"lat": 51.5207547, "lng": -0.1410879}, "viewport": {"northeast": {"lat": 51.52215188029149, "lng": -0.139598569708498}, "southwest": {"lat": 51.51945391970849, "lng": -0.142296530291502}}}, "name": "Anaconda INC", "place_id": "ChIJc8WvubEbdkgR-Vt1LbkXyhI", "types": ["lodging", "point_of_interest", "establishment"]}, "ChIJq6rqAtYadkgRmGVlnsMmtY4": {"geometry": {"location": {"lat": 51.5207547, "lng": -0.1410879}, "viewport": {"northeast": {"lat": 51.52215188029149, "lng": -0.139598569708498}, "southwest": {"lat": 51.51945391970849, "lng": -0.142296530291502}}}, "name": "GB SNOWSPORT", "place_id": "ChIJq6rqAtYadkgRmGVlnsMmtY4", "types": ["point_of_interest", "establishment"]}, "ChIJsy4mTEYbdkgRpSZB6HREoAo": {"geometry": {"location": {"lat": 51.5207547, "lng": -0.1410879}, "viewport": {"northeast": {"lat": 51.52215188029149, "lng": -0.139598569708498}, "southwest": {"lat": 51.51945391970849, "lng": -0.142296530291502}}}, "name": "MoneyGram", "place_id": "ChIJsy4mTEYbdkgRpSZB6HREoAo", "types": ["finance", "point_of_interest", "establishment"]}, "ChIJRegU5CsbdkgRdbxMHlZpgwA": {"geometry": {"location": {"lat": 51.5207547, "lng": -0.1410879}, "viewport": {"northeast": {"lat": 51.52215188029149, "lng": -0.139598569708498}, "southwest": {"lat": 51.51945391970849, "lng": -0.142296530291502}}}, "name": "British Paralympic Association", "place_id": "ChIJRegU5CsbdkgRdbxMHlZpgwA", "types": ["point_of_interest", "establishment"], "rating": 5, "user_ratings_total": 2}, "ChIJechn4ykbdkgRYd9oJh8FyLk": {"geometry": {"location": {"lat": 51.5209272, "lng": -0.1406699}, "viewport": {"northeast": {"lat": 51.5222610302915, "lng": -0.139410269708498}, "southwest": {"lat": 51.5195630697085, "lng": -0.142108230291502}}}, "name": "Adventures in Awareness", "place_id": "ChIJechn4ykbdkgRYd9oJh8FyLk", "types": ["point_of_interest", "establishment"]}, "ChIJechn4ykbdkgRhnn02BcQQw0": {"geometry": {"location": {"lat": 51.5209272, "lng": -0.1406699}, "viewport": {"northeast": {"lat": 51.5222601802915, "lng": -0.139412069708498}, "southwest": {"lat": 51.5195622197085, "lng": -0.142110030291502}}}, "name": "Clc", "place_id": "ChIJechn4ykbdkgRhnn02BcQQw0", "types": ["point_of_interest", "establishment"]}, "ChIJYzsVAtYadkgRjsuvGX8BGlg": {"geometry": {"location": {"lat": 51.52058659999999, "lng": -0.1410789}, "viewport": {"northeast": {"lat": 51.52185753029149, "lng": -0.139690719708498}, "southwest": {"lat": 51.51915956970849, "lng": -0.142388680291502}}}, "name": "Strickland & Partners", "place_id": "ChIJYzsVAtYadkgRjsuvGX8BGlg", "types": ["general_contractor", "point_of_interest", "establishment"]}, "ChIJ_fccwPobdkgR7sYVT03pxxE": {"geometry": {"location": {"lat": 51.5212991, "lng": -0.1412085}, "viewport": {"northeast": {"lat": 51.5227550302915, "lng": -0.139616819708498}, "southwest": {"lat": 51.5200570697085, "lng": -0.142314780291502}}}, "name": "Ubeeqo", "place_id": "ChIJ_fccwPobdkgR7sYVT03pxxE", "types": ["point_of_interest", "establishment"]}, "ChIJ3-LbCxIbdkgRXj2B-icqLEQ": {"geometry": {"location": {"lat": 51.52074229999999, "lng": -0.1403824}, "viewport": {"northeast": {"lat": 51.52205988029151, "lng": -0.139218969708498}, "southwest": {"lat": 51.51936191970851, "lng": -0.141916930291502}}}, "name": "Science4U", "place_id": "ChIJ3-LbCxIbdkgRXj2B-icqLEQ", "types": ["school", "point_of_interest", "establishment"]}, "ChIJyVkHENYadkgRExZHPccrVPs": {"geometry": {"location": {"lat": 51.5208595, "lng": -0.1417327}, "viewport": {"northeast": {"lat": 51.52221753029151, "lng": -0.140333919708498}, "southwest": {"lat": 51.51951956970851, "lng": -0.143031880291502}}}, "name": "Lynton House", "place_id": "ChIJyVkHENYadkgRExZHPccrVPs", "types": ["point_of_interest", "establishment"]}, "ChIJXYG9QtMadkgRFzPNqyO8ZDE": {"geometry": {"location": {"lat": 51.5204921, "lng": -0.1406696}, "viewport": {"northeast": {"lat": 51.52180673029149, "lng": -0.139304319708498}, "southwest": {"lat": 51.5191087697085, "lng": -0.1420022802915021}}}, "name": "Layland Walker Ltd", "place_id": "ChIJXYG9QtMadkgRFzPNqyO8ZDE", "types": ["finance", "point_of_interest", "establishment"]}, "ChIJYbuo_ikbdkgRHq6xdPzTI4g": {"geometry": {"location": {"lat": 51.5204921, "lng": -0.1406696}, "viewport": {"northeast": {"lat": 51.5218326802915, "lng": -0.139370419708498}, "southwest": {"lat": 51.5191347197085, "lng": -0.142068380291502}}}, "name": "Soulution Nutrition Nutritional Therapy", "place_id": "ChIJYbuo_ikbdkgRHq6xdPzTI4g", "types": ["health", "point_of_interest", "establishment"]}, "ChIJSy15-ikbdkgRhEMN4igjx4o": {"geometry": {"location": {"lat": 51.520593, "lng": -0.1403883}, "viewport": {"northeast": {"lat": 51.5219165302915, "lng": -0.139026969708498}, "southwest": {"lat": 51.5192185697085, "lng": -0.141724930291502}}}, "name": "ubitricity Charging Station", "place_id": "ChIJSy15-ikbdkgRhEMN4igjx4o", "types": ["point_of_interest", "establishment"]}, "ChIJi1bFBdYadkgR9tC4FTEF7fA": {"geometry": {"location": {"lat": 51.5205504, "lng": -0.1415932}, "viewport": {"northeast": {"lat": 51.52190888029151, "lng": -0.140191969708498}, "southwest": {"lat": 51.51921091970851, "lng": -0.142889930291502}}}, "name": "Reef Agencies", "place_id": "ChIJi1bFBdYadkgR9tC4FTEF7fA", "types": ["clothing_store", "point_of_interest", "store", "establishment"]}, "ChIJK4ScD9YadkgRQlTj075WZmo": {"geometry": {"location": {"lat": 51.5206904, "lng": -0.141787}, "viewport": {"northeast": {"lat": 51.5220595802915, "lng": -0.140326669708498}, "southwest": {"lat": 51.5193616197085, "lng": -0.143024630291502}}}, "name": "Go Urbane Ltd", "place_id": "ChIJK4ScD9YadkgRQlTj075WZmo", "types": ["point_of_interest", "establishment"]}, "ChIJW59uX6wadkgRutfi-W5Oux8": {"geometry": {"location": {"lat": 51.5206083, "lng": -0.1417406}, "viewport": {"northeast": {"lat": 51.52197683029149, "lng": -0.140283919708498}, "southwest": {"lat": 51.51927886970849, "lng": -0.142981880291502}}}, "name": "David Roberts Art Foundation", "place_id": "ChIJW59uX6wadkgRutfi-W5Oux8", "types": ["point_of_interest", "establishment"]}, "ChIJ6VuvZyobdkgRbVmflaEmnM4": {"geometry": {"location": {"lat": 51.52011630000001, "lng": -0.1410949}, "viewport": {"northeast": {"lat": 51.5214468302915, "lng": -0.139845919708498}, "southwest": {"lat": 51.5187488697085, "lng": -0.142543880291502}}}, "name": "Jed Root Limited", "place_id": "ChIJ6VuvZyobdkgRbVmflaEmnM4", "types": ["point_of_interest", "establishment"]}, "ChIJCQqShyobdkgRR9iUaU8VnaU": {"geometry": {"location": {"lat": 51.520128, "lng": -0.141098}, "viewport": {"northeast": {"lat": 51.52145833029149, "lng": -0.139850169708498}, "southwest": {"lat": 51.5187603697085, "lng": -0.142548130291502}}}, "name": "Entertainment Alliance Ltd", "place_id": "ChIJCQqShyobdkgRR9iUaU8VnaU", "types": ["store", "point_of_interest", "establishment"], "rating": 3.7, "user_ratings_total": 3}, "ChIJIU1NsisbdkgRYjW6ZvWSxTo": {"geometry": {"location": {"lat": 51.520128, "lng": -0.141098}, "viewport": {"northeast": {"lat": 51.5214590302915, "lng": -0.139850519708498}, "southwest": {"lat": 51.5187610697085, "lng": -0.142548480291502}}}, "name": "Beetroot Music", "place_id": "ChIJIU1NsisbdkgRYjW6ZvWSxTo", "types": ["electronics_store", "home_goods_store", "point_of_interest", "store", "establishment"], "rating": 3, "user_ratings_total": 1}, "ChIJA6rD_9UadkgRqECsZCauy_U": {"geometry": {"location": {"lat": 51.52012830000001, "lng": -0.1410976}, "viewport": {"northeast": {"lat": 51.52145858029151, "lng": -0.139850019708498}, "southwest": {"lat": 51.51876061970851, "lng": -0.142547980291502}}}, "name": "Gioia Maini", "place_id": "ChIJA6rD_9UadkgRqECsZCauy_U", "types": ["point_of_interest", "establishment"]}, "ChIJA6rD_9UadkgRdBCXAsCu1o0": {"geometry": {"location": {"lat": 51.52012830000001, "lng": -0.1410976}, "viewport": {"northeast": {"lat": 51.52145858029151, "lng": -0.139850019708498}, "southwest": {"lat": 51.51876061970851, "lng": -0.142547980291502}}}, "name": "Bespoke Film & Communications Agency", "place_id": "ChIJA6rD_9UadkgRdBCXAsCu1o0", "types": ["point_of_interest", "establishment"]}, "ChIJqQDD_9UadkgR5Wk_evpRVKI": {"geometry": {"location": {"lat": 51.5201284, "lng": -0.1410975}, "viewport": {"northeast": {"lat": 51.5214586302915, "lng": -0.139849969708498}, "southwest": {"lat": 51.5187606697085, "lng": -0.142547930291502}}}, "name": "10T", "place_id": "ChIJqQDD_9UadkgR5Wk_evpRVKI", "types": ["point_of_interest", "establishment"]}, "ChIJA64SZCobdkgRCeK2pjFS8iI": {"geometry": {"location": {"lat": 51.5201962, "lng": -0.1407641}, "viewport": {"northeast": {"lat": 51.5215644302915, "lng": -0.139308819708498}, "southwest": {"lat": 51.5188664697085, "lng": -0.142006780291502}}}, "name": "BAA Clothing", "place_id": "ChIJA64SZCobdkgRCeK2pjFS8iI", "types": ["clothing_store", "point_of_interest", "store", "establishment"]}, "ChIJ-7cx9tUadkgRkbpykjdEDEU": {"geometry": {"location": {"lat": 51.5201375, "lng": -0.1416424}, "viewport": {"northeast": {"lat": 51.5214864802915, "lng": -0.140293419708498}, "southwest": {"lat": 51.51878851970851, "lng": -0.142991380291502}}}, "name": "Innerplace Ltd", "place_id": "ChIJ-7cx9tUadkgRkbpykjdEDEU", "types": ["point_of_interest", "establishment"], "rating": 5, "user_ratings_total": 1}, "ChIJE-3oZVUDdkgRXW0LLUE-bFg": {"geometry": {"location": {"lat": 51.5201375, "lng": -0.1416424}, "viewport": {"northeast": {"lat": 51.5215647302915, "lng": -0.1403305197084979}, "southwest": {"lat": 51.5188667697085, "lng": -0.143028480291502}}}, "name": "RJD Partners", "place_id": "ChIJE-3oZVUDdkgRXW0LLUE-bFg", "types": ["finance", "point_of_interest", "establishment"]}, "ChIJcejL2h8bdkgRbu5zJsGUgDM": {"geometry": {"location": {"lat": 51.5201375, "lng": -0.1416424}, "viewport": {"northeast": {"lat": 51.5215647302915, "lng": -0.1403305197084979}, "southwest": {"lat": 51.5188667697085, "lng": -0.143028480291502}}}, "name": "Ctori Construction Consultants Ltd", "place_id": "ChIJcejL2h8bdkgRbu5zJsGUgDM", "types": ["general_contractor", "point_of_interest", "establishment"]}, "ChIJKSixX9UEdkgRUM5wdcNsyIE": {"geometry": {"location": {"lat": 51.5201375, "lng": -0.1416424}, "viewport": {"northeast": {"lat": 51.5215647302915, "lng": -0.1403305197084979}, "southwest": {"lat": 51.5188667697085, "lng": -0.143028480291502}}}, "name": "Acuity Risk Management", "place_id": "ChIJKSixX9UEdkgRUM5wdcNsyIE", "types": ["point_of_interest", "establishment"]}, "ChIJbXsVeioFdkgRuuNXEoxa-dM": {"geometry": {"location": {"lat": 51.5201375, "lng": -0.1416424}, "viewport": {"northeast": {"lat": 51.5214864802915, "lng": -0.140293419708498}, "southwest": {"lat": 51.51878851970851, "lng": -0.142991380291502}}}, "name": "Trilogie CRE now part of Vail Williams", "place_id": "ChIJbXsVeioFdkgRuuNXEoxa-dM", "types": ["point_of_interest", "establishment"]}, "ChIJhej7BNYadkgRxcJ0Uvsx8No": {"geometry": {"location": {"lat": 51.5203088, "lng": -0.1409584}, "viewport": {"northeast": {"lat": 51.5216199802915, "lng": -0.139814319708498}, "southwest": {"lat": 51.5189220197085, "lng": -0.142512280291502}}}, "name": "Triangle Translations", "place_id": "ChIJhej7BNYadkgRxcJ0Uvsx8No", "types": ["point_of_interest", "establishment"], "rating": 5, "user_ratings_total": 1}, "ChIJu3Pwqg0bdkgRfPnXz9iEgU8": {"geometry": {"location": {"lat": 51.5201393, "lng": -0.1416565}, "viewport": {"northeast": {"lat": 51.52156453029149, "lng": -0.140343669708498}, "southwest": {"lat": 51.51886656970849, "lng": -0.143041630291502}}}, "name": "ezbob", "place_id": "ChIJu3Pwqg0bdkgRfPnXz9iEgU8", "types": ["point_of_interest", "establishment"], "rating": 4.5, "user_ratings_total": 4}, "ChIJs8l1tCgFdkgR-C6OLAal78Y": {"geometry": {"location": {"lat": 51.52013900000001, "lng": -0.141657}, "viewport": {"northeast": {"lat": 51.52156433029151, "lng": -0.140344219708498}, "southwest": {"lat": 51.51886636970851, "lng": -0.143042180291502}}}, "name": "IT-Venture Ltd (London)", "place_id": "ChIJs8l1tCgFdkgR-C6OLAal78Y", "types": ["point_of_interest", "establishment"]}, "ChIJHdB2JisFdkgRlUUP3DZQa0Y": {"geometry": {"location": {"lat": 51.5201336, "lng": -0.1416748}, "viewport": {"northeast": {"lat": 51.5214825802915, "lng": -0.140325819708498}, "southwest": {"lat": 51.5187846197085, "lng": -0.143023780291502}}}, "name": "Matterport", "place_id": "ChIJHdB2JisFdkgRlUUP3DZQa0Y", "types": ["point_of_interest", "establishment"], "rating": 3.5, "user_ratings_total": 22}, "ChIJwXagANYadkgREGjHUb31ipQ": {"geometry": {"location": {"lat": 51.5201885, "lng": -0.1412088}, "viewport": {"northeast": {"lat": 51.5215257302915, "lng": -0.139923269708498}, "southwest": {"lat": 51.5188277697085, "lng": -0.142621230291502}}}, "name": "Luxury B&B", "place_id": "ChIJwXagANYadkgREGjHUb31ipQ", "types": ["lodging", "point_of_interest", "establishment"], "rating": 4.9, "user_ratings_total": 8}, "ChIJw_Fxv3wFdkgRm40pVk0dMiU": {"geometry": {"location": {"lat": 51.5201493, "lng": -0.1416723}, "viewport": {"northeast": {"lat": 51.52156858029149, "lng": -0.140356619708498}, "southwest": {"lat": 51.51887061970849, "lng": -0.143054580291502}}}, "name": "Orbit Partners Ltd", "place_id": "ChIJw_Fxv3wFdkgRm40pVk0dMiU", "types": ["point_of_interest", "establishment"]}, "ChIJDzAH_ykbdkgRoZ7HFNl7vw4": {"geometry": {"location": {"lat": 51.520314, "lng": -0.140775}, "viewport": {"northeast": {"lat": 51.5216629802915, "lng": -0.139426019708498}, "southwest": {"lat": 51.5189650197085, "lng": -0.142123980291502}}}, "name": "Banh Mi Town", "place_id": "ChIJDzAH_ykbdkgRoZ7HFNl7vw4", "types": ["restaurant", "food", "point_of_interest", "establishment"], "rating": 4.3, "user_ratings_total": 195}, "ChIJISF6ANYadkgRXB0oqd2FYyw": {"geometry": {"location": {"lat": 51.52025479999999, "lng": -0.1411705}, "viewport": {"northeast": {"lat": 51.52160378029149, "lng": -0.139821519708498}, "southwest": {"lat": 51.51890581970849, "lng": -0.142519480291502}}}, "name": "Viabizzuno", "place_id": "ChIJISF6ANYadkgRXB0oqd2FYyw", "types": ["home_goods_store", "general_contractor", "point_of_interest", "store", "establishment"]}, "ChIJSyc8_tUadkgRNbiqpKOE7Ak": {"geometry": {"location": {"lat": 51.52012830000001, "lng": -0.1410976}, "viewport": {"northeast": {"lat": 51.52145858029151, "lng": -0.139850019708498}, "southwest": {"lat": 51.51876061970851, "lng": -0.142547980291502}}}, "name": "M. Sakhi", "place_id": "ChIJSyc8_tUadkgRNbiqpKOE7Ak", "types": ["point_of_interest", "establishment"], "rating": 5, "user_ratings_total": 1}, "ChIJ7aQ9ONUEdkgRaGND9KGstm4": {"geometry": {"location": {"lat": 51.5201962, "lng": -0.1407641}, "viewport": {"northeast": {"lat": 51.5215644302915, "lng": -0.139308819708498}, "southwest": {"lat": 51.5188664697085, "lng": -0.142006780291502}}}, "name": "Kings Park Capital LLP", "place_id": "ChIJ7aQ9ONUEdkgRaGND9KGstm4", "types": ["finance", "point_of_interest", "establishment"]}, "ChIJm3b8iNcadkgRsBYjkCdKrb4": {"geometry": {"location": {"lat": 51.52518470590832, "lng": -0.1430800540650063}, "viewport": {"northeast": {"lat": 51.52653368029149, "lng": -0.141731019708498}, "southwest": {"lat": 51.52383571970849, "lng": -0.144428980291502}}}, "name": "6-28 Osnaburgh St", "place_id": "ChIJm3b8iNcadkgRsBYjkCdKrb4", "types": ["route"]}, "ChIJneJc_ScbdkgRmHWtnb83AM8": {"geometry": {"location": {"lat": 51.5247989, "lng": -0.1429541}, "viewport": {"northeast": {"lat": 51.5261005802915, "lng": -0.141585069708498}, "southwest": {"lat": 51.52340261970851, "lng": -0.144283030291502}}}, "name": "Ricoh Europe Plc", "place_id": "ChIJneJc_ScbdkgRmHWtnb83AM8", "types": ["point_of_interest", "establishment"], "rating": 4.2, "user_ratings_total": 23}, "ChIJ69bGjtcadkgROKK2X-Sk6JI": {"geometry": {"location": {"lat": 51.5250243, "lng": -0.1425805}, "viewport": {"northeast": {"lat": 51.5262439802915, "lng": -0.141253669708498}, "southwest": {"lat": 51.5235460197085, "lng": -0.143951630291502}}}, "name": "Gazprom Marketing & Trading", "place_id": "ChIJ69bGjtcadkgROKK2X-Sk6JI", "types": ["point_of_interest", "establishment"], "rating": 4.2, "user_ratings_total": 17}, "ChIJd9ZI89cadkgRq6r2-94B8RQ": {"geometry": {"location": {"lat": 51.5250437, "lng": -0.1424537}, "viewport": {"northeast": {"lat": 51.52626778029151, "lng": -0.141101919708498}, "southwest": {"lat": 51.52356981970851, "lng": -0.143799880291502}}}, "name": "Dimensional Fund Advisors Ltd", "place_id": "ChIJd9ZI89cadkgRq6r2-94B8RQ", "types": ["finance", "point_of_interest", "establishment"], "rating": 5, "user_ratings_total": 1}, "ChIJGfAUjNcadkgRQ-0Mra2cRvQ": {"geometry": {"location": {"lat": 51.52490229999999, "lng": -0.1429946}, "viewport": {"northeast": {"lat": 51.52615258029149, "lng": -0.141603819708498}, "southwest": {"lat": 51.5234546197085, "lng": -0.144301780291502}}}, "name": "Lendlease", "place_id": "ChIJGfAUjNcadkgRQ-0Mra2cRvQ", "types": ["general_contractor", "point_of_interest", "establishment"], "rating": 4.5, "user_ratings_total": 12}, "ChIJXwc5vrIcdkgRSv4_aiJNaXA": {"geometry": {"location": {"lat": 51.52477089999999, "lng": -0.1428891}, "viewport": {"northeast": {"lat": 51.52609193029151, "lng": -0.141528319708498}, "southwest": {"lat": 51.52339396970851, "lng": -0.1442262802915021}}}, "name": "Gazprom UK Resources", "place_id": "ChIJXwc5vrIcdkgRSv4_aiJNaXA", "types": ["point_of_interest", "establishment"]}, "ChIJTdMN4FpIdkgRzVIX9IC6NZw": {"geometry": {"location": {"lat": 51.52477089999999, "lng": -0.1428891}, "viewport": {"northeast": {"lat": 51.5261198802915, "lng": -0.141540119708498}, "southwest": {"lat": 51.5234219197085, "lng": -0.1442380802915021}}}, "name": "Hays Plc", "place_id": "ChIJTdMN4FpIdkgRzVIX9IC6NZw", "types": ["point_of_interest", "establishment"]}, "ChIJwTDaIdgadkgRKVNDjH7S-9M": {"geometry": {"location": {"lat": 51.52564849999999, "lng": -0.1425188}, "viewport": {"northeast": {"lat": 51.5269880302915, "lng": -0.1411705697084979}, "southwest": {"lat": 51.5242900697085, "lng": -0.143868530291502}}},