{"E00023738": {"ChIJ6zdWP_4PdkgRB_68ZSvpRIo": {"geometry": {"location": {"lat": 51.51353930213541, "lng": -0.1921164513069387}, "viewport": {"northeast": {"lat": 51.5148882802915, "lng": -0.19069895}, "southwest": {"lat": 51.5121903197085, "lng": -0.1935339500000001}}}, "name": "58-60 Leinster Square", "place_id": "ChIJ6zdWP_4PdkgRB_68ZSvpRIo", "types": ["route"]}, "ChIJgWxPav4PdkgRqZHS4FGG4-E": {"geometry": {"location": {"lat": 51.5133946, "lng": -0.1919579}, "viewport": {"northeast": {"lat": 51.5147775302915, "lng": -0.190310219708498}, "southwest": {"lat": 51.5120795697085, "lng": -0.193008180291502}}}, "name": "Reem Hotel", "place_id": "ChIJgWxPav4PdkgRqZHS4FGG4-E", "types": ["lodging", "point_of_interest", "establishment"], "rating": 3.7, "user_ratings_total": 434}, "ChIJa9zXRv4PdkgRNDIVoDrLsAg": {"geometry": {"location": {"lat": 51.51340039999999, "lng": -0.1921664}, "viewport": {"northeast": {"lat": 51.5145302802915, "lng": -0.190752719708498}, "southwest": {"lat": 51.5118323197085, "lng": -0.193450680291502}}}, "name": "Pembridge Palace Hotel", "place_id": "ChIJa9zXRv4PdkgRNDIVoDrLsAg", "types": ["lodging", "point_of_interest", "establishment"], "rating": 3, "user_ratings_total": 1061}, "ChIJzUGkXP4PdkgRP6Tg4d-tDq0": {"geometry": {"location": {"lat": 51.5133057, "lng": -0.1925814}, "viewport": {"northeast": {"lat": 51.5144635802915, "lng": -0.191016819708498}, "southwest": {"lat": 51.51176561970851, "lng": -0.193714780291502}}}, "name": "Park Avenue Bayswater Inn Hyde Park", "place_id": "ChIJzUGkXP4PdkgRP6Tg4d-tDq0", "types": ["lodging", "point_of_interest", "establishment"], "rating": 2.9, "user_ratings_total": 1523}, "ChIJ5QgySP4PdkgRNOqxo17GB8k": {"geometry": {"location": {"lat": 51.5134957, "lng": -0.1915529}, "viewport": {"northeast": {"lat": 51.5148547302915, "lng": -0.190115519708498}, "southwest": {"lat": 51.5121567697085, "lng": -0.192813480291502}}}, "name": "CALPE HOUSE TRUST", "place_id": "ChIJ5QgySP4PdkgRNOqxo17GB8k", "types": ["point_of_interest", "establishment"], "rating": 5, "user_ratings_total": 1}, "ChIJocMsSP4PdkgRuKdxUXZ_Ptg": {"geometry": {"location": {"lat": 51.5135101, "lng": -0.1915382}, "viewport": {"northeast": {"lat": 51.51490623029149, "lng": -0.190203669708498}, "southwest": {"lat": 51.51220826970849, "lng": -0.192901630291502}}}, "name": "Calpe House", "place_id": "ChIJocMsSP4PdkgRuKdxUXZ_Ptg", "types": ["point_of_interest", "establishment"], "rating": 4.3, "user_ratings_total": 3}, "ChIJY3JzFf4PdkgReuuHb8P-Qso": {"geometry": {"location": {"lat": 51.5137601, "lng": -0.1916202}, "viewport": {"northeast": {"lat": 51.5151186802915, "lng": -0.190188219708498}, "southwest": {"lat": 51.5124207197085, "lng": -0.1928861802915021}}}, "name": "Leinster Square Osteopathic Practice", "place_id": "ChIJY3JzFf4PdkgReuuHb8P-Qso", "types": ["health", "point_of_interest", "establishment"]}, "ChIJMTUtcP4PdkgR7nPpWWew2wA": {"geometry": {"location": {"lat": 51.51344249999999, "lng": -0.191198}, "viewport": {"northeast": {"lat": 51.5147827302915, "lng": -0.189924669708498}, "southwest": {"lat": 51.5120847697085, "lng": -0.192622630291502}}}, "name": "Bayswater - Prince's Sq", "place_id": "ChIJMTUtcP4PdkgR7nPpWWew2wA", "types": ["point_of_interest", "establishment"], "rating": 4.5, "user_ratings_total": 2}, "ChIJFdhDLegPdkgR2fBK-zQJ85U": {"geometry": {"location": {"lat": 51.513437, "lng": -0.1917922}, "viewport": {"northeast": {"lat": 51.5148101302915, "lng": -0.190230719708498}, "southwest": {"lat": 51.5121121697085, "lng": -0.192928680291502}}}, "name": "Urbany Hostel London", "place_id": "ChIJFdhDLegPdkgR2fBK-zQJ85U", "types": ["lodging", "point_of_interest", "establishment"], "rating": 4.8, "user_ratings_total": 36}, "ChIJ_c4xJQQPdkgR6QpsCVh4pwY": {"geometry": {"location": {"lat": 51.513437, "lng": -0.1917922}, "viewport": {"northeast": {"lat": 51.5148101302915, "lng": -0.190230719708498}, "southwest": {"lat": 51.5121121697085, "lng": -0.192928680291502}}}, "name": "Notting Hill Rooms", "place_id": "ChIJ_c4xJQQPdkgR6QpsCVh4pwY", "types": ["lodging", "point_of_interest", "establishment"]}, "ChIJT8rRyi4PdkgRm5JJ_a8UJQA": {"geometry": {"location": {"lat": 51.51335999999999, "lng": -0.1913299}, "viewport": {"northeast": {"lat": 51.5147012802915, "lng": -0.1900299697084979}, "southwest": {"lat": 51.5120033197085, "lng": -0.192727930291502}}}, "name": "Loveday Notting Hill", "place_id": "ChIJT8rRyi4PdkgRm5JJ_a8UJQA", "types": ["hospital", "health", "point_of_interest", "establishment"]}, "ChIJ5y4mOP4PdkgRD-w2HKctSDA": {"geometry": {"location": {"lat": 51.5136589, "lng": -0.191732}, "viewport": {"northeast": {"lat": 51.51497218029149, "lng": -0.190372069708498}, "southwest": {"lat": 51.5122742197085, "lng": -0.193070030291502}}}, "name": "ubitricity Charging Station", "place_id": "ChIJ5y4mOP4PdkgRD-w2HKctSDA", "types": ["point_of_interest", "establishment"]}, "ChIJzUtIP_4PdkgRiCfwdbheip4": {"geometry": {"location": {"lat": 51.513613, "lng": -0.1921219}, "viewport": {"northeast": {"lat": 51.51492603029151, "lng": -0.190762669708498}, "southwest": {"lat": 51.51222806970851, "lng": -0.193460630291502}}}, "name": "ubitricity Charging Station", "place_id": "ChIJzUtIP_4PdkgRiCfwdbheip4", "types": ["point_of_interest", "establishment"]}, "ChIJqX6cfjUPdkgR-yGSzqAqCh0": {"geometry": {"location": {"lat": 51.51348900000001, "lng": -0.191351}, "viewport": {"northeast": {"lat": 51.51484173029149, "lng": -0.189968919708498}, "southwest": {"lat": 51.51214376970849, "lng": -0.192666880291502}}}, "name": "Santander Cycles", "place_id": "ChIJqX6cfjUPdkgR-yGSzqAqCh0", "types": ["point_of_interest", "establishment"]}, "ChIJHUJqjU8PdkgRK8njcT3J5rw": {"geometry": {"location": {"lat": 51.5130902, "lng": -0.1923017}, "viewport": {"northeast": {"lat": 51.5143626302915, "lng": -0.190930119708498}, "southwest": {"lat": 51.5116646697085, "lng": -0.1936280802915021}}}, "name": "Prince's Square Gardens", "place_id": "ChIJHUJqjU8PdkgRK8njcT3J5rw", "types": ["park", "point_of_interest", "establishment"], "rating": 5, "user_ratings_total": 4}, "ChIJidQPWvsPdkgRHHk2dInQ1u8": {"geometry": {"location": {"lat": 51.513698, "lng": -0.192142}, "viewport": {"northeast": {"lat": 51.5149689302915, "lng": -0.190769119708498}, "southwest": {"lat": 51.5122709697085, "lng": -0.193467080291502}}}, "name": "PARTICIPANT", "place_id": "ChIJidQPWvsPdkgRHHk2dInQ1u8", "types": ["point_of_interest", "establishment"]}, "ChIJjTYnP_4PdkgRlP6qbtLfqhs": {"geometry": {"location": {"lat": 51.513695, "lng": -0.192154}, "viewport": {"northeast": {"lat": 51.5149667302915, "lng": -0.190781369708498}, "southwest": {"lat": 51.5122687697085, "lng": -0.193479330291502}}}, "name": "Sweet Inn - Bayswater", "place_id": "ChIJjTYnP_4PdkgRlP6qbtLfqhs", "types": ["lodging", "point_of_interest", "establishment"]}, "ChIJZ7i8yBwPdkgR1FMtopIWmFA": {"geometry": {"location": {"lat": 51.5132011, "lng": -0.1924404}, "viewport": {"northeast": {"lat": 51.5144121802915, "lng": -0.191050719708498}, "southwest": {"lat": 51.5117142197085, "lng": -0.193748680291502}}}, "name": "Pembrigde", "place_id": "ChIJZ7i8yBwPdkgR1FMtopIWmFA", "types": ["lodging", "point_of_interest", "establishment"]}, "ChIJdRo7Rf4PdkgRs8zqLUEQZs4": {"geometry": {"location": {"lat": 51.51293399999999, "lng": -0.1918439}, "viewport": {"northeast": {"lat": 51.5143005802915, "lng": -0.190500069708498}, "southwest": {"lat": 51.5116026197085, "lng": -0.193198030291502}}}, "name": "ubitricity Charging Station", "place_id": "ChIJdRo7Rf4PdkgRs8zqLUEQZs4", "types": ["point_of_interest", "establishment"]}, "ChIJ8fNXRf4PdkgRy0PyC-sIfG8": {"geometry": {"location": {"lat": 51.51292, "lng": -0.191718}, "viewport": {"northeast": {"lat": 51.5143070302915, "lng": -0.1903802697084979}, "southwest": {"lat": 51.5116090697085, "lng": -0.193078230291502}}}, "name": "Beaumont Student Living", "place_id": "ChIJ8fNXRf4PdkgRy0PyC-sIfG8", "types": ["point_of_interest", "establishment"], "rating": 3.3, "user_ratings_total": 14}, "ChIJ0yccN7APdkgRVH8tgj3xBNk": {"geometry": {"location": {"lat": 51.5129197, "lng": -0.1917178}, "viewport": {"northeast": {"lat": 51.51430688029149, "lng": -0.190380069708498}, "southwest": {"lat": 51.51160891970849, "lng": -0.193078030291502}}}, "name": "Azfarnism", "place_id": "ChIJ0yccN7APdkgRVH8tgj3xBNk", "types": ["point_of_interest", "establishment"]}, "ChIJPyY_Tv4PdkgR5u_9LSn644o": {"geometry": {"location": {"lat": 51.5129535, "lng": -0.1914575}, "viewport": {"northeast": {"lat": 51.51433873029149, "lng": -0.190119219708498}, "southwest": {"lat": 51.51164076970849, "lng": -0.192817180291502}}}, "name": "Mara Inc (London) Limited", "place_id": "ChIJPyY_Tv4PdkgR5u_9LSn644o", "types": ["point_of_interest", "establishment"]}, "ChIJfUb9Z_4PdkgRLwOIh833jc4": {"geometry": {"location": {"lat": 51.5133057, "lng": -0.1925814}, "viewport": {"northeast": {"lat": 51.5144584302915, "lng": -0.191174469708498}, "southwest": {"lat": 51.51176046970851, "lng": -0.193872430291502}}}, "name": "Bayswater Hotel", "place_id": "ChIJfUb9Z_4PdkgRLwOIh833jc4", "types": ["lodging", "point_of_interest", "establishment"]}, "ChIJT9ZC8xIPdkgRFJ80NlMHkS4": {"geometry": {"location": {"lat": 51.5132981, "lng": -0.1926102}, "viewport": {"northeast": {"lat": 51.51445288029149, "lng": -0.191203919708498}, "southwest": {"lat": 51.51175491970849, "lng": -0.193901880291502}}}, "name": "Natural Organic", "place_id": "ChIJT9ZC8xIPdkgRFJ80NlMHkS4", "types": ["health", "point_of_interest", "establishment"]}, "ChIJB0yXloIPdkgRMvIQ6_4PAqU": {"geometry": {"location": {"lat": 51.5132981, "lng": -0.1926102}, "viewport": {"northeast": {"lat": 51.51445288029149, "lng": -0.191203919708498}, "southwest": {"lat": 51.51175491970849, "lng": -0.193901880291502}}}, "name": "NGS London Contractors", "place_id": "ChIJB0yXloIPdkgRMvIQ6_4PAqU", "types": ["general_contractor", "point_of_interest", "establishment"]}, "ChIJr4UULdEPdkgRgutlllmVgBQ": {"geometry": {"location": {"lat": 51.5132981, "lng": -0.1926102}, "viewport": {"northeast": {"lat": 51.51445288029149, "lng": -0.191203919708498}, "southwest": {"lat": 51.51175491970849, "lng": -0.193901880291502}}}, "name": "NGS Builders & Handyman Services", "place_id": "ChIJr4UULdEPdkgRgutlllmVgBQ", "types": ["general_contractor", "point_of_interest", "establishment"]}, "ChIJHVA2Q_4PdkgRwFAw_Ms7KpI": {"geometry": {"location": {"lat": 51.512908, "lng": -0.192182}, "viewport": {"northeast": {"lat": 51.5142623802915, "lng": -0.190834569708498}, "southwest": {"lat": 51.5115644197085, "lng": -0.193532530291502}}}, "name": "ubitricity Charging Station", "place_id": "ChIJHVA2Q_4PdkgRwFAw_Ms7KpI", "types": ["point_of_interest", "establishment"]}, "ChIJXcafNv4PdkgRD-TJoc9PPss": {"geometry": {"location": {"lat": 51.5137806, "lng": -0.1913259}, "viewport": {"northeast": {"lat": 51.51512238029149, "lng": -0.190039119708498}, "southwest": {"lat": 51.51242441970849, "lng": -0.192737080291502}}}, "name": "Sprk Capital", "place_id": "ChIJXcafNv4PdkgRD-TJoc9PPss", "types": ["finance", "point_of_interest", "establishment"]}, "ChIJf7v_P_4PdkgR2JDAyw9uG78": {"geometry": {"location": {"lat": 51.5135465, "lng": -0.1923962}, "viewport": {"northeast": {"lat": 51.51489162613441, "lng": -0.1910968036705515}, "southwest": {"lat": 51.51219366555141, "lng": -0.1937947642535556}}}, "name": "Parking lot", "place_id": "ChIJf7v_P_4PdkgR2JDAyw9uG78", "types": ["parking", "premise", "point_of_interest", "establishment"]}, "ChIJd5oBVv4PdkgRH0fzeyDi_CQ": {"geometry": {"location": {"lat": 51.51224881148346, "lng": -0.1913437804667693}, "viewport": {"northeast": {"lat": 51.51360463029149, "lng": -0.189998719708498}, "southwest": {"lat": 51.51090666970849, "lng": -0.192696680291502}}}, "name": "69-73 Moscow Rd", "place_id": "ChIJd5oBVv4PdkgRH0fzeyDi_CQ", "types": ["route"]}, "ChIJT_Cv_P4PdkgRikTYnI2-f88": {"geometry": {"location": {"lat": 51.51218309999999, "lng": -0.1912024}, "viewport": {"northeast": {"lat": 51.5135492302915, "lng": -0.189739719708498}, "southwest": {"lat": 51.5108512697085, "lng": -0.192437680291502}}}, "name": "Paradigm Communications", "place_id": "ChIJT_Cv_P4PdkgRikTYnI2-f88", "types": ["point_of_interest", "clothing_store", "store", "establishment"]}, "ChIJabd5VP4PdkgReqVE5Soe5cI": {"geometry": {"location": {"lat": 51.51253060000001, "lng": -0.1912523}, "viewport": {"northeast": {"lat": 51.5137591302915, "lng": -0.1898974697084979}, "southwest": {"lat": 51.5110611697085, "lng": -0.192595430291502}}}, "name": "Secret Yoga Sutra", "place_id": "ChIJabd5VP4PdkgReqVE5Soe5cI", "types": ["school", "point_of_interest", "establishment"], "rating": 5, "user_ratings_total": 1}, "ChIJee1KYP4PdkgRYKe4n8NJi90": {"geometry": {"location": {"lat": 51.5123097, "lng": -0.1926207}, "viewport": {"northeast": {"lat": 51.51350328029149, "lng": -0.191169869708498}, "southwest": {"lat": 51.5108053197085, "lng": -0.193867830291502}}}, "name": "A&C Heating and Plumbing", "place_id": "ChIJee1KYP4PdkgRYKe4n8NJi90", "types": ["plumber", "general_contractor", "point_of_interest", "establishment"], "rating": 4.7, "user_ratings_total": 13}, "ChIJqZG2Xf4PdkgRp26ZuhPAt_k": {"geometry": {"location": {"lat": 51.5125541, "lng": -0.1925053}, "viewport": {"northeast": {"lat": 51.5138706802915, "lng": -0.191146919708498}, "southwest": {"lat": 51.5111727197085, "lng": -0.193844880291502}}}, "name": "Katharine Wills Garden Design", "place_id": "ChIJqZG2Xf4PdkgRp26ZuhPAt_k", "types": ["general_contractor", "point_of_interest", "establishment"]}, "ChIJXW-SVv4PdkgR-3bUCOKPc7U": {"geometry": {"location": {"lat": 51.512415, "lng": -0.191416}, "viewport": {"northeast": {"lat": 51.5136828302915, "lng": -0.190020219708498}, "southwest": {"lat": 51.5109848697085, "lng": -0.192718180291502}}}, "name": "Greek Orthodox Cathedral of the Divine Wisdom (Hagia Sophia)", "place_id": "ChIJXW-SVv4PdkgR-3bUCOKPc7U", "types": ["tourist_attraction", "church", "place_of_worship", "point_of_interest", "establishment"], "rating": 4.8, "user_ratings_total": 348}, "ChIJ_Q4QGVcPdkgRin4ukBfk0LE": {"geometry": {"location": {"lat": 51.5120949, "lng": -0.1917714}, "viewport": {"northeast": {"lat": 51.5134772302915, "lng": -0.190441169708498}, "southwest": {"lat": 51.5107792697085, "lng": -0.193139130291502}}}, "name": "Cocktails Brew", "place_id": "ChIJ_Q4QGVcPdkgRin4ukBfk0LE", "types": ["meal_takeaway", "restaurant", "food", "point_of_interest", "establishment"]}, "ChIJ0dF79v4PdkgRVnwXrixBvr8": {"geometry": {"location": {"lat": 51.5121929, "lng": -0.1920699}, "viewport": {"northeast": {"lat": 51.5135024302915, "lng": -0.190697069708498}, "southwest": {"lat": 51.5108044697085, "lng": -0.193395030291502}}}, "name": "Bayswater Telephone Exchange", "place_id": "ChIJ0dF79v4PdkgRVnwXrixBvr8", "types": ["point_of_interest", "establishment"], "rating": 5, "user_ratings_total": 3}, "ChIJ1TiMVv4PdkgRQMR-bEIG750": {"geometry": {"location": {"lat": 51.512429, "lng": -0.1914801}, "viewport": {"northeast": {"lat": 51.51368358029151, "lng": -0.190086769708498}, "southwest": {"lat": 51.51098561970851, "lng": -0.1927847302915021}}}, "name": "Agios Fanourios", "place_id": "ChIJ1TiMVv4PdkgRQMR-bEIG750", "types": ["point_of_interest", "establishment"]}, "ChIJP8hfWf4PdkgRsB_rci6J5Qs": {"geometry": {"location": {"lat": 51.51253009999999, "lng": -0.1919852}, "viewport": {"northeast": {"lat": 51.51391763029149, "lng": -0.190647419708498}, "southwest": {"lat": 51.5112196697085, "lng": -0.193345380291502}}}, "name": "PE Shirley Ltd", "place_id": "ChIJP8hfWf4PdkgRsB_rci6J5Qs", "types": ["accounting", "finance", "point_of_interest", "establishment"]}, "ChIJ1eTxWf4PdkgRlCzyIoqKdvk": {"geometry": {"location": {"lat": 51.51249, "lng": -0.1914327}, "viewport": {"northeast": {"lat": 51.5137204302915, "lng": -0.190028019708498}, "southwest": {"lat": 51.5110224697085, "lng": -0.192725980291502}}}, "name": "Kumon Maths & English", "place_id": "ChIJ1eTxWf4PdkgRlCzyIoqKdvk", "types": ["secondary_school", "university", "school", "point_of_interest", "establishment"], "rating": 5, "user_ratings_total": 2}, "ChIJF33T_v4PdkgRr1UVfOZgToM": {"geometry": {"location": {"lat": 51.5120622, "lng": -0.1913403}, "viewport": {"northeast": {"lat": 51.51344143029149, "lng": -0.189790269708498}, "southwest": {"lat": 51.51074346970849, "lng": -0.1924882302915021}}}, "name": "Biolumina London", "place_id": "ChIJF33T_v4PdkgRr1UVfOZgToM", "types": ["point_of_interest", "establishment"]}, "ChIJYRvMDZYPdkgRE_gu3_UvjfA": {"geometry": {"location": {"lat": 51.5121276, "lng": -0.1912895}, "viewport": {"northeast": {"lat": 51.51350143029151, "lng": -0.189775519708498}, "southwest": {"lat": 51.51080346970851, "lng": -0.192473480291502}}}, "name": "Guillam Coffee House", "place_id": "ChIJYRvMDZYPdkgRE_gu3_UvjfA", "types": ["cafe", "food", "point_of_interest", "establishment"], "rating": 5, "user_ratings_total": 19}, "ChIJT8E5__4PdkgRK0Fp7Aku1nc": {"geometry": {"location": {"lat": 51.5121276, "lng": -0.1912895}, "viewport": {"northeast": {"lat": 51.5134999802915, "lng": -0.189774919708498}, "southwest": {"lat": 51.5108020197085, "lng": -0.192472880291502}}}, "name": "Wolff Olins", "place_id": "ChIJT8E5__4PdkgRK0Fp7Aku1nc", "types": ["point_of_interest", "establishment"]}, "ChIJc6R1gpgPdkgRlhyMk18W0nc": {"geometry": {"location": {"lat": 51.512502, "lng": -0.1924636}, "viewport": {"northeast": {"lat": 51.5138674802915, "lng": -0.1911195197084979}, "southwest": {"lat": 51.5111695197085, "lng": -0.193817480291502}}}, "name": "Supermercaro", "place_id": "ChIJc6R1gpgPdkgRlhyMk18W0nc", "types": ["shopping_mall", "point_of_interest", "establishment"], "rating": 5, "user_ratings_total": 1}, "ChIJB-vG__4PdkgRie0M6XXFGjs": {"geometry": {"location": {"lat": 51.51211579999999, "lng": -0.1910472999999999}, "viewport": {"northeast": {"lat": 51.51347273029149, "lng": -0.1896455197084979}, "southwest": {"lat": 51.51077476970849, "lng": -0.192343480291502}}}, "name": "Mc Cue", "place_id": "ChIJB-vG__4PdkgRie0M6XXFGjs", "types": ["point_of_interest", "establishment"]}, "ChIJee1KYP4PdkgRalHngDU8tqg": {"geometry": {"location": {"lat": 51.5123097, "lng": -0.1926207}, "viewport": {"northeast": {"lat": 51.51350328029149, "lng": -0.191169869708498}, "southwest": {"lat": 51.5108053197085, "lng": -0.193867830291502}}}, "name": "Wessex Water Limited", "place_id": "ChIJee1KYP4PdkgRalHngDU8tqg", "types": ["point_of_interest", "establishment"]}, "ChIJ3W37KV0PdkgRXwGc7sivldA": {"geometry": {"location": {"lat": 51.51229290000001, "lng": -0.1926273}, "viewport": {"northeast": {"lat": 51.5137601802915, "lng": -0.191313919708498}, "southwest": {"lat": 51.5110622197085, "lng": -0.194011880291502}}}, "name": "\u05de\u05dc\u05d5\u05df", "place_id": "ChIJ3W37KV0PdkgRXwGc7sivldA", "types": ["lodging", "point_of_interest", "establishment"]}, "ChIJX1zaYf4PdkgRPaEhNA-1lF4": {"geometry": {"location": {"lat": 51.5120591, "lng": -0.1925846}, "viewport": {"northeast": {"lat": 51.51337048029151, "lng": -0.191209919708498}, "southwest": {"lat": 51.51067251970851, "lng": -0.193907880291502}}}, "name": "Palace Court", "place_id": "ChIJX1zaYf4PdkgRPaEhNA-1lF4", "types": ["point_of_interest", "establishment"]}, "ChIJsxFxaCAPdkgR5l5Y5V_8bhA": {"geometry": {"location": {"lat": 51.5118814, "lng": -0.1924177}, "viewport": {"northeast": {"lat": 51.5132309802915, "lng": -0.191065019708498}, "southwest": {"lat": 51.5105330197085, "lng": -0.193762980291502}}}, "name": "Recycling", "place_id": "ChIJsxFxaCAPdkgR5l5Y5V_8bhA", "types": ["point_of_interest", "establishment"]}, "ChIJFd4O7P4PdkgRu3d5iZ9Lvaw": {"geometry": {"location": {"lat": 51.51127532137798, "lng": -0.1921042061588831}, "viewport": {"northeast": {"lat": 51.51275420000004, "lng": -0.190755969708498}, "southwest": {"lat": 51.50979619999995, "lng": -0.193453930291502}}}, "name": "34-14 Palace Ct", "place_id": "ChIJFd4O7P4PdkgRu3d5iZ9Lvaw", "types": ["route"]}, "ChIJkY7s7f4PdkgR40jO7_siEcw": {"geometry": {"location": {"lat": 51.5113196, "lng": -0.1919479}, "viewport": {"northeast": {"lat": 51.51265508029149, "lng": -0.190680769708498}, "southwest": {"lat": 51.5099571197085, "lng": -0.193378730291502}}}, "name": "claramoda ltd", "place_id": "ChIJkY7s7f4PdkgR40jO7_siEcw", "types": ["point_of_interest", "establishment"]}, "ChIJ1U1Z6P4PdkgR5zjsu6P3eqE": {"geometry": {"location": {"lat": 51.511056, "lng": -0.191817}, "viewport": {"northeast": {"lat": 51.5123901302915, "lng": -0.190558719708498}, "southwest": {"lat": 51.5096921697085, "lng": -0.193256680291502}}}, "name": "Zipcar - Palace Ct", "place_id": "ChIJ1U1Z6P4PdkgR5zjsu6P3eqE", "types": ["car_rental", "point_of_interest", "establishment"]}, "ChIJ8VgcI1kFdkgR831TulDinq8": {"geometry": {"location": {"lat": 51.51132, "lng": -0.191948}, "viewport": {"northeast": {"lat": 51.51265548029149, "lng": -0.190680869708498}, "southwest": {"lat": 51.5099575197085, "lng": -0.193378830291502}}}, "name": "Alexandra Lewis Divorce and Family Mediation", "place_id": "ChIJ8VgcI1kFdkgR831TulDinq8", "types": ["lawyer", "point_of_interest", "establishment"]}, "ChIJW4Li-v4PdkgRfUup0z4ICWo": {"geometry": {"location": {"lat": 51.5115719, "lng": -0.1915514}, "viewport": {"northeast": {"lat": 51.5129218302915, "lng": -0.190173369708498}, "southwest": {"lat": 51.5102238697085, "lng": -0.192871330291502}}}, "name": "McKenzie F J", "place_id": "ChIJW4Li-v4PdkgRfUup0z4ICWo", "types": ["health", "point_of_interest", "establishment"]}, "ChIJVcXip9EEdkgRyrH4KQfKpvc": {"geometry": {"location": {"lat": 51.5111235, "lng": -0.1918711}, "viewport": {"northeast": {"lat": 51.5124595302915, "lng": -0.190600869708498}, "southwest": {"lat": 51.5097615697085, "lng": -0.193298830291502}}}, "name": "Stephen Wiltshire", "place_id": "ChIJVcXip9EEdkgRyrH4KQfKpvc", "types": ["art_gallery", "point_of_interest", "establishment"], "rating": 4.9, "user_ratings_total": 112}, "ChIJ00jHycMPdkgRSSet6vc8nGI": {"geometry": {"location": {"lat": 51.5113196, "lng": -0.1919479}, "viewport": {"northeast": {"lat": 51.51265508029149, "lng": -0.190680769708498}, "southwest": {"lat": 51.5099571197085, "lng": -0.193378730291502}}}, "name": "Alexandra Lewis Family Law", "place_id": "ChIJ00jHycMPdkgRSSet6vc8nGI", "types": ["lawyer", "point_of_interest", "establishment"]}, "ChIJJ-yz6f4PdkgRApwMmiPuJ_w": {"geometry": {"location": {"lat": 51.511015, "lng": -0.191903}, "viewport": {"northeast": {"lat": 51.5123581302915, "lng": -0.190589969708498}, "southwest": {"lat": 51.5096601697085, "lng": -0.193287930291502}}}, "name": "ubitricity Charging Station", "place_id": "ChIJJ-yz6f4PdkgRApwMmiPuJ_w", "types": ["point_of_interest", "establishment"]}, "ChIJ_yaR6f4PdkgR25rbGBVjZV0": {"geometry": {"location": {"lat": 51.51100549999999, "lng": -0.1921076}, "viewport": {"northeast": {"lat": 51.51236273029149, "lng": -0.190703119708498}, "southwest": {"lat": 51.50966476970849, "lng": -0.193401080291502}}}, "name": "ubitricity Charging Station", "place_id": "ChIJ_yaR6f4PdkgR25rbGBVjZV0", "types": ["point_of_interest", "establishment"]}, "ChIJyYWRAY4PdkgRt5-QILmMsCY": {"geometry": {"location": {"lat": 51.51092990000001, "lng": -0.1919052}, "viewport": {"northeast": {"lat": 51.5122788302915, "lng": -0.190556669708498}, "southwest": {"lat": 51.5095808697085, "lng": -0.193254630291502}}}, "name": "Bayswater Skips", "place_id": "ChIJyYWRAY4PdkgRt5-QILmMsCY", "types": ["point_of_interest", "establishment"], "rating": 5, "user_ratings_total": 2}, "ChIJow0f6P4PdkgR-4uECgpAyGA": {"geometry": {"location": {"lat": 51.5109216, "lng": -0.1917851}, "viewport": {"northeast": {"lat": 51.51225773029149, "lng": -0.190515419708498}, "southwest": {"lat": 51.5095597697085, "lng": -0.193213380291502}}}, "name": "Manuel Rico Freire", "place_id": "ChIJow0f6P4PdkgR-4uECgpAyGA", "types": ["point_of_interest", "establishment"]}, "ChIJFRuFxxEPdkgRVQFagBokRN4": {"geometry": {"location": {"lat": 51.51092269999999, "lng": -0.1917547}, "viewport": {"northeast": {"lat": 51.5122564802915, "lng": -0.190499469708498}, "southwest": {"lat": 51.5095585197085, "lng": -0.193197430291502}}}, "name": "EPC Matter", "place_id": "ChIJFRuFxxEPdkgRVQFagBokRN4", "types": ["point_of_interest", "establishment"]}, "ChIJfW0-9EYPdkgRyRoLx2YYGCA": {"geometry": {"location": {"lat": 51.51092269999999, "lng": -0.1917547}, "viewport": {"northeast": {"lat": 51.5122564802915, "lng": -0.190499469708498}, "southwest": {"lat": 51.5095585197085, "lng": -0.193197430291502}}}, "name": "Polanco Sunglasses", "place_id": "ChIJfW0-9EYPdkgRyRoLx2YYGCA", "types": ["point_of_interest", "store", "establishment"]}, "ChIJN7dh6v4PdkgRAtQFNOIZH28": {"geometry": {"location": {"lat": 51.51097799999999, "lng": -0.192245}, "viewport": {"northeast": {"lat": 51.51234738029149, "lng": -0.1907711697084979}, "southwest": {"lat": 51.5096494197085, "lng": -0.193469130291502}}}, "name": "Brigham Young University", "place_id": "ChIJN7dh6v4PdkgRAtQFNOIZH28", "types": ["university", "point_of_interest", "establishment"], "rating": 5, "user_ratings_total": 8}, "ChIJ57AB7v4PdkgRhkfuPKV9quc": {"geometry": {"location": {"lat": 51.5115589, "lng": -0.1920583}, "viewport": {"northeast": {"lat": 51.5128950802915, "lng": -0.190787119708498}, "southwest": {"lat": 51.5101971197085, "lng": -0.193485080291502}}}, "name": "Dp Music Limited", "place_id": "ChIJ57AB7v4PdkgRhkfuPKV9quc", "types": ["point_of_interest", "establishment"]}, "ChIJF_Vi8rIcdkgR-Izp1llhyWQ": {"geometry": {"location": {"lat": 51.5108468, "lng": -0.1922280999999999}, "viewport": {"northeast": {"lat": 51.5122189302915, "lng": -0.190736369708498}, "southwest": {"lat": 51.5095209697085, "lng": -0.193434330291502}}}, "name": "The 48 Group Club", "place_id": "ChIJF_Vi8rIcdkgR-Izp1llhyWQ", "types": ["point_of_interest", "establishment"], "rating": 5, "user_ratings_total": 2}, "ChIJAXT04P4PdkgRFdqP3Hrumpc": {"geometry": {"location": {"lat": 51.5110064, "lng": -0.1911699}, "viewport": {"northeast": {"lat": 51.5123951802915, "lng": -0.1895132697084979}, "southwest": {"lat": 51.5096972197085, "lng": -0.192211230291502}}}, "name": "Debra Press Fine Art", "place_id": "ChIJAXT04P4PdkgRFdqP3Hrumpc", "types": ["art_gallery", "point_of_interest", "establishment"]}, "ChIJfXlbnIgPdkgRd9nKRYg4ZXc": {"geometry": {"location": {"lat": 51.5110064, "lng": -0.1911699}, "viewport": {"northeast": {"lat": 51.5123951802915, "lng": -0.1895132697084979}, "southwest": {"lat": 51.5096972197085, "lng": -0.192211230291502}}}, "name": "Kankoor Education", "place_id": "ChIJfXlbnIgPdkgRd9nKRYg4ZXc", "types": ["point_of_interest", "establishment"]}, "ChIJ1Uggw_4PdkgRrw27qj86akQ": {"geometry": {"location": {"lat": 51.51073659999999, "lng": -0.1917833}, "viewport": {"northeast": {"lat": 51.5120793302915, "lng": -0.190473169708498}, "southwest": {"lat": 51.5093813697085, "lng": -0.193171130291502}}}, "name": "Zipcar", "place_id": "ChIJ1Uggw_4PdkgRrw27qj86akQ", "types": ["car_rental", "point_of_interest", "establishment"]}, "ChIJjU6EDP4PdkgRE7eLWtdGYZY": {"geometry": {"location": {"lat": 51.51367670003053, "lng": -0.1935015494662287}, "viewport": {"northeast": {"lat": 51.5150256802915, "lng": -0.192152569708498}, "southwest": {"lat": 51.5123277197085, "lng": -0.194850530291502}}}, "name": "57 Leinster Square", "place_id": "ChIJjU6EDP4PdkgRE7eLWtdGYZY", "types": ["route"]}, "ChIJcx1EQ_4PdkgRMN_AE35qBjs": {"geometry": {"location": {"lat": 51.5133701, "lng": -0.1935689}, "viewport": {"northeast": {"lat": 51.51472938029149, "lng": -0.192144019708498}, "southwest": {"lat": 51.51203141970849, "lng": -0.194841980291502}}}, "name": "New Linden Hotel", "place_id": "ChIJcx1EQ_4PdkgRMN_AE35qBjs", "types": ["lodging", "point_of_interest", "establishment"], "rating": 3.8, "user_ratings_total": 383}, "ChIJgWxPav4PdkgR02niMZaTtJ0": {"geometry": {"location": {"lat": 51.5133171, "lng": -0.1931478}, "viewport": {"northeast": {"lat": 51.5146531802915, "lng": -0.191919719708498}, "southwest": {"lat": 51.5119552197085, "lng": -0.194617680291502}}}, "name": "Palace Court Hotel", "place_id": "ChIJgWxPav4PdkgR02niMZaTtJ0", "types": ["lodging", "point_of_interest", "establishment"], "rating": 2.7, "user_ratings_total": 423}, "ChIJR4vPC_4PdkgRQaWqtVO9ysA": {"geometry": {"location": {"lat": 51.51380229999999, "lng": -0.1938134}, "viewport": {"northeast": {"lat": 51.51523193029149, "lng": -0.192350869708498}, "southwest": {"lat": 51.51253396970849, "lng": -0.195048830291502}}}, "name": "Hereford Road Restaurant", "place_id": "ChIJR4vPC_4PdkgRQaWqtVO9ysA", "types": ["restaurant", "food", "point_of_interest", "establishment"], "rating": 4.5, "user_ratings_total": 225}, "ChIJXdGdcP4PdkgRwdBqUcXiqro": {"geometry": {"location": {"lat": 51.5129205, "lng": -0.1935085}, "viewport": {"northeast": {"lat": 51.5143206302915, "lng": -0.192061169708498}, "southwest": {"lat": 51.5116226697085, "lng": -0.194759130291502}}}, "name": "The Prince Edward, Bayswater", "place_id": "ChIJXdGdcP4PdkgRwdBqUcXiqro", "types": ["bar", "restaurant", "food", "point_of_interest", "establishment"], "rating": 4.3, "user_ratings_total": 688}, "ChIJr6Zm1_0PdkgRJs3-VwYyUNU": {"geometry": {"location": {"lat": 51.51339119999999, "lng": -0.1943406}, "viewport": {"northeast": {"lat": 51.5147353802915, "lng": -0.193021069708498}, "southwest": {"lat": 51.51203741970851, "lng": -0.195719030291502}}}, "name": "Assaggi Restaurant", "place_id": "ChIJr6Zm1_0PdkgRJs3-VwYyUNU", "types": ["bar", "restaurant", "food", "point_of_interest", "establishment"], "rating": 4.4, "user_ratings_total": 108}, "ChIJWchuE_4PdkgRq7pH5OL13aU": {"geometry": {"location": {"lat": 51.5135227, "lng": -0.1931659}, "viewport": {"northeast": {"lat": 51.5148207302915, "lng": -0.191802219708498}, "southwest": {"lat": 51.5121227697085, "lng": -0.194500180291502}}}, "name": "Victoria League Student House", "place_id": "ChIJWchuE_4PdkgRq7pH5OL13aU", "types": ["point_of_interest", "establishment"], "rating": 4.8, "user_ratings_total": 8}, "ChIJZxqqc_4PdkgRxfT3U9JEDK0": {"geometry": {"location": {"lat": 51.5131999, "lng": -0.1933022}, "viewport": {"northeast": {"lat": 51.5145459302915, "lng": -0.191983519708498}, "southwest": {"lat": 51.5118479697085, "lng": -0.194681480291502}}}, "name": "ubitricity Charging Station", "place_id": "ChIJZxqqc_4PdkgRxfT3U9JEDK0", "types": ["point_of_interest", "establishment"]}, "ChIJM5z1bf4PdkgRLNXrnamKZWQ": {"geometry": {"location": {"lat": 51.5132802, "lng": -0.1931166}, "viewport": {"northeast": {"lat": 51.5146173802915, "lng": -0.191899369708498}, "southwest": {"lat": 51.5119194197085, "lng": -0.194597330291502}}}, "name": "Mayfair Finance PLC", "place_id": "ChIJM5z1bf4PdkgRLNXrnamKZWQ", "types": ["bank", "finance", "point_of_interest", "establishment"]}, "ChIJodEMGoAPdkgRNJCgy5lfMAE": {"geometry": {"location": {"lat": 51.5135194, "lng": -0.1931835}, "viewport": {"northeast": {"lat": 51.5148180802915, "lng": -0.191820119708498}, "southwest": {"lat": 51.5121201197085, "lng": -0.194518080291502}}}, "name": "Victoria League Guest Rooms", "place_id": "ChIJodEMGoAPdkgRNJCgy5lfMAE", "types": ["lodging", "point_of_interest", "establishment"]}, "ChIJywsTtygPdkgRMFLewOWYshM": {"geometry": {"location": {"lat": 51.5132694, "lng": -0.1930432}, "viewport": {"northeast": {"lat": 51.5146007302915, "lng": -0.191859569708498}, "southwest": {"lat": 51.5119027697085, "lng": -0.194557530291502}}}, "name": "Hostel One Notting Hill", "place_id": "ChIJywsTtygPdkgRMFLewOWYshM", "types": ["lodging", "point_of_interest", "establishment"], "rating": 4.3, "user_ratings_total": 118}, "ChIJ--FMtP8PdkgRnmh-t46gw68": {"geometry": {"location": {"lat": 51.51301230000001, "lng": -0.1934613}, "viewport": {"northeast": {"lat": 51.51436988029151, "lng": -0.192038619708498}, "southwest": {"lat": 51.51167191970851, "lng": -0.194736580291502}}}, "name": "Investate", "place_id": "ChIJ--FMtP8PdkgRnmh-t46gw68", "types": ["real_estate_agency", "point_of_interest", "establishment"]}, "ChIJbwp5XT4PdkgRfYWXAlWTj24": {"geometry": {"location": {"lat": 51.51331159999999, "lng": -0.1929776}, "viewport": {"northeast": {"lat": 51.5146389302915, "lng": -0.1918314697084979}, "southwest": {"lat": 51.5119409697085, "lng": -0.194529430291502}}}, "name": "Corpore Sanctum", "place_id": "ChIJbwp5XT4PdkgRfYWXAlWTj24", "types": ["point_of_interest", "establishment"], "rating": 4.3, "user_ratings_total": 42}, "ChIJa7RLcP4PdkgRyx60QeJMgZY": {"geometry": {"location": {"lat": 51.5130276, "lng": -0.1932907}, "viewport": {"northeast": {"lat": 51.5143797802915, "lng": -0.191913769708498}, "southwest": {"lat": 51.5116818197085, "lng": -0.194611730291502}}}, "name": "Spanish Catholic Chaplaincy", "place_id": "ChIJa7RLcP4PdkgRyx60QeJMgZY", "types": ["place_of_worship", "point_of_interest", "establishment"]}, "ChIJeTTg5s8PdkgRrkUqCtFZoI0": {"geometry": {"location": {"lat": 51.5133022, "lng": -0.1929278}, "viewport": {"northeast": {"lat": 51.5146270802915, "lng": -0.1918046197084979}, "southwest": {"lat": 51.5119291197085, "lng": -0.194502580291502}}}, "name": "Woow Services", "place_id": "ChIJeTTg5s8PdkgRrkUqCtFZoI0", "types": ["point_of_interest", "establishment"]}, "ChIJlxJmDP4PdkgRESX66BNRg8U": {"geometry": {"location": {"lat": 51.513735, "lng": -0.193487}, "viewport": {"northeast": {"lat": 51.5150861802915, "lng": -0.192118919708498}, "southwest": {"lat": 51.5123882197085, "lng": -0.194816880291502}}}, "name": "Santander Cycles", "place_id": "ChIJlxJmDP4PdkgRESX66BNRg8U", "types": ["point_of_interest", "establishment"]}, "ChIJA48WcP4PdkgRgNhLeilGkMQ": {"geometry": {"location": {"lat": 51.5129479, "lng": -0.1932511}, "viewport": {"northeast": {"lat": 51.5142983802915, "lng": -0.191889169708498}, "southwest": {"lat": 51.5116004197085, "lng": -0.194587130291502}}}, "name": "Zipcar", "place_id": "ChIJA48WcP4PdkgRgNhLeilGkMQ", "types": ["car_rental", "point_of_interest", "establishment"]}, "ChIJvdFO7ywbdkgReIYSdD_dyig": {"geometry": {"location": {"lat": 51.5137542, "lng": -0.1938068}, "viewport": {"northeast": {"lat": 51.5152078802915, "lng": -0.192347569708498}, "southwest": {"lat": 51.5125099197085, "lng": -0.195045530291502}}}, "name": "LUV", "place_id": "ChIJvdFO7ywbdkgReIYSdD_dyig", "types": ["point_of_interest", "establishment"], "rating": 5, "user_ratings_total": 6}, "ChIJm0xRzWIFdkgRpHNX2tGVThk": {"geometry": {"location": {"lat": 51.51380229999999, "lng": -0.1938134}, "viewport": {"northeast": {"lat": 51.51523193029149, "lng": -0.192350869708498}, "southwest": {"lat": 51.51253396970849, "lng": -0.195048830291502}}}, "name": "Avenue H", "place_id": "ChIJm0xRzWIFdkgRpHNX2tGVThk", "types": ["travel_agency", "point_of_interest", "establishment"]}, "ChIJV30v3P0PdkgR7VD0JFOI9uw": {"geometry": {"location": {"lat": 51.5133278, "lng": -0.1943241}, "viewport": {"northeast": {"lat": 51.5146674802915, "lng": -0.193054619708498}, "southwest": {"lat": 51.5119695197085, "lng": -0.1957525802915021}}}, "name": "BORHEH", "place_id": "ChIJV30v3P0PdkgR7VD0JFOI9uw", "types": ["point_of_interest", "establishment"]}, "ChIJVVXJ3f0PdkgR_UGEcTmbjOA": {"geometry": {"location": {"lat": 51.51342510000001, "lng": -0.1943567}, "viewport": {"northeast": {"lat": 51.51477888029149, "lng": -0.193037319708498}, "southwest": {"lat": 51.5120809197085, "lng": -0.1957352802915021}}}, "name": "Assaggi Bar & Pizzeria", "place_id": "ChIJVVXJ3f0PdkgR_UGEcTmbjOA", "types": ["restaurant", "food", "point_of_interest", "establishment"], "rating": 4.7, "user_ratings_total": 9}, "ChIJ251X-QQPdkgRj6AQTPtUAx8": {"geometry": {"location": {"lat": 51.5138712, "lng": -0.193744}, "viewport": {"northeast": {"lat": 51.5152372302915, "lng": -0.192305569708498}, "southwest": {"lat": 51.5125392697085, "lng": -0.195003530291502}}}, "name": "London Theta Healer", "place_id": "ChIJ251X-QQPdkgRj6AQTPtUAx8", "types": ["health", "point_of_interest", "establishment"]}, "ChIJhSc6iP4PdkgRLKFXJJF_rNQ": {"geometry": {"location": {"lat": 51.51217789810889, "lng": -0.1929904320082919}, "viewport": {"northeast": {"lat": 51.5135274302915, "lng": -0.191638419708498}, "southwest": {"lat": 51.5108294697085, "lng": -0.194336380291502}}}, "name": "Hereford Road", "place_id": "ChIJhSc6iP4PdkgRLKFXJJF_rNQ", "types": ["route"]}, "ChIJ6y4Mh_4PdkgR37iG-vTx3vs": {"geometry": {"location": {"lat": 51.5121195, "lng": -0.1933966}, "viewport": {"northeast": {"lat": 51.5135037802915, "lng": -0.191847319708498}, "southwest": {"lat": 51.5108058197085, "lng": -0.194545280291502}}}, "name": "MyAppConverter Ltd", "place_id": "ChIJ6y4Mh_4PdkgR37iG-vTx3vs", "types": ["point_of_interest", "establishment"]}, "ChIJmewObv4PdkgRjXnuFgTg33A": {"geometry": {"location": {"lat": 51.5123329, "lng": -0.1943293}, "viewport": {"northeast": {"lat": 51.5136915302915, "lng": -0.1929063697084979}, "southwest": {"lat": 51.5109935697085, "lng": -0.195604330291502}}}, "name": "St Sophia\u2019s School", "place_id": "ChIJmewObv4PdkgRjXnuFgTg33A", "types": ["school", "point_of_interest", "establishment"]}, "ChIJq6p6h_4PdkgRxYChAWOpgcc": {"geometry": {"location": {"lat": 51.51217949999999, "lng": -0.1934103}, "viewport": {"northeast": {"lat": 51.51356268029149, "lng": -0.191867319708498}, "southwest": {"lat": 51.5108647197085, "lng": -0.194565280291502}}}, "name": "PABLO DE LABORDE LASCARIS", "place_id": "ChIJq6p6h_4PdkgRxYChAWOpgcc", "types": ["point_of_interest", "establishment"]}, "ChIJga2medwPdkgRxRii1kscTCk": {"geometry": {"location": {"lat": 51.5124258, "lng": -0.193412}, "viewport": {"northeast": {"lat": 51.51380073029149, "lng": -0.191920519708498}, "southwest": {"lat": 51.51110276970849, "lng": -0.194618480291502}}}, "name": "Total Bliss", "place_id": "ChIJga2medwPdkgRxRii1kscTCk", "types": ["point_of_interest", "establishment"]}, "ChIJUZG1fP4PdkgRd8xDmVYJM6I": {"geometry": {"location": {"lat": 51.512471, "lng": -0.193198}, "viewport": {"northeast": {"lat": 51.51382353029151, "lng": -0.191829369708498}, "southwest": {"lat": 51.51112556970851, "lng": -0.194527330291502}}}, "name": "ubitricity Charging Station", "place_id": "ChIJUZG1fP4PdkgRd8xDmVYJM6I", "types": ["point_of_interest", "establishment"]}, "ChIJe-PJif4PdkgRv7JI7TaqEyQ": {"geometry": {"location": {"lat": 51.5121396, "lng": -0.192973}, "viewport": {"northeast": {"lat": 51.5134799802915, "lng": -0.191672719708498}, "southwest": {"lat": 51.5107820197085, "lng": -0.194370680291502}}}, "name": "Savana Urban Spa", "place_id": "ChIJe-PJif4PdkgRv7JI7TaqEyQ", "types": ["spa", "health", "point_of_interest", "establishment"]}, "ChIJVS3wY_4PdkgRT-IC9Qelaec": {"geometry": {"location": {"lat": 51.5124984, "lng": -0.192964}, "viewport": {"northeast": {"lat": 51.5138328802915, "lng": -0.191694619708498}, "southwest": {"lat": 51.5111349197085, "lng": -0.194392580291502}}}, "name": "Kinglake Electrical", "place_id": "ChIJVS3wY_4PdkgRT-IC9Qelaec", "types": ["electrician", "point_of_interest", "establishment"]}, "ChIJ-9_BB_4PdkgRt7U1AfrTvcA": {"geometry": {"location": {"lat": 51.5125315, "lng": -0.1929953}, "viewport": {"northeast": {"lat": 51.5138673302915, "lng": -0.191718669708498}, "southwest": {"lat": 51.51116936970851, "lng": -0.194416630291502}}}, "name": "Berrington House", "place_id": "ChIJ-9_BB_4PdkgRt7U1AfrTvcA", "types": ["point_of_interest", "establishment"]}, "ChIJRcxJhP4PdkgRryqLPJhZJTE": {"geometry": {"location": {"lat": 51.5118065, "lng": -0.1933953}, "viewport": {"northeast": {"lat": 51.51311793029149, "lng": -0.192024769708498}, "southwest": {"lat": 51.51041996970849, "lng": -0.194722730291502}}}, "name": "Prince Edward Mansions", "place_id": "ChIJRcxJhP4PdkgRryqLPJhZJTE", "types": ["point_of_interest", "establishment"], "rating": 4.5, "user_ratings_total": 2}, "ChIJf-FIj_4PdkgR4ffiuLd5P1k": {"geometry": {"location": {"lat": 51.511861, "lng": -0.193102}, "viewport": {"northeast": {"lat": 51.5131771302915, "lng": -0.1917340197084979}, "southwest": {"lat": 51.5104791697085, "lng": -0.194431980291502}}}, "name": "ubitricity Charging Station", "place_id": "ChIJf-FIj_4PdkgR4ffiuLd5P1k", "types": ["point_of_interest", "establishment"]}, "ChIJT4TSe_4PdkgRcD5d5usa3IE": {"geometry": {"location": {"lat": 51.51270460000001, "lng": -0.193508}, "viewport": {"northeast": {"lat": 51.5141015302915, "lng": -0.192174369708498}, "southwest": {"lat": 51.5114035697085, "lng": -0.194872330291502}}}, "name": "Gerard Nolan & Partners", "place_id": "ChIJT4TSe_4PdkgRcD5d5usa3IE", "types": ["finance", "point_of_interest", "establishment"]}, "ChIJ2ckaJQQPdkgRHhI3QqckSVE": {"geometry": {"location": {"lat": 51.512534, "lng": -0.192934}, "viewport": {"northeast": {"lat": 51.5138645802915, "lng": -0.191686119708498}, "southwest": {"lat": 51.5111666197085, "lng": -0.194384080291502}}}, "name": "Little Dogs House", "place_id": "ChIJ2ckaJQQPdkgRHhI3QqckSVE", "types": ["point_of_interest", "establishment"], "rating": 5, "user_ratings_total": 36}, "ChIJkTzP3fsPdkgR8GHXCPyZRb4": {"geometry": {"location": {"lat": 51.5127, "lng": -0.193356}, "viewport": {"northeast": {"lat": 51.5141157802915, "lng": -0.191949769708498}, "southwest": {"lat": 51.5114178197085, "lng": -0.194647730291502}}}, "name": "university of creative arts", "place_id": "ChIJkTzP3fsPdkgR8GHXCPyZRb4", "types": ["university", "point_of_interest", "establishment"]}, "ChIJwVRKZv4PdkgR0vWDnRVpdh0": {"geometry": {"location": {"lat": 51.5126933, "lng": -0.1930689}, "viewport": {"northeast": {"lat": 51.5141187302915, "lng": -0.191736119708498}, "southwest": {"lat": 51.5114207697085, "lng": -0.194434080291502}}}, "name": "Concept Studio Apartments", "place_id": "ChIJwVRKZv4PdkgR0vWDnRVpdh0", "types": ["point_of_interest", "establishment"], "rating": 4.2, "user_ratings_total": 68}, "ChIJryX8gv4PdkgRiSi7F2gvN9w": {"geometry": {"location": {"lat": 51.51171242180821, "lng": -0.1937448323399092}, "viewport": {"northeast": {"lat": 51.5130538302915, "lng": -0.192394969708498}, "southwest": {"lat": 51.5103558697085, "lng": -0.195092930291502}}}, "name": "Moscow Road", "place_id": "ChIJryX8gv4PdkgRiSi7F2gvN9w", "types": ["route"]}, "ChIJoYV9mf4PdkgRY6yjKq2b4AE": {"geometry": {"location": {"lat": 51.51123310000001, "lng": -0.1933898}, "viewport": {"northeast": {"lat": 51.5125693802915, "lng": -0.192125619708498}, "southwest": {"lat": 51.5098714197085, "lng": -0.194823580291502}}}, "name": "Urban Apartments Notting Hill", "place_id": "ChIJoYV9mf4PdkgRY6yjKq2b4AE", "types": ["lodging", "point_of_interest", "establishment"]}, "ChIJZ5iTnP4PdkgREUDrfzPYUss": {"geometry": {"location": {"lat": 51.5114556, "lng": -0.1936215}, "viewport": {"northeast": {"lat": 51.5127754802915, "lng": -0.192230519708498}, "southwest": {"lat": 51.5100775197085, "lng": -0.194928480291502}}}, "name": "Josephine Cicero Design", "place_id": "ChIJZ5iTnP4PdkgREUDrfzPYUss", "types": ["general_contractor", "point_of_interest", "establishment"]}, "ChIJGeSSkf4PdkgRH3szs_CybpA": {"geometry": {"location": {"lat": 51.5114757, "lng": -0.1928632}, "viewport": {"northeast": {"lat": 51.5128322302915, "lng": -0.191466669708498}, "southwest": {"lat": 51.5101342697085, "lng": -0.194164630291502}}}, "name": "Peter Mann", "place_id": "ChIJGeSSkf4PdkgRH3szs_CybpA", "types": ["point_of_interest", "establishment"]}, "ChIJv6-uJncPdkgR19q1ILsZwRY": {"geometry": {"location": {"lat": 51.51123310000001, "lng": -0.1933898}, "viewport": {"northeast": {"lat": 51.5125693802915, "lng": -0.192125619708498}, "southwest": {"lat": 51.5098714197085, "lng": -0.194823580291502}}}, "name": "Massage Girl London", "place_id": "ChIJv6-uJncPdkgR19q1ILsZwRY", "types": ["point_of_interest", "establishment"], "rating": 5, "user_ratings_total": 2}, "ChIJDyc6jcgPdkgRa5M24JmX8PM": {"geometry": {"location": {"lat": 51.5110278, "lng": -0.1936589}, "viewport": {"northeast": {"lat": 51.5123872802915, "lng": -0.192231669708498}, "southwest": {"lat": 51.5096893197085, "lng": -0.194929630291502}}}, "name": "Sif N\u00f8rskov | Architectural & Interiors Photography", "place_id": "ChIJDyc6jcgPdkgRa5M24JmX8PM", "types": ["point_of_interest", "establishment"], "rating": 5, "user_ratings_total": 1}, "ChIJeRvYof4PdkgRcfKHxT8QwTg": {"geometry": {"location": {"lat": 51.5109029, "lng": -0.1936759}, "viewport": {"northeast": {"lat": 51.5122662302915, "lng": -0.192219869708498}, "southwest": {"lat": 51.5095682697085, "lng": -0.194917830291502}}}, "name": "The Dome Apartments Notting Hill", "place_id": "ChIJeRvYof4PdkgRcfKHxT8QwTg", "types": ["lodging", "point_of_interest", "establishment"], "rating": 3.4, "user_ratings_total": 58}, "ChIJ0Vm9QPwPdkgRVY6ahLI9T1I": {"geometry": {"location": {"lat": 51.51159029999999, "lng": -0.1935174}, "viewport": {"northeast": {"lat": 51.51299523029149, "lng": -0.1921935697084979}, "southwest": {"lat": 51.5102972697085, "lng": -0.194891530291502}}}, "name": "Pembridge Hall School", "place_id": "ChIJ0Vm9QPwPdkgRVY6ahLI9T1I", "types": ["school", "point_of_interest", "establishment"], "rating": 4.5, "user_ratings_total": 2}, "ChIJs6jzW0cPdkgRljF8gRCAwzE": {"geometry": {"location": {"lat": 51.5116366, "lng": -0.1932851}, "viewport": {"northeast": {"lat": 51.5130343302915, "lng": -0.191963569708498}, "southwest": {"lat": 51.5103363697085, "lng": -0.194661530291502}}}, "name": "Notting Hill Residences", "place_id": "ChIJs6jzW0cPdkgRljF8gRCAwzE", "types": ["lodging", "point_of_interest", "establishment"], "rating": 4.5, "user_ratings_total": 4}, "ChIJY14-hf4PdkgRbAcvM7ilSXQ": {"geometry": {"location": {"lat": 51.5116366, "lng": -0.1932851}, "viewport": {"northeast": {"lat": 51.5130342302915, "lng": -0.191964069708498}, "southwest": {"lat": 51.5103362697085, "lng": -0.194662030291502}}}, "name": "Tracing Services", "place_id": "ChIJY14-hf4PdkgRbAcvM7ilSXQ", "types": ["point_of_interest", "establishment"]}, "ChIJtxdYhf4PdkgRR4597ucPphg": {"geometry": {"location": {"lat": 51.51163150000001, "lng": -0.1931515}, "viewport": {"northeast": {"lat": 51.51304458029151, "lng": -0.191839319708498}, "southwest": {"lat": 51.51034661970851, "lng": -0.1945372802915021}}}, "name": "The Hill Cafe", "place_id": "ChIJtxdYhf4PdkgRR4597ucPphg", "types": ["cafe", "meal_takeaway", "restaurant", "food", "point_of_interest", "store", "establishment"], "rating": 4.2, "user_ratings_total": 56}, "ChIJ0VNnhf4PdkgRwH6iV-T1ljk": {"geometry": {"location": {"lat": 51.51164780000001, "lng": -0.1932009}, "viewport": {"northeast": {"lat": 51.51304878029151, "lng": -0.191881769708498}, "southwest": {"lat": 51.51035081970851, "lng": -0.1945797302915021}}}, "name": "Central Wash", "place_id": "ChIJ0VNnhf4PdkgRwH6iV-T1ljk", "types": ["laundry", "point_of_interest", "establishment"], "rating": 4, "user_ratings_total": 29}, "ChIJVbahoP4PdkgRYLZz8CUDi-Q": {"geometry": {"location": {"lat": 51.5106183, "lng": -0.1938595}, "viewport": {"northeast": {"lat": 51.51200253685343, "lng": -0.1925431063159927}, "southwest": {"lat": 51.50930457627043, "lng": -0.1952410668989967}}}, "name": "Parking lot", "place_id": "ChIJVbahoP4PdkgRYLZz8CUDi-Q", "types": ["parking", "premise", "point_of_interest", "establishment"]}, "ChIJJU3-5f0PdkgRiSHSFfkpNvM": {"geometry": {"location": {"lat": 51.51382452618445, "lng": -0.1946428783426622}, "viewport": {"northeast": {"lat": 51.5151737802915, "lng": -0.193291469708498}, "southwest": {"lat": 51.5124758197085, "lng": -0.195989430291502}}}, "name": "34-4 Chepstow Pl", "place_id": "ChIJJU3-5f0PdkgRiSHSFfkpNvM", "types": ["route"]}, "ChIJ_zBVv_0PdkgRlQyIOjtsmko": {"geometry": {"location": {"lat": 51.5132047, "lng": -0.1954034}, "viewport": {"northeast": {"lat": 51.5145347302915, "lng": -0.194220719708498}, "southwest": {"lat": 51.5118367697085, "lng": -0.196918680291502}}}, "name": "Tavener", "place_id": "ChIJ_zBVv_0PdkgRlQyIOjtsmko", "types": ["point_of_interest", "establishment"]}, "ChIJG7tHuf0PdkgRekmuswBG5pk": {"geometry": {"location": {"lat": 51.513154, "lng": -0.195679}, "viewport": {"northeast": {"lat": 51.51450273029149, "lng": -0.194331719708498}, "southwest": {"lat": 51.51180476970849, "lng": -0.197029680291502}}}, "name": "ubitricity Charging Station", "place_id": "ChIJG7tHuf0PdkgRekmuswBG5pk", "types": ["point_of_interest", "establishment"]}, "ChIJg_Mw3f0PdkgRPOy0rJhIank": {"geometry": {"location": {"lat": 51.5134565, "lng": -0.1947765}, "viewport": {"northeast": {"lat": 51.51481993029151, "lng": -0.193307819708498}, "southwest": {"lat": 51.51212196970851, "lng": -0.196005780291502}}}, "name": "Patricia Fisher Speech & Language", "place_id": "ChIJg_Mw3f0PdkgRPOy0rJhIank", "types": ["health", "point_of_interest", "establishment"]}, "ChIJ06nL9f0PdkgRan_iGs3DwIg": {"geometry": {"location": {"lat": 51.5135892, "lng": -0.1948185}, "viewport": {"northeast": {"lat": 51.51495263029149, "lng": -0.193349519708498}, "southwest": {"lat": 51.51225466970849, "lng": -0.196047480291502}}}, "name": "Sinclair Till Flooring Co Ltd - Notting Hill Showroom", "place_id": "ChIJ06nL9f0PdkgRan_iGs3DwIg", "types": ["home_goods_store", "point_of_interest", "store", "establishment"], "rating": 5, "user_ratings_total": 2}, "ChIJxXqDsP0PdkgRMD6Y4GLMHK8": {"geometry": {"location": {"lat": 51.5130178, "lng": -0.195946}, "viewport": {"northeast": {"lat": 51.5143807802915, "lng": -0.194474169708498}, "southwest": {"lat": 51.5116828197085, "lng": -0.197172130291502}}}, "name": "The London Spiritual Mission", "place_id": "ChIJxXqDsP0PdkgRMD6Y4GLMHK8", "types": ["place_of_worship", "point_of_interest", "establishment"], "rating": 4.3, "user_ratings_total": 26}, "ChIJG8wZMvwPdkgRDIo9RI4KP0k": {"geometry": {"location": {"lat": 51.51194800171442, "lng": -0.1947079511458764}, "viewport": {"northeast": {"lat": 51.5132969802915, "lng": -0.1933589697084979}, "southwest": {"lat": 51.5105990197085, "lng": -0.196056930291502}}}, "name": "26-24 Pembridge Square", "place_id": "ChIJG8wZMvwPdkgRDIo9RI4KP0k", "types": ["route"]}, "ChIJNXz2LfwPdkgR94EaNt-vQM0": {"geometry": {"location": {"lat": 51.5119494, "lng": -0.1946525}, "viewport": {"northeast": {"lat": 51.5133319802915, "lng": -0.193314769708498}, "southwest": {"lat": 51.5106340197085, "lng": -0.196012730291502}}}, "name": "Estate Planning", "place_id": "ChIJNXz2LfwPdkgR94EaNt-vQM0", "types": ["lawyer", "point_of_interest", "establishment"]}, "ChIJZb5QzP0PdkgRXpJ8fbtke_s": {"geometry": {"location": {"lat": 51.5123753, "lng": -0.1950602}, "viewport": {"northeast": {"lat": 51.5138227802915, "lng": -0.1937511697084979}, "southwest": {"lat": 51.5111248197085, "lng": -0.196449130291502}}}, "name": "Indusmond Diamond Tools", "place_id": "ChIJZb5QzP0PdkgRXpJ8fbtke_s", "types": ["point_of_interest", "store", "establishment"]}, "ChIJz0C6MvwPdkgRvXHJMHmqZN0": {"geometry": {"location": {"lat": 51.51211579999999, "lng": -0.1946749}, "viewport": {"northeast": {"lat": 51.51338643029149, "lng": -0.1932997197084979}, "southwest": {"lat": 51.5106884697085, "lng": -0.195997680291502}}}, "name": "Andrews Travel House, ATH business travel solutions", "place_id": "ChIJz0C6MvwPdkgRvXHJMHmqZN0", "types": ["travel_agency", "point_of_interest", "establishment"], "rating": 5, "user_ratings_total": 1}, "ChIJN2aeMvwPdkgR3lGaGooH2Gs": {"geometry": {"location": {"lat": 51.5121202, "lng": -0.1946609}, "viewport": {"northeast": {"lat": 51.51338958029149, "lng": -0.193285319708498}, "southwest": {"lat": 51.5106916197085, "lng": -0.195983280291502}}}, "name": "FDA London", "place_id": "ChIJN2aeMvwPdkgR3lGaGooH2Gs", "types": ["point_of_interest", "establishment"]}, "ChIJN2aeMvwPdkgR2XoUSN8us0c": {"geometry": {"location": {"lat": 51.5121202, "lng": -0.1946609}, "viewport": {"northeast": {"lat": 51.51338958029149, "lng": -0.193285319708498}, "southwest": {"lat": 51.5106916197085, "lng": -0.195983280291502}}}, "name": "FDA London", "place_id": "ChIJN2aeMvwPdkgR2XoUSN8us0c", "types": ["point_of_interest", "establishment"]}, "ChIJ69tqtRgPdkgRQo70u53mLNE": {"geometry": {"location": {"lat": 51.5121202, "lng": -0.1946609}, "viewport": {"northeast": {"lat": 51.51338958029149, "lng": -0.193285319708498}, "southwest": {"lat": 51.5106916197085, "lng": -0.195983280291502}}}, "name": "Registered Office", "place_id": "ChIJ69tqtRgPdkgRQo70u53mLNE", "types": ["point_of_interest", "establishment"]}, "ChIJRT-6MvwPdkgRqxjNK_Vgn64": {"geometry": {"location": {"lat": 51.51208049999999, "lng": -0.1946346}, "viewport": {"northeast": {"lat": 51.5133705302915, "lng": -0.193265919708498}, "southwest": {"lat": 51.5106725697085, "lng": -0.195963880291502}}}, "name": "Scandinavian Fitness", "place_id": "ChIJRT-6MvwPdkgRqxjNK_Vgn64", "types": ["park", "school", "gym", "health", "point_of_interest", "establishment"], "rating": 5, "user_ratings_total": 10}, "ChIJJ5Orsf0PdkgRGr4-cdNpmfA": {"geometry": {"location": {"lat": 51.512638, "lng": -0.195909}, "viewport": {"northeast": {"lat": 51.5139039802915, "lng": -0.194529219708498}, "southwest": {"lat": 51.5112060197085, "lng": -0.197227180291502}}}, "name": "The Verona Fathers", "place_id": "ChIJJ5Orsf0PdkgRGr4-cdNpmfA", "types": ["point_of_interest", "establishment"]}, "ChIJV_yrt_0PdkgRDl268HtZYeE": {"geometry": {"location": {"lat": 51.5127295, "lng": -0.1955553}, "viewport": {"northeast": {"lat": 51.5140784302915, "lng": -0.194206819708498}, "southwest": {"lat": 51.5113804697085, "lng": -0.196904780291502}}}, "name": "Zipcar", "place_id": "ChIJV_yrt_0PdkgRDl268HtZYeE", "types": ["car_rental", "point_of_interest", "establishment"], "rating": 5, "user_ratings_total": 1}, "ChIJr4sLOPwPdkgRP0GjbdUJ01g": {"geometry": {"location": {"lat": 51.5115592815795, "lng": -0.1949156131118825}, "viewport": {"northeast": {"lat": 51.51290823029149, "lng": -0.1930104}, "southwest": {"lat": 51.51021026970849, "lng": -0.1968208}}}, "name": "Pembridge Square", "place_id": "ChIJr4sLOPwPdkgRP0GjbdUJ01g", "types": ["route"]}, "ChIJP6rzP_wPdkgR7s69zTcdszU": {"geometry": {"location": {"lat": 51.511199, "lng": -0.195436}, "viewport": {"northeast": {"lat": 51.5124279802915, "lng": -0.193918669708498}, "southwest": {"lat": 51.5097300197085, "lng": -0.196616630291502}}}, "name": "A U GB", "place_id": "ChIJP6rzP_wPdkgR7s69zTcdszU", "types": ["point_of_interest", "establishment"], "rating": 3.7, "user_ratings_total": 3}, "ChIJg_QTOPwPdkgRnIreezsP7ZQ": {"geometry": {"location": {"lat": 51.5113953, "lng": -0.1952811}, "viewport": {"northeast": {"lat": 51.5127972802915, "lng": -0.193951719708498}, "southwest": {"lat": 51.5100993197085, "lng": -0.196649680291502}}}, "name": "Pembridge Hall School (Upper School)", "place_id": "ChIJg_QTOPwPdkgRnIreezsP7ZQ", "types": ["school", "point_of_interest", "establishment"]}, "ChIJAVtIAvwPdkgR-zdEYuUv6FM": {"geometry": {"location": {"lat": 51.5108769, "lng": -0.1954503}, "viewport": {"northeast": {"lat": 51.51219253029149, "lng": -0.194028919708498}, "southwest": {"lat": 51.5094945697085, "lng": -0.196726880291502}}}, "name": "Heist", "place_id": "ChIJAVtIAvwPdkgR-zdEYuUv6FM", "types": ["art_gallery", "point_of_interest", "establishment"]}, "ChIJL6S2R_wPdkgRjM3vH_TeQ8I": {"geometry": {"location": {"lat": 51.5112514, "lng": -0.1958649}, "viewport": {"northeast": {"lat": 51.5126819802915, "lng": -0.194546119708498}, "southwest": {"lat": 51.5099840197085, "lng": -0.1972440802915021}}}, "name": "The Sisters of the Assumption", "place_id": "ChIJL6S2R_wPdkgRjM3vH_TeQ8I", "types": ["point_of_interest", "establishment"], "rating": 5, "user_ratings_total": 1}, "ChIJqxPtR_wPdkgRCg7CM0xIEFg": {"geometry": {"location": {"lat": 51.5113928, "lng": -0.1950049}, "viewport": {"northeast": {"lat": 51.51281478029149, "lng": -0.1936829197084979}, "southwest": {"lat": 51.51011681970849, "lng": -0.196380880291502}}}, "name": "Wetherby School", "place_id": "ChIJqxPtR_wPdkgRCg7CM0xIEFg", "types": ["school", "point_of_interest", "establishment"], "rating": 4, "user_ratings_total": 2}, "ChIJAftHR_wPdkgR4fTe0jhAMFM": {"geometry": {"location": {"lat": 51.51127449999999, "lng": -0.1954718}, "viewport": {"northeast": {"lat": 51.51272088029149, "lng": -0.194158819708498}, "southwest": {"lat": 51.51002291970849, "lng": -0.196856780291502}}}, "name": "St Catherines", "place_id": "ChIJAftHR_wPdkgR4fTe0jhAMFM", "types": ["point_of_interest", "establishment"], "rating": 5, "user_ratings_total": 1}, "ChIJKzDJbv0PdkgRjI77at1gvYI": {"geometry": {"location": {"lat": 51.5113451, "lng": -0.195305}, "viewport": {"northeast": {"lat": 51.5127693302915, "lng": -0.193983819708498}, "southwest": {"lat": 51.5100713697085, "lng": -0.196681780291502}}}, "name": "Minors Nursery School", "place_id": "ChIJKzDJbv0PdkgRjI77at1gvYI", "types": ["school", "point_of_interest", "establishment"], "rating": 4.5, "user_ratings_total": 15}, "ChIJq6raRvwPdkgRLm-PTgH8Zis": {"geometry": {"location": {"lat": 51.5112724, "lng": -0.195612}, "viewport": {"northeast": {"lat": 51.5127102302915, "lng": -0.194295919708498}, "southwest": {"lat": 51.5100122697085, "lng": -0.196993880291502}}}, "name": "S A H A", "place_id": "ChIJq6raRvwPdkgRLm-PTgH8Zis", "types": ["real_estate_agency", "point_of_interest", "establishment"]}, "ChIJq6raRvwPdkgRGAoB56ITVfc": {"geometry": {"location": {"lat": 51.5112724, "lng": -0.195612}, "viewport": {"northeast": {"lat": 51.5127102302915, "lng": -0.194295919708498}, "southwest": {"lat": 51.5100122697085, "lng": -0.196993880291502}}}, "name": "Christian Alliance Housing Association Ltd", "place_id": "ChIJq6raRvwPdkgRGAoB56ITVfc", "types": ["church", "place_of_worship", "point_of_interest", "establishment"]}, "ChIJVVXhOvwPdkgR5OEbgDgEt9g": {"geometry": {"location": {"lat": 51.51141750000001, "lng": -0.194762}, "viewport": {"northeast": {"lat": 51.5128442302915, "lng": -0.193441769708498}, "southwest": {"lat": 51.5101462697085, "lng": -0.196139730291502}}}, "name": "Green Edge Cloud Ltd", "place_id": "ChIJVVXhOvwPdkgR5OEbgDgEt9g", "types": ["point_of_interest", "establishment"]}, "ChIJGRQ0FvwPdkgRtQpYst2FfEo": {"geometry": {"location": {"lat": 51.5108384, "lng": -0.1948455}, "viewport": {"northeast": {"lat": 51.5122047302915, "lng": -0.193375519708498}, "southwest": {"lat": 51.5095067697085, "lng": -0.1960734802915021}}}, "name": "spada", "place_id": "ChIJGRQ0FvwPdkgRtQpYst2FfEo", "types": ["point_of_interest", "establishment"]}, "ChIJ74ELS-APdkgRT8aZBGhLVDs": {"geometry": {"location": {"lat": 51.5111234, "lng": -0.1945674}, "viewport": {"northeast": {"lat": 51.5124314802915, "lng": -0.193280469708498}, "southwest": {"lat": 51.5097335197085, "lng": -0.195978430291502}}}, "name": "56 d Linden Gardens W4 2EH London", "place_id": "ChIJ74ELS-APdkgRT8aZBGhLVDs", "types": ["point_of_interest", "establishment"]}, "ChIJ5zrY-_wPdkgR5kCOhr3i5XY": {"geometry": {"location": {"lat": 51.51074029999999, "lng": -0.1954172}, "viewport": {"northeast": {"lat": 51.5120957302915, "lng": -0.1940865197084979}, "southwest": {"lat": 51.5093977697085, "lng": -0.196784480291502}}}, "name": "Dee Galore Treats", "place_id": "ChIJ5zrY-_wPdkgR5kCOhr3i5XY", "types": ["point_of_interest", "store", "establishment"]}, "ChIJUbEZfs0PdkgRxrMmMI7PDjU": {"geometry": {"location": {"lat": 51.511684, "lng": -0.1954184}, "viewport": {"northeast": {"lat": 51.5131124802915, "lng": -0.194102469708498}, "southwest": {"lat": 51.5104145197085, "lng": -0.196800430291502}}}, "name": "Stylist In London (Personal shopping, styling & wardrobe edits)", "place_id": "ChIJUbEZfs0PdkgRxrMmMI7PDjU", "types": ["point_of_interest", "establishment"], "rating": 5, "user_ratings_total": 2}, "ChIJhbnHSPwPdkgR0qcZwSf35Is": {"geometry": {"location": {"lat": 51.5116419, "lng": -0.1956606}, "viewport": {"northeast": {"lat": 51.5130722302915, "lng": -0.194344819708498}, "southwest": {"lat": 51.5103742697085, "lng": -0.197042780291502}}}, "name": "Pembridge Square Garden", "place_id": "ChIJhbnHSPwPdkgR0qcZwSf35Is", "types": ["park", "point_of_interest", "establishment"], "rating": 4, "user_ratings_total": 55}, "ChIJh6vbNf4PdkgRjADc0hARYX4": {"geometry": {"location": {"lat": 51.51370490000001, "lng": -0.1911208}, "viewport": {"northeast": {"lat": 51.51503653029151, "lng": -0.189922269708498}, "southwest": {"lat": 51.51233856970851, "lng": -0.192620230291502}}}, "name": "Bayswater by CAPITAL", "place_id": "ChIJh6vbNf4PdkgRjADc0hARYX4", "types": ["lodging", "point_of_interest", "establishment"], "rating": 3.9, "user_ratings_total": 7}, "ChIJ9aM-cyQPdkgRxumiUKELsrU": {"geometry": {"location": {"lat": 51.5138572, "lng": -0.1912596}, "viewport": {"northeast": {"lat": 51.5151940302915, "lng": -0.190015919708498}, "southwest": {"lat": 51.5124960697085, "lng": -0.192713880291502}}}, "name": "Brunei House", "place_id": "ChIJ9aM-cyQPdkgRxumiUKELsrU", "types": ["lodging", "point_of_interest", "establishment"], "rating": 5, "user_ratings_total": 1}, "ChIJY8VcQ_4PdkgREcn8I6evC_c": {"geometry": {"location": {"lat": 51.51295475288286, "lng": -0.1921018017019926}, "viewport": {"northeast": {"lat": 51.5143037302915, "lng": -0.1904548}, "southwest": {"lat": 51.51160576970851, "lng": -0.1937487999999999}}}, "name": "22-4 Prince's Square", "place_id": "ChIJY8VcQ_4PdkgREcn8I6evC_c", "types": ["route"]}, "ChIJD6CAS_4PdkgR9pGj0Vt4dw8": {"geometry": {"location": {"lat": 51.5129861, "lng": -0.191007}, "viewport": {"northeast": {"lat": 51.5143781302915, "lng": -0.189778569708498}, "southwest": {"lat": 51.5116801697085, "lng": -0.192476530291502}}}, "name": "Central Hotel", "place_id": "ChIJD6CAS_4PdkgR9pGj0Vt4dw8", "types": ["lodging", "point_of_interest", "establishment"], "rating": 2.8, "user_ratings_total": 142}, "ChIJ1dhUTP4PdkgRBi0jYSddz2o": {"geometry": {"location": {"lat": 51.51275709999999, "lng": -0.1913652}, "viewport": {"northeast": {"lat": 51.5142424302915, "lng": -0.190056469708498}, "southwest": {"lat": 51.5115444697085, "lng": -0.192754430291502}}}, "name": "Princes Square Hotel", "place_id": "ChIJ1dhUTP4PdkgRBi0jYSddz2o", "types": ["lodging", "point_of_interest", "establishment"], "rating": 3.6, "user_ratings_total": 318}, "ChIJd9ffB9sPdkgRTTculeRYrFw": {"geometry": {"location": {"lat": 51.5130197, "lng": -0.1909875}, "viewport": {"northeast": {"lat": 51.5144019302915, "lng": -0.189763319708498}, "southwest": {"lat": 51.5117039697085, "lng": -0.1924612802915021}}}, "name": "Yumtaz Lotus Bites", "place_id": "ChIJd9ffB9sPdkgRTTculeRYrFw", "types": ["food", "health", "point_of_interest", "store", "establishment"], "rating": 5, "user_ratings_total": 21}, "ChIJq6rGTP4PdkgRANXS1GZ73hQ": {"geometry": {"location": {"lat": 51.51310729999999, "lng": -0.1910477}, "viewport": {"northeast": {"lat": 51.5144556302915, "lng": -0.189791119708498}, "southwest": {"lat": 51.5117576697085, "lng": -0.1924890802915021}}}, "name": "Wiseman Communications Ltd", "place_id": "ChIJq6rGTP4PdkgRANXS1GZ73hQ", "types": ["point_of_interest", "establishment"]}, "ChIJLS1wi6YPdkgRl2o79CXzay0": {"geometry": {"location": {"lat": 51.51244, "lng": -0.19096}, "viewport": {"northeast": {"lat": 51.5137855802915, "lng": -0.189639019708498}, "southwest": {"lat": 51.5110876197085, "lng": -0.192336980291502}}}, "name": "Santander Cycles", "place_id": "ChIJLS1wi6YPdkgRl2o79CXzay0", "types": ["point_of_interest", "establishment"], "rating": 5, "user_ratings_total": 1}, "ChIJhwS6_P4PdkgRoVufguY-k5Q": {"geometry": {"location": {"lat": 51.5116731, "lng": -0.1911718}, "viewport": {"northeast": {"lat": 51.5130476802915, "lng": -0.189632819708498}, "southwest": {"lat": 51.5103497197085, "lng": -0.192330780291502}}}, "name": "Maria Montessori School - Bayswater", "place_id": "ChIJhwS6_P4PdkgRoVufguY-k5Q", "types": ["school", "point_of_interest", "establishment"]}, "ChIJe7q5_P4PdkgR_mJyIQZUgGg": {"geometry": {"location": {"lat": 51.511615, "lng": -0.191259}, "viewport": {"northeast": {"lat": 51.5129965302915, "lng": -0.1896687197084979}, "southwest": {"lat": 51.5102985697085, "lng": -0.192366680291502}}}, "name": "St Matthew's, Bayswater", "place_id": "ChIJe7q5_P4PdkgR_mJyIQZUgGg", "types": ["church", "place_of_worship", "point_of_interest", "establishment"], "rating": 4.6, "user_ratings_total": 33}, "ChIJS17YFP4PdkgRrxzdnOgZOFg": {"geometry": {"location": {"lat": 51.5135945, "lng": -0.1926412}, "viewport": {"northeast": {"lat": 51.5148868302915, "lng": -0.191274869708498}, "southwest": {"lat": 51.51218886970851, "lng": -0.193972830291502}}}, "name": "The Wedgewood Hotel", "place_id": "ChIJS17YFP4PdkgRrxzdnOgZOFg", "types": ["lodging", "point_of_interest", "establishment"], "rating": 3, "user_ratings_total": 545}, "ChIJS17YFP4PdkgR52evOZ0UAa8": {"geometry": {"location": {"lat": 51.5136282, "lng": -0.1926498}, "viewport": {"northeast": {"lat": 51.5149037802915, "lng": -0.191278369708498}, "southwest": {"lat": 51.5122058197085, "lng": -0.193976330291502}}}, "name": "Crown Management", "place_id": "ChIJS17YFP4PdkgR52evOZ0UAa8", "types": ["point_of_interest", "establishment"]}, "ChIJwXaTFP4PdkgRBy5ssfsgbW0": {"geometry": {"location": {"lat": 51.51364179999999, "lng": -0.1927408}, "viewport": {"northeast": {"lat": 51.51490563029149, "lng": -0.191365769708498}, "southwest": {"lat": 51.51220766970849, "lng": -0.194063730291502}}}, "name": "Infields Construction", "place_id": "ChIJwXaTFP4PdkgRBy5ssfsgbW0", "types": ["general_contractor", "point_of_interest", "establishment"]}, "ChIJhWOsfP4PdkgRirDBusyajz4": {"geometry": {"location": {"lat": 51.51265009231307, "lng": -0.1931940567138339}, "viewport": {"northeast": {"lat": 51.5139998802915, "lng": -0.191839669708498}, "southwest": {"lat": 51.5113019197085, "lng": -0.194537630291502}}}, "name": "Hereford Road", "place_id": "ChIJhWOsfP4PdkgRirDBusyajz4", "types": ["route"]}, "ChIJLfsobVUFdkgRxt1wEwySYZc": {"geometry": {"location": {"lat": 51.5127419, "lng": -0.1926343}, "viewport": {"northeast": {"lat": 51.5141643802915, "lng": -0.1913070197084979}, "southwest": {"lat": 51.5114664197085, "lng": -0.194004980291502}}}, "name": "The Premier Notting Hill", "place_id": "ChIJLfsobVUFdkgRxt1wEwySYZc", "types": ["lodging", "point_of_interest", "establishment"], "rating": 3.7, "user_ratings_total": 404}, "ChIJwVRKZv4PdkgRBBB3-bb0gt8": {"geometry": {"location": {"lat": 51.51272290000001, "lng": -0.1928081}, "viewport": {"northeast": {"lat": 51.5141449802915, "lng": -0.191480669708498}, "southwest": {"lat": 51.51144701970851, "lng": -0.194178630291502}}}, "name": "Kensington Court Hotel Notting Hill", "place_id": "ChIJwVRKZv4PdkgRBBB3-bb0gt8", "types": ["lodging", "point_of_interest", "establishment"], "rating": 3.5, "user_ratings_total": 101}, "ChIJwVRKZv4PdkgR4IYAGpLFo3A": {"geometry": {"location": {"lat": 51.5127453, "lng": -0.1926437}, "viewport": {"northeast": {"lat": 51.51416563029149, "lng": -0.191315769708498}, "southwest": {"lat": 51.51146766970849, "lng": -0.194013730291502}}}, "name": "UniModelling", "place_id": "ChIJwVRKZv4PdkgR4IYAGpLFo3A", "types": ["point_of_interest", "establishment"]}, "ChIJJTl6Zf4PdkgRuRhwHToPmkU": {"geometry": {"location": {"lat": 51.512745, "lng": -0.1930951}, "viewport": {"northeast": {"lat": 51.5141439302915, "lng": -0.191756719708498}, "southwest": {"lat": 51.5114459697085, "lng": -0.1944546802915021}}}, "name": "Princes Square Serviced Apartments", "place_id": "ChIJJTl6Zf4PdkgRuRhwHToPmkU", "types": ["lodging", "point_of_interest", "establishment"], "rating": 2.8, "user_ratings_total": 114}, "ChIJ867WZ_4PdkgRbyiR18ro6Qg": {"geometry": {"location": {"lat": 51.51286, "lng": -0.192608}, "viewport": {"northeast": {"lat": 51.51421368029149, "lng": -0.191260369708498}, "southwest": {"lat": 51.5115157197085, "lng": -0.193958330291502}}}, "name": "ubitricity Charging Station", "place_id": "ChIJ867WZ_4PdkgRbyiR18ro6Qg", "types": ["point_of_interest", "establishment"]}, "ChIJwVRKZv4PdkgRhByhDqWbDmo": {"geometry": {"location": {"lat": 51.5127453, "lng": -0.1926437}, "viewport": {"northeast": {"lat": 51.51416563029149, "lng": -0.191315769708498}, "southwest": {"lat": 51.51146766970849, "lng": -0.194013730291502}}}, "name": "London Models Wanted", "place_id": "ChIJwVRKZv4PdkgRhByhDqWbDmo", "types": ["point_of_interest", "establishment"]}, "ChIJRbD1Bo8PdkgRCI3pKCM-XuU": {"geometry": {"location": {"lat": 51.5127764, "lng": -0.192818}, "viewport": {"northeast": {"lat": 51.5141720302915, "lng": -0.191482769708498}, "southwest": {"lat": 51.5114740697085, "lng": -0.194180730291502}}}, "name": "Hotel London", "place_id": "ChIJRbD1Bo8PdkgRCI3pKCM-XuU", "types": ["lodging", "point_of_interest", "establishment"]}, "ChIJv2Y024sPdkgR52yNx4vfeWg": {"geometry": {"location": {"lat": 51.5130347, "lng": -0.1928041}, "viewport": {"northeast": {"lat": 51.51430618029151, "lng": -0.191432219708498}, "southwest": {"lat": 51.51160821970851, "lng": -0.194130180291502}}}, "name": "Prince\u2019s Square", "place_id": "ChIJv2Y024sPdkgR52yNx4vfeWg", "types": ["park", "point_of_interest", "establishment"], "rating": 1, "user_ratings_total": 1}, "ChIJrRPekv4PdkgR3LyggebbVsQ": {"geometry": {"location": {"lat": 51.51175199999999, "lng": -0.1924279}, "viewport": {"northeast": {"lat": 51.51311028029149, "lng": -0.191022269708498}, "southwest": {"lat": 51.51041231970849, "lng": -0.193720230291502}}}, "name": "Tiko Construction", "place_id": "ChIJrRPekv4PdkgR3LyggebbVsQ", "types": ["general_contractor", "point_of_interest", "establishment"]}, "ChIJk8Bnkf4PdkgRJwt3i1zx42Q": {"geometry": {"location": {"lat": 51.511667, "lng": -0.1929699}, "viewport": {"northeast": {"lat": 51.5130732802915, "lng": -0.191595219708498}, "southwest": {"lat": 51.5103753197085, "lng": -0.194293180291502}}}, "name": "The Watch Men Agency", "place_id": "ChIJk8Bnkf4PdkgRJwt3i1zx42Q", "types": ["point_of_interest", "establishment"]}, "ChIJwa0fjv4PdkgRJSJ9WlgjOtE": {"geometry": {"location": {"lat": 51.5115724, "lng": -0.1928897000000001}, "viewport": {"northeast": {"lat": 51.5129270302915, "lng": -0.191505369708498}, "southwest": {"lat": 51.5102290697085, "lng": -0.194203330291502}}}, "name": "Bric Travel", "place_id": "ChIJwa0fjv4PdkgRJSJ9WlgjOtE", "types": ["travel_agency", "point_of_interest", "establishment"], "rating": 5, "user_ratings_total": 2}, "ChIJwa0fjv4PdkgRb-qGCL1CXXQ": {"geometry": {"location": {"lat": 51.51159349999999, "lng": -0.1929288}, "viewport": {"northeast": {"lat": 51.51295143029149, "lng": -0.191523319708498}, "southwest": {"lat": 51.51025346970849, "lng": -0.194221280291502}}}, "name": "Santamaria Shirtmakers. Open by appointment.", "place_id": "ChIJwa0fjv4PdkgRb-qGCL1CXXQ", "types": ["point_of_interest", "clothing_store", "store", "establishment"], "rating": 5, "user_ratings_total": 45}, "ChIJ_RB4jf4PdkgRiAHRBwUjiUo": {"geometry": {"location": {"lat": 51.51160269999999, "lng": -0.1926206}, "viewport": {"northeast": {"lat": 51.51298068029149, "lng": -0.191095319708498}, "southwest": {"lat": 51.51028271970849, "lng": -0.193793280291502}}}, "name": "47 Palace Court", "place_id": "ChIJ_RB4jf4PdkgRiAHRBwUjiUo", "types": ["point_of_interest", "establishment"]}, "ChIJjR-e6bsPdkgRb2dXPbInyKY": {"geometry": {"location": {"lat": 51.51161800000001, "lng": -0.1925687}, "viewport": {"northeast": {"lat": 51.5129914802915, "lng": -0.1910707197084979}, "southwest": {"lat": 51.5102935197085, "lng": -0.193768680291502}}}, "name": "Alice Meynell Blue Plaque", "place_id": "ChIJjR-e6bsPdkgRb2dXPbInyKY", "types": ["point_of_interest", "establishment"], "rating": 4, "user_ratings_total": 1}, "ChIJJ2NBjv4PdkgRdyQ6oHGcC4k": {"geometry": {"location": {"lat": 51.51166629999999, "lng": -0.1929153}, "viewport": {"northeast": {"lat": 51.51307293029149, "lng": -0.191595219708498}, "southwest": {"lat": 51.51037496970849, "lng": -0.194293180291502}}}, "name": "Yoga Ride", "place_id": "ChIJJ2NBjv4PdkgRdyQ6oHGcC4k", "types": ["gym", "health", "point_of_interest", "establishment"]}, "ChIJob3x8v4PdkgRisgY7H1s8fc": {"geometry": {"location": {"lat": 51.51161219999999, "lng": -0.1924721}, "viewport": {"northeast": {"lat": 51.5129784302915, "lng": -0.1910181197084979}, "southwest": {"lat": 51.5102804697085, "lng": -0.193716080291502}}}, "name": "Capellania Catolica Espa\u00f1ola", "place_id": "ChIJob3x8v4PdkgRisgY7H1s8fc", "types": ["church", "place_of_worship", "point_of_interest", "establishment"], "rating": 4.5, "user_ratings_total": 4}, "ChIJAQBMjv4PdkgRmWOlhu-BO4c": {"geometry": {"location": {"lat": 51.51166689999999, "lng": -0.1929698}, "viewport": {"northeast": {"lat": 51.5130732302915, "lng": -0.191595219708498}, "southwest": {"lat": 51.5103752697085, "lng": -0.194293180291502}}}, "name": "YOGA-WOOD", "place_id": "ChIJAQBMjv4PdkgRmWOlhu-BO4c", "types": ["gym", "health", "point_of_interest", "establishment"]}, "ChIJAQBMjv4PdkgRtuzjBsACTRI": {"geometry": {"location": {"lat": 51.51166689999999, "lng": -0.1929698}, "viewport": {"northeast": {"lat": 51.51308298029149, "lng": -0.191655069708498}, "southwest": {"lat": 51.51038501970849, "lng": -0.194353030291502}}}, "name": "Heartcore", "place_id": "ChIJAQBMjv4PdkgRtuzjBsACTRI", "types": ["gym", "health", "point_of_interest", "establishment"], "rating": 4.7, "user_ratings_total": 15}, "ChIJqW288v4PdkgR9XdeuM8kgFo": {"geometry": {"location": {"lat": 51.511621, "lng": -0.192368}, "viewport": {"northeast": {"lat": 51.51297898029149, "lng": -0.190964419708498}, "southwest": {"lat": 51.5102810197085, "lng": -0.193662380291502}}}, "name": "ubitricity Charging Station", "place_id": "ChIJqW288v4PdkgR9XdeuM8kgFo", "types": ["point_of_interest", "establishment"]}, "ChIJ2-Rflf4PdkgRVkTr-nIvWiw": {"geometry": {"location": {"lat": 51.51064166121266, "lng": -0.1924193290750132}, "viewport": {"northeast": {"lat": 51.5119900802915, "lng": -0.1910740197084979}, "southwest": {"lat": 51.5092921197085, "lng": -0.193771980291502}}}, "name": "20-2 Ossington St", "place_id": "ChIJ2-Rflf4PdkgRVkTr-nIvWiw", "types": ["route"]}, "ChIJiZOw2_0PdkgRb1sa8DB5NSY": {"geometry": {"location": {"lat": 51.51278430000051, "lng": -0.1943242999912346}, "viewport": {"northeast": {"lat": 51.5141332802915, "lng": -0.192975319708498}, "southwest": {"lat": 51.5114353197085, "lng": -0.195673280291502}}}, "name": "46-36 Chepstow Pl", "place_id": "ChIJiZOw2_0PdkgRb1sa8DB5NSY", "types": ["route"]}, "ChIJSaoYyP0PdkgR2SI8xVNwCBk": {"geometry": {"location": {"lat": 51.51279110000001, "lng": -0.1946335}, "viewport": {"northeast": {"lat": 51.5140742302915, "lng": -0.193260519708498}, "southwest": {"lat": 51.5113762697085, "lng": -0.195958480291502}}}, "name": "Embassy of the P D R of Algeria", "place_id": "ChIJSaoYyP0PdkgR2SI8xVNwCBk", "types": ["embassy", "point_of_interest", "establishment"]}, "ChIJ1Y0vhP0PdkgRwkAqLDO7gS8": {"geometry": {"location": {"lat": 51.51148999999999, "lng": -0.194389}, "viewport": {"northeast": {"lat": 51.5129076802915, "lng": -0.193065419708498}, "southwest": {"lat": 51.5102097197085, "lng": -0.195763380291502}}}, "name": "Hotel Bluebells", "place_id": "ChIJ1Y0vhP0PdkgRwkAqLDO7gS8", "types": ["lodging", "point_of_interest", "establishment"], "rating": 3.9, "user_ratings_total": 296}, "ChIJ3f6sNvEPdkgR3an40OkqYU4": {"geometry": {"location": {"lat": 51.5114593, "lng": -0.1943483}, "viewport": {"northeast": {"lat": 51.5128943302915, "lng": -0.193031119708498}, "southwest": {"lat": 51.5101963697085, "lng": -0.195729080291502}}}, "name": "otel", "place_id": "ChIJ3f6sNvEPdkgR3an40OkqYU4", "types": ["lodging", "point_of_interest", "establishment"], "rating": 1, "user_ratings_total": 1}, "ChIJc34BGPwPdkgRNBGOERQwvBk": {"geometry": {"location": {"lat": 51.51085261234011, "lng": -0.194595969695907}, "viewport": {"northeast": {"lat": 51.5122014302915, "lng": -0.193247869708498}, "southwest": {"lat": 51.50950346970851, "lng": -0.195945830291502}}}, "name": "44-53 Linden Gardens", "place_id": "ChIJc34BGPwPdkgRNBGOERQwvBk", "types": ["route"]}, "ChIJE1wJF_wPdkgR6TWCCEzwAr4": {"geometry": {"location": {"lat": 51.51072349999999, "lng": -0.1947589}, "viewport": {"northeast": {"lat": 51.51208683029149, "lng": -0.193309869708498}, "southwest": {"lat": 51.50938886970849, "lng": -0.196007830291502}}}, "name": "Bendeck & Markham Partners Ltd", "place_id": "ChIJE1wJF_wPdkgR6TWCCEzwAr4", "types": ["point_of_interest", "establishment"]}, "ChIJT7HcG_wPdkgRPbLAv0YLV7M": {"geometry": {"location": {"lat": 51.5106393, "lng": -0.1941678}, "viewport": {"northeast": {"lat": 51.5119662302915, "lng": -0.192986869708498}, "southwest": {"lat": 51.5092682697085, "lng": -0.195684830291502}}}, "name": "The Limes", "place_id": "ChIJT7HcG_wPdkgRPbLAv0YLV7M", "types": ["point_of_interest", "establishment"], "rating": 1, "user_ratings_total": 1}, "ChIJK1FFyf0PdkgRDlSajMbGZl8": {"geometry": {"location": {"lat": 51.5126801, "lng": -0.1959423}, "viewport": {"northeast": {"lat": 51.5139238302915, "lng": -0.1945542697084979}, "southwest": {"lat": 51.5112258697085, "lng": -0.197252230291502}}}, "name": "Comboni Missionaries", "place_id": "ChIJK1FFyf0PdkgRDlSajMbGZl8", "types": ["point_of_interest", "establishment"], "rating": 5, "user_ratings_total": 4}, "ChIJFV5Quv0PdkgRjHVlBdohHPI": {"geometry": {"location": {"lat": 51.5128713, "lng": -0.195902}, "viewport": {"northeast": {"lat": 51.5142342302915, "lng": -0.194430619708498}, "southwest": {"lat": 51.5115362697085, "lng": -0.197128580291502}}}, "name": "The Leslie Flint Educational Trust", "place_id": "ChIJFV5Quv0PdkgRjHVlBdohHPI", "types": ["point_of_interest", "establishment"]}, "ChIJ2xYJv_0PdkgRIqvlr5R_XT0": {"geometry": {"location": {"lat": 51.5128621, "lng": -0.1957654}, "viewport": {"northeast": {"lat": 51.5142176302915, "lng": -0.194358819708498}, "southwest": {"lat": 51.5115196697085, "lng": -0.197056780291502}}}, "name": "Roger & Anthea Murray", "place_id": "ChIJ2xYJv_0PdkgRIqvlr5R_XT0", "types": ["point_of_interest", "establishment"]}}}