{"E00023639": {"ChIJx459KDUFdkgR8Guy-xj3s50": {"geometry": {"location": {"lat": 51.51430036876737, "lng": -0.1616740178908945}, "viewport": {"northeast": {"lat": 51.5156342302915, "lng": -0.160345869708498}, "southwest": {"lat": 51.5129362697085, "lng": -0.163043830291502}}}, "name": "Edgware Road", "place_id": "ChIJx459KDUFdkgR8Guy-xj3s50", "types": ["route"]}, "ChIJEaEJMTUFdkgR61oY1dvtq54": {"geometry": {"location": {"lat": 51.5144444, "lng": -0.1622222}, "viewport": {"northeast": {"lat": 51.5158319802915, "lng": -0.160810719708498}, "southwest": {"lat": 51.5131340197085, "lng": -0.163508680291502}}}, "name": "Maroush Edgware Road", "place_id": "ChIJEaEJMTUFdkgR61oY1dvtq54", "types": ["bar", "restaurant", "food", "point_of_interest", "establishment"], "rating": 3.8, "user_ratings_total": 1405}, "ChIJj1teIzUFdkgRmnPkJZpnOts": {"geometry": {"location": {"lat": 51.51397100000001, "lng": -0.1624055}, "viewport": {"northeast": {"lat": 51.5153678802915, "lng": -0.161077319708498}, "southwest": {"lat": 51.5126699197085, "lng": -0.163775280291502}}}, "name": "Victory Services Club", "place_id": "ChIJj1teIzUFdkgRmnPkJZpnOts", "types": ["point_of_interest", "establishment"], "rating": 4.6, "user_ratings_total": 602}, "ChIJY9FazsoadkgRfXJNVhh-dac": {"geometry": {"location": {"lat": 51.5147574, "lng": -0.1621191}, "viewport": {"northeast": {"lat": 51.51628583029149, "lng": -0.160857519708498}, "southwest": {"lat": 51.51358786970849, "lng": -0.163555480291502}}}, "name": "Maroush Express", "place_id": "ChIJY9FazsoadkgRfXJNVhh-dac", "types": ["restaurant", "food", "point_of_interest", "establishment"], "rating": 3.8, "user_ratings_total": 1253}, "ChIJhbNbJjUFdkgRLbGxCmwqt4Q": {"geometry": {"location": {"lat": 51.5140868, "lng": -0.1617112}, "viewport": {"northeast": {"lat": 51.51516223029149, "lng": -0.1605357697084979}, "southwest": {"lat": 51.5124642697085, "lng": -0.163233730291502}}}, "name": "Al Balad", "place_id": "ChIJhbNbJjUFdkgRLbGxCmwqt4Q", "types": ["restaurant", "food", "point_of_interest", "establishment"], "rating": 3.8, "user_ratings_total": 1074}, "ChIJY-tlLjUFdkgRHPdQeSFYH90": {"geometry": {"location": {"lat": 51.5144132, "lng": -0.1615958}, "viewport": {"northeast": {"lat": 51.5157211802915, "lng": -0.160318819708498}, "southwest": {"lat": 51.5130232197085, "lng": -0.163016780291502}}}, "name": "PAUL Marble Arch", "place_id": "ChIJY-tlLjUFdkgRHPdQeSFYH90", "types": ["bakery", "cafe", "restaurant", "food", "point_of_interest", "store", "establishment"], "rating": 4, "user_ratings_total": 546}, "ChIJMUtcKTUFdkgRQZYbQ8EV8nk": {"geometry": {"location": {"lat": 51.5145414, "lng": -0.1618438}, "viewport": {"northeast": {"lat": 51.5158097802915, "lng": -0.160453219708498}, "southwest": {"lat": 51.5131118197085, "lng": -0.163151180291502}}}, "name": "Paperchase", "place_id": "ChIJMUtcKTUFdkgRQZYbQ8EV8nk", "types": ["point_of_interest", "store", "establishment"], "rating": 4.5, "user_ratings_total": 82}, "ChIJ60huVTMFdkgROY5zlOxGchM": {"geometry": {"location": {"lat": 51.5144888, "lng": -0.1615623}, "viewport": {"northeast": {"lat": 51.51575828029149, "lng": -0.160300369708498}, "southwest": {"lat": 51.51306031970849, "lng": -0.162998330291502}}}, "name": "Vital for Children", "place_id": "ChIJ60huVTMFdkgROY5zlOxGchM", "types": ["point_of_interest", "establishment"]}, "ChIJZW3gKTUFdkgR82Rwdch_Lu4": {"geometry": {"location": {"lat": 51.5144888, "lng": -0.1615623}, "viewport": {"northeast": {"lat": 51.51575828029149, "lng": -0.160300369708498}, "southwest": {"lat": 51.51306031970849, "lng": -0.162998330291502}}}, "name": "Westrock", "place_id": "ChIJZW3gKTUFdkgR82Rwdch_Lu4", "types": ["general_contractor", "point_of_interest", "establishment"], "rating": 5, "user_ratings_total": 1}, "ChIJS9TgCfcPdkgRaijpYQHAmkQ": {"geometry": {"location": {"lat": 51.5144888, "lng": -0.1615623}, "viewport": {"northeast": {"lat": 51.51575828029149, "lng": -0.160300369708498}, "southwest": {"lat": 51.51306031970849, "lng": -0.162998330291502}}}, "name": "Access Industries UK", "place_id": "ChIJS9TgCfcPdkgRaijpYQHAmkQ", "types": ["finance", "point_of_interest", "establishment"]}, "ChIJZW3gKTUFdkgRfNlxJKzrwHQ": {"geometry": {"location": {"lat": 51.5144888, "lng": -0.1615623}, "viewport": {"northeast": {"lat": 51.51575828029149, "lng": -0.160300369708498}, "southwest": {"lat": 51.51306031970849, "lng": -0.162998330291502}}}, "name": "PLATFORM_", "place_id": "ChIJZW3gKTUFdkgRfNlxJKzrwHQ", "types": ["finance", "point_of_interest", "establishment"], "rating": 3, "user_ratings_total": 2}, "ChIJU6kU1zQFdkgRpQuxeb4AcEA": {"geometry": {"location": {"lat": 51.5144888, "lng": -0.1615623}, "viewport": {"northeast": {"lat": 51.51575828029149, "lng": -0.160300369708498}, "southwest": {"lat": 51.51306031970849, "lng": -0.162998330291502}}}, "name": "Cirrus Logic International (UK) Ltd.", "place_id": "ChIJU6kU1zQFdkgRpQuxeb4AcEA", "types": ["point_of_interest", "establishment"], "rating": 5, "user_ratings_total": 6}, "ChIJU3lDJjUFdkgRxbXOOjxeHA4": {"geometry": {"location": {"lat": 51.5140469, "lng": -0.1617847}, "viewport": {"northeast": {"lat": 51.51514228029149, "lng": -0.160572519708498}, "southwest": {"lat": 51.51244431970849, "lng": -0.163270480291502}}}, "name": "Carisbrooke Hall", "place_id": "ChIJU3lDJjUFdkgRxbXOOjxeHA4", "types": ["point_of_interest", "establishment"], "rating": 3.5, "user_ratings_total": 4}, "ChIJlXXKLzUFdkgRPKdJbXtJPV0": {"geometry": {"location": {"lat": 51.5143886, "lng": -0.1621994}, "viewport": {"northeast": {"lat": 51.5157881802915, "lng": -0.160767169708498}, "southwest": {"lat": 51.5130902197085, "lng": -0.163465130291502}}}, "name": "The Medical & Surgical Centre", "place_id": "ChIJlXXKLzUFdkgRPKdJbXtJPV0", "types": ["health", "point_of_interest", "establishment"]}, "ChIJ2TlvLjUFdkgRDhQ5bItv0cA": {"geometry": {"location": {"lat": 51.5146165, "lng": -0.1619856}, "viewport": {"northeast": {"lat": 51.51584733029151, "lng": -0.160517869708498}, "southwest": {"lat": 51.51314936970851, "lng": -0.163215830291502}}}, "name": "Snowflake Luxury Gelato - Marble Arch", "place_id": "ChIJ2TlvLjUFdkgRDhQ5bItv0cA", "types": ["cafe", "food", "point_of_interest", "store", "establishment"], "rating": 4.3, "user_ratings_total": 876}, "ChIJxV4Sa9EEdkgRBjxrIoNZPS4": {"geometry": {"location": {"lat": 51.5143838, "lng": -0.1612566}, "viewport": {"northeast": {"lat": 51.5156770802915, "lng": -0.159920469708498}, "southwest": {"lat": 51.5129791197085, "lng": -0.162618430291502}}}, "name": "5mm Design", "place_id": "ChIJxV4Sa9EEdkgRBjxrIoNZPS4", "types": ["home_goods_store", "furniture_store", "general_contractor", "point_of_interest", "clothing_store", "store", "establishment"], "rating": 5, "user_ratings_total": 9}, "ChIJuegv6jQFdkgRKeqWeo4WeLs": {"geometry": {"location": {"lat": 51.51393950000001, "lng": -0.161646}, "viewport": {"northeast": {"lat": 51.5150885802915, "lng": -0.160503169708498}, "southwest": {"lat": 51.5123906197085, "lng": -0.163201130291502}}}, "name": "Nero Estate", "place_id": "ChIJuegv6jQFdkgRKeqWeo4WeLs", "types": ["real_estate_agency", "point_of_interest", "establishment"], "rating": 4.8, "user_ratings_total": 5}, "ChIJK_Si0DQFdkgR8gKoxhjBDu0": {"geometry": {"location": {"lat": 51.5144072, "lng": -0.1611591}, "viewport": {"northeast": {"lat": 51.5156996802915, "lng": -0.159767869708498}, "southwest": {"lat": 51.5130017197085, "lng": -0.162465830291502}}}, "name": "The Italian Greyhound", "place_id": "ChIJK_Si0DQFdkgR8gKoxhjBDu0", "types": ["bar", "restaurant", "food", "point_of_interest", "establishment"], "rating": 4.3, "user_ratings_total": 572}, "ChIJkeQD1DQFdkgR-PM6eQ51gEY": {"geometry": {"location": {"lat": 51.5145862, "lng": -0.1612135}, "viewport": {"northeast": {"lat": 51.51594668029149, "lng": -0.159790369708498}, "southwest": {"lat": 51.5132487197085, "lng": -0.162488330291502}}}, "name": "Cate Inglis", "place_id": "ChIJkeQD1DQFdkgR-PM6eQ51gEY", "types": ["point_of_interest", "establishment"]}, "ChIJi_7K2DQFdkgRw71KoqRNdk4": {"geometry": {"location": {"lat": 51.5138316, "lng": -0.1619426}, "viewport": {"northeast": {"lat": 51.5150346302915, "lng": -0.160651469708498}, "southwest": {"lat": 51.5123366697085, "lng": -0.163349430291502}}}, "name": "Regents Education", "place_id": "ChIJi_7K2DQFdkgRw71KoqRNdk4", "types": ["point_of_interest", "establishment"], "rating": 5, "user_ratings_total": 1}, "ChIJ57LgIzUFdkgRo1_kNwUgzGU": {"geometry": {"location": {"lat": 51.5138316, "lng": -0.1619426}, "viewport": {"northeast": {"lat": 51.5150346302915, "lng": -0.160651469708498}, "southwest": {"lat": 51.5123366697085, "lng": -0.163349430291502}}}, "name": "Pakhtoon Restaurant", "place_id": "ChIJ57LgIzUFdkgRo1_kNwUgzGU", "types": ["restaurant", "food", "point_of_interest", "establishment"], "rating": 3.5, "user_ratings_total": 148}, "ChIJ_RPVMzUFdkgRlht8HOngBzE": {"geometry": {"location": {"lat": 51.51458, "lng": -0.162476}, "viewport": {"northeast": {"lat": 51.51597618029149, "lng": -0.161052169708498}, "southwest": {"lat": 51.5132782197085, "lng": -0.163750130291502}}}, "name": "Plaza Estates \u200b", "place_id": "ChIJ_RPVMzUFdkgRlht8HOngBzE", "types": ["real_estate_agency", "finance", "point_of_interest", "establishment"], "rating": 4.5, "user_ratings_total": 37}, "ChIJ-aWG3zQFdkgRpgt8RIgpkkU": {"geometry": {"location": {"lat": 51.5140604, "lng": -0.1610816}, "viewport": {"northeast": {"lat": 51.5153750802915, "lng": -0.159708019708498}, "southwest": {"lat": 51.5126771197085, "lng": -0.162405980291502}}}, "name": "EMK Capital", "place_id": "ChIJ-aWG3zQFdkgRpgt8RIgpkkU", "types": ["finance", "point_of_interest", "establishment"]}, "ChIJS0OdXh0RdkgRWux8j2E8xL4": {"geometry": {"location": {"lat": 51.5148015, "lng": -0.1615315}, "viewport": {"northeast": {"lat": 51.51611648029149, "lng": -0.160203169708498}, "southwest": {"lat": 51.5134185197085, "lng": -0.162901130291502}}}, "name": "WonderBuilds", "place_id": "ChIJS0OdXh0RdkgRWux8j2E8xL4", "types": ["point_of_interest", "establishment"], "rating": 5, "user_ratings_total": 1}, "ChIJZQCaKzUFdkgRziNSQ7BCTMI": {"geometry": {"location": {"lat": 51.5147062, "lng": -0.1620926}, "viewport": {"northeast": {"lat": 51.5162605802915, "lng": -0.160844269708498}, "southwest": {"lat": 51.5135626197085, "lng": -0.163542230291502}}}, "name": "William James Estate Agents Ltd", "place_id": "ChIJZQCaKzUFdkgRziNSQ7BCTMI", "types": ["real_estate_agency", "point_of_interest", "establishment"], "rating": 3.7, "user_ratings_total": 3}, "ChIJf0913TQFdkgRDaxdLZJS64A": {"geometry": {"location": {"lat": 51.51388, "lng": -0.1614892}, "viewport": {"northeast": {"lat": 51.5150588302915, "lng": -0.160424769708498}, "southwest": {"lat": 51.5123608697085, "lng": -0.163122730291502}}}, "name": "Triplehalo Ltd", "place_id": "ChIJf0913TQFdkgRDaxdLZJS64A", "types": ["health", "point_of_interest", "establishment"], "rating": 1.3, "user_ratings_total": 3}, "ChIJlXXKLzUFdkgRsYFPMIF3sss": {"geometry": {"location": {"lat": 51.5142695, "lng": -0.1619622}, "viewport": {"northeast": {"lat": 51.5156417802915, "lng": -0.160529169708498}, "southwest": {"lat": 51.5129438197085, "lng": -0.163227130291502}}}, "name": "Nasslam Pharmacy", "place_id": "ChIJlXXKLzUFdkgRsYFPMIF3sss", "types": ["pharmacy", "health", "point_of_interest", "store", "establishment"], "rating": 4.3, "user_ratings_total": 19}, "ChIJOQMJEzoFdkgRH1sET5BhAGs": {"geometry": {"location": {"lat": 51.5144313, "lng": -0.1616464}, "viewport": {"northeast": {"lat": 51.5157209802915, "lng": -0.160310369708498}, "southwest": {"lat": 51.51302301970851, "lng": -0.163008330291502}}}, "name": "Paul boulangerie", "place_id": "ChIJOQMJEzoFdkgRH1sET5BhAGs", "types": ["cafe", "food", "point_of_interest", "establishment"], "rating": 4.3, "user_ratings_total": 3}, "ChIJsyHJKTUFdkgRrB2mSY8srj0": {"geometry": {"location": {"lat": 51.51443399999999, "lng": -0.16163}, "viewport": {"northeast": {"lat": 51.5157313302915, "lng": -0.160331519708498}, "southwest": {"lat": 51.5130333697085, "lng": -0.163029480291502}}}, "name": "SensorTec-UK", "place_id": "ChIJsyHJKTUFdkgRrB2mSY8srj0", "types": ["point_of_interest", "establishment"]}, "ChIJ_yMtR1YxcEERizaTm594hqk": {"geometry": {"location": {"lat": 51.51443399999999, "lng": -0.16163}, "viewport": {"northeast": {"lat": 51.5157313302915, "lng": -0.160331519708498}, "southwest": {"lat": 51.5130333697085, "lng": -0.163029480291502}}}, "name": "NERA Economic Consulting", "place_id": "ChIJ_yMtR1YxcEERizaTm594hqk", "types": ["point_of_interest", "establishment"], "rating": 4.7, "user_ratings_total": 3}, "ChIJzbmgLzUFdkgRMqi2mefudRA": {"geometry": {"location": {"lat": 51.5143388, "lng": -0.1621119}, "viewport": {"northeast": {"lat": 51.5157368802915, "lng": -0.160681819708498}, "southwest": {"lat": 51.5130389197085, "lng": -0.163379780291502}}}, "name": "Shisha Juice", "place_id": "ChIJzbmgLzUFdkgRMqi2mefudRA", "types": ["point_of_interest", "establishment"]}, "ChIJL9dEW8kbdkgRgXejvZbkkFM": {"geometry": {"location": {"lat": 51.5143388, "lng": -0.1621119}, "viewport": {"northeast": {"lat": 51.5157369302915, "lng": -0.160682069708498}, "southwest": {"lat": 51.5130389697085, "lng": -0.163380030291502}}}, "name": "Al - Noor Mobile", "place_id": "ChIJL9dEW8kbdkgRgXejvZbkkFM", "types": ["point_of_interest", "establishment"]}, "ChIJlf9dGFYxcEERwIkf0f_RxT8": {"geometry": {"location": {"lat": 51.5144807, "lng": -0.1616701}, "viewport": {"northeast": {"lat": 51.5157603302915, "lng": -0.160350319708498}, "southwest": {"lat": 51.5130623697085, "lng": -0.163048280291502}}}, "name": "Fulcrum Asset Management", "place_id": "ChIJlf9dGFYxcEERwIkf0f_RxT8", "types": ["finance", "point_of_interest", "establishment"]}, "ChIJr8e2U28FdkgRDVJkO8QDdQk": {"geometry": {"location": {"lat": 51.51434399999999, "lng": -0.1621283}, "viewport": {"northeast": {"lat": 51.5157433802915, "lng": -0.160696069708498}, "southwest": {"lat": 51.5130454197085, "lng": -0.163394030291502}}}, "name": "Taxi W2 London", "place_id": "ChIJr8e2U28FdkgRDVJkO8QDdQk", "types": ["point_of_interest", "establishment"]}, "ChIJEYT_iUoFdkgRgI-CgfytbN0": {"geometry": {"location": {"lat": 51.5142099, "lng": -0.1621108}, "viewport": {"northeast": {"lat": 51.5155183802915, "lng": -0.160744319708498}, "southwest": {"lat": 51.5128204197085, "lng": -0.163442280291502}}}, "name": "The Salt Whisky Bar and Dining Room", "place_id": "ChIJEYT_iUoFdkgRgI-CgfytbN0", "types": ["bar", "restaurant", "food", "point_of_interest", "establishment"], "rating": 4, "user_ratings_total": 769}, "ChIJbwnhFX4FdkgREDZdOkRHSzM": {"geometry": {"location": {"lat": 51.5142065, "lng": -0.1615039}, "viewport": {"northeast": {"lat": 51.51554228029151, "lng": -0.160149419708498}, "southwest": {"lat": 51.51284431970851, "lng": -0.162847380291502}}}, "name": "Central Zone", "place_id": "ChIJbwnhFX4FdkgREDZdOkRHSzM", "types": ["point_of_interest", "establishment"]}, "ChIJs7DL1zQFdkgRuizW9CBEO6Q": {"geometry": {"location": {"lat": 51.51439, "lng": -0.1614777}, "viewport": {"northeast": {"lat": 51.51568728029149, "lng": -0.160216519708498}, "southwest": {"lat": 51.5129893197085, "lng": -0.162914480291502}}}, "name": "Cirrus Logic International Semiconductor Ltd. London Office", "place_id": "ChIJs7DL1zQFdkgRuizW9CBEO6Q", "types": ["point_of_interest", "establishment"], "rating": 4.7, "user_ratings_total": 3}, "ChIJJ5AcvPsFdkgRQkkLOVN3-Hc": {"geometry": {"location": {"lat": 51.5144888, "lng": -0.1615623}, "viewport": {"northeast": {"lat": 51.51575828029149, "lng": -0.160300369708498}, "southwest": {"lat": 51.51306031970849, "lng": -0.162998330291502}}}, "name": "MAIA Technology", "place_id": "ChIJJ5AcvPsFdkgRQkkLOVN3-Hc", "types": ["point_of_interest", "establishment"]}, "ChIJZW3gKTUFdkgRXAXVRiwuyWA": {"geometry": {"location": {"lat": 51.5144888, "lng": -0.1615623}, "viewport": {"northeast": {"lat": 51.51575828029149, "lng": -0.160300369708498}, "southwest": {"lat": 51.51306031970849, "lng": -0.162998330291502}}}, "name": "Select Fitness Llp", "place_id": "ChIJZW3gKTUFdkgRXAXVRiwuyWA", "types": ["point_of_interest", "establishment"]}, "ChIJx0SYx5wFdkgRW4178TalQtE": {"geometry": {"location": {"lat": 51.5143886, "lng": -0.1621994}, "viewport": {"northeast": {"lat": 51.5157881802915, "lng": -0.160766819708498}, "southwest": {"lat": 51.51309021970851, "lng": -0.163464780291502}}}, "name": "Valencia Dry Cleaners", "place_id": "ChIJx0SYx5wFdkgRW4178TalQtE", "types": ["laundry", "point_of_interest", "establishment"], "rating": 5, "user_ratings_total": 1}, "ChIJlXXKLzUFdkgR1abMneCgZww": {"geometry": {"location": {"lat": 51.5143886, "lng": -0.1621994}, "viewport": {"northeast": {"lat": 51.5157881802915, "lng": -0.160766819708498}, "southwest": {"lat": 51.51309021970851, "lng": -0.163464780291502}}}, "name": "Kumush Aesthetics", "place_id": "ChIJlXXKLzUFdkgR1abMneCgZww", "types": ["health", "point_of_interest", "establishment"]}, "ChIJ_4mmKhoFdkgRV8yHD7zR-Ao": {"geometry": {"location": {"lat": 51.5143886, "lng": -0.1621994}, "viewport": {"northeast": {"lat": 51.5157881802915, "lng": -0.160766819708498}, "southwest": {"lat": 51.51309021970851, "lng": -0.163464780291502}}}, "name": "NHC AESTHETICS", "place_id": "ChIJ_4mmKhoFdkgRV8yHD7zR-Ao", "types": ["health", "point_of_interest", "establishment"], "rating": 4, "user_ratings_total": 1}, "ChIJSTULJzUFdkgRsCj-ExPT-k8": {"geometry": {"location": {"lat": 51.5140602, "lng": -0.1616457}, "viewport": {"northeast": {"lat": 51.5151489302915, "lng": -0.160503019708498}, "southwest": {"lat": 51.5124509697085, "lng": -0.163200980291502}}}, "name": "Lycamobile", "place_id": "ChIJSTULJzUFdkgRsCj-ExPT-k8", "types": ["point_of_interest", "establishment"], "rating": 3.3, "user_ratings_total": 3}, "ChIJ2b2b0soadkgRi468Rqvqu1o": {"geometry": {"location": {"lat": 51.5145614, "lng": -0.1618703}, "viewport": {"northeast": {"lat": 51.5158197802915, "lng": -0.160467719708498}, "southwest": {"lat": 51.5131218197085, "lng": -0.163165680291502}}}, "name": "CHASS Productions", "place_id": "ChIJ2b2b0soadkgRi468Rqvqu1o", "types": ["point_of_interest", "establishment"]}, "ChIJj1teIzUFdkgRWgBm9XIQpV0": {"geometry": {"location": {"lat": 51.51404349999999, "lng": -0.1616119}, "viewport": {"northeast": {"lat": 51.51514058029149, "lng": -0.160486119708498}, "southwest": {"lat": 51.51244261970849, "lng": -0.163184080291502}}}, "name": "MARBLE ARCH NEWS", "place_id": "ChIJj1teIzUFdkgRWgBm9XIQpV0", "types": ["book_store", "point_of_interest", "store", "establishment"], "rating": 5, "user_ratings_total": 6}, "ChIJQcAFaggFdkgRtF3MmmTQCKY": {"geometry": {"location": {"lat": 51.5143571, "lng": -0.161309}, "viewport": {"northeast": {"lat": 51.5156567802915, "lng": -0.159963669708498}, "southwest": {"lat": 51.5129588197085, "lng": -0.162661630291502}}}, "name": "Marble Arch House", "place_id": "ChIJQcAFaggFdkgRtF3MmmTQCKY", "types": ["point_of_interest", "establishment"]}, "ChIJSZ8NlMwEdkgRPcvuRvWUnmc": {"geometry": {"location": {"lat": 51.51400379999999, "lng": -0.1615497}, "viewport": {"northeast": {"lat": 51.51512073029149, "lng": -0.160455019708498}, "southwest": {"lat": 51.51242276970849, "lng": -0.163152980291502}}}, "name": "The River Group", "place_id": "ChIJSZ8NlMwEdkgRPcvuRvWUnmc", "types": ["point_of_interest", "establishment"], "rating": 3.8, "user_ratings_total": 6}, "ChIJ36B2LjUFdkgRVS-ndDNAmO4": {"geometry": {"location": {"lat": 51.514551, "lng": -0.1621764}, "viewport": {"northeast": {"lat": 51.5158927802915, "lng": -0.160839319708498}, "southwest": {"lat": 51.5131948197085, "lng": -0.163537280291502}}}, "name": "\u0645\u0643\u062a\u0628\u0629 \u062a\u062e\u0642\u0642\u0662", "place_id": "ChIJ36B2LjUFdkgRVS-ndDNAmO4", "types": ["school", "point_of_interest", "establishment"], "rating": 5, "user_ratings_total": 1}, "ChIJwZnHr9UFdkgRzqzHc-uSHoc": {"geometry": {"location": {"lat": 51.51464250000001, "lng": -0.161948}, "viewport": {"northeast": {"lat": 51.5158603302915, "lng": -0.160519169708498}, "southwest": {"lat": 51.5131623697085, "lng": -0.163217130291502}}}, "name": "WV.Hu-Uk Travel Party", "place_id": "ChIJwZnHr9UFdkgRzqzHc-uSHoc", "types": ["restaurant", "food", "point_of_interest", "establishment"]}, "ChIJXyFILjUFdkgRpgRi8MYSXYM": {"geometry": {"location": {"lat": 51.51452369999999, "lng": -0.1623476}, "viewport": {"northeast": {"lat": 51.51591338029149, "lng": -0.160931669708498}, "southwest": {"lat": 51.51321541970849, "lng": -0.163629630291502}}}, "name": "DGTAL HOUSE", "place_id": "ChIJXyFILjUFdkgRpgRi8MYSXYM", "types": ["electronics_store", "point_of_interest", "store", "establishment"], "rating": 4.7, "user_ratings_total": 20}, "ChIJeRgwKTUFdkgRbHdAQJ-c770": {"geometry": {"location": {"lat": 51.5144995, "lng": -0.162313}, "viewport": {"northeast": {"lat": 51.5158896802915, "lng": -0.160896219708498}, "southwest": {"lat": 51.5131917197085, "lng": -0.163594180291502}}}, "name": "NAWRAS", "place_id": "ChIJeRgwKTUFdkgRbHdAQJ-c770", "types": ["grocery_or_supermarket", "cafe", "food", "point_of_interest", "store", "establishment"], "rating": 3.8, "user_ratings_total": 31}, "ChIJjWHJLzUFdkgRfynPeIGv2Ns": {"geometry": {"location": {"lat": 51.5145061, "lng": -0.1623161}, "viewport": {"northeast": {"lat": 51.5158952802915, "lng": -0.160900719708498}, "southwest": {"lat": 51.5131973197085, "lng": -0.163598680291502}}}, "name": "Maroush", "place_id": "ChIJjWHJLzUFdkgRfynPeIGv2Ns", "types": ["restaurant", "food", "point_of_interest", "establishment"], "rating": 3.7, "user_ratings_total": 49}, "ChIJSVHnoyMFdkgRyEQDmcbdZuo": {"geometry": {"location": {"lat": 51.5141535, "lng": -0.1612222}, "viewport": {"northeast": {"lat": 51.5155024802915, "lng": -0.159873219708498}, "southwest": {"lat": 51.5128045197085, "lng": -0.162571180291502}}}, "name": "Starbucks Marble Arch", "place_id": "ChIJSVHnoyMFdkgRyEQDmcbdZuo", "types": ["cafe", "food", "point_of_interest", "store", "establishment"]}, "ChIJmfSUMTUFdkgRf6OX904IIGQ": {"geometry": {"location": {"lat": 51.51449999999999, "lng": -0.1623939}, "viewport": {"northeast": {"lat": 51.5159027802915, "lng": -0.160956119708498}, "southwest": {"lat": 51.5132048197085, "lng": -0.163654080291502}}}, "name": "Bayswater Man & Van", "place_id": "ChIJmfSUMTUFdkgRf6OX904IIGQ", "types": ["point_of_interest", "establishment"]}, "ChIJSx4z0TQFdkgR3PTIYRrHUUI": {"geometry": {"location": {"lat": 51.5144562, "lng": -0.1611816}, "viewport": {"northeast": {"lat": 51.5157212302915, "lng": -0.159797669708498}, "southwest": {"lat": 51.5130232697085, "lng": -0.162495630291502}}}, "name": "The Dog House", "place_id": "ChIJSx4z0TQFdkgR3PTIYRrHUUI", "types": ["bar", "restaurant", "food", "point_of_interest", "establishment"], "rating": 4.4, "user_ratings_total": 11}, "ChIJ41DSdWkFdkgRunY--P3F3F0": {"geometry": {"location": {"lat": 51.5139334, "lng": -0.1614243}, "viewport": {"northeast": {"lat": 51.5150855302915, "lng": -0.160392319708498}, "southwest": {"lat": 51.5123875697085, "lng": -0.163090280291502}}}, "name": "Usmash", "place_id": "ChIJ41DSdWkFdkgRunY--P3F3F0", "types": ["point_of_interest", "establishment"]}, "ChIJ2f36D18FdkgR15wl3fb5mLY": {"geometry": {"location": {"lat": 51.5147115, "lng": -0.1620678}, "viewport": {"northeast": {"lat": 51.5162653302915, "lng": -0.160831869708498}, "southwest": {"lat": 51.5135673697085, "lng": -0.163529830291502}}}, "name": "Phone repair Edgware road", "place_id": "ChIJ2f36D18FdkgR15wl3fb5mLY", "types": ["point_of_interest", "establishment"]}, "ChIJP0tXLDUFdkgR0TQVBMMvWf8": {"geometry": {"location": {"lat": 51.5147115, "lng": -0.1620678}, "viewport": {"northeast": {"lat": 51.5162653302915, "lng": -0.160831869708498}, "southwest": {"lat": 51.5135673697085, "lng": -0.163529830291502}}}, "name": "Luxury London Stay", "place_id": "ChIJP0tXLDUFdkgR0TQVBMMvWf8", "types": ["point_of_interest", "establishment"]}, "ChIJkxUm8f0zcEERupmaDrbjleM": {"geometry": {"location": {"lat": 51.513913, "lng": -0.1614689}, "viewport": {"northeast": {"lat": 51.51507533029149, "lng": -0.160414619708498}, "southwest": {"lat": 51.5123773697085, "lng": -0.163112580291502}}}, "name": "Alaco", "place_id": "ChIJkxUm8f0zcEERupmaDrbjleM", "types": ["point_of_interest", "establishment"], "rating": 5, "user_ratings_total": 1}, "ChIJyeuD5DQFdkgRhIHG3R8y0Kk": {"geometry": {"location": {"lat": 51.51311953440147, "lng": -0.1611500665043004}, "viewport": {"northeast": {"lat": 51.5144707802915, "lng": -0.159801419708498}, "southwest": {"lat": 51.5117728197085, "lng": -0.162499380291502}}}, "name": "Bayswater Road", "place_id": "ChIJyeuD5DQFdkgRhIHG3R8y0Kk", "types": ["route"]}, "ChIJKZJNIjUFdkgRGpjk8KBsxV4": {"geometry": {"location": {"lat": 51.5136653, "lng": -0.1620225}, "viewport": {"northeast": {"lat": 51.51495543029149, "lng": -0.160652219708498}, "southwest": {"lat": 51.51225746970849, "lng": -0.163350180291502}}}, "name": "Abundance", "place_id": "ChIJKZJNIjUFdkgRGpjk8KBsxV4", "types": ["point_of_interest", "establishment"]}, "ChIJM6_Ffpus2EcRTiKThUgmT2I": {"geometry": {"location": {"lat": 51.5136805, "lng": -0.1619631}, "viewport": {"northeast": {"lat": 51.51495908029149, "lng": -0.160661719708498}, "southwest": {"lat": 51.51226111970849, "lng": -0.163359680291502}}}, "name": "Pepo La Tumaini Jangwani", "place_id": "ChIJM6_Ffpus2EcRTiKThUgmT2I", "types": ["point_of_interest", "establishment"], "rating": 5, "user_ratings_total": 1}, "ChIJmfRiHzUFdkgRrP17GCY8BJc": {"geometry": {"location": {"lat": 51.513717, "lng": -0.1615387}, "viewport": {"northeast": {"lat": 51.51497733029149, "lng": -0.1604495197084979}, "southwest": {"lat": 51.51227936970849, "lng": -0.163147480291502}}}, "name": "Blue Water Energy LLP", "place_id": "ChIJmfRiHzUFdkgRrP17GCY8BJc", "types": ["finance", "point_of_interest", "establishment"]}, "ChIJYwKE3zQFdkgRvgQvzjF9dv4": {"geometry": {"location": {"lat": 51.5137245, "lng": -0.1615284}, "viewport": {"northeast": {"lat": 51.51498108029149, "lng": -0.160444369708498}, "southwest": {"lat": 51.51228311970849, "lng": -0.163142330291502}}}, "name": "Excellence Logging UK", "place_id": "ChIJYwKE3zQFdkgRvgQvzjF9dv4", "types": ["point_of_interest", "establishment"], "rating": 5, "user_ratings_total": 1}, "ChIJe_zwHjUFdkgRFoPwfdfdZjA": {"geometry": {"location": {"lat": 51.5134386, "lng": -0.1619158}, "viewport": {"northeast": {"lat": 51.5148437302915, "lng": -0.160587169708498}, "southwest": {"lat": 51.5121457697085, "lng": -0.163285130291502}}}, "name": "Elkmead Estates Inc", "place_id": "ChIJe_zwHjUFdkgRFoPwfdfdZjA", "types": ["point_of_interest", "establishment"]}, "ChIJ8Q1mGjUFdkgRQNxk4mQkKgA": {"geometry": {"location": {"lat": 51.513126, "lng": -0.162212}, "viewport": {"northeast": {"lat": 51.51443948029149, "lng": -0.160852869708498}, "southwest": {"lat": 51.51174151970849, "lng": -0.163550830291502}}}, "name": "Bayswater Road (Stop C)", "place_id": "ChIJ8Q1mGjUFdkgRQNxk4mQkKgA", "types": ["transit_station", "point_of_interest", "establishment"], "rating": 4.5, "user_ratings_total": 4}, "ChIJuQErAboFdkgR_CmP9QUEtL0": {"geometry": {"location": {"lat": 51.51347829999999, "lng": -0.1613114}, "viewport": {"northeast": {"lat": 51.51490578029149, "lng": -0.159992719708498}, "southwest": {"lat": 51.51220781970849, "lng": -0.162690680291502}}}, "name": "Cell Capital Partners", "place_id": "ChIJuQErAboFdkgR_CmP9QUEtL0", "types": ["finance", "point_of_interest", "establishment"]}, "ChIJLaPBFzUFdkgR6BmMCizoMi8": {"geometry": {"location": {"lat": 51.513514, "lng": -0.1623866}, "viewport": {"northeast": {"lat": 51.51484318029149, "lng": -0.161037619708498}, "southwest": {"lat": 51.5121452197085, "lng": -0.163735580291502}}}, "name": "Rubbish Clearance", "place_id": "ChIJLaPBFzUFdkgR6BmMCizoMi8", "types": ["point_of_interest", "establishment"]}, "ChIJczZNETUFdkgRnVZ8P25P15E": {"geometry": {"location": {"lat": 51.5132513, "lng": -0.1626001}, "viewport": {"northeast": {"lat": 51.5145786802915, "lng": -0.161345769708498}, "southwest": {"lat": 51.5118807197085, "lng": -0.164043730291502}}}, "name": "Animal Healthcare Services Limited", "place_id": "ChIJczZNETUFdkgRnVZ8P25P15E", "types": ["point_of_interest", "establishment"]}, "ChIJKZJNIjUFdkgRalb8EJeBk9A": {"geometry": {"location": {"lat": 51.5137329, "lng": -0.1620449}, "viewport": {"northeast": {"lat": 51.5149852802915, "lng": -0.160685469708498}, "southwest": {"lat": 51.5122873197085, "lng": -0.163383430291502}}}, "name": "Spencer Stuart", "place_id": "ChIJKZJNIjUFdkgRalb8EJeBk9A", "types": ["point_of_interest", "establishment"], "rating": 3.8, "user_ratings_total": 6}, "ChIJvaDRqTUFdkgRNCmZD9OgqBg": {"geometry": {"location": {"lat": 51.51223598438376, "lng": -0.1620074534141288}, "viewport": {"northeast": {"lat": 51.5135998802915, "lng": -0.160660019708498}, "southwest": {"lat": 51.5109019197085, "lng": -0.163357980291502}}}, "name": "10 N Carriage Dr", "place_id": "ChIJvaDRqTUFdkgRNCmZD9OgqBg", "types": ["route"]}, "ChIJIYM7uoIFdkgRWeGKGoEjqNk": {"geometry": {"location": {"lat": 51.5122128, "lng": -0.1612953}, "viewport": {"northeast": {"lat": 51.5135298802915, "lng": -0.159931069708498}, "southwest": {"lat": 51.5108319197085, "lng": -0.162629030291502}}}, "name": "Q Park Marble Arch - car park", "place_id": "ChIJIYM7uoIFdkgRWeGKGoEjqNk", "types": ["parking", "point_of_interest", "establishment"]}, "ChIJTQ1_aw0FdkgRliwGp2yQrp8": {"geometry": {"location": {"lat": 51.51251140000001, "lng": -0.161522}, "viewport": {"northeast": {"lat": 51.51375783029151, "lng": -0.160132619708498}, "southwest": {"lat": 51.51105986970851, "lng": -0.162830580291502}}}, "name": "Cumberland Gate Lodge", "place_id": "ChIJTQ1_aw0FdkgRliwGp2yQrp8", "types": ["point_of_interest", "establishment"], "rating": 5, "user_ratings_total": 1}, "ChIJXaYoCk8FdkgRFwyYQ3TfPm8": {"geometry": {"location": {"lat": 51.5121006, "lng": -0.1625365}, "viewport": {"northeast": {"lat": 51.5134846802915, "lng": -0.161184069708498}, "southwest": {"lat": 51.5107867197085, "lng": -0.163882030291502}}}, "name": "Freeman Family Fountain", "place_id": "ChIJXaYoCk8FdkgRFwyYQ3TfPm8", "types": ["point_of_interest", "establishment"]}, "ChIJk5arOzUFdkgRv30b1eUIfpY": {"geometry": {"location": {"lat": 51.51405963284215, "lng": -0.1624900121343426}, "viewport": {"northeast": {"lat": 51.5154081302915, "lng": -0.161140819708498}, "southwest": {"lat": 51.5127101697085, "lng": -0.163838780291502}}}, "name": "90-44 Seymour St", "place_id": "ChIJk5arOzUFdkgRv30b1eUIfpY", "types": ["route"]}, "ChIJ_1MnTzUFdkgR3nCvLMm9uSY": {"geometry": {"location": {"lat": 51.5145235, "lng": -0.1634269}, "viewport": {"northeast": {"lat": 51.5158554802915, "lng": -0.162150069708498}, "southwest": {"lat": 51.51315751970851, "lng": -0.1648480302915021}}}, "name": "Creative Minds Films", "place_id": "ChIJ_1MnTzUFdkgR3nCvLMm9uSY", "types": ["point_of_interest", "establishment"]}, "ChIJzbWLXDUFdkgRF7SfE1Ybsrg": {"geometry": {"location": {"lat": 51.51384059999999, "lng": -0.1639302}, "viewport": {"northeast": {"lat": 51.5151945302915, "lng": -0.162572719708498}, "southwest": {"lat": 51.5124965697085, "lng": -0.165270680291502}}}, "name": "Skiing With Heroes", "place_id": "ChIJzbWLXDUFdkgRF7SfE1Ybsrg", "types": ["point_of_interest", "establishment"]}, "ChIJQ6mYHnIFdkgRZizbMKoE5sA": {"geometry": {"location": {"lat": 51.5143229, "lng": -0.1638366}, "viewport": {"northeast": {"lat": 51.5156378302915, "lng": -0.162633919708498}, "southwest": {"lat": 51.5129398697085, "lng": -0.165331880291502}}}, "name": "Connaught Square", "place_id": "ChIJQ6mYHnIFdkgRZizbMKoE5sA", "types": ["park", "point_of_interest", "establishment"]}, "ChIJr4Ztz8QFdkgRevCpv__ctiQ": {"geometry": {"location": {"lat": 51.5146834, "lng": -0.1635725}, "viewport": {"northeast": {"lat": 51.5160200302915, "lng": -0.1622744197084979}, "southwest": {"lat": 51.51332206970851, "lng": -0.164972380291502}}}, "name": "Maroush Edgware Road parking", "place_id": "ChIJr4Ztz8QFdkgRevCpv__ctiQ", "types": ["restaurant", "food", "point_of_interest", "establishment"]}, "ChIJZ7BuRzUFdkgRvhLrO10yN2I": {"geometry": {"location": {"lat": 51.5140144, "lng": -0.1631088}, "viewport": {"northeast": {"lat": 51.5153359302915, "lng": -0.161746819708498}, "southwest": {"lat": 51.5126379697085, "lng": -0.164444780291502}}}, "name": "ubitricity Charging Station", "place_id": "ChIJZ7BuRzUFdkgRvhLrO10yN2I", "types": ["point_of_interest", "establishment"]}, "ChIJN_D-ODUFdkgRFFwYci4nO-E": {"geometry": {"location": {"lat": 51.5141016, "lng": -0.1629861}, "viewport": {"northeast": {"lat": 51.5155116802915, "lng": -0.161083619708498}, "southwest": {"lat": 51.5128137197085, "lng": -0.163781580291502}}}, "name": "HOMES BUYERS", "place_id": "ChIJN_D-ODUFdkgRFFwYci4nO-E", "types": ["finance", "point_of_interest", "establishment"], "rating": 5, "user_ratings_total": 1}, "ChIJWRT9uVIFdkgR6C6-iheRgcc": {"geometry": {"location": {"lat": 51.5142154, "lng": -0.16429}, "viewport": {"northeast": {"lat": 51.51558318029149, "lng": -0.162860069708498}, "southwest": {"lat": 51.5128852197085, "lng": -0.165558030291502}}}, "name": "Tony Blair House", "place_id": "ChIJWRT9uVIFdkgR6C6-iheRgcc", "types": ["place_of_worship", "point_of_interest", "establishment"], "rating": 1, "user_ratings_total": 1}, "ChIJVYB9bTUFdkgRkiujSGhpulg": {"geometry": {"location": {"lat": 51.51290645614936, "lng": -0.1634146515767063}, "viewport": {"northeast": {"lat": 51.5142545302915, "lng": -0.162065369708498}, "southwest": {"lat": 51.5115565697085, "lng": -0.164763330291502}}}, "name": "Hyde Park Place", "place_id": "ChIJVYB9bTUFdkgRkiujSGhpulg", "types": ["route"]}, "ChIJH1veFDUFdkgR25oCSwQ7AT0": {"geometry": {"location": {"lat": 51.5134722, "lng": -0.1631124}, "viewport": {"northeast": {"lat": 51.5148386802915, "lng": -0.161697469708498}, "southwest": {"lat": 51.5121407197085, "lng": -0.164395430291502}}}, "name": "Parkwood at Marble Arch", "place_id": "ChIJH1veFDUFdkgR25oCSwQ7AT0", "types": ["lodging", "point_of_interest", "establishment"], "rating": 4, "user_ratings_total": 135}, "ChIJV6hGbTUFdkgRQNIHELoNsTo": {"geometry": {"location": {"lat": 51.51298569999999, "lng": -0.1630851}, "viewport": {"northeast": {"lat": 51.5143293802915, "lng": -0.161734419708498}, "southwest": {"lat": 51.5116314197085, "lng": -0.164432380291502}}}, "name": "Studio Hyde Park", "place_id": "ChIJV6hGbTUFdkgRQNIHELoNsTo", "types": ["lodging", "point_of_interest", "establishment"], "rating": 1, "user_ratings_total": 1}, "ChIJT5MubzUFdkgRgY8alfbmggA": {"geometry": {"location": {"lat": 51.5130528, "lng": -0.1636121}, "viewport": {"northeast": {"lat": 51.5143179302915, "lng": -0.162245419708498}, "southwest": {"lat": 51.5116199697085, "lng": -0.164943380291502}}}, "name": "Tyburn Convent and Church - London", "place_id": "ChIJT5MubzUFdkgRgY8alfbmggA", "types": ["place_of_worship", "point_of_interest", "establishment"], "rating": 4.6, "user_ratings_total": 30}, "ChIJcWNKbDUFdkgRkVEA3bM56kY": {"geometry": {"location": {"lat": 51.5130455, "lng": -0.1633738}, "viewport": {"northeast": {"lat": 51.51433103029149, "lng": -0.162003919708498}, "southwest": {"lat": 51.5116330697085, "lng": -0.164701880291502}}}, "name": "Glenmore Homes", "place_id": "ChIJcWNKbDUFdkgRkVEA3bM56kY", "types": ["general_contractor", "point_of_interest", "establishment"]}, "ChIJq6reZDUFdkgRoX5RYHKG3ro": {"geometry": {"location": {"lat": 51.51298389999999, "lng": -0.1639609}, "viewport": {"northeast": {"lat": 51.51426348029149, "lng": -0.1625904697084979}, "southwest": {"lat": 51.5115655197085, "lng": -0.165288430291502}}}, "name": "Tomorrow's Achievers Educational Trust,", "place_id": "ChIJq6reZDUFdkgRoX5RYHKG3ro", "types": ["point_of_interest", "establishment"]}, "ChIJvw76FTUFdkgROE8Q5uSJwMU": {"geometry": {"location": {"lat": 51.5135041, "lng": -0.1628804}, "viewport": {"northeast": {"lat": 51.51484353029149, "lng": -0.161568269708498}, "southwest": {"lat": 51.51214556970849, "lng": -0.164266230291502}}}, "name": "Ines Perrin Psychologue en Fran\u00e7ais Londres", "place_id": "ChIJvw76FTUFdkgROE8Q5uSJwMU", "types": ["health", "point_of_interest", "establishment"], "rating": 5, "user_ratings_total": 1}, "ChIJp4AmQzUFdkgRV4n8Yya-vL8": {"geometry": {"location": {"lat": 51.5137327, "lng": -0.1637347}, "viewport": {"northeast": {"lat": 51.5151423302915, "lng": -0.1624071697084979}, "southwest": {"lat": 51.5124443697085, "lng": -0.165105130291502}}}, "name": "The Connaught Square NHS General Practice", "place_id": "ChIJp4AmQzUFdkgRV4n8Yya-vL8", "types": ["doctor", "health", "point_of_interest", "establishment"], "rating": 2.9, "user_ratings_total": 36}, "ChIJeyVpbjUFdkgRIc-1Gtv9GtQ": {"geometry": {"location": {"lat": 51.5131114, "lng": -0.1633283}, "viewport": {"northeast": {"lat": 51.5143680802915, "lng": -0.161948869708498}, "southwest": {"lat": 51.5116701197085, "lng": -0.164646830291502}}}, "name": "Studio Alkemi LTD", "place_id": "ChIJeyVpbjUFdkgRIc-1Gtv9GtQ", "types": ["point_of_interest", "establishment"]}, "ChIJU8isbTUFdkgR-bt9Esrv2nQ": {"geometry": {"location": {"lat": 51.5130856, "lng": -0.1632323}, "viewport": {"northeast": {"lat": 51.51435988029149, "lng": -0.161860869708498}, "southwest": {"lat": 51.51166191970849, "lng": -0.164558830291502}}}, "name": "Hyde Park Wines Limited", "place_id": "ChIJU8isbTUFdkgR-bt9Esrv2nQ", "types": ["food", "point_of_interest", "establishment"]}, "ChIJsZkc58cFdkgRvBJdPMY_8UM": {"geometry": {"location": {"lat": 51.5130856, "lng": -0.1632323}, "viewport": {"northeast": {"lat": 51.51435988029149, "lng": -0.161860869708498}, "southwest": {"lat": 51.51166191970849, "lng": -0.164558830291502}}}, "name": "Wash Doctors - We Come To You", "place_id": "ChIJsZkc58cFdkgRvBJdPMY_8UM", "types": ["car_wash", "point_of_interest", "establishment"], "rating": 4, "user_ratings_total": 5}, "ChIJ4ThElEoFdkgRlSjWUOTk5eA": {"geometry": {"location": {"lat": 51.5130856, "lng": -0.1632323}, "viewport": {"northeast": {"lat": 51.51435988029149, "lng": -0.161860869708498}, "southwest": {"lat": 51.51166191970849, "lng": -0.164558830291502}}}, "name": "Wine For Spice", "place_id": "ChIJ4ThElEoFdkgRlSjWUOTk5eA", "types": ["food", "point_of_interest", "establishment"]}, "ChIJpRZoazUFdkgRJg_cvDKDx8Y": {"geometry": {"location": {"lat": 51.5132971, "lng": -0.1631164}, "viewport": {"northeast": {"lat": 51.5146751302915, "lng": -0.161648519708498}, "southwest": {"lat": 51.5119771697085, "lng": -0.164346480291502}}}, "name": "Tom Jagodka", "place_id": "ChIJpRZoazUFdkgRJg_cvDKDx8Y", "types": ["health", "point_of_interest", "establishment"]}, "ChIJ8clOPJ4FdkgRL6WwBe-w0A8": {"geometry": {"location": {"lat": 51.51294219999999, "lng": -0.1638484}, "viewport": {"northeast": {"lat": 51.5142485302915, "lng": -0.162485619708498}, "southwest": {"lat": 51.5115505697085, "lng": -0.165183580291502}}}, "name": "Smallest House Of London", "place_id": "ChIJ8clOPJ4FdkgRL6WwBe-w0A8", "types": ["tourist_attraction", "point_of_interest", "establishment"], "rating": 5, "user_ratings_total": 3}, "ChIJfRKYZzUFdkgR1n1lUhHzYBQ": {"geometry": {"location": {"lat": 51.5135, "lng": -0.1639}, "viewport": {"northeast": {"lat": 51.5148403802915, "lng": -0.162543669708498}, "southwest": {"lat": 51.5121424197085, "lng": -0.165241630291502}}}, "name": "PodPoint Charging Station", "place_id": "ChIJfRKYZzUFdkgR1n1lUhHzYBQ", "types": ["point_of_interest", "establishment"]}, "ChIJez3HcTUFdkgRP0nzetuM8wU": {"geometry": {"location": {"lat": 51.51281909999999, "lng": -0.163345}, "viewport": {"northeast": {"lat": 51.5142151802915, "lng": -0.162007319708498}, "southwest": {"lat": 51.5115172197085, "lng": -0.164705280291502}}}, "name": "Marble Arch / Bayswater Road (Stop A)", "place_id": "ChIJez3HcTUFdkgRP0nzetuM8wU", "types": ["bus_station", "transit_station", "point_of_interest", "establishment"], "rating": 3, "user_ratings_total": 1}, "ChIJoQaMEjUFdkgRQ_N_DZJ6hrI": {"geometry": {"location": {"lat": 51.512987, "lng": -0.162859}, "viewport": {"northeast": {"lat": 51.5143556802915, "lng": -0.161516119708498}, "southwest": {"lat": 51.5116577197085, "lng": -0.164214080291502}}}, "name": "Marble Arch Bayswater Road", "place_id": "ChIJoQaMEjUFdkgRQ_N_DZJ6hrI", "types": ["transit_station", "point_of_interest", "establishment"]}, "ChIJK3Y7ezUFdkgRfKaMujMHpBw": {"geometry": {"location": {"lat": 51.51290780000001, "lng": -0.1641504}, "viewport": {"northeast": {"lat": 51.5142115302915, "lng": -0.162788019708498}, "southwest": {"lat": 51.51151356970851, "lng": -0.165485980291502}}}, "name": "Samrat Trading Limited", "place_id": "ChIJK3Y7ezUFdkgRfKaMujMHpBw", "types": ["point_of_interest", "establishment"]}, "ChIJxXxxFTUFdkgRhgHsdQEqHgw": {"geometry": {"location": {"lat": 51.5135201, "lng": -0.1628695}, "viewport": {"northeast": {"lat": 51.5148559302915, "lng": -0.161571519708498}, "southwest": {"lat": 51.5121579697085, "lng": -0.164269480291502}}}, "name": "Flagship Investments Ltd", "place_id": "ChIJxXxxFTUFdkgRhgHsdQEqHgw", "types": ["finance", "point_of_interest", "establishment"], "rating": 3, "user_ratings_total": 4}, "ChIJjzYpPjUFdkgRZQSh5MyoiLY": {"geometry": {"location": {"lat": 51.5135201, "lng": -0.1628695}, "viewport": {"northeast": {"lat": 51.5148559302915, "lng": -0.161571519708498}, "southwest": {"lat": 51.5121579697085, "lng": -0.164269480291502}}}, "name": "Elka Shipping", "place_id": "ChIJjzYpPjUFdkgRZQSh5MyoiLY", "types": ["point_of_interest", "establishment"]}, "ChIJfU4LoDUFdkgRMU3fXeaXgLQ": {"geometry": {"location": {"lat": 51.51227699665685, "lng": -0.1629137350931736}, "viewport": {"northeast": {"lat": 51.5136219302915, "lng": -0.161565419708498}, "southwest": {"lat": 51.5109239697085, "lng": -0.164263380291502}}}, "name": "North Carriage Drive", "place_id": "ChIJfU4LoDUFdkgRMU3fXeaXgLQ", "types": ["route"]}, "ChIJzYahtkoFdkgR4oh1WZZCsRo": {"geometry": {"location": {"lat": 51.51454148812321, "lng": -0.1656836813888677}, "viewport": {"northeast": {"lat": 51.51589063029149, "lng": -0.164334769708498}, "southwest": {"lat": 51.51319266970849, "lng": -0.167032730291502}}}, "name": "34-12 Connaught St", "place_id": "ChIJzYahtkoFdkgR4oh1WZZCsRo", "types": ["route"]}, "ChIJfXfrsUoFdkgR66eQTbqVkZo": {"geometry": {"location": {"lat": 51.5145121, "lng": -0.1653712}, "viewport": {"northeast": {"lat": 51.5158984802915, "lng": -0.164037819708498}, "southwest": {"lat": 51.5132005197085, "lng": -0.166735780291502}}}, "name": "Casa Malevo", "place_id": "ChIJfXfrsUoFdkgR66eQTbqVkZo", "types": ["bar", "restaurant", "food", "point_of_interest", "establishment"], "rating": 4.4, "user_ratings_total": 239}, "ChIJs0Wht0oFdkgRSw5rdWhzj2M": {"geometry": {"location": {"lat": 51.5144505, "lng": -0.1657399}, "viewport": {"northeast": {"lat": 51.5158378302915, "lng": -0.164406919708498}, "southwest": {"lat": 51.5131398697085, "lng": -0.167104880291502}}}, "name": "Rosewood Gallery Ltd", "place_id": "ChIJs0Wht0oFdkgRSw5rdWhzj2M", "types": ["home_goods_store", "point_of_interest", "store", "establishment"], "rating": 5, "user_ratings_total": 1}, "ChIJ6-o7AeccdkgRCwCUNl96y54": {"geometry": {"location": {"lat": 51.51396150000001, "lng": -0.1652154}, "viewport": {"northeast": {"lat": 51.51535028029149, "lng": -0.163862269708498}, "southwest": {"lat": 51.51265231970849, "lng": -0.166560230291502}}}, "name": "Brick Image Ltd", "place_id": "ChIJ6-o7AeccdkgRCwCUNl96y54", "types": ["general_contractor", "point_of_interest", "establishment"]}, "ChIJEbyzpEoFdkgR45lwDlx53wk": {"geometry": {"location": {"lat": 51.5139612, "lng": -0.1651996}, "viewport": {"northeast": {"lat": 51.5153498302915, "lng": -0.163846519708498}, "southwest": {"lat": 51.5126518697085, "lng": -0.166544480291502}}}, "name": "Brian Jackson Films Ltd", "place_id": "ChIJEbyzpEoFdkgR45lwDlx53wk", "types": ["point_of_interest", "establishment"]}, "ChIJi4aut0oFdkgRLiZZrlheB5E": {"geometry": {"location": {"lat": 51.5144335, "lng": -0.1658206}, "viewport": {"northeast": {"lat": 51.5158227302915, "lng": -0.164488369708498}, "southwest": {"lat": 51.5131247697085, "lng": -0.167186330291502}}}, "name": "Kashket's", "place_id": "ChIJi4aut0oFdkgRLiZZrlheB5E", "types": ["point_of_interest", "establishment"]}, "ChIJEbyzpEoFdkgRSaEI-7V2xrw": {"geometry": {"location": {"lat": 51.51396150000001, "lng": -0.1652154}, "viewport": {"northeast": {"lat": 51.51535028029149, "lng": -0.163862269708498}, "southwest": {"lat": 51.51265231970849, "lng": -0.166560230291502}}}, "name": "Brick Image", "place_id": "ChIJEbyzpEoFdkgRSaEI-7V2xrw", "types": ["general_contractor", "point_of_interest", "establishment"]}, "ChIJea1hrEoFdkgRIpq9OQhFrLs": {"geometry": {"location": {"lat": 51.51478639999999, "lng": -0.1649582}, "viewport": {"northeast": {"lat": 51.51610583029149, "lng": -0.163646019708498}, "southwest": {"lat": 51.51340786970849, "lng": -0.166343980291502}}}, "name": "Connaught Kitchens Ltd - Bespoke design using LEICHT kitchens", "place_id": "ChIJea1hrEoFdkgRIpq9OQhFrLs", "types": ["furniture_store", "home_goods_store", "point_of_interest", "store", "establishment"], "rating": 5, "user_ratings_total": 1}, "ChIJu19QtkoFdkgRjPbpmGyyUzI": {"geometry": {"location": {"lat": 51.5144335, "lng": -0.1658205}, "viewport": {"northeast": {"lat": 51.5158227302915, "lng": -0.164488319708498}, "southwest": {"lat": 51.5131247697085, "lng": -0.167186280291502}}}, "name": "The London Dandy", "place_id": "ChIJu19QtkoFdkgRjPbpmGyyUzI", "types": ["point_of_interest", "establishment"], "rating": 5, "user_ratings_total": 2}, "ChIJsV9QtkoFdkgR6JcEviEKjBU": {"geometry": {"location": {"lat": 51.5144335, "lng": -0.1658206}, "viewport": {"northeast": {"lat": 51.5158227302915, "lng": -0.164488369708498}, "southwest": {"lat": 51.5131247697085, "lng": -0.167186330291502}}}, "name": "Menswear Buyers Club", "place_id": "ChIJsV9QtkoFdkgR6JcEviEKjBU", "types": ["point_of_interest", "clothing_store", "store", "establishment"], "rating": 5, "user_ratings_total": 3}, "ChIJqQhMpGkFdkgR9Un37UG6-dQ": {"geometry": {"location": {"lat": 51.514597, "lng": -0.165667}, "viewport": {"northeast": {"lat": 51.51592698029149, "lng": -0.164310119708498}, "southwest": {"lat": 51.5132290197085, "lng": -0.167008080291502}}}, "name": "Duncan & Namara", "place_id": "ChIJqQhMpGkFdkgR9Un37UG6-dQ", "types": ["point_of_interest", "clothing_store", "store", "establishment"], "rating": 5, "user_ratings_total": 1}, "ChIJ4_o2BdUEdkgRTVk0JSwAVBE": {"geometry": {"location": {"lat": 51.514597, "lng": -0.165667}, "viewport": {"northeast": {"lat": 51.51592698029149, "lng": -0.164310119708498}, "southwest": {"lat": 51.5132290197085, "lng": -0.167008080291502}}}, "name": "Connaught Village", "place_id": "ChIJ4_o2BdUEdkgRTVk0JSwAVBE", "types": ["real_estate_agency", "point_of_interest", "establishment"], "rating": 4.9, "user_ratings_total": 10}, "ChIJB9dbqkoFdkgRWwg61jNKupc": {"geometry": {"location": {"lat": 51.5146685, "lng": -0.1654815}, "viewport": {"northeast": {"lat": 51.5159732802915, "lng": -0.164114069708498}, "southwest": {"lat": 51.51327531970851, "lng": -0.1668120302915021}}}, "name": "Lucy Choi London", "place_id": "ChIJB9dbqkoFdkgRWwg61jNKupc", "types": ["shoe_store", "point_of_interest", "store", "establishment"], "rating": 4.8, "user_ratings_total": 16}, "ChIJb5-7qkoFdkgRf3sYtXgNQVQ": {"geometry": {"location": {"lat": 51.5146749, "lng": -0.165575}, "viewport": {"northeast": {"lat": 51.5159695802915, "lng": -0.164203369708498}, "southwest": {"lat": 51.5132716197085, "lng": -0.166901330291502}}}, "name": "Lyon & Turnbull", "place_id": "ChIJb5-7qkoFdkgRf3sYtXgNQVQ", "types": ["point_of_interest", "establishment"], "rating": 4, "user_ratings_total": 9}, "ChIJi4aut0oFdkgRgCRro4AChUc": {"geometry": {"location": {"lat": 51.5143687, "lng": -0.165939}, "viewport": {"northeast": {"lat": 51.5157793302915, "lng": -0.164615719708498}, "southwest": {"lat": 51.5130813697085, "lng": -0.167313680291502}}}, "name": "SousVideTools", "place_id": "ChIJi4aut0oFdkgRgCRro4AChUc", "types": ["furniture_store", "home_goods_store", "point_of_interest", "store", "establishment"], "rating": 1.9, "user_ratings_total": 9}, "ChIJ1e2QtkoFdkgR-p-X8uGvGGw": {"geometry": {"location": {"lat": 51.51468250000001, "lng": -0.1656676}, "viewport": {"northeast": {"lat": 51.5159649302915, "lng": -0.164302069708498}, "southwest": {"lat": 51.5132669697085, "lng": -0.167000030291502}}}, "name": "The Park Gallery", "place_id": "ChIJ1e2QtkoFdkgR-p-X8uGvGGw", "types": ["art_gallery", "point_of_interest", "establishment"], "rating": 5, "user_ratings_total": 2}, "ChIJ18k6uUoFdkgRsTK7zkAn1Q4": {"geometry": {"location": {"lat": 51.51395160000001, "lng": -0.1657346}, "viewport": {"northeast": {"lat": 51.5153799302915, "lng": -0.164327719708498}, "southwest": {"lat": 51.5126819697085, "lng": -0.167025680291502}}}, "name": "Masala Monsoon Ltd", "place_id": "ChIJ18k6uUoFdkgRsTK7zkAn1Q4", "types": ["point_of_interest", "establishment"]}, "ChIJK6EyyEoFdkgRYZoy2rdqm1o": {"geometry": {"location": {"lat": 51.51439389999999, "lng": -0.1660159}, "viewport": {"northeast": {"lat": 51.51578688029149, "lng": -0.1646852697084979}, "southwest": {"lat": 51.51308891970849, "lng": -0.167383230291502}}}, "name": "Hyde Park Removals", "place_id": "ChIJK6EyyEoFdkgRYZoy2rdqm1o", "types": ["point_of_interest", "establishment"]}, "ChIJB9hYiNQadkgRTVtgc14Jul8": {"geometry": {"location": {"lat": 51.514426, "lng": -0.1658811}, "viewport": {"northeast": {"lat": 51.5158141302915, "lng": -0.164548469708498}, "southwest": {"lat": 51.5131161697085, "lng": -0.167246430291502}}}, "name": "Medicetics", "place_id": "ChIJB9hYiNQadkgRTVtgc14Jul8", "types": ["beauty_salon", "hair_care", "spa", "doctor", "health", "point_of_interest", "establishment"], "rating": 4.3, "user_ratings_total": 14}, "ChIJcdEhskoFdkgRNlIHnExQQgQ": {"geometry": {"location": {"lat": 51.51471189999999, "lng": -0.1653809}, "viewport": {"northeast": {"lat": 51.5160039302915, "lng": -0.164008169708498}, "southwest": {"lat": 51.5133059697085, "lng": -0.166706130291502}}}, "name": "Assal", "place_id": "ChIJcdEhskoFdkgRNlIHnExQQgQ", "types": ["convenience_store", "food", "point_of_interest", "store", "establishment"], "rating": 4.1, "user_ratings_total": 55}, "ChIJWZorrEoFdkgRapK-3c8fdVI": {"geometry": {"location": {"lat": 51.5145636, "lng": -0.1650331}, "viewport": {"northeast": {"lat": 51.5159516302915, "lng": -0.1637004697084979}, "southwest": {"lat": 51.5132536697085, "lng": -0.166398430291502}}}, "name": "Markus Coffee", "place_id": "ChIJWZorrEoFdkgRapK-3c8fdVI", "types": ["food", "point_of_interest", "store", "establishment"], "rating": 4.8, "user_ratings_total": 52}, "ChIJtywztkoFdkgRA81xT5iA88E": {"geometry": {"location": {"lat": 51.5144777, "lng": -0.1655657}, "viewport": {"northeast": {"lat": 51.5158654802915, "lng": -0.164232919708498}, "southwest": {"lat": 51.5131675197085, "lng": -0.166930880291502}}}, "name": "Pardis Restaurant", "place_id": "ChIJtywztkoFdkgRA81xT5iA88E", "types": ["restaurant", "food", "point_of_interest", "establishment"], "rating": 4, "user_ratings_total": 135}, "ChIJ-X8WrkoFdkgR0FVdih_WoP0": {"geometry": {"location": {"lat": 51.51454439999999, "lng": -0.1651088}, "viewport": {"northeast": {"lat": 51.5159356802915, "lng": -0.163777719708498}, "southwest": {"lat": 51.5132377197085, "lng": -0.166475680291502}}}, "name": "Hair & Beauty At 17", "place_id": "ChIJ-X8WrkoFdkgR0FVdih_WoP0", "types": ["hair_care", "point_of_interest", "establishment"], "rating": 5, "user_ratings_total": 1}, "ChIJ6wXGukoFdkgRSGnqu1JRiBw": {"geometry": {"location": {"lat": 51.5141334, "lng": -0.1652805}, "viewport": {"northeast": {"lat": 51.5154377802915, "lng": -0.163935619708498}, "southwest": {"lat": 51.5127398197085, "lng": -0.166633580291502}}}, "name": "Amir Zarandouz", "place_id": "ChIJ6wXGukoFdkgRSGnqu1JRiBw", "types": ["point_of_interest", "establishment"], "rating": 5, "user_ratings_total": 5}, "ChIJ6wXGukoFdkgRO6oAiZ-TgK0": {"geometry": {"location": {"lat": 51.5141334, "lng": -0.1652805}, "viewport": {"northeast": {"lat": 51.5154377802915, "lng": -0.163935619708498}, "southwest": {"lat": 51.5127398197085, "lng": -0.166633580291502}}}, "name": "WiWy Ltd", "place_id": "ChIJ6wXGukoFdkgRO6oAiZ-TgK0", "types": ["point_of_interest", "establishment"], "rating": 5, "user_ratings_total": 2}, "ChIJc7TBsUoFdkgRZqnMAz1oQTE": {"geometry": {"location": {"lat": 51.51447460000001, "lng": -0.1653134}, "viewport": {"northeast": {"lat": 51.5158829302915, "lng": -0.163989169708498}, "southwest": {"lat": 51.5131849697085, "lng": -0.166687130291502}}}, "name": "Me & Em Ltd", "place_id": "ChIJc7TBsUoFdkgRZqnMAz1oQTE", "types": ["clothing_store", "point_of_interest", "store", "establishment"]}, "ChIJBccVrkoFdkgRERI7LUxjseo": {"geometry": {"location": {"lat": 51.51448800000001, "lng": -0.16516}, "viewport": {"northeast": {"lat": 51.5159016802915, "lng": -0.163838469708498}, "southwest": {"lat": 51.51320371970851, "lng": -0.166536430291502}}}, "name": "Chargemaster Charging Station", "place_id": "ChIJBccVrkoFdkgRERI7LUxjseo", "types": ["point_of_interest", "establishment"]}, "ChIJQ9UWsUoFdkgRbhKF34VzOEg": {"geometry": {"location": {"lat": 51.51445, "lng": -0.1654871}, "viewport": {"northeast": {"lat": 51.5158567302915, "lng": -0.164162169708498}, "southwest": {"lat": 51.5131587697085, "lng": -0.166860130291502}}}, "name": "Mind The Gap Consulting Ltd.", "place_id": "ChIJQ9UWsUoFdkgRbhKF34VzOEg", "types": ["point_of_interest", "establishment"]}, "ChIJp3QfQRwbdkgR6uSbStzbwqA": {"geometry": {"location": {"lat": 51.5145089, "lng": -0.1654098}, "viewport": {"northeast": {"lat": 51.5158938802915, "lng": -0.164075819708498}, "southwest": {"lat": 51.5131959197085, "lng": -0.166773780291502}}}, "name": "Circus 25", "place_id": "ChIJp3QfQRwbdkgR6uSbStzbwqA", "types": ["furniture_store", "home_goods_store", "point_of_interest", "store", "establishment"], "rating": 4.3, "user_ratings_total": 6}, "ChIJj-fliOYRdkgRQmbFpgPXsxM": {"geometry": {"location": {"lat": 51.5145089, "lng": -0.1654098}, "viewport": {"northeast": {"lat": 51.5158938802915, "lng": -0.164075819708498}, "southwest": {"lat": 51.5131959197085, "lng": -0.166773780291502}}}, "name": "Tackler", "place_id": "ChIJj-fliOYRdkgRQmbFpgPXsxM", "types": ["point_of_interest", "establishment"]}, "ChIJe1APrkoFdkgRtJnse3dec7U": {"geometry": {"location": {"lat": 51.5145402, "lng": -0.1651861}, "viewport": {"northeast": {"lat": 51.5159274802915, "lng": -0.163853319708498}, "southwest": {"lat": 51.5132295197085, "lng": -0.166551280291502}}}, "name": "Kokoro London", "place_id": "ChIJe1APrkoFdkgRtJnse3dec7U", "types": ["point_of_interest", "clothing_store", "store", "establishment"], "rating": 4.3, "user_ratings_total": 8}, "ChIJF36IrkoFdkgR3mLNa1cBa1Y": {"geometry": {"location": {"lat": 51.51452130000001, "lng": -0.1650391}, "viewport": {"northeast": {"lat": 51.5159286802915, "lng": -0.1637145697084979}, "southwest": {"lat": 51.5132307197085, "lng": -0.166412530291502}}}, "name": "Eliza Jane Howell", "place_id": "ChIJF36IrkoFdkgR3mLNa1cBa1Y", "types": ["point_of_interest", "clothing_store", "store", "establishment"], "rating": 5, "user_ratings_total": 6}, "ChIJF36IrkoFdkgRnP4JKdxlDgs": {"geometry": {"location": {"lat": 51.51452130000001, "lng": -0.1650391}, "viewport": {"northeast": {"lat": 51.5159286802915, "lng": -0.1637145697084979}, "southwest": {"lat": 51.5132307197085, "lng": -0.166412530291502}}}, "name": "Gill Harvey", "place_id": "ChIJF36IrkoFdkgRnP4JKdxlDgs", "types": ["point_of_interest", "clothing_store", "store", "establishment"]}, "ChIJ-X8WrkoFdkgRbYtgpOG-4Wc": {"geometry": {"location": {"lat": 51.51452130000001, "lng": -0.1650391}, "viewport": {"northeast": {"lat": 51.5159286802915, "lng": -0.1637145697084979}, "southwest": {"lat": 51.5132307197085, "lng": -0.166412530291502}}}, "name": "Macedonian Airways Ltd", "place_id": "ChIJ-X8WrkoFdkgRbYtgpOG-4Wc", "types": ["point_of_interest", "establishment"]}, "ChIJ76R4Wf8FdkgRRgip5XP5Maw": {"geometry": {"location": {"lat": 51.51454439999999, "lng": -0.1651088}, "viewport": {"northeast": {"lat": 51.5159356802915, "lng": -0.163777719708498}, "southwest": {"lat": 51.5132377197085, "lng": -0.166475680291502}}}, "name": "Cashmirino Connaught Village Store London", "place_id": "ChIJ76R4Wf8FdkgRRgip5XP5Maw", "types": ["point_of_interest", "clothing_store", "store", "establishment"]}, "ChIJE0BiUbUadkgR-9pse0UcBr0": {"geometry": {"location": {"lat": 51.5144499, "lng": -0.1656487}, "viewport": {"northeast": {"lat": 51.5158444302915, "lng": -0.164318719708498}, "southwest": {"lat": 51.5131464697085, "lng": -0.167016680291502}}}, "name": "TestNex", "place_id": "ChIJE0BiUbUadkgR-9pse0UcBr0", "types": ["point_of_interest", "establishment"]}, "ChIJp1b3l-L9gwERfOLLNoky8BI": {"geometry": {"location": {"lat": 51.5145376, "lng": -0.1649379}, "viewport": {"northeast": {"lat": 51.5159450302915, "lng": -0.163613369708498}, "southwest": {"lat": 51.5132470697085, "lng": -0.166311330291502}}}, "name": "YUZEN - Japanese Green Tea", "place_id": "ChIJp1b3l-L9gwERfOLLNoky8BI", "types": ["food", "point_of_interest", "store", "establishment"], "rating": 5, "user_ratings_total": 33}, "ChIJsy2ltkoFdkgRSkZ8MZQIAJk": {"geometry": {"location": {"lat": 51.514511, "lng": -0.165652}, "viewport": {"northeast": {"lat": 51.51586288029149, "lng": -0.164304219708498}, "southwest": {"lat": 51.5131649197085, "lng": -0.167002180291502}}}, "name": "The Place London Men", "place_id": "ChIJsy2ltkoFdkgRSkZ8MZQIAJk", "types": ["point_of_interest", "clothing_store", "store", "establishment"], "rating": 4.3, "user_ratings_total": 7}, "ChIJdXcTyEoFdkgRWxvXJBs68ro": {"geometry": {"location": {"lat": 51.514394, "lng": -0.166016}, "viewport": {"northeast": {"lat": 51.5157869302915, "lng": -0.164685369708498}, "southwest": {"lat": 51.5130889697085, "lng": -0.167383330291502}}}, "name": "Masgouf - \u0645\u0637\u0639\u0645 \u0645\u0633\u0643\u0648\u0641", "place_id": "ChIJdXcTyEoFdkgRWxvXJBs68ro", "types": ["restaurant", "food", "point_of_interest", "establishment"], "rating": 4.1, "user_ratings_total": 370}, "ChIJTwUGrEoFdkgRDNBjSzve8Z8": {"geometry": {"location": {"lat": 51.5145783, "lng": -0.1648828}, "viewport": {"northeast": {"lat": 51.5159455302915, "lng": -0.163524069708498}, "southwest": {"lat": 51.5132475697085, "lng": -0.166222030291502}}}, "name": "The Times", "place_id": "ChIJTwUGrEoFdkgRDNBjSzve8Z8", "types": ["point_of_interest", "establishment"]}, "ChIJnVQMrQIQdkgRX0SGtrt1zKE": {"geometry": {"location": {"lat": 51.51443399999999, "lng": -0.165821}, "viewport": {"northeast": {"lat": 51.5158229302915, "lng": -0.164488669708498}, "southwest": {"lat": 51.51312496970851, "lng": -0.167186630291502}}}, "name": "Dorothy Circus Gallery London", "place_id": "ChIJnVQMrQIQdkgRX0SGtrt1zKE", "types": ["art_gallery", "point_of_interest", "establishment"], "rating": 4.9, "user_ratings_total": 20}, "ChIJAVkpskoFdkgRCbXkeWTUw6s": {"geometry": {"location": {"lat": 51.51467749999999, "lng": -0.1654122}, "viewport": {"northeast": {"lat": 51.51598328029149, "lng": -0.1640452197084979}, "southwest": {"lat": 51.51328531970849, "lng": -0.166743180291502}}}, "name": "Soho Carpet Cleaners", "place_id": "ChIJAVkpskoFdkgRCbXkeWTUw6s", "types": ["laundry", "point_of_interest", "establishment"], "rating": 4, "user_ratings_total": 1}, "ChIJlY0HrEoFdkgRMzHcix9R9sY": {"geometry": {"location": {"lat": 51.5145669, "lng": -0.1647576}, "viewport": {"northeast": {"lat": 51.5159738302915, "lng": -0.163431619708498}, "southwest": {"lat": 51.51327586970851, "lng": -0.166129580291502}}}, "name": "Connaught Carpets", "place_id": "ChIJlY0HrEoFdkgRMzHcix9R9sY", "types": ["home_goods_store", "point_of_interest", "store", "establishment"], "rating": 5, "user_ratings_total": 1}, "ChIJVzAkyPcFdkgREAyoRfhdE-8": {"geometry": {"location": {"lat": 51.5146673, "lng": -0.1649421}, "viewport": {"northeast": {"lat": 51.5160192302915, "lng": -0.163572069708498}, "southwest": {"lat": 51.5133212697085, "lng": -0.166270030291502}}}, "name": "Edgware Road parking", "place_id": "ChIJVzAkyPcFdkgREAyoRfhdE-8", "types": ["lodging", "point_of_interest", "establishment"]}, "ChIJlY-0mNoFdkgRN5KN6RZS5Mg": {"geometry": {"location": {"lat": 51.51472080000001, "lng": -0.1652947}, "viewport": {"northeast": {"lat": 51.51601533029151, "lng": -0.1639226697084979}, "southwest": {"lat": 51.51331736970851, "lng": -0.166620630291502}}}, "name": "Crane Hire Westbourne Green", "place_id": "ChIJlY-0mNoFdkgRN5KN6RZS5Mg", "types": ["point_of_interest", "establishment"]}, "ChIJF8fZRDEFdkgRN8gMw5OtI-A": {"geometry": {"location": {"lat": 51.5147217, "lng": -0.165237}, "viewport": {"northeast": {"lat": 51.51610218029149, "lng": -0.163828919708498}, "southwest": {"lat": 51.5134042197085, "lng": -0.166526880291502}}}, "name": "Rob and Nick Carter - Wavelength in Two Parts Nein Installation, 2020", "place_id": "ChIJF8fZRDEFdkgRN8gMw5OtI-A", "types": ["art_gallery", "point_of_interest", "establishment"]}, "ChIJNQBktkoFdkgRAZPj8yAY7P0": {"geometry": {"location": {"lat": 51.51463400000001, "lng": -0.165804}, "viewport": {"northeast": {"lat": 51.51593053029151, "lng": -0.164433169708498}, "southwest": {"lat": 51.51323256970851, "lng": -0.167131130291502}}}, "name": "Ritva Westenius", "place_id": "ChIJNQBktkoFdkgRAZPj8yAY7P0", "types": ["point_of_interest", "clothing_store", "store", "establishment"], "rating": 5, "user_ratings_total": 3}, "ChIJ7z0W4-AFdkgRz6m94uyiXSU": {"geometry": {"location": {"lat": 51.5143687, "lng": -0.165939}, "viewport": {"northeast": {"lat": 51.5157793302915, "lng": -0.164615719708498}, "southwest": {"lat": 51.5130813697085, "lng": -0.167313680291502}}}, "name": "The Sharpening Shed", "place_id": "ChIJ7z0W4-AFdkgRz6m94uyiXSU", "types": ["point_of_interest", "store", "establishment"], "rating": 5, "user_ratings_total": 1}, "ChIJeyF1cAMFdkgRHzb4rZeBCrY": {"geometry": {"location": {"lat": 51.5146848, "lng": -0.1655747}, "viewport": {"northeast": {"lat": 51.5159748802915, "lng": -0.164201169708498}, "southwest": {"lat": 51.5132769197085, "lng": -0.166899130291502}}}, "name": "Simon Carter", "place_id": "ChIJeyF1cAMFdkgRHzb4rZeBCrY", "types": ["point_of_interest", "clothing_store", "store", "establishment"]}, "ChIJcQV0rUoFdkgRWlBPAXGfTlg": {"geometry": {"location": {"lat": 51.514746, "lng": -0.165164}, "viewport": {"northeast": {"lat": 51.5161047802915, "lng": -0.163796669708498}, "southwest": {"lat": 51.5134068197085, "lng": -0.166494630291502}}}, "name": "Santander Cycles", "place_id": "ChIJcQV0rUoFdkgRWlBPAXGfTlg", "types": ["point_of_interest", "establishment"], "rating": 3, "user_ratings_total": 4}, "ChIJ18k6uUoFdkgR7JZCTnHkNOk": {"geometry": {"location": {"lat": 51.51395160000001, "lng": -0.1657346}, "viewport": {"northeast": {"lat": 51.5153799302915, "lng": -0.164327719708498}, "southwest": {"lat": 51.5126819697085, "lng": -0.167025680291502}}}, "name": "Software Box Limited", "place_id": "ChIJ18k6uUoFdkgR7JZCTnHkNOk", "types": ["point_of_interest", "establishment"]}, "ChIJXSB6dJ0FdkgR6YcAg_JeRYE": {"geometry": {"location": {"lat": 51.51395160000001, "lng": -0.1657346}, "viewport": {"northeast": {"lat": 51.5153799302915, "lng": -0.164327719708498}, "southwest": {"lat": 51.5126819697085, "lng": -0.167025680291502}}}, "name": "mcafee.com/activate", "place_id": "ChIJXSB6dJ0FdkgR6YcAg_JeRYE", "types": ["point_of_interest", "establishment"]}, "ChIJG8g85fYFdkgRTrY71THzNH8": {"geometry": {"location": {"lat": 51.51468310000001, "lng": -0.1656886}, "viewport": {"northeast": {"lat": 51.5159653802915, "lng": -0.164311819708498}, "southwest": {"lat": 51.51326741970851, "lng": -0.167009780291502}}}, "name": "Signia Invest", "place_id": "ChIJG8g85fYFdkgRTrY71THzNH8", "types": ["finance", "point_of_interest", "establishment"]}, "ChIJHXjeyUoFdkgRIdXGELdjysA": {"geometry": {"location": {"lat": 51.5145777, "lng": -0.1659794}, "viewport": {"northeast": {"lat": 51.5158873302915, "lng": -0.164614019708498}, "southwest": {"lat": 51.5131893697085, "lng": -0.167311980291502}}}, "name": "Bourlet - Fine Art Framing & Restoration", "place_id": "ChIJHXjeyUoFdkgRIdXGELdjysA", "types": ["point_of_interest", "store", "establishment"], "rating": 5, "user_ratings_total": 4}, "ChIJF_PRyUoFdkgRoSql9jGgXRw": {"geometry": {"location": {"lat": 51.51442, "lng": -0.16601}, "viewport": {"northeast": {"lat": 51.5158012302915, "lng": -0.164674469708498}, "southwest": {"lat": 51.5131032697085, "lng": -0.167372430291502}}}, "name": "Chargemaster Charging Station", "place_id": "ChIJF_PRyUoFdkgRoSql9jGgXRw", "types": ["point_of_interest", "establishment"]}, "ChIJqTXCtUoFdkgRxlYo39DVBVg": {"geometry": {"location": {"lat": 51.51461920000001, "lng": -0.1658678}, "viewport": {"northeast": {"lat": 51.5159178302915, "lng": -0.164497819708498}, "southwest": {"lat": 51.5132198697085, "lng": -0.167195780291502}}}, "name": "KINDARE", "place_id": "ChIJqTXCtUoFdkgRxlYo39DVBVg", "types": ["point_of_interest", "establishment"], "rating": 4, "user_ratings_total": 1}, "ChIJVUZFhEoFdkgRKLB1jgcJsUE": {"geometry": {"location": {"lat": 51.51271635049346, "lng": -0.1651041002202559}, "viewport": {"northeast": {"lat": 51.5140653302915, "lng": -0.163755119708498}, "southwest": {"lat": 51.5113673697085, "lng": -0.166453080291502}}}, "name": "Hyde Park Place", "place_id": "ChIJVUZFhEoFdkgRKLB1jgcJsUE", "types": ["route"]}, "ChIJlYN6WDUFdkgRYXQA7nAOTaQ": {"geometry": {"location": {"lat": 51.5135067, "lng": -0.1649247}, "viewport": {"northeast": {"lat": 51.5150055802915, "lng": -0.163298319708498}, "southwest": {"lat": 51.5123076197085, "lng": -0.165996280291502}}}, "name": "J L Enterprises", "place_id": "ChIJlYN6WDUFdkgRYXQA7nAOTaQ", "types": ["general_contractor", "point_of_interest", "establishment"]}, "ChIJ18k6uUoFdkgRNeBcGQYTvSg": {"geometry": {"location": {"lat": 51.5136566, "lng": -0.1653849}, "viewport": {"northeast": {"lat": 51.5152002802915, "lng": -0.164013169708498}, "southwest": {"lat": 51.5125023197085, "lng": -0.166711130291502}}}, "name": "St Georges Fields Ltd", "place_id": "ChIJ18k6uUoFdkgRNeBcGQYTvSg", "types": ["point_of_interest", "establishment"], "rating": 4.4, "user_ratings_total": 12}, "ChIJU3zEpbMFdkgRpAbN7uSj_Ek": {"geometry": {"location": {"lat": 51.51312000000001, "lng": -0.1654203}, "viewport": {"northeast": {"lat": 51.51446898029152, "lng": -0.164071319708498}, "southwest": {"lat": 51.51177101970852, "lng": -0.166769280291502}}}, "name": "South Rise", "place_id": "ChIJU3zEpbMFdkgRpAbN7uSj_Ek", "types": ["point_of_interest", "establishment"]}, "ChIJH6oWkUoFdkgRzz4Y4JXLQ3Q": {"geometry": {"location": {"lat": 51.5131473, "lng": -0.1654787}, "viewport": {"northeast": {"lat": 51.5144962802915, "lng": -0.164129719708498}, "southwest": {"lat": 51.5117983197085, "lng": -0.166827680291502}}}, "name": "Status Cymbal String Quartet", "place_id": "ChIJH6oWkUoFdkgRzz4Y4JXLQ3Q", "types": ["night_club", "electronics_store", "home_goods_store", "bar", "point_of_interest", "store", "establishment"], "rating": 5, "user_ratings_total": 3}, "ChIJH6oWkUoFdkgRYXuAVTGJQ5o": {"geometry": {"location": {"lat": 51.5131473, "lng": -0.1654787}, "viewport": {"northeast": {"lat": 51.5144962802915, "lng": -0.164129719708498}, "southwest": {"lat": 51.5117983197085, "lng": -0.166827680291502}}}, "name": "Paul Appleyard", "place_id": "ChIJH6oWkUoFdkgRYXuAVTGJQ5o", "types": ["school", "point_of_interest", "establishment"]}, "ChIJ4ThElEoFdkgRIHIf2Mfetbg": {"geometry": {"location": {"lat": 51.51335779999999, "lng": -0.1657152}, "viewport": {"northeast": {"lat": 51.51467788029149, "lng": -0.1645974197084979}, "southwest": {"lat": 51.51197991970849, "lng": -0.167295380291502}}}, "name": "WSM Wordsworth Limited", "place_id": "ChIJ4ThElEoFdkgRIHIf2Mfetbg", "types": ["point_of_interest", "establishment"]}, "ChIJ4ThElEoFdkgRi4KJqVpfcN8": {"geometry": {"location": {"lat": 51.51335779999999, "lng": -0.1657152}, "viewport": {"northeast": {"lat": 51.51467788029149, "lng": -0.1645974197084979}, "southwest": {"lat": 51.51197991970849, "lng": -0.167295380291502}}}, "name": "English Tuition", "place_id": "ChIJ4ThElEoFdkgRi4KJqVpfcN8", "types": ["point_of_interest", "establishment"]}, "ChIJc0aCxA8FdkgRAMapPgvXXac": {"geometry": {"location": {"lat": 51.51328969999999, "lng": -0.1647395}, "viewport": {"northeast": {"lat": 51.51489708029149, "lng": -0.163205719708498}, "southwest": {"lat": 51.51219911970849, "lng": -0.165903680291502}}}, "name": "Growth Service Center", "place_id": "ChIJc0aCxA8FdkgRAMapPgvXXac", "types": ["point_of_interest", "establishment"]}, "ChIJmVwZVHwFdkgRkpLHQfZJZ90": {"geometry": {"location": {"lat": 51.5135807, "lng": -0.1652539}, "viewport": {"northeast": {"lat": 51.5150490802915, "lng": -0.163466769708498}, "southwest": {"lat": 51.5123511197085, "lng": -0.166164730291502}}}, "name": "St George's Communal Gardens", "place_id": "ChIJmVwZVHwFdkgRkpLHQfZJZ90", "types": ["park", "point_of_interest", "establishment"]}, "ChIJ4Q91l8IFdkgRGj-Pf4LPvng": {"geometry": {"location": {"lat": 51.5133683, "lng": -0.1646917}, "viewport": {"northeast": {"lat": 51.51493638029149, "lng": -0.163181819708498}, "southwest": {"lat": 51.5122384197085, "lng": -0.165879780291502}}}, "name": "Archery Steps, St George's Fields", "place_id": "ChIJ4Q91l8IFdkgRGj-Pf4LPvng", "types": ["point_of_interest", "establishment"]}, "ChIJxbdnhUoFdkgRw-p7oXzVczs": {"geometry": {"location": {"lat": 51.5128303, "lng": -0.1651843}, "viewport": {"northeast": {"lat": 51.5141199802915, "lng": -0.163822069708498}, "southwest": {"lat": 51.5114220197085, "lng": -0.166520030291502}}}, "name": "Tensor", "place_id": "ChIJxbdnhUoFdkgRw-p7oXzVczs", "types": ["point_of_interest", "establishment"], "rating": 5, "user_ratings_total": 1}, "ChIJF6aIL98FdkgR36p411iZKkI": {"geometry": {"location": {"lat": 51.5134141, "lng": -0.164676}, "viewport": {"northeast": {"lat": 51.5149592802915, "lng": -0.163173969708498}, "southwest": {"lat": 51.5122613197085, "lng": -0.165871930291502}}}, "name": "The Niajithia Group", "place_id": "ChIJF6aIL98FdkgR36p411iZKkI", "types": ["electrician", "point_of_interest", "establishment"]}, "ChIJM_DrhEoFdkgRYNhLDgtq2c0": {"geometry": {"location": {"lat": 51.5128206, "lng": -0.1649678}, "viewport": {"northeast": {"lat": 51.5141229302915, "lng": -0.163606419708498}, "southwest": {"lat": 51.5114249697085, "lng": -0.166304380291502}}}, "name": "Kijang City FC", "place_id": "ChIJM_DrhEoFdkgRYNhLDgtq2c0", "types": ["point_of_interest", "establishment"]}, "ChIJ8zeU0EoFdkgRai48bhgnPDw": {"geometry": {"location": {"lat": 51.5143251500005, "lng": -0.166971250000295}, "viewport": {"northeast": {"lat": 51.51567413029149, "lng": -0.165622269708498}, "southwest": {"lat": 51.51297616970849, "lng": -0.168320230291502}}}, "name": "59 Connaught St", "place_id": "ChIJ8zeU0EoFdkgRai48bhgnPDw", "types": ["route"]}, "ChIJTyBj0EoFdkgRn55pl1Vror4": {"geometry": {"location": {"lat": 51.5142248, "lng": -0.16676}, "viewport": {"northeast": {"lat": 51.5155640802915, "lng": -0.165506419708498}, "southwest": {"lat": 51.51286611970851, "lng": -0.168204380291502}}}, "name": "Hyde Park Estate Agents - Berkshire Hathaway HomeServices Kay & Co", "place_id": "ChIJTyBj0EoFdkgRn55pl1Vror4", "types": ["finance", "real_estate_agency", "point_of_interest", "establishment"], "rating": 4.8, "user_ratings_total": 23}, "ChIJM5Pfy0oFdkgRUnkthyniNLk": {"geometry": {"location": {"lat": 51.5145443, "lng": -0.1662853}, "viewport": {"northeast": {"lat": 51.5158467802915, "lng": -0.164914519708498}, "southwest": {"lat": 51.5131488197085, "lng": -0.1676124802915021}}}, "name": "Duke of Kendal", "place_id": "ChIJM5Pfy0oFdkgRUnkthyniNLk", "types": ["bar", "point_of_interest", "establishment"], "rating": 4.2, "user_ratings_total": 511}, "ChIJR-bu0UoFdkgRAuQDH-jjQ_g": {"geometry": {"location": {"lat": 51.51454439999999, "lng": -0.1667085}, "viewport": {"northeast": {"lat": 51.5158804302915, "lng": -0.165320869708498}, "southwest": {"lat": 51.5131824697085, "lng": -0.168018830291502}}}, "name": "Connaught Home Interiors Limited", "place_id": "ChIJR-bu0UoFdkgRAuQDH-jjQ_g", "types": ["home_goods_store", "general_contractor", "point_of_interest", "store", "establishment"]}, "ChIJ1REI0EoFdkgR1fzGYK-oxHE": {"geometry": {"location": {"lat": 51.5142357, "lng": -0.1667528}, "viewport": {"northeast": {"lat": 51.51564293029151, "lng": -0.165428169708498}, "southwest": {"lat": 51.51294496970851, "lng": -0.168126130291502}}}, "name": "Delyss", "place_id": "ChIJ1REI0EoFdkgR1fzGYK-oxHE", "types": ["home_goods_store", "point_of_interest", "store", "establishment"]}, "ChIJYWMiCbMadkgRlz9otj8pOKw": {"geometry": {"location": {"lat": 51.5146731, "lng": -0.1666753}, "viewport": {"northeast": {"lat": 51.5159586802915, "lng": -0.165252419708498}, "southwest": {"lat": 51.5132607197085, "lng": -0.167950380291502}}}, "name": "Medicspot Clinic Paddington", "place_id": "ChIJYWMiCbMadkgRlz9otj8pOKw", "types": ["hospital", "doctor", "health", "point_of_interest", "establishment"], "rating": 5, "user_ratings_total": 5}, "ChIJ1xiT0UoFdkgRAiOcsZMekCs": {"geometry": {"location": {"lat": 51.514556, "lng": -0.1669238}, "viewport": {"northeast": {"lat": 51.51586458029149, "lng": -0.165428519708498}, "southwest": {"lat": 51.51316661970849, "lng": -0.168126480291502}}}, "name": "Le Pain Quotidien", "place_id": "ChIJ1xiT0UoFdkgRAiOcsZMekCs", "types": ["restaurant", "bakery", "cafe", "food", "point_of_interest", "store", "establishment"], "rating": 4.2, "user_ratings_total": 273}, "ChIJy62HxUoFdkgRS3RZEIe0lQk": {"geometry": {"location": {"lat": 51.5143327, "lng": -0.1664504}, "viewport": {"northeast": {"lat": 51.51571903029149, "lng": -0.165118569708498}, "southwest": {"lat": 51.5130210697085, "lng": -0.167816530291502}}}, "name": "PM Flowers", "place_id": "ChIJy62HxUoFdkgRS3RZEIe0lQk", "types": ["florist", "point_of_interest", "store", "establishment"], "rating": 4.6, "user_ratings_total": 43}, "ChIJwQUHEdMFdkgR3TDKFDMK36Y": {"geometry": {"location": {"lat": 51.5143239, "lng": -0.166982}, "viewport": {"northeast": {"lat": 51.5156728802915, "lng": -0.165633019708498}, "southwest": {"lat": 51.5129749197085, "lng": -0.168330980291502}}}, "name": "Alessia Prostate Massage", "place_id": "ChIJwQUHEdMFdkgR3TDKFDMK36Y", "types": ["point_of_interest", "establishment"]}, "ChIJP7C54igFdkgRucLdKu8bVsI": {"geometry": {"location": {"lat": 51.5142532, "lng": -0.1669665}, "viewport": {"northeast": {"lat": 51.5156074302915, "lng": -0.165566069708498}, "southwest": {"lat": 51.5129094697085, "lng": -0.1682640302915021}}}, "name": "The Margraf Group", "place_id": "ChIJP7C54igFdkgRucLdKu8bVsI", "types": ["general_contractor", "point_of_interest", "establishment"]}, "ChIJ7ZLwcgwFdkgR-rwGnQifFaM": {"geometry": {"location": {"lat": 51.5142357, "lng": -0.1667528}, "viewport": {"northeast": {"lat": 51.51564293029151, "lng": -0.165428169708498}, "southwest": {"lat": 51.51294496970851, "lng": -0.168126130291502}}}, "name": "Global Health Assured", "place_id": "ChIJ7ZLwcgwFdkgR-rwGnQifFaM", "types": ["point_of_interest", "establishment"]}, "ChIJ1REI0EoFdkgRM8grW0GxIoE": {"geometry": {"location": {"lat": 51.5142357, "lng": -0.1667528}, "viewport": {"northeast": {"lat": 51.51564293029151, "lng": -0.165428169708498}, "southwest": {"lat": 51.51294496970851, "lng": -0.168126130291502}}}, "name": "Saint Aymes", "place_id": "ChIJ1REI0EoFdkgRM8grW0GxIoE", "types": ["food", "point_of_interest", "establishment"], "rating": 4.7, "user_ratings_total": 3}, "ChIJ1REI0EoFdkgRGw-9cfFHZCY": {"geometry": {"location": {"lat": 51.5142357, "lng": -0.1667528}, "viewport": {"northeast": {"lat": 51.51564293029151, "lng": -0.165428169708498}, "southwest": {"lat": 51.51294496970851, "lng": -0.168126130291502}}}, "name": "Saint Aymes", "place_id": "ChIJ1REI0EoFdkgRGw-9cfFHZCY", "types": ["cafe", "food", "point_of_interest", "store", "establishment"], "rating": 3.9, "user_ratings_total": 441}, "ChIJB6dCz0oFdkgReIaGIZDeYxo": {"geometry": {"location": {"lat": 51.51428680000001, "lng": -0.1666674}, "viewport": {"northeast": {"lat": 51.5156764802915, "lng": -0.165337119708498}, "southwest": {"lat": 51.51297851970851, "lng": -0.168035080291502}}}, "name": "Abasto - Wine & Empanadas", "place_id": "ChIJB6dCz0oFdkgReIaGIZDeYxo", "types": ["liquor_store", "restaurant", "food", "point_of_interest", "store", "establishment"], "rating": 4.2, "user_ratings_total": 255}, "ChIJ-eL4z0oFdkgReoNZO-lW2ck": {"geometry": {"location": {"lat": 51.51424230000001, "lng": -0.166673}, "viewport": {"northeast": {"lat": 51.5156522802915, "lng": -0.165350869708498}, "southwest": {"lat": 51.51295431970851, "lng": -0.168048830291502}}}, "name": "CONNAUGHT MANAGEMENT", "place_id": "ChIJ-eL4z0oFdkgReoNZO-lW2ck", "types": ["point_of_interest", "establishment"]}, "ChIJIT0jdp8FdkgRbmMH-1TD8Ws": {"geometry": {"location": {"lat": 51.5145393, "lng": -0.1667613000000001}, "viewport": {"northeast": {"lat": 51.5158578302915, "lng": -0.165370619708498}, "southwest": {"lat": 51.5131598697085, "lng": -0.1680685802915021}}}, "name": "fettle Hyde Park (formerly Handlebars)", "place_id": "ChIJIT0jdp8FdkgRbmMH-1TD8Ws", "types": ["point_of_interest", "establishment"], "rating": 4.9, "user_ratings_total": 97}, "ChIJ76xRy0oFdkgRH8AZRs_ze7o": {"geometry": {"location": {"lat": 51.5145618, "lng": -0.1666987}, "viewport": {"northeast": {"lat": 51.5158985802915, "lng": -0.165288769708498}, "southwest": {"lat": 51.5132006197085, "lng": -0.167986730291502}}}, "name": "Crispins Food & Wine Shop", "place_id": "ChIJ76xRy0oFdkgRH8AZRs_ze7o", "types": ["convenience_store", "food", "point_of_interest", "store", "establishment"], "rating": 2.5, "user_ratings_total": 12}, "ChIJnzAhTGMFdkgRLxDVTS4Ytoo": {"geometry": {"location": {"lat": 51.51448959999999, "lng": -0.1665237}, "viewport": {"northeast": {"lat": 51.5158513802915, "lng": -0.165189619708498}, "southwest": {"lat": 51.5131534197085, "lng": -0.167887580291502}}}, "name": "Connaught Tree of Love", "place_id": "ChIJnzAhTGMFdkgRLxDVTS4Ytoo", "types": ["park", "point_of_interest", "establishment"], "rating": 5, "user_ratings_total": 3}, "ChIJdcKp3EoFdkgRlAVcQ32SWEs": {"geometry": {"location": {"lat": 51.5139005, "lng": -0.1667307}, "viewport": {"northeast": {"lat": 51.5152427302915, "lng": -0.165451219708498}, "southwest": {"lat": 51.5125447697085, "lng": -0.168149180291502}}}, "name": "Future Fabrics Limited", "place_id": "ChIJdcKp3EoFdkgRlAVcQ32SWEs", "types": ["point_of_interest", "establishment"]}, "ChIJA83Ki3YFdkgRKYudBJCV1MI": {"geometry": {"location": {"lat": 51.51465460000001, "lng": -0.1666126}, "viewport": {"northeast": {"lat": 51.5159555302915, "lng": -0.165207619708498}, "southwest": {"lat": 51.51325756970851, "lng": -0.167905580291502}}}, "name": "Connaught Dry Cleaners", "place_id": "ChIJA83Ki3YFdkgRKYudBJCV1MI", "types": ["laundry", "point_of_interest", "establishment"]}, "ChIJ6axRy0oFdkgRPA58ofIFLJo": {"geometry": {"location": {"lat": 51.51465460000001, "lng": -0.1666126}, "viewport": {"northeast": {"lat": 51.5159609302915, "lng": -0.165195669708498}, "southwest": {"lat": 51.5132629697085, "lng": -0.167893630291502}}}, "name": "Hogg & Son Pharmacy", "place_id": "ChIJ6axRy0oFdkgRPA58ofIFLJo", "types": ["pharmacy", "health", "point_of_interest", "store", "establishment"], "rating": 4.3, "user_ratings_total": 12}, "ChIJ96Oob9MFdkgRRPB6x-kfvW8": {"geometry": {"location": {"lat": 51.5140778, "lng": -0.166312}, "viewport": {"northeast": {"lat": 51.5154023802915, "lng": -0.1649599697084979}, "southwest": {"lat": 51.5127044197085, "lng": -0.167657930291502}}}, "name": "Miss Daisy's Nursery School, Hyde Park", "place_id": "ChIJ96Oob9MFdkgRRPB6x-kfvW8", "types": ["school", "point_of_interest", "establishment"]}, "ChIJPfnmyEoFdkgR5BKfqUkGekY": {"geometry": {"location": {"lat": 51.5143675, "lng": -0.1662316}, "viewport": {"northeast": {"lat": 51.5157559302915, "lng": -0.164901119708498}, "southwest": {"lat": 51.5130579697085, "lng": -0.167599080291502}}}, "name": "LEGATION STRATEGIES", "place_id": "ChIJPfnmyEoFdkgR5BKfqUkGekY", "types": ["point_of_interest", "establishment"]}, "ChIJU5JZyUoFdkgR3KAjJsBkfTs": {"geometry": {"location": {"lat": 51.5145443, "lng": -0.1662853}, "viewport": {"northeast": {"lat": 51.5158467802915, "lng": -0.164914519708498}, "southwest": {"lat": 51.5131488197085, "lng": -0.1676124802915021}}}, "name": "The Connaught Square Squirrel Hunt Limited", "place_id": "ChIJU5JZyUoFdkgR3KAjJsBkfTs", "types": ["point_of_interest", "establishment"]}, "ChIJHUy06EoFdkgRnfiy2NEtfDM": {"geometry": {"location": {"lat": 51.51326099999999, "lng": -0.166619}, "viewport": {"northeast": {"lat": 51.5146061802915, "lng": -0.165307269708498}, "southwest": {"lat": 51.5119082197085, "lng": -0.168005230291502}}}, "name": "ubitricity Charging Station", "place_id": "ChIJHUy06EoFdkgRnfiy2NEtfDM", "types": ["point_of_interest", "establishment"]}, "ChIJze-Q50oFdkgRVRfZd_21HFY": {"geometry": {"location": {"lat": 51.5135539, "lng": -0.1669819}, "viewport": {"northeast": {"lat": 51.5149125802915, "lng": -0.165537219708498}, "southwest": {"lat": 51.5122146197085, "lng": -0.168235180291502}}}, "name": "The Digital Board", "place_id": "ChIJze-Q50oFdkgRVRfZd_21HFY", "types": ["point_of_interest", "establishment"]}, "ChIJ__8P-0oFdkgRdhpQJer9UQQ": {"geometry": {"location": {"lat": 51.5127949, "lng": -0.1669252}, "viewport": {"northeast": {"lat": 51.51416063029149, "lng": -0.165410419708498}, "southwest": {"lat": 51.5114626697085, "lng": -0.168108380291502}}}, "name": "Removal Companies Paddington Ltd", "place_id": "ChIJ__8P-0oFdkgRdhpQJer9UQQ", "types": ["moving_company", "point_of_interest", "establishment"]}, "ChIJEQff60oFdkgRWVnz-56qQqU": {"geometry": {"location": {"lat": 51.51334029999999, "lng": -0.1663212}, "viewport": {"northeast": {"lat": 51.51469713029149, "lng": -0.164909469708498}, "southwest": {"lat": 51.51199916970849, "lng": -0.167607430291502}}}, "name": "Aries ADP", "place_id": "ChIJEQff60oFdkgRWVnz-56qQqU", "types": ["point_of_interest", "establishment"]}, "ChIJEQff60oFdkgRiB66ZCRAP1w": {"geometry": {"location": {"lat": 51.51334029999999, "lng": -0.1663212}, "viewport": {"northeast": {"lat": 51.51469713029149, "lng": -0.164909469708498}, "southwest": {"lat": 51.51199916970849, "lng": -0.167607430291502}}}, "name": "Harry Flower", "place_id": "ChIJEQff60oFdkgRiB66ZCRAP1w", "types": ["point_of_interest", "establishment"]}, "ChIJGUaW9UsFdkgR-r0GdfbeEIs": {"geometry": {"location": {"lat": 51.51363139999999, "lng": -0.1665757}, "viewport": {"northeast": {"lat": 51.5150115302915, "lng": -0.165233369708498}, "southwest": {"lat": 51.5123135697085, "lng": -0.167931330291502}}}, "name": "Lucie Rie Blue Plaque", "place_id": "ChIJGUaW9UsFdkgR-r0GdfbeEIs", "types": ["point_of_interest", "establishment"], "rating": 5, "user_ratings_total": 1}, "ChIJDVlPAqgFdkgR6P1iOfRuN4w": {"geometry": {"location": {"lat": 51.5137102, "lng": -0.166975}, "viewport": {"northeast": {"lat": 51.51506628029151, "lng": -0.165552919708498}, "southwest": {"lat": 51.51236831970851, "lng": -0.168250880291502}}}, "name": "Charles Vyner Brooke Blue Plaque", "place_id": "ChIJDVlPAqgFdkgR6P1iOfRuN4w", "types": ["point_of_interest", "establishment"], "rating": 3, "user_ratings_total": 1}, "ChIJS5EI-UoFdkgR0gE1pUa5Xh4": {"geometry": {"location": {"lat": 51.51247000000001, "lng": -0.166893}, "viewport": {"northeast": {"lat": 51.5138529802915, "lng": -0.1653584697084979}, "southwest": {"lat": 51.5111550197085, "lng": -0.168056430291502}}}, "name": "Hyde Park Street (Stop B)", "place_id": "ChIJS5EI-UoFdkgR0gE1pUa5Xh4", "types": ["bus_station", "transit_station", "point_of_interest", "establishment"], "rating": 5, "user_ratings_total": 1}, "ChIJ7-kYWMoadkgR9tJjg_AiRQk": {"geometry": {"location": {"lat": 51.5147134, "lng": -0.1610036}, "viewport": {"northeast": {"lat": 51.5160492302915, "lng": -0.159701019708498}, "southwest": {"lat": 51.5133512697085, "lng": -0.162398980291502}}}, "name": "Donostia Restaurant", "place_id": "ChIJ7-kYWMoadkgR9tJjg_AiRQk", "types": ["bar", "restaurant", "food", "point_of_interest", "establishment"], "rating": 4.5, "user_ratings_total": 289}, "ChIJN5ER0zQFdkgR4XSbNAB-9yU": {"geometry": {"location": {"lat": 51.514755, "lng": -0.1610237}, "viewport": {"northeast": {"lat": 51.51613408029149, "lng": -0.159694819708498}, "southwest": {"lat": 51.51343611970849, "lng": -0.162392780291502}}}, "name": "The Carpenters Arms", "place_id": "ChIJN5ER0zQFdkgR4XSbNAB-9yU", "types": ["bar", "point_of_interest", "establishment"], "rating": 4.3, "user_ratings_total": 513}, "ChIJU_ND0jQFdkgRQGp98dBa4Uk": {"geometry": {"location": {"lat": 51.5146899, "lng": -0.1609999}, "viewport": {"northeast": {"lat": 51.51603223029149, "lng": -0.159693719708498}, "southwest": {"lat": 51.51333426970849, "lng": -0.162391680291502}}}, "name": "Lemongrass Boutique Spa", "place_id": "ChIJU_ND0jQFdkgRQGp98dBa4Uk", "types": ["beauty_salon", "spa", "point_of_interest", "establishment"], "rating": 4.3, "user_ratings_total": 69}, "ChIJKQFZ0jQFdkgR_gQHBCImFbw": {"geometry": {"location": {"lat": 51.5147134, "lng": -0.1610036}, "viewport": {"northeast": {"lat": 51.5160548802915, "lng": -0.159702819708498}, "southwest": {"lat": 51.5133569197085, "lng": -0.162400780291502}}}, "name": "Stephanie's Boutique", "place_id": "ChIJKQFZ0jQFdkgR_gQHBCImFbw", "types": ["health", "point_of_interest", "store", "establishment"]}, "ChIJZcEh1TQFdkgRPF1n6b7cXSY": {"geometry": {"location": {"lat": 51.5148252, "lng": -0.1613167}, "viewport": {"northeast": {"lat": 51.51618688029149, "lng": -0.159892719708498}, "southwest": {"lat": 51.51348891970849, "lng": -0.162590680291502}}}, "name": "Lila\u2019s Laundrette", "place_id": "ChIJZcEh1TQFdkgRPF1n6b7cXSY", "types": ["point_of_interest", "establishment"], "rating": 2.8, "user_ratings_total": 52}, "ChIJZcEh1TQFdkgRWg84O0xXxNs": {"geometry": {"location": {"lat": 51.5148252, "lng": -0.1613167}, "viewport": {"northeast": {"lat": 51.51618688029149, "lng": -0.159892719708498}, "southwest": {"lat": 51.51348891970849, "lng": -0.162590680291502}}}, "name": "Equity IT", "place_id": "ChIJZcEh1TQFdkgRWg84O0xXxNs", "types": ["electronics_store", "point_of_interest", "store", "establishment"]}, "ChIJ9wtE9MoadkgRqASUVGpSIC4": {"geometry": {"location": {"lat": 51.5145917, "lng": -0.160963}, "viewport": {"northeast": {"lat": 51.5159343802915, "lng": -0.1596545197084979}, "southwest": {"lat": 51.5132364197085, "lng": -0.162352480291502}}}, "name": "GAIL's Bakery Seymour Place", "place_id": "ChIJ9wtE9MoadkgRqASUVGpSIC4", "types": ["bakery", "meal_delivery", "grocery_or_supermarket", "cafe", "restaurant", "food", "point_of_interest", "store", "establishment"], "rating": 4.3, "user_ratings_total": 352}, "ChIJlX71APkzcEER0khIPL6fVxQ": {"geometry": {"location": {"lat": 51.5148109, "lng": -0.1615227}, "viewport": {"northeast": {"lat": 51.5161227302915, "lng": -0.1601495697084979}, "southwest": {"lat": 51.5134247697085, "lng": -0.162847530291502}}}, "name": "Walton Wagner", "place_id": "ChIJlX71APkzcEER0khIPL6fVxQ", "types": ["real_estate_agency", "point_of_interest", "establishment"], "rating": 5, "user_ratings_total": 2}, "ChIJaVn7R9IadkgRE2ohzL-Sb0U": {"geometry": {"location": {"lat": 51.5146513, "lng": -0.1611706}, "viewport": {"northeast": {"lat": 51.51600563029151, "lng": -0.159787419708498}, "southwest": {"lat": 51.51330766970851, "lng": -0.162485380291502}}}, "name": "Thompson's Gallery", "place_id": "ChIJaVn7R9IadkgRE2ohzL-Sb0U", "types": ["art_gallery", "point_of_interest", "establishment"], "rating": 4.7, "user_ratings_total": 16}, "ChIJs1jI0zQFdkgRYYWdKIlbing": {"geometry": {"location": {"lat": 51.5146523, "lng": -0.1609492}, "viewport": {"northeast": {"lat": 51.51599153029151, "lng": -0.159662919708498}, "southwest": {"lat": 51.51329356970851, "lng": -0.162360880291502}}}, "name": "FrenchWorldOnline.co", "place_id": "ChIJs1jI0zQFdkgRYYWdKIlbing", "types": ["point_of_interest", "establishment"]}, "ChIJX7971DQFdkgRoutcebVl_Yk": {"geometry": {"location": {"lat": 51.514706, "lng": -0.161218}, "viewport": {"northeast": {"lat": 51.5160633302915, "lng": -0.159815369708498}, "southwest": {"lat": 51.5133653697085, "lng": -0.162513330291502}}}, "name": "London Grace", "place_id": "ChIJX7971DQFdkgRoutcebVl_Yk", "types": ["beauty_salon", "point_of_interest", "establishment"], "rating": 4.6, "user_ratings_total": 141}, "ChIJTRpX1DQFdkgR7HKaZl_kRWw": {"geometry": {"location": {"lat": 51.5147219, "lng": -0.1612466}, "viewport": {"northeast": {"lat": 51.5160808302915, "lng": -0.159833519708498}, "southwest": {"lat": 51.5133828697085, "lng": -0.162531480291502}}}, "name": "Lurra", "place_id": "ChIJTRpX1DQFdkgR7HKaZl_kRWw", "types": ["restaurant", "food", "point_of_interest", "establishment"], "rating": 4.4, "user_ratings_total": 351}, "ChIJW8iM0zQFdkgRa9XsrUa96Kk": {"geometry": {"location": {"lat": 51.514653, "lng": -0.1611599}, "viewport": {"northeast": {"lat": 51.51600563029151, "lng": -0.159787419708498}, "southwest": {"lat": 51.51330766970851, "lng": -0.162485380291502}}}, "name": "Louis Laprise", "place_id": "ChIJW8iM0zQFdkgRa9XsrUa96Kk", "types": ["point_of_interest", "establishment"]}, "ChIJi6_FBbIFdkgRZLyuebCWzS0": {"geometry": {"location": {"lat": 51.51462979999999, "lng": -0.1611785}, "viewport": {"northeast": {"lat": 51.5159863302915, "lng": -0.1597816697084979}, "southwest": {"lat": 51.5132883697085, "lng": -0.162479630291502}}}, "name": "Seymour Store", "place_id": "ChIJi6_FBbIFdkgRZLyuebCWzS0", "types": ["grocery_or_supermarket", "food", "point_of_interest", "store", "establishment"], "rating": 5, "user_ratings_total": 3}, "ChIJAzgYy-IbdkgRC2ky9MJ6_dI": {"geometry": {"location": {"lat": 51.5145862, "lng": -0.1612135}, "viewport": {"northeast": {"lat": 51.51594668029149, "lng": -0.159790369708498}, "southwest": {"lat": 51.5132487197085, "lng": -0.162488330291502}}}, "name": "iPhone Repair, iPhone support and services, Mobile phone data transfers, Samsung Mobile phone repairs", "place_id": "ChIJAzgYy-IbdkgRC2ky9MJ6_dI", "types": ["point_of_interest", "establishment"], "rating": 5, "user_ratings_total": 1}, "ChIJ5y0K2XsbdkgR-sD_dOLNkZM": {"geometry": {"location": {"lat": 51.5145716, "lng": -0.1611841}, "viewport": {"northeast": {"lat": 51.51593038029149, "lng": -0.159772869708498}, "southwest": {"lat": 51.51323241970849, "lng": -0.162470830291502}}}, "name": "Computeritnet. Computer Repair, Laptop Repair, MacBook Pro Repair, iMac Repair, Data Recovery, North, Mayfair, Central London", "place_id": "ChIJ5y0K2XsbdkgR-sD_dOLNkZM", "types": ["point_of_interest", "establishment"], "rating": 4.7, "user_ratings_total": 65}, "ChIJZ9sx2TQFdkgRf_Po6iZoCCI": {"geometry": {"location": {"lat": 51.51394940058479, "lng": -0.1612746980735365}, "viewport": {"northeast": {"lat": 51.5152983802915, "lng": -0.159925719708498}, "southwest": {"lat": 51.51260041970851, "lng": -0.162623680291502}}}, "name": "7-11 A5", "place_id": "ChIJZ9sx2TQFdkgRf_Po6iZoCCI", "types": ["route"]}, "ChIJdTYLGTUFdkgRtpXzJTXwqWE": {"geometry": {"location": {"lat": 51.5134846, "lng": -0.160967}, "viewport": {"northeast": {"lat": 51.5149225302915, "lng": -0.159729669708498}, "southwest": {"lat": 51.5122245697085, "lng": -0.162427630291502}}}, "name": "Signia", "place_id": "ChIJdTYLGTUFdkgRtpXzJTXwqWE", "types": ["finance", "point_of_interest", "establishment"]}, "ChIJ5dUFACUbdkgRxDGGesjzj6Q": {"geometry": {"location": {"lat": 51.51362700000001, "lng": -0.161179}, "viewport": {"northeast": {"lat": 51.5149805302915, "lng": -0.159831769708498}, "southwest": {"lat": 51.5122825697085, "lng": -0.162529730291502}}}, "name": "Low & Bonar PLC", "place_id": "ChIJ5dUFACUbdkgRxDGGesjzj6Q", "types": ["finance", "point_of_interest", "establishment"], "rating": 4, "user_ratings_total": 1}, "ChIJm8Wm5zQFdkgR4-E2xqS7uIM": {"geometry": {"location": {"lat": 51.513478, "lng": -0.1609833}, "viewport": {"northeast": {"lat": 51.5149192302915, "lng": -0.159737819708498}, "southwest": {"lat": 51.5122212697085, "lng": -0.162435780291502}}}, "name": "UK Agricultural Finance", "place_id": "ChIJm8Wm5zQFdkgR4-E2xqS7uIM", "types": ["point_of_interest", "establishment"]}, "ChIJ-aWG3zQFdkgRUyNjcCFLyys": {"geometry": {"location": {"lat": 51.5137672, "lng": -0.1615382}, "viewport": {"northeast": {"lat": 51.51500243029149, "lng": -0.160449269708498}, "southwest": {"lat": 51.51230446970849, "lng": -0.163147230291502}}}, "name": "Hunter Boot Ltd", "place_id": "ChIJ-aWG3zQFdkgRUyNjcCFLyys", "types": ["point_of_interest", "establishment"], "rating": 1.5, "user_ratings_total": 22}, "ChIJe_zwHjUFdkgRdxPd0L2fo7M": {"geometry": {"location": {"lat": 51.513478, "lng": -0.1609834}, "viewport": {"northeast": {"lat": 51.5149192302915, "lng": -0.159737869708498}, "southwest": {"lat": 51.5122212697085, "lng": -0.162435830291502}}}, "name": "Fleetway", "place_id": "ChIJe_zwHjUFdkgRdxPd0L2fo7M", "types": ["point_of_interest", "establishment"], "rating": 4.3, "user_ratings_total": 1080}, "ChIJfxIYskoFdkgRhlWR4IuibYU": {"geometry": {"location": {"lat": 51.5136493, "lng": -0.1612156}, "viewport": {"northeast": {"lat": 51.5149765302915, "lng": -0.159858219708498}, "southwest": {"lat": 51.5122785697085, "lng": -0.162556180291502}}}, "name": "dara5", "place_id": "ChIJfxIYskoFdkgRhlWR4IuibYU", "types": ["finance", "point_of_interest", "establishment"]}, "ChIJE0ZWEQAFdkgRKGtnDoXCo3g": {"geometry": {"location": {"lat": 51.513478, "lng": -0.1609834}, "viewport": {"northeast": {"lat": 51.5149192302915, "lng": -0.159737869708498}, "southwest": {"lat": 51.5122212697085, "lng": -0.162435830291502}}}, "name": "Cabot Square Capital LLP", "place_id": "ChIJE0ZWEQAFdkgRKGtnDoXCo3g", "types": ["finance", "point_of_interest", "establishment"]}, "ChIJe_zwHjUFdkgRwMS2m8J0wrQ": {"geometry": {"location": {"lat": 51.513478, "lng": -0.1609834}, "viewport": {"northeast": {"lat": 51.5149192302915, "lng": -0.159737869708498}, "southwest": {"lat": 51.5122212697085, "lng": -0.162435830291502}}}, "name": "Regionalfeed.Co.Uk", "place_id": "ChIJe_zwHjUFdkgRwMS2m8J0wrQ", "types": ["point_of_interest", "establishment"]}, "ChIJNWTQ3jQFdkgRGDY4XcnkN9U": {"geometry": {"location": {"lat": 51.51393289999999, "lng": -0.1613339}, "viewport": {"northeast": {"lat": 51.51529668029149, "lng": -0.159965569708498}, "southwest": {"lat": 51.5125987197085, "lng": -0.162663530291502}}}, "name": "Marble Arch / Edgware Road (Stop E)", "place_id": "ChIJNWTQ3jQFdkgRGDY4XcnkN9U", "types": ["transit_station", "point_of_interest", "establishment"], "rating": 4, "user_ratings_total": 1}, "ChIJF9Qby8oadkgRtjV0c2GYV7Q": {"geometry": {"location": {"lat": 51.51468715114152, "lng": -0.1623406962293508}, "viewport": {"northeast": {"lat": 51.5160361302915, "lng": -0.1609917197084979}, "southwest": {"lat": 51.5133381697085, "lng": -0.163689680291502}}}, "name": "15-43 A5", "place_id": "ChIJF9Qby8oadkgRtjV0c2GYV7Q", "types": ["route"]}, "ChIJkcP2NDUFdkgRHkvLen6BTE8": {"geometry": {"location": {"lat": 51.51471189999999, "lng": -0.1627687}, "viewport": {"northeast": {"lat": 51.5161214302915, "lng": -0.161319719708498}, "southwest": {"lat": 51.5134234697085, "lng": -0.164017680291502}}}, "name": "Milad One Ltd", "place_id": "ChIJkcP2NDUFdkgRHkvLen6BTE8", "types": ["finance", "point_of_interest", "establishment"], "rating": 5, "user_ratings_total": 2}, "ChIJ2yKSMzUFdkgRklsP3F-rL1U": {"geometry": {"location": {"lat": 51.5146671, "lng": -0.1626082}, "viewport": {"northeast": {"lat": 51.5160625802915, "lng": -0.1611824697084979}, "southwest": {"lat": 51.5133646197085, "lng": -0.163880430291502}}}, "name": "Hertz - London - Paddington Railway Station", "place_id": "ChIJ2yKSMzUFdkgRklsP3F-rL1U", "types": ["car_rental", "point_of_interest", "establishment"], "rating": 4, "user_ratings_total": 4}, "ChIJEaEJMTUFdkgRk-bgyHni1aI": {"geometry": {"location": {"lat": 51.5148222, "lng": -0.1629028}, "viewport": {"northeast": {"lat": 51.51622578029149, "lng": -0.161463669708498}, "southwest": {"lat": 51.5135278197085, "lng": -0.164161630291502}}}, "name": "Ranoush Juice", "place_id": "ChIJEaEJMTUFdkgRk-bgyHni1aI", "types": ["restaurant", "food", "point_of_interest", "establishment"], "rating": 4, "user_ratings_total": 903}, "ChIJA1q2MzUFdkgRRnlKBJ_0HwA": {"geometry": {"location": {"lat": 51.5146692, "lng": -0.1626061}, "viewport": {"northeast": {"lat": 51.51606383029149, "lng": -0.161181719708498}, "southwest": {"lat": 51.51336586970849, "lng": -0.163879680291502}}}, "name": "Hertz - London - Marble Arch (Central London)", "place_id": "ChIJA1q2MzUFdkgRRnlKBJ_0HwA", "types": ["car_rental", "point_of_interest", "establishment"], "rating": 2.9, "user_ratings_total": 333}, "ChIJEaEJMTUFdkgR_tGyXmlg0fM": {"geometry": {"location": {"lat": 51.5147243, "lng": -0.1626857}, "viewport": {"northeast": {"lat": 51.5161178802915, "lng": -0.1612630197084979}, "southwest": {"lat": 51.5134199197085, "lng": -0.163960980291502}}}, "name": "Arabic Centre", "place_id": "ChIJEaEJMTUFdkgR_tGyXmlg0fM", "types": ["book_store", "point_of_interest", "store", "establishment"], "rating": 3.4, "user_ratings_total": 7}, "ChIJ-yayQz8FdkgRZsJN1tHk9tw": {"geometry": {"location": {"lat": 51.5147933, "lng": -0.1627793}, "viewport": {"northeast": {"lat": 51.5161846802915, "lng": -0.161360269708498}, "southwest": {"lat": 51.5134867197085, "lng": -0.164058230291502}}}, "name": "Genius Gadget", "place_id": "ChIJ-yayQz8FdkgRZsJN1tHk9tw", "types": ["point_of_interest", "store", "establishment"]}, "ChIJw2ypySYFdkgRif52aaNq1BM": {"geometry": {"location": {"lat": 51.5147933, "lng": -0.1627793}, "viewport": {"northeast": {"lat": 51.5161846802915, "lng": -0.161360269708498}, "southwest": {"lat": 51.5134867197085, "lng": -0.164058230291502}}}, "name": "Beauty Therapy by Rosa", "place_id": "ChIJw2ypySYFdkgRif52aaNq1BM", "types": ["beauty_salon", "hair_care", "spa", "point_of_interest", "establishment"], "rating": 5, "user_ratings_total": 1}, "ChIJz4ViuA4FdkgR6vjDsA_z-oE": {"geometry": {"location": {"lat": 51.5147933, "lng": -0.1627793}, "viewport": {"northeast": {"lat": 51.5161846802915, "lng": -0.161360269708498}, "southwest": {"lat": 51.5134867197085, "lng": -0.164058230291502}}}, "name": "Mobile & vapes", "place_id": "ChIJz4ViuA4FdkgR6vjDsA_z-oE", "types": ["point_of_interest", "store", "establishment"]}, "ChIJ9bVstMoadkgR0351aSpojyo": {"geometry": {"location": {"lat": 51.5147933, "lng": -0.1627793}, "viewport": {"northeast": {"lat": 51.5161846802915, "lng": -0.161360269708498}, "southwest": {"lat": 51.5134867197085, "lng": -0.164058230291502}}}, "name": "Alrasheed Pharmacy", "place_id": "ChIJ9bVstMoadkgR0351aSpojyo", "types": ["pharmacy", "health", "point_of_interest", "store", "establishment"]}, "ChIJ6TPdNDUFdkgRe4hkHnBGRYs": {"geometry": {"location": {"lat": 51.5148068, "lng": -0.1628231}, "viewport": {"northeast": {"lat": 51.51620173029149, "lng": -0.161398269708498}, "southwest": {"lat": 51.51350376970849, "lng": -0.164096230291502}}}, "name": "Istore", "place_id": "ChIJ6TPdNDUFdkgRe4hkHnBGRYs", "types": ["electronics_store", "point_of_interest", "store", "establishment"], "rating": 5, "user_ratings_total": 1}, "ChIJ84ex8bkadkgRXlf0rHtqB8s": {"geometry": {"location": {"lat": 51.514792, "lng": -0.162823}, "viewport": {"northeast": {"lat": 51.5161904802915, "lng": -0.161392219708498}, "southwest": {"lat": 51.5134925197085, "lng": -0.164090180291502}}}, "name": "Fluufy", "place_id": "ChIJ84ex8bkadkgRXlf0rHtqB8s", "types": ["point_of_interest", "store", "establishment"], "rating": 5, "user_ratings_total": 1}, "ChIJiRZDk6IFdkgRQ-AI1CyYTzY": {"geometry": {"location": {"lat": 51.5147662, "lng": -0.1628325}, "viewport": {"northeast": {"lat": 51.51617243029151, "lng": -0.161388919708498}, "southwest": {"lat": 51.51347446970851, "lng": -0.164086880291502}}}, "name": "Vape39", "place_id": "ChIJiRZDk6IFdkgRQ-AI1CyYTzY", "types": ["point_of_interest", "store", "establishment"]}, "ChIJr6AM5RIFdkgRhjEy2mVlzFc": {"geometry": {"location": {"lat": 51.51472080000001, "lng": -0.1627277}, "viewport": {"northeast": {"lat": 51.51612178029151, "lng": -0.161292819708498}, "southwest": {"lat": 51.51342381970851, "lng": -0.163990780291502}}}, "name": "Masgouf", "place_id": "ChIJr6AM5RIFdkgRhjEy2mVlzFc", "types": ["restaurant", "food", "point_of_interest", "establishment"], "rating": 4, "user_ratings_total": 39}, "ChIJxwGSNDUFdkgRAvwH-wCgNIQ": {"geometry": {"location": {"lat": 51.51475399999999, "lng": -0.1628335}, "viewport": {"northeast": {"lat": 51.51616338029149, "lng": -0.161384769708498}, "southwest": {"lat": 51.51346541970849, "lng": -0.164082730291502}}},