{"E00023657": {"ChIJ14fzOTsFdkgRQ3Uijy9hRqE": {"geometry": {"location": {"lat": 51.50071931402731, "lng": -0.153457014953209}, "viewport": {"northeast": {"lat": 51.5020682302915, "lng": -0.152102269708498}, "southwest": {"lat": 51.4993702697085, "lng": -0.154800230291502}}}, "name": "Grosvenor Crescent", "place_id": "ChIJ14fzOTsFdkgRQ3Uijy9hRqE", "types": ["route"]}, "ChIJV9OnyCQFdkgRWbLDZd7A8Ng": {"geometry": {"location": {"lat": 51.5007826, "lng": -0.1520507}, "viewport": {"northeast": {"lat": 51.5021746302915, "lng": -0.150768769708498}, "southwest": {"lat": 51.4994766697085, "lng": -0.153466730291502}}}, "name": "COMO The Halkin, London", "place_id": "ChIJV9OnyCQFdkgRWbLDZd7A8Ng", "types": ["lodging", "bar", "restaurant", "food", "point_of_interest", "establishment"], "rating": 4.7, "user_ratings_total": 260}, "ChIJSw7xMDsFdkgR45B6NLCxCDw": {"geometry": {"location": {"lat": 51.5009881, "lng": -0.1531615}, "viewport": {"northeast": {"lat": 51.5023600802915, "lng": -0.151961269708498}, "southwest": {"lat": 51.4996621197085, "lng": -0.154659230291502}}}, "name": "Embassy of Belgium", "place_id": "ChIJSw7xMDsFdkgR45B6NLCxCDw", "types": ["embassy", "point_of_interest", "establishment"], "rating": 3.1, "user_ratings_total": 145}, "ChIJLSqkNTsFdkgR-E7f93qBohc": {"geometry": {"location": {"lat": 51.5006742, "lng": -0.1528405}, "viewport": {"northeast": {"lat": 51.5019713802915, "lng": -0.151414419708498}, "southwest": {"lat": 51.49927341970851, "lng": -0.154112380291502}}}, "name": "Caledonian Club", "place_id": "ChIJLSqkNTsFdkgR-E7f93qBohc", "types": ["point_of_interest", "establishment"], "rating": 4.5, "user_ratings_total": 270}, "ChIJlx83zyQFdkgRmS4yv2H81-g": {"geometry": {"location": {"lat": 51.5007307, "lng": -0.1522063}, "viewport": {"northeast": {"lat": 51.5021119302915, "lng": -0.1509075197084979}, "southwest": {"lat": 51.4994139697085, "lng": -0.153605480291502}}}, "name": "Ametsa", "place_id": "ChIJlx83zyQFdkgRmS4yv2H81-g", "types": ["bar", "restaurant", "food", "point_of_interest", "establishment"], "rating": 4.5, "user_ratings_total": 265}, "ChIJG_NVNjsFdkgRi9NL682FBFU": {"geometry": {"location": {"lat": 51.5005853, "lng": -0.1532209}, "viewport": {"northeast": {"lat": 51.50193203029151, "lng": -0.151988369708498}, "southwest": {"lat": 51.49923406970851, "lng": -0.154686330291502}}}, "name": "Embassy of Argentina", "place_id": "ChIJG_NVNjsFdkgRi9NL682FBFU", "types": ["embassy", "point_of_interest", "establishment"], "rating": 4, "user_ratings_total": 1}, "ChIJme4eNDsFdkgRv2-AtB50Ejk": {"geometry": {"location": {"lat": 51.50071490000001, "lng": -0.1530067}, "viewport": {"northeast": {"lat": 51.50197533029151, "lng": -0.151525969708498}, "southwest": {"lat": 51.49927736970851, "lng": -0.1542239302915021}}}, "name": "BNI Commonwealth", "place_id": "ChIJme4eNDsFdkgRv2-AtB50Ejk", "types": ["point_of_interest", "establishment"]}, "ChIJlzQINTsFdkgRXDIVhB0Tl9Q": {"geometry": {"location": {"lat": 51.50056799999999, "lng": -0.152833}, "viewport": {"northeast": {"lat": 51.50189598029149, "lng": -0.151452719708498}, "southwest": {"lat": 51.49919801970849, "lng": -0.154150680291502}}}, "name": "ubitricity Charging Station", "place_id": "ChIJlzQINTsFdkgRXDIVhB0Tl9Q", "types": ["point_of_interest", "establishment"]}, "ChIJi9vtxSQFdkgRh7_QRBejFSQ": {"geometry": {"location": {"lat": 51.500657, "lng": -0.1523384}, "viewport": {"northeast": {"lat": 51.5020366802915, "lng": -0.151037219708498}, "southwest": {"lat": 51.4993387197085, "lng": -0.153735180291502}}}, "name": "The Halkin Bar", "place_id": "ChIJi9vtxSQFdkgRh7_QRBejFSQ", "types": ["bar", "point_of_interest", "establishment"], "rating": 3.9, "user_ratings_total": 7}, "ChIJxTqSyiQFdkgRVKRCIjDZGvg": {"geometry": {"location": {"lat": 51.50046019999999, "lng": -0.1523865}, "viewport": {"northeast": {"lat": 51.50183748029149, "lng": -0.1509914197084979}, "southwest": {"lat": 51.49913951970849, "lng": -0.153689380291502}}}, "name": "\u0645\u0639\u0647\u062f \u062c\u0644\u0627\u062f\u064a\u0646\u064a\u0646 \u0644\u0646\u062f\u0646", "place_id": "ChIJxTqSyiQFdkgRVKRCIjDZGvg", "types": ["point_of_interest", "establishment"]}, "ChIJjQi_AEwFdkgRcuP9Vgt3Y4c": {"geometry": {"location": {"lat": 51.5007826, "lng": -0.1520507}, "viewport": {"northeast": {"lat": 51.5021746802915, "lng": -0.150769019708498}, "southwest": {"lat": 51.4994767197085, "lng": -0.153466980291502}}}, "name": "Afternoon Tea at the Como Halkin", "place_id": "ChIJjQi_AEwFdkgRcuP9Vgt3Y4c", "types": ["restaurant", "food", "point_of_interest", "establishment"]}, "ChIJHVf-B04FdkgRHzp6-i1_hM0": {"geometry": {"location": {"lat": 51.50055740000001, "lng": -0.1531915}, "viewport": {"northeast": {"lat": 51.5019021802915, "lng": -0.151972769708498}, "southwest": {"lat": 51.4992042197085, "lng": -0.1546707302915021}}}, "name": "Belgrave", "place_id": "ChIJHVf-B04FdkgRHzp6-i1_hM0", "types": ["lodging", "point_of_interest", "establishment"]}, "ChIJj7tLNjsFdkgRqT3ovYjf9os": {"geometry": {"location": {"lat": 51.50055039999999, "lng": -0.1531897}, "viewport": {"northeast": {"lat": 51.5018946802915, "lng": -0.151971519708498}, "southwest": {"lat": 51.4991967197085, "lng": -0.154669480291502}}}, "name": "Greencandlesbull", "place_id": "ChIJj7tLNjsFdkgRqT3ovYjf9os", "types": ["finance", "point_of_interest", "establishment"]}, "ChIJI9JkzyQFdkgRJfdMX5dar_0": {"geometry": {"location": {"lat": 51.5009064, "lng": -0.1519525}, "viewport": {"northeast": {"lat": 51.5022818302915, "lng": -0.150644669708498}, "southwest": {"lat": 51.4995838697085, "lng": -0.153342630291502}}}, "name": "Inarco (London) Limited", "place_id": "ChIJI9JkzyQFdkgRJfdMX5dar_0", "types": ["point_of_interest", "establishment"]}, "ChIJ20vlHSwFdkgR-6dM3tBW-Tw": {"geometry": {"location": {"lat": 51.501221, "lng": -0.1530676}, "viewport": {"northeast": {"lat": 51.5026029802915, "lng": -0.151848969708498}, "southwest": {"lat": 51.4999050197085, "lng": -0.154546930291502}}}, "name": "Electrician Grosvenor Crescent", "place_id": "ChIJ20vlHSwFdkgR-6dM3tBW-Tw", "types": ["electrician", "point_of_interest", "establishment"]}, "ChIJC7ypUjsFdkgRb5EsPXWDtpU": {"geometry": {"location": {"lat": 51.49980585054109, "lng": -0.1526996481796727}, "viewport": {"northeast": {"lat": 51.5011548302915, "lng": -0.151350669708498}, "southwest": {"lat": 51.4984568697085, "lng": -0.154048630291502}}}, "name": "47-41 B310", "place_id": "ChIJC7ypUjsFdkgRb5EsPXWDtpU", "types": ["route"]}, "ChIJjY5hsiQFdkgRZ5n-WhZ1ilw": {"geometry": {"location": {"lat": 51.4999011, "lng": -0.1523975}, "viewport": {"northeast": {"lat": 51.5011803802915, "lng": -0.151165719708498}, "southwest": {"lat": 51.4984824197085, "lng": -0.153863680291502}}}, "name": "Embassy of Turkey", "place_id": "ChIJjY5hsiQFdkgRZ5n-WhZ1ilw", "types": ["embassy", "point_of_interest", "establishment"], "rating": 3.2, "user_ratings_total": 102}, "ChIJ58nYpCQFdkgRI2VPft6yQKE": {"geometry": {"location": {"lat": 51.4995992, "lng": -0.1520193}, "viewport": {"northeast": {"lat": 51.50089253029149, "lng": -0.1507308197084979}, "southwest": {"lat": 51.4981945697085, "lng": -0.153428780291502}}}, "name": "Italian Cultural Institute", "place_id": "ChIJ58nYpCQFdkgRI2VPft6yQKE", "types": ["tourist_attraction", "point_of_interest", "establishment"], "rating": 4.1, "user_ratings_total": 19}, "ChIJu700TTsFdkgRW4iPdJjTx0w": {"geometry": {"location": {"lat": 51.4999951, "lng": -0.1524828}, "viewport": {"northeast": {"lat": 51.5012652302915, "lng": -0.151266469708498}, "southwest": {"lat": 51.4985672697085, "lng": -0.153964430291502}}}, "name": "Cambridge Marketing College London", "place_id": "ChIJu700TTsFdkgRW4iPdJjTx0w", "types": ["point_of_interest", "establishment"]}, "ChIJIYd3SzsFdkgRLATJ7s-_9Vc": {"geometry": {"location": {"lat": 51.500168, "lng": -0.1528256}, "viewport": {"northeast": {"lat": 51.5014501802915, "lng": -0.151588969708498}, "southwest": {"lat": 51.4987522197085, "lng": -0.1542869302915021}}}, "name": "ADMA Investments Ltd.", "place_id": "ChIJIYd3SzsFdkgRLATJ7s-_9Vc", "types": ["point_of_interest", "establishment"]}, "ChIJm7tUrSQFdkgRGKNqL_4vzFI": {"geometry": {"location": {"lat": 51.5000471, "lng": -0.1526167}, "viewport": {"northeast": {"lat": 51.5013256302915, "lng": -0.1513861697084979}, "southwest": {"lat": 51.4986276697085, "lng": -0.154084130291502}}}, "name": "Malaysian High Commission", "place_id": "ChIJm7tUrSQFdkgRGKNqL_4vzFI", "types": ["embassy", "point_of_interest", "establishment"], "rating": 3.5, "user_ratings_total": 119}, "ChIJqbzirSQFdkgRhOZwejQ2J2c": {"geometry": {"location": {"lat": 51.4997351, "lng": -0.1522799}, "viewport": {"northeast": {"lat": 51.5010356802915, "lng": -0.151012319708498}, "southwest": {"lat": 51.4983377197085, "lng": -0.153710280291502}}}, "name": "High Commission for Trinidad and Tobago", "place_id": "ChIJqbzirSQFdkgRhOZwejQ2J2c", "types": ["embassy", "point_of_interest", "establishment"], "rating": 3.7, "user_ratings_total": 57}, "ChIJqxjesiQFdkgRjLFsfjOwUiU": {"geometry": {"location": {"lat": 51.49994700000001, "lng": -0.15256}, "viewport": {"northeast": {"lat": 51.50124063029151, "lng": -0.151304169708498}, "southwest": {"lat": 51.49854266970851, "lng": -0.154002130291502}}}, "name": "T\u00fcrkiye Konsolonlu\u011fu", "place_id": "ChIJqxjesiQFdkgRjLFsfjOwUiU", "types": ["embassy", "point_of_interest", "establishment"], "rating": 5, "user_ratings_total": 3}, "ChIJe1wGsyQFdkgRz-QYq-GL1uk": {"geometry": {"location": {"lat": 51.4999951, "lng": -0.1524828}, "viewport": {"northeast": {"lat": 51.5012652302915, "lng": -0.151266469708498}, "southwest": {"lat": 51.4985672697085, "lng": -0.153964430291502}}}, "name": "IPA", "place_id": "ChIJe1wGsyQFdkgRz-QYq-GL1uk", "types": ["point_of_interest", "establishment"]}, "ChIJQ0zYsiQFdkgRD5AZlKu788s": {"geometry": {"location": {"lat": 51.5000461, "lng": -0.1523604}, "viewport": {"northeast": {"lat": 51.50128503029151, "lng": -0.151196519708498}, "southwest": {"lat": 51.49858706970851, "lng": -0.153894480291502}}}, "name": "Institute Of Practitioners In Advertising", "place_id": "ChIJQ0zYsiQFdkgRD5AZlKu788s", "types": ["point_of_interest", "establishment"], "rating": 4.9, "user_ratings_total": 17}, "ChIJac_lqyQFdkgRVahZeUHymTM": {"geometry": {"location": {"lat": 51.499412, "lng": -0.152317}, "viewport": {"northeast": {"lat": 51.50077363029149, "lng": -0.150924969708498}, "southwest": {"lat": 51.4980756697085, "lng": -0.153622930291502}}}, "name": "Santander Cycles", "place_id": "ChIJac_lqyQFdkgRVahZeUHymTM", "types": ["point_of_interest", "establishment"], "rating": 5, "user_ratings_total": 1}, "ChIJhcVn764FdkgR3w_6L4FOOV4": {"geometry": {"location": {"lat": 51.4995008, "lng": -0.152034}, "viewport": {"northeast": {"lat": 51.5008366802915, "lng": -0.150707569708498}, "southwest": {"lat": 51.4981387197085, "lng": -0.153405530291502}}}, "name": "Solo Motorcycles Only", "place_id": "ChIJhcVn764FdkgR3w_6L4FOOV4", "types": ["parking", "point_of_interest", "establishment"]}, "ChIJWZmBRTsFdkgRPVrHglu1x4E": {"geometry": {"location": {"lat": 51.49997010000001, "lng": -0.1534042}, "viewport": {"northeast": {"lat": 51.50135908029149, "lng": -0.152061169708498}, "southwest": {"lat": 51.49866111970849, "lng": -0.154759130291502}}}, "name": "Statue of Jos\u00e9 de San Mart\u00edn, London", "place_id": "ChIJWZmBRTsFdkgRPVrHglu1x4E", "types": ["point_of_interest", "establishment"], "rating": 4.3, "user_ratings_total": 3}, "ChIJZwKksTwFdkgRyqGRGkVHuUs": {"geometry": {"location": {"lat": 51.49833241118119, "lng": -0.1530983059487428}, "viewport": {"northeast": {"lat": 51.4996930302915, "lng": -0.151770669708498}, "southwest": {"lat": 51.4969950697085, "lng": -0.154468630291502}}}, "name": "28-25 B310", "place_id": "ChIJZwKksTwFdkgRyqGRGkVHuUs", "types": ["route"]}, "ChIJe6BXTCMFdkgRdUP3Fgv8Hmo": {"geometry": {"location": {"lat": 51.4987892, "lng": -0.1521286}, "viewport": {"northeast": {"lat": 51.5002034302915, "lng": -0.150803369708498}, "southwest": {"lat": 51.4975054697085, "lng": -0.153501330291502}}}, "name": "BGA", "place_id": "ChIJe6BXTCMFdkgRdUP3Fgv8Hmo", "types": ["point_of_interest", "establishment"], "rating": 5, "user_ratings_total": 1}, "ChIJU2DWrDwFdkgRsbsbv-WM09w": {"geometry": {"location": {"lat": 51.4984411, "lng": -0.1524849}, "viewport": {"northeast": {"lat": 51.4998738302915, "lng": -0.151262619708498}, "southwest": {"lat": 51.4971758697085, "lng": -0.1539605802915021}}}, "name": "Embassy of Bahrain, London", "place_id": "ChIJU2DWrDwFdkgRsbsbv-WM09w", "types": ["embassy", "point_of_interest", "establishment"], "rating": 4.6, "user_ratings_total": 16}, "ChIJKevcsjwFdkgRc6NB5Kl4NHI": {"geometry": {"location": {"lat": 51.49827, "lng": -0.1526774}, "viewport": {"northeast": {"lat": 51.4996939802915, "lng": -0.151476369708498}, "southwest": {"lat": 51.4969960197085, "lng": -0.154174330291502}}}, "name": "Embassy of Serbia", "place_id": "ChIJKevcsjwFdkgRc6NB5Kl4NHI", "types": ["embassy", "point_of_interest", "establishment"], "rating": 4.3, "user_ratings_total": 42}, "ChIJ5dqqVCMFdkgRbJcJ-tzjDZA": {"geometry": {"location": {"lat": 51.4988209, "lng": -0.1526408}, "viewport": {"northeast": {"lat": 51.50013243029149, "lng": -0.151230869708498}, "southwest": {"lat": 51.49743446970849, "lng": -0.153928830291502}}}, "name": "Homage to Leonardo", "place_id": "ChIJ5dqqVCMFdkgRbJcJ-tzjDZA", "types": ["point_of_interest", "store", "establishment"], "rating": 5, "user_ratings_total": 1}, "ChIJN403VcEFdkgRnt_M8tL-Wqo": {"geometry": {"location": {"lat": 51.4987015, "lng": -0.1522706}, "viewport": {"northeast": {"lat": 51.50010008029149, "lng": -0.151002369708498}, "southwest": {"lat": 51.49740211970849, "lng": -0.153700330291502}}}, "name": "Belgravia Taxis & MiniCabs", "place_id": "ChIJN403VcEFdkgRnt_M8tL-Wqo", "types": ["taxi_stand", "point_of_interest", "establishment"]}, "ChIJmxoaUSMFdkgRQBGSH04rYcM": {"geometry": {"location": {"lat": 51.4987083, "lng": -0.1521349}, "viewport": {"northeast": {"lat": 51.50012663029149, "lng": -0.1508977697084979}, "southwest": {"lat": 51.4974286697085, "lng": -0.153595730291502}}}, "name": "Spiritualist Association Of Great Britain", "place_id": "ChIJmxoaUSMFdkgRQBGSH04rYcM", "types": ["point_of_interest", "establishment"]}, "ChIJ2eC5l10FdkgRC1fUhERCmBc": {"geometry": {"location": {"lat": 51.4985434, "lng": -0.1534529}, "viewport": {"northeast": {"lat": 51.4998923802915, "lng": -0.152103919708498}, "southwest": {"lat": 51.49719441970851, "lng": -0.1548018802915021}}}, "name": "London Monument - Christopher Columbus", "place_id": "ChIJ2eC5l10FdkgRC1fUhERCmBc", "types": ["point_of_interest", "establishment"], "rating": 3.6, "user_ratings_total": 5}, "ChIJy9O_rDwFdkgR54TzJWjEdl0": {"geometry": {"location": {"lat": 51.4987614, "lng": -0.1526784}, "viewport": {"northeast": {"lat": 51.50005785569346, "lng": -0.1514298548752707}, "southwest": {"lat": 51.49735989511047, "lng": -0.1541278154582747}}}, "name": "Parking lot", "place_id": "ChIJy9O_rDwFdkgR54TzJWjEdl0", "types": ["parking", "premise", "point_of_interest", "establishment"]}, "ChIJnb50yjwFdkgRTDY0MsvmHJk": {"geometry": {"location": {"lat": 51.4978088759615, "lng": -0.1529113355664665}, "viewport": {"northeast": {"lat": 51.4991575802915, "lng": -0.151562819708498}, "southwest": {"lat": 51.4964596197085, "lng": -0.154260780291502}}}, "name": "1-3 Belgrave Pl", "place_id": "ChIJnb50yjwFdkgRTDY0MsvmHJk", "types": ["route"]}, "ChIJ-88LNSMFdkgRRG_Xu5Yy060": {"geometry": {"location": {"lat": 51.4976838, "lng": -0.1525811}, "viewport": {"northeast": {"lat": 51.4990458802915, "lng": -0.151253519708498}, "southwest": {"lat": 51.49634791970851, "lng": -0.153951480291502}}}, "name": "PLS Management and Recruitment", "place_id": "ChIJ-88LNSMFdkgRRG_Xu5Yy060", "types": ["point_of_interest", "establishment"], "rating": 5, "user_ratings_total": 1}, "ChIJV7lNOiMFdkgRBTsC3VyJhpE": {"geometry": {"location": {"lat": 51.4973202, "lng": -0.1526486}, "viewport": {"northeast": {"lat": 51.4986208802915, "lng": -0.151221169708498}, "southwest": {"lat": 51.4959229197085, "lng": -0.153919130291502}}}, "name": "Embassy of Hungary - Magyarorsz\u00e1g Nagyk\u00f6vets\u00e9ge London", "place_id": "ChIJV7lNOiMFdkgRBTsC3VyJhpE", "types": ["embassy", "point_of_interest", "establishment"], "rating": 3.3, "user_ratings_total": 255}, "ChIJc4BOyjwFdkgR6Zfz7YXhEt4": {"geometry": {"location": {"lat": 51.4976838, "lng": -0.1528793000000001}, "viewport": {"northeast": {"lat": 51.4990576302915, "lng": -0.151487469708498}, "southwest": {"lat": 51.4963596697085, "lng": -0.1541854302915021}}}, "name": "Zipcar", "place_id": "ChIJc4BOyjwFdkgR6Zfz7YXhEt4", "types": ["car_rental", "point_of_interest", "establishment"]}, "ChIJr355t5AFdkgRUE3clp6Fh_M": {"geometry": {"location": {"lat": 51.4977159, "lng": -0.1529283}, "viewport": {"northeast": {"lat": 51.49908853029149, "lng": -0.151537519708498}, "southwest": {"lat": 51.4963905697085, "lng": -0.154235480291502}}}, "name": "24Hr Taxi Belgravia London", "place_id": "ChIJr355t5AFdkgRUE3clp6Fh_M", "types": ["point_of_interest", "establishment"]}, "ChIJHa3rH7MFdkgRS2ccCjTndyw": {"geometry": {"location": {"lat": 51.4972776, "lng": -0.1527259}, "viewport": {"northeast": {"lat": 51.49857678029151, "lng": -0.151296069708498}, "southwest": {"lat": 51.49587881970851, "lng": -0.153994030291502}}}, "name": "Kurt Geiger", "place_id": "ChIJHa3rH7MFdkgRS2ccCjTndyw", "types": ["shoe_store", "point_of_interest", "store", "establishment"]}, "ChIJBTzyDT0FdkgRKdAk1b6-FL8": {"geometry": {"location": {"lat": 51.497663, "lng": -0.1531032}, "viewport": {"northeast": {"lat": 51.4990764302915, "lng": -0.151643119708498}, "southwest": {"lat": 51.4963784697085, "lng": -0.154341080291502}}}, "name": "Henry Cleaning Services - Belgravia", "place_id": "ChIJBTzyDT0FdkgRKdAk1b6-FL8", "types": ["point_of_interest", "establishment"]}, "ChIJ183utjwFdkgRTkYbgJNz1wQ": {"geometry": {"location": {"lat": 51.4980468, "lng": -0.1529622}, "viewport": {"northeast": {"lat": 51.4994922802915, "lng": -0.151758669708498}, "southwest": {"lat": 51.4967943197085, "lng": -0.1544566302915021}}}, "name": "Embassy of the Kingdom of Norway", "place_id": "ChIJ183utjwFdkgRTkYbgJNz1wQ", "types": ["embassy", "point_of_interest", "establishment"], "rating": 4.3, "user_ratings_total": 56}, "ChIJmXQKJxAFdkgRawhCoTjowvc": {"geometry": {"location": {"lat": 51.4972354, "lng": -0.1530599}, "viewport": {"northeast": {"lat": 51.4985942302915, "lng": -0.151695519708498}, "southwest": {"lat": 51.4958962697085, "lng": -0.154393480291502}}}, "name": "NHS", "place_id": "ChIJmXQKJxAFdkgRawhCoTjowvc", "types": ["doctor", "health", "point_of_interest", "establishment"]}, "ChIJ7S94MiMFdkgRDOHDW0rprbU": {"geometry": {"location": {"lat": 51.4971787, "lng": -0.1524081}, "viewport": {"northeast": {"lat": 51.49855178029149, "lng": -0.151098269708498}, "southwest": {"lat": 51.4958538197085, "lng": -0.153796230291502}}}, "name": "Visitatori Volontari Italiani", "place_id": "ChIJ7S94MiMFdkgRDOHDW0rprbU", "types": ["point_of_interest", "establishment"]}, "ChIJnakpMyMFdkgRSI-_8shBCjk": {"geometry": {"location": {"lat": 51.4971572, "lng": -0.1528662}, "viewport": {"northeast": {"lat": 51.49846418029149, "lng": -0.151449669708498}, "southwest": {"lat": 51.4957662197085, "lng": -0.1541476302915021}}}, "name": "Londoni Magyar Konzul\u00e1tus - Consulate of Hungary", "place_id": "ChIJnakpMyMFdkgRSI-_8shBCjk", "types": ["point_of_interest", "establishment"], "rating": 4.1, "user_ratings_total": 181}, "ChIJyxSMzTwFdkgRJeohFnl-lqM": {"geometry": {"location": {"lat": 51.4971572, "lng": -0.1528662}, "viewport": {"northeast": {"lat": 51.49846418029149, "lng": -0.151449669708498}, "southwest": {"lat": 51.4957662197085, "lng": -0.1541476302915021}}}, "name": "K\u00f6vets\u00e8g", "place_id": "ChIJyxSMzTwFdkgRJeohFnl-lqM", "types": ["point_of_interest", "establishment"]}, "ChIJt6IGMFAFdkgRjXAFoC9c734": {"geometry": {"location": {"lat": 51.4971566, "lng": -0.1522862}, "viewport": {"northeast": {"lat": 51.4985541302915, "lng": -0.151016019708498}, "southwest": {"lat": 51.4958561697085, "lng": -0.153713980291502}}}, "name": "Newmonkland Investment", "place_id": "ChIJt6IGMFAFdkgRjXAFoC9c734", "types": ["finance", "point_of_interest", "establishment"]}, "ChIJW_z84mEFdkgR7CF5vTiXFlQ": {"geometry": {"location": {"lat": 51.4973716, "lng": -0.1519486}, "viewport": {"northeast": {"lat": 51.4987686302915, "lng": -0.150671419708498}, "southwest": {"lat": 51.4960706697085, "lng": -0.153369380291502}}}, "name": "Police Beauty", "place_id": "ChIJW_z84mEFdkgR7CF5vTiXFlQ", "types": ["point_of_interest", "store", "establishment"]}, "ChIJLfD0BhkFdkgRAP56PzXClIs": {"geometry": {"location": {"lat": 51.49712950000001, "lng": -0.1523079}, "viewport": {"northeast": {"lat": 51.4985303302915, "lng": -0.151043119708498}, "southwest": {"lat": 51.4958323697085, "lng": -0.153741080291502}}}, "name": "Daddies Sauce UK Ltd", "place_id": "ChIJLfD0BhkFdkgRAP56PzXClIs", "types": ["point_of_interest", "establishment"]}, "ChIJ44myGdkFdkgRpxVsSsBvp3g": {"geometry": {"location": {"lat": 51.4970828, "lng": -0.1523911}, "viewport": {"northeast": {"lat": 51.4984822302915, "lng": -0.151124069708498}, "southwest": {"lat": 51.4957842697085, "lng": -0.153822030291502}}}, "name": "Heaven Cottages", "place_id": "ChIJ44myGdkFdkgRpxVsSsBvp3g", "types": ["lodging", "point_of_interest", "establishment"]}, "ChIJP6Vm9v4FdkgRwV7GT3MRORY": {"geometry": {"location": {"lat": 51.49708559999999, "lng": -0.1529861}, "viewport": {"northeast": {"lat": 51.4983918302915, "lng": -0.151568319708498}, "southwest": {"lat": 51.4956938697085, "lng": -0.154266280291502}}}, "name": "NYX Cosmetics UK Office", "place_id": "ChIJP6Vm9v4FdkgRwV7GT3MRORY", "types": ["point_of_interest", "establishment"]}, "ChIJG9Cz0yIFdkgRJ6ed_KX-r5I": {"geometry": {"location": {"lat": 51.49614981546951, "lng": -0.1522081751381606}, "viewport": {"northeast": {"lat": 51.4974987802915, "lng": -0.150859169708498}, "southwest": {"lat": 51.4948008197085, "lng": -0.153557130291502}}}, "name": "Eaton Square", "place_id": "ChIJG9Cz0yIFdkgRJ6ed_KX-r5I", "types": ["route"]}, "ChIJgWyWKT0FdkgRAgnvriYoteQ": {"geometry": {"location": {"lat": 51.4964066, "lng": -0.153084}, "viewport": {"northeast": {"lat": 51.49772533029149, "lng": -0.151685119708498}, "southwest": {"lat": 51.4950273697085, "lng": -0.154383080291502}}}, "name": "Conference Interpreters", "place_id": "ChIJgWyWKT0FdkgRAgnvriYoteQ", "types": ["point_of_interest", "establishment"], "rating": 4.5, "user_ratings_total": 2}, "ChIJE-s8Lj0FdkgRR6BeDqDNfac": {"geometry": {"location": {"lat": 51.49607630000001, "lng": -0.1527862}, "viewport": {"northeast": {"lat": 51.4973536802915, "lng": -0.151322119708498}, "southwest": {"lat": 51.49465571970851, "lng": -0.154020080291502}}}, "name": "Easy Removals", "place_id": "ChIJE-s8Lj0FdkgRR6BeDqDNfac", "types": ["moving_company", "storage", "point_of_interest", "store", "establishment"], "rating": 5, "user_ratings_total": 9}, "ChIJh2j3AoUFdkgReZOYfFqAB0c": {"geometry": {"location": {"lat": 51.49627399999999, "lng": -0.1522521}, "viewport": {"northeast": {"lat": 51.4975851302915, "lng": -0.150842269708498}, "southwest": {"lat": 51.4948871697085, "lng": -0.153540230291502}}}, "name": "Former Home of Clive Brook", "place_id": "ChIJh2j3AoUFdkgReZOYfFqAB0c", "types": ["cemetery", "point_of_interest", "establishment"]}, "ChIJHVhN8e4FdkgRuIfxaU6hqds": {"geometry": {"location": {"lat": 51.49610449999999, "lng": -0.1524794}, "viewport": {"northeast": {"lat": 51.49742258029149, "lng": -0.151080719708498}, "southwest": {"lat": 51.49472461970849, "lng": -0.153778680291502}}}, "name": "Stanley Baldwin Blue Plaque", "place_id": "ChIJHVhN8e4FdkgRuIfxaU6hqds", "types": ["point_of_interest", "establishment"], "rating": 4, "user_ratings_total": 1}, "ChIJp-q-KTgFdkgRtfvAIl6UNAE": {"geometry": {"location": {"lat": 51.496601, "lng": -0.1531884}, "viewport": {"northeast": {"lat": 51.4979967302915, "lng": -0.151914369708498}, "southwest": {"lat": 51.4952987697085, "lng": -0.154612330291502}}}, "name": "BBC Shop", "place_id": "ChIJp-q-KTgFdkgRtfvAIl6UNAE", "types": ["electronics_store", "home_goods_store", "point_of_interest", "store", "establishment"]}, "ChIJewtI0Y4FdkgRlV3rsK_gj0s": {"geometry": {"location": {"lat": 51.4967783, "lng": -0.1529297}, "viewport": {"northeast": {"lat": 51.49816998029149, "lng": -0.151649419708498}, "southwest": {"lat": 51.49547201970849, "lng": -0.154347380291502}}}, "name": "Three Billion Bunnies Inc", "place_id": "ChIJewtI0Y4FdkgRlV3rsK_gj0s", "types": ["finance", "point_of_interest", "establishment"]}, "ChIJS5qyLCMFdkgR-k5mdlTJ7Z4": {"geometry": {"location": {"lat": 51.49689650000001, "lng": -0.1526333}, "viewport": {"northeast": {"lat": 51.4983048302915, "lng": -0.151379769708498}, "southwest": {"lat": 51.4956068697085, "lng": -0.154077730291502}}}, "name": "Investment and Trade Office, Embassy of Hungary", "place_id": "ChIJS5qyLCMFdkgR-k5mdlTJ7Z4", "types": ["embassy", "point_of_interest", "establishment"], "rating": 2.4, "user_ratings_total": 5}, "ChIJT8IaVZAFdkgR0Jwf1APvV40": {"geometry": {"location": {"lat": 51.49683479999999, "lng": -0.1528055}, "viewport": {"northeast": {"lat": 51.4982317302915, "lng": -0.151533619708498}, "southwest": {"lat": 51.4955337697085, "lng": -0.1542315802915021}}}, "name": "Nutricentre", "place_id": "ChIJT8IaVZAFdkgR0Jwf1APvV40", "types": ["health", "point_of_interest", "establishment"]}, "ChIJA3N01DwFdkgRAueg1fYS8W8": {"geometry": {"location": {"lat": 51.4968231, "lng": -0.1528923}, "viewport": {"northeast": {"lat": 51.4982094302915, "lng": -0.151603419708498}, "southwest": {"lat": 51.4955114697085, "lng": -0.154301380291502}}}, "name": "48 Eaton Place Limited", "place_id": "ChIJA3N01DwFdkgRAueg1fYS8W8", "types": ["point_of_interest", "establishment"]}, "ChIJYbW20yIFdkgRcFJEi6Ej9GQ": {"geometry": {"location": {"lat": 51.496067, "lng": -0.1524513}, "viewport": {"northeast": {"lat": 51.4973991802915, "lng": -0.151074169708498}, "southwest": {"lat": 51.4947012197085, "lng": -0.153772130291502}}}, "name": "ubitricity Charging Station", "place_id": "ChIJYbW20yIFdkgRcFJEi6Ej9GQ", "types": ["point_of_interest", "establishment"]}, "ChIJfbU2ceEFdkgR_pySQtW_W_0": {"geometry": {"location": {"lat": 51.4968657, "lng": -0.1527599}, "viewport": {"northeast": {"lat": 51.4982619802915, "lng": -0.151487069708498}, "southwest": {"lat": 51.4955640197085, "lng": -0.154185030291502}}}, "name": "Logitech Belgravia Offices", "place_id": "ChIJfbU2ceEFdkgR_pySQtW_W_0", "types": ["point_of_interest", "establishment"]}, "ChIJAQAEKD0FdkgRnXmPQTVG8Xs": {"geometry": {"location": {"lat": 51.4964922, "lng": -0.1533435}, "viewport": {"northeast": {"lat": 51.4978908802915, "lng": -0.152074569708498}, "southwest": {"lat": 51.4951929197085, "lng": -0.154772530291502}}}, "name": "Fairy Water Trust", "place_id": "ChIJAQAEKD0FdkgRnXmPQTVG8Xs", "types": ["point_of_interest", "establishment"]}, "ChIJLxHz1yIFdkgRhZ15BGStiyg": {"geometry": {"location": {"lat": 51.49640669999999, "lng": -0.1519583}, "viewport": {"northeast": {"lat": 51.4977308302915, "lng": -0.150567969708498}, "southwest": {"lat": 51.4950328697085, "lng": -0.153265930291502}}}, "name": "ubitricity Charging Station", "place_id": "ChIJLxHz1yIFdkgRhZ15BGStiyg", "types": ["point_of_interest", "establishment"]}, "ChIJ57ZakRcFdkgRlH93uUAUjCA": {"geometry": {"location": {"lat": 51.49641, "lng": -0.1534349}, "viewport": {"northeast": {"lat": 51.4978149302915, "lng": -0.152176069708498}, "southwest": {"lat": 51.4951169697085, "lng": -0.154874030291502}}}, "name": "Handyman Belgravia", "place_id": "ChIJ57ZakRcFdkgRlH93uUAUjCA", "types": ["general_contractor", "point_of_interest", "establishment"]}, "ChIJSRG8cdQFdkgR6HPo5eDw0ew": {"geometry": {"location": {"lat": 51.496982, "lng": -0.1525918}, "viewport": {"northeast": {"lat": 51.4983754302915, "lng": -0.151314319708498}, "southwest": {"lat": 51.4956774697085, "lng": -0.154012280291502}}}, "name": "MFRs for Free", "place_id": "ChIJSRG8cdQFdkgR6HPo5eDw0ew", "types": ["point_of_interest", "establishment"]}, "ChIJSQd9Sj0FdkgRRjviBmaAsfM": {"geometry": {"location": {"lat": 51.495183350232, "lng": -0.1527857007494901}, "viewport": {"northeast": {"lat": 51.4965323302915, "lng": -0.151436719708498}, "southwest": {"lat": 51.4938343697085, "lng": -0.154134680291502}}}, "name": "Eaton Square", "place_id": "ChIJSQd9Sj0FdkgRRjviBmaAsfM", "types": ["route"]}, "ChIJB1LU2iIFdkgREvTV4Qhqes0": {"geometry": {"location": {"lat": 51.4955288, "lng": -0.1522588}, "viewport": {"northeast": {"lat": 51.49867875, "lng": -0.14730215}, "southwest": {"lat": 51.49296494999999, "lng": -0.15632715}}}, "name": "Eaton Square Gardens", "place_id": "ChIJB1LU2iIFdkgREvTV4Qhqes0", "types": ["park", "point_of_interest", "establishment"], "rating": 4.3, "user_ratings_total": 363}, "ChIJMd6lND0FdkgR4pqai9jmxGU": {"geometry": {"location": {"lat": 51.4954297, "lng": -0.1525819}, "viewport": {"northeast": {"lat": 51.4967485802915, "lng": -0.151185969708498}, "southwest": {"lat": 51.4940506197085, "lng": -0.153883930291502}}}, "name": "ubitricity Charging Station", "place_id": "ChIJMd6lND0FdkgR4pqai9jmxGU", "types": ["point_of_interest", "establishment"]}, "ChIJadNyT9MFdkgRGvbghHCK71Y": {"geometry": {"location": {"lat": 51.4957137, "lng": -0.1530949}, "viewport": {"northeast": {"lat": 51.4970336302915, "lng": -0.151699219708498}, "southwest": {"lat": 51.4943356697085, "lng": -0.154397180291502}}}, "name": "Edward Wood Blue Plaque", "place_id": "ChIJadNyT9MFdkgRGvbghHCK71Y", "types": ["point_of_interest", "establishment"]}, "ChIJ8YCpTD0FdkgRQx4pKfng2rE": {"geometry": {"location": {"lat": 51.494862, "lng": -0.152646}, "viewport": {"northeast": {"lat": 51.49619578029149, "lng": -0.151326669708498}, "southwest": {"lat": 51.49349781970849, "lng": -0.154024630291502}}}, "name": "Eaton Square (Stop J)", "place_id": "ChIJ8YCpTD0FdkgRQx4pKfng2rE", "types": ["bus_station", "transit_station", "point_of_interest", "establishment"], "rating": 3, "user_ratings_total": 1}, "ChIJI1EeTD0FdkgR4_rtHnlSDlw": {"geometry": {"location": {"lat": 51.494801, "lng": -0.15298}, "viewport": {"northeast": {"lat": 51.4961499802915, "lng": -0.151631019708498}, "southwest": {"lat": 51.4934520197085, "lng": -0.154328980291502}}}, "name": "Eaton Square", "place_id": "ChIJI1EeTD0FdkgR4_rtHnlSDlw", "types": ["transit_station", "point_of_interest", "establishment"]}, "ChIJGyjWEzsFdkgRnqnhL_PDUJw": {"geometry": {"location": {"lat": 51.50081282074379, "lng": -0.154594526150043}, "viewport": {"northeast": {"lat": 51.5021503802915, "lng": -0.153254819708498}, "southwest": {"lat": 51.4994524197085, "lng": -0.155952780291502}}}, "name": "25-30 Wilton Cres", "place_id": "ChIJGyjWEzsFdkgRnqnhL_PDUJw", "types": ["route"]}, "ChIJvRUdGzsFdkgRjMb8HOnGdb0": {"geometry": {"location": {"lat": 51.5012953, "lng": -0.1546948}, "viewport": {"northeast": {"lat": 51.5026857302915, "lng": -0.153335419708498}, "southwest": {"lat": 51.4999877697085, "lng": -0.156033380291502}}}, "name": "The Grenadier", "place_id": "ChIJvRUdGzsFdkgRjMb8HOnGdb0", "types": ["bar", "point_of_interest", "establishment"], "rating": 4.5, "user_ratings_total": 1311}, "ChIJP_4HjkQFdkgRTq9oTNWAdv8": {"geometry": {"location": {"lat": 51.5005414, "lng": -0.1538261}, "viewport": {"northeast": {"lat": 51.5018888802915, "lng": -0.152345419708498}, "southwest": {"lat": 51.4991909197085, "lng": -0.155043380291502}}}, "name": "Embassy of the United Arab Emirates", "place_id": "ChIJP_4HjkQFdkgRTq9oTNWAdv8", "types": ["embassy", "point_of_interest", "establishment"], "rating": 2.8, "user_ratings_total": 111}, "ChIJ_XrFODsFdkgRobaTR-CnNVM": {"geometry": {"location": {"lat": 51.50059139999999, "lng": -0.1538503}, "viewport": {"northeast": {"lat": 51.50193873029149, "lng": -0.152356769708498}, "southwest": {"lat": 51.49924076970849, "lng": -0.155054730291502}}}, "name": "Hanover Executive", "place_id": "ChIJ_XrFODsFdkgRobaTR-CnNVM", "types": ["point_of_interest", "establishment"]}, "ChIJ4ZgYPzsFdkgRA-tqHJksyQE": {"geometry": {"location": {"lat": 51.50059139999999, "lng": -0.1538503}, "viewport": {"northeast": {"lat": 51.50193873029149, "lng": -0.152356769708498}, "southwest": {"lat": 51.49924076970849, "lng": -0.155054730291502}}}, "name": "Mona Connection", "place_id": "ChIJ4ZgYPzsFdkgRA-tqHJksyQE", "types": ["point_of_interest", "establishment"]}, "ChIJ4ZgYPzsFdkgRpjNyqHDGf_8": {"geometry": {"location": {"lat": 51.50059139999999, "lng": -0.1538503}, "viewport": {"northeast": {"lat": 51.50193873029149, "lng": -0.152356769708498}, "southwest": {"lat": 51.49924076970849, "lng": -0.155054730291502}}}, "name": "Bowes Lyon Partnership", "place_id": "ChIJ4ZgYPzsFdkgRpjNyqHDGf_8", "types": ["point_of_interest", "establishment"]}, "ChIJ_XrFODsFdkgRgPzlrEvbL1M": {"geometry": {"location": {"lat": 51.5005767, "lng": -0.1538024}, "viewport": {"northeast": {"lat": 51.5019242802915, "lng": -0.152333019708498}, "southwest": {"lat": 51.4992263197085, "lng": -0.1550309802915021}}}, "name": "Accident Claims Advisory", "place_id": "ChIJ_XrFODsFdkgRgPzlrEvbL1M", "types": ["lawyer", "point_of_interest", "establishment"]}, "ChIJ0T8PPzsFdkgRO-ZxUojnuvc": {"geometry": {"location": {"lat": 51.5005767, "lng": -0.1538024}, "viewport": {"northeast": {"lat": 51.5019242802915, "lng": -0.152333019708498}, "southwest": {"lat": 51.4992263197085, "lng": -0.1550309802915021}}}, "name": "Chryson Consulting Limited", "place_id": "ChIJ0T8PPzsFdkgRO-ZxUojnuvc", "types": ["point_of_interest", "establishment"]}, "ChIJ-3rFODsFdkgR0yR05XZthd4": {"geometry": {"location": {"lat": 51.5005767, "lng": -0.1538024}, "viewport": {"northeast": {"lat": 51.50187543029149, "lng": -0.152419369708498}, "southwest": {"lat": 51.49917746970849, "lng": -0.155117330291502}}}, "name": "Werner Capital LLP", "place_id": "ChIJ-3rFODsFdkgR0yR05XZthd4", "types": ["general_contractor", "point_of_interest", "establishment"]}, "ChIJbdIfETsFdkgRDSz_rcB2Zjg": {"geometry": {"location": {"lat": 51.500948, "lng": -0.1546502}, "viewport": {"northeast": {"lat": 51.5022466302915, "lng": -0.153332719708498}, "southwest": {"lat": 51.4995486697085, "lng": -0.156030680291502}}}, "name": "Luxembourg Embassy", "place_id": "ChIJbdIfETsFdkgRDSz_rcB2Zjg", "types": ["embassy", "point_of_interest", "establishment"], "rating": 4.3, "user_ratings_total": 12}, "ChIJxaobPjsFdkgRy1Qej8xoT7M": {"geometry": {"location": {"lat": 51.50072979999999, "lng": -0.1540906}, "viewport": {"northeast": {"lat": 51.5020756802915, "lng": -0.152474869708498}, "southwest": {"lat": 51.49937771970851, "lng": -0.155172830291502}}}, "name": "Granovski & Associates LTD", "place_id": "ChIJxaobPjsFdkgRy1Qej8xoT7M", "types": ["point_of_interest", "establishment"]}, "ChIJqYUSEjsFdkgRsL2qZjaQqT0": {"geometry": {"location": {"lat": 51.5007069, "lng": -0.1548116}, "viewport": {"northeast": {"lat": 51.50208858029149, "lng": -0.153521719708498}, "southwest": {"lat": 51.49939061970849, "lng": -0.156219680291502}}}, "name": "Zahawi & Zahawi Ltd", "place_id": "ChIJqYUSEjsFdkgRsL2qZjaQqT0", "types": ["point_of_interest", "establishment"]}, "ChIJq6DVPzsFdkgRkSve_LeqiJU": {"geometry": {"location": {"lat": 51.500607, "lng": -0.154117}, "viewport": {"northeast": {"lat": 51.5019538302915, "lng": -0.152771769708498}, "southwest": {"lat": 51.4992558697085, "lng": -0.155469730291502}}}, "name": "ubitricity Charging Station", "place_id": "ChIJq6DVPzsFdkgRkSve_LeqiJU", "types": ["point_of_interest", "establishment"]}, "ChIJCzy3QDsFdkgR9LfFuOG7NsE": {"geometry": {"location": {"lat": 51.50046149999999, "lng": -0.1542106}, "viewport": {"northeast": {"lat": 51.5018906302915, "lng": -0.152922619708498}, "southwest": {"lat": 51.4991926697085, "lng": -0.155620580291502}}}, "name": "Sir Robert Grosvenor KG Statue", "place_id": "ChIJCzy3QDsFdkgR9LfFuOG7NsE", "types": ["point_of_interest", "establishment"], "rating": 5, "user_ratings_total": 3}, "ChIJ_XrFODsFdkgR9yZZHiVzcz8": {"geometry": {"location": {"lat": 51.50059139999999, "lng": -0.1538503}, "viewport": {"northeast": {"lat": 51.50193873029149, "lng": -0.152356769708498}, "southwest": {"lat": 51.49924076970849, "lng": -0.155054730291502}}}, "name": "BST Link", "place_id": "ChIJ_XrFODsFdkgR9yZZHiVzcz8", "types": ["point_of_interest", "establishment"]}, "ChIJ35gYPzsFdkgRFNGn_d73kd0": {"geometry": {"location": {"lat": 51.5005914, "lng": -0.1538502}, "viewport": {"northeast": {"lat": 51.50193873029149, "lng": -0.152356719708498}, "southwest": {"lat": 51.49924076970849, "lng": -0.155054680291502}}}, "name": "SOSMYworld Ltd", "place_id": "ChIJ35gYPzsFdkgRFNGn_d73kd0", "types": ["point_of_interest", "establishment"]}, "ChIJ35gYPzsFdkgRay2pbp_GIqE": {"geometry": {"location": {"lat": 51.5005914, "lng": -0.1538502}, "viewport": {"northeast": {"lat": 51.50193873029149, "lng": -0.152356719708498}, "southwest": {"lat": 51.49924076970849, "lng": -0.155054680291502}}}, "name": "Pinkleton Properties Limited", "place_id": "ChIJ35gYPzsFdkgRay2pbp_GIqE", "types": ["real_estate_agency", "point_of_interest", "establishment"]}, "ChIJ87TSZTsFdkgRsxN7V-DBkn4": {"geometry": {"location": {"lat": 51.49963470015397, "lng": -0.1545329004818491}, "viewport": {"northeast": {"lat": 51.5009836802915, "lng": -0.153183919708498}, "southwest": {"lat": 51.4982857197085, "lng": -0.155881880291502}}}, "name": "8-6 B310", "place_id": "ChIJ87TSZTsFdkgRsxN7V-DBkn4", "types": ["route"]}, "ChIJZe-FQTsFdkgR6PaUuq6oVnA": {"geometry": {"location": {"lat": 51.500155, "lng": -0.1539911}, "viewport": {"northeast": {"lat": 51.5014135302915, "lng": -0.152584619708498}, "southwest": {"lat": 51.4987155697085, "lng": -0.155282580291502}}}, "name": "Mexican Chamber of Commerce in Great Britain", "place_id": "ChIJZe-FQTsFdkgR6PaUuq6oVnA", "types": ["point_of_interest", "establishment"]}, "ChIJASuZZTsFdkgROWs5tIPfUNM": {"geometry": {"location": {"lat": 51.4997373, "lng": -0.1546663}, "viewport": {"northeast": {"lat": 51.5010391802915, "lng": -0.153243669708498}, "southwest": {"lat": 51.4983412197085, "lng": -0.155941630291502}}}, "name": "Tompkins Foundation", "place_id": "ChIJASuZZTsFdkgROWs5tIPfUNM", "types": ["point_of_interest", "establishment"]}, "ChIJb4C6ZzsFdkgRmMg35wGf_fQ": {"geometry": {"location": {"lat": 51.4997328, "lng": -0.154091}, "viewport": {"northeast": {"lat": 51.50112583029151, "lng": -0.152803669708498}, "southwest": {"lat": 51.49842786970851, "lng": -0.155501630291502}}}, "name": "Source London Charging Station", "place_id": "ChIJb4C6ZzsFdkgRmMg35wGf_fQ", "types": ["point_of_interest", "establishment"], "rating": 5, "user_ratings_total": 1}, "ChIJN9-sESwFdkgRsLlHSjNHT0o": {"geometry": {"location": {"lat": 51.49969770000001, "lng": -0.1547898}, "viewport": {"northeast": {"lat": 51.5009905302915, "lng": -0.153352969708498}, "southwest": {"lat": 51.4982925697085, "lng": -0.156050930291502}}}, "name": "Embassy of Syria", "place_id": "ChIJN9-sESwFdkgRsLlHSjNHT0o", "types": ["embassy", "point_of_interest", "establishment"], "rating": 4.4, "user_ratings_total": 7}, "ChIJcd_IfocFdkgRnhBfUg0aNZg": {"geometry": {"location": {"lat": 51.4995287, "lng": -0.1550058}, "viewport": {"northeast": {"lat": 51.5008315302915, "lng": -0.153593869708498}, "southwest": {"lat": 51.4981335697085, "lng": -0.156291830291502}}}, "name": "SW1 Roofing Solutions", "place_id": "ChIJcd_IfocFdkgRnhBfUg0aNZg", "types": ["roofing_contractor", "point_of_interest", "establishment"], "rating": 5, "user_ratings_total": 5}, "ChIJ808wfTsFdkgRsTVUdxjbV5c": {"geometry": {"location": {"lat": 51.49925400000001, "lng": -0.154889}, "viewport": {"northeast": {"lat": 51.5006004802915, "lng": -0.153527219708498}, "southwest": {"lat": 51.4979025197085, "lng": -0.156225180291502}}}, "name": "ESB Charging Station", "place_id": "ChIJ808wfTsFdkgRsTVUdxjbV5c", "types": ["point_of_interest", "establishment"]}, "ChIJgQmPQTsFdkgRFJ_X4wYZ3X0": {"geometry": {"location": {"lat": 51.500155, "lng": -0.1539911}, "viewport": {"northeast": {"lat": 51.5014135302915, "lng": -0.152584619708498}, "southwest": {"lat": 51.4987155697085, "lng": -0.155282580291502}}}, "name": "Aliya Modi", "place_id": "ChIJgQmPQTsFdkgRFJ_X4wYZ3X0", "types": ["general_contractor", "point_of_interest", "establishment"]}, "ChIJX_e9mTwFdkgRO3vkmXM5Wlc": {"geometry": {"location": {"lat": 51.4985699003951, "lng": -0.1542555487218059}, "viewport": {"northeast": {"lat": 51.49991888029149, "lng": -0.152906569708498}, "southwest": {"lat": 51.4972209197085, "lng": -0.155604530291502}}}, "name": "Belgrave Square", "place_id": "ChIJX_e9mTwFdkgRO3vkmXM5Wlc", "types": ["route"]}, "ChIJxS8mmzwFdkgRxUk3ZDIrRXY": {"geometry": {"location": {"lat": 51.49873150000001, "lng": -0.1547576}, "viewport": {"northeast": {"lat": 51.5001161302915, "lng": -0.153359919708498}, "southwest": {"lat": 51.4974181697085, "lng": -0.156057880291502}}}, "name": "Country Land & Business Association", "place_id": "ChIJxS8mmzwFdkgRxUk3ZDIrRXY", "types": ["point_of_interest", "establishment"]}, "ChIJbWtImDwFdkgRqs4ECuxeHeY": {"geometry": {"location": {"lat": 51.49856990000001, "lng": -0.1542554}, "viewport": {"northeast": {"lat": 51.4999410302915, "lng": -0.152870619708498}, "southwest": {"lat": 51.4972430697085, "lng": -0.155568580291502}}}, "name": "Belgrave Square", "place_id": "ChIJbWtImDwFdkgRqs4ECuxeHeY", "types": ["park", "point_of_interest", "establishment"], "rating": 4.8, "user_ratings_total": 22}, "ChIJ5f2eqT0FdkgRMuv_Dmeq81A": {"geometry": {"location": {"lat": 51.4987296, "lng": -0.154913}, "viewport": {"northeast": {"lat": 51.5001372302915, "lng": -0.153475719708498}, "southwest": {"lat": 51.4974392697085, "lng": -0.156173680291502}}}, "name": "Adina", "place_id": "ChIJ5f2eqT0FdkgRMuv_Dmeq81A", "types": ["point_of_interest", "establishment"]}, "ChIJvzetnDwFdkgRo9x9UID-c2Y": {"geometry": {"location": {"lat": 51.49884499999999, "lng": -0.154847}, "viewport": {"northeast": {"lat": 51.5002062802915, "lng": -0.153479419708498}, "southwest": {"lat": 51.4975083197085, "lng": -0.156177380291502}}}, "name": "Callister", "place_id": "ChIJvzetnDwFdkgRo9x9UID-c2Y", "types": ["real_estate_agency", "point_of_interest", "establishment"]}, "ChIJ7dCC55CBcUgRY8cWNtq_pF8": {"geometry": {"location": {"lat": 51.4987535, "lng": -0.1549724}, "viewport": {"northeast": {"lat": 51.50016398029149, "lng": -0.153530819708498}, "southwest": {"lat": 51.49746601970849, "lng": -0.156228780291502}}}, "name": "Co Company", "place_id": "ChIJ7dCC55CBcUgRY8cWNtq_pF8", "types": ["point_of_interest", "establishment"]}, "ChIJfRiFhDwFdkgRzDnadmdvsDo": {"geometry": {"location": {"lat": 51.4986952, "lng": -0.1550173}, "viewport": {"northeast": {"lat": 51.5001281802915, "lng": -0.153541869708498}, "southwest": {"lat": 51.4974302197085, "lng": -0.156239830291502}}}, "name": "Costello", "place_id": "ChIJfRiFhDwFdkgRzDnadmdvsDo", "types": ["point_of_interest", "establishment"]}, "ChIJvzetnDwFdkgRjMZteXrlO_c": {"geometry": {"location": {"lat": 51.49869529999999, "lng": -0.1550173}, "viewport": {"northeast": {"lat": 51.50012823029149, "lng": -0.153541919708498}, "southwest": {"lat": 51.4974302697085, "lng": -0.156239880291502}}}, "name": "Gover Horowitz & Blunt Ltd", "place_id": "ChIJvzetnDwFdkgRjMZteXrlO_c", "types": ["point_of_interest", "establishment"]}, "ChIJCUxigzwFdkgRtNAPvi8S4Kc": {"geometry": {"location": {"lat": 51.4988189, "lng": -0.1549714}, "viewport": {"northeast": {"lat": 51.50021158029149, "lng": -0.153555719708498}, "southwest": {"lat": 51.49751361970849, "lng": -0.156253680291502}}}, "name": "Co Company", "place_id": "ChIJCUxigzwFdkgRtNAPvi8S4Kc", "types": ["point_of_interest", "establishment"]}, "ChIJa-BDgzwFdkgRTu-HlKjUoVg": {"geometry": {"location": {"lat": 51.498728, "lng": -0.154925}, "viewport": {"northeast": {"lat": 51.50013788029149, "lng": -0.153484319708498}, "southwest": {"lat": 51.4974399197085, "lng": -0.1561822802915021}}}, "name": "SCI", "place_id": "ChIJa-BDgzwFdkgRTu-HlKjUoVg", "types": ["point_of_interest", "establishment"], "rating": 4.5, "user_ratings_total": 21}, "ChIJreNFljwFdkgRZhn-pJSDZAY": {"geometry": {"location": {"lat": 51.4985099, "lng": -0.1548937}, "viewport": {"northeast": {"lat": 51.4999955302915, "lng": -0.153409519708498}, "southwest": {"lat": 51.4972975697085, "lng": -0.156107480291502}}}, "name": "Brunei Darussalam High Commission", "place_id": "ChIJreNFljwFdkgRZhn-pJSDZAY", "types": ["embassy", "point_of_interest", "establishment"], "rating": 3.1, "user_ratings_total": 11}, "ChIJM6hvgTwFdkgRS_tjIsJHd14": {"geometry": {"location": {"lat": 51.49878900000001, "lng": -0.1551019}, "viewport": {"northeast": {"lat": 51.5002097802915, "lng": -0.153643219708498}, "southwest": {"lat": 51.4975118197085, "lng": -0.156341180291502}}}, "name": "Ghana High Commission", "place_id": "ChIJM6hvgTwFdkgRS_tjIsJHd14", "types": ["embassy", "point_of_interest", "establishment"], "rating": 2.5, "user_ratings_total": 48}, "ChIJfZeihDwFdkgRok31lAY-oDc": {"geometry": {"location": {"lat": 51.49868639999999, "lng": -0.1550783}, "viewport": {"northeast": {"lat": 51.50013118029149, "lng": -0.153585069708498}, "southwest": {"lat": 51.49743321970849, "lng": -0.156283030291502}}}, "name": "Brooks Gordon", "place_id": "ChIJfZeihDwFdkgRok31lAY-oDc", "types": ["point_of_interest", "establishment"]}, "ChIJk9X1uBQFdkgRZAD7tng2WSU": {"geometry": {"location": {"lat": 51.4987296, "lng": -0.154913}, "viewport": {"northeast": {"lat": 51.5001372302915, "lng": -0.153475719708498}, "southwest": {"lat": 51.4974392697085, "lng": -0.156173680291502}}}, "name": "Halpin Partnership Ltd", "place_id": "ChIJk9X1uBQFdkgRZAD7tng2WSU", "types": ["point_of_interest", "establishment"], "rating": 4, "user_ratings_total": 1}, "ChIJoxKRhDwFdkgREB-7jwG0Mck": {"geometry": {"location": {"lat": 51.49875350000001, "lng": -0.1549723}, "viewport": {"northeast": {"lat": 51.50016393029151, "lng": -0.153530769708498}, "southwest": {"lat": 51.49746596970851, "lng": -0.156228730291502}}}, "name": "Royal College of Science Association", "place_id": "ChIJoxKRhDwFdkgREB-7jwG0Mck", "types": ["point_of_interest", "establishment"]}, "ChIJoxKRhDwFdkgRRCKUiI-nMas": {"geometry": {"location": {"lat": 51.49875350000001, "lng": -0.1549723}, "viewport": {"northeast": {"lat": 51.50016393029151, "lng": -0.153530769708498}, "southwest": {"lat": 51.49746596970851, "lng": -0.156228730291502}}}, "name": "Society Of Chemical Industry", "place_id": "ChIJoxKRhDwFdkgRRCKUiI-nMas", "types": ["university", "point_of_interest", "establishment"]}, "ChIJgwfMr64TdkgRmKvrNRbKLZs": {"geometry": {"location": {"lat": 51.49869529999999, "lng": -0.1550173}, "viewport": {"northeast": {"lat": 51.50012823029149, "lng": -0.153541919708498}, "southwest": {"lat": 51.4974302697085, "lng": -0.156239880291502}}}, "name": "Belgravia Airport Transfer Taxi", "place_id": "ChIJgwfMr64TdkgRmKvrNRbKLZs", "types": ["point_of_interest", "establishment"]}, "ChIJoxKRhDwFdkgR7wZKsnfGjZw": {"geometry": {"location": {"lat": 51.49869529999999, "lng": -0.1550173}, "viewport": {"northeast": {"lat": 51.50012823029149, "lng": -0.153541919708498}, "southwest": {"lat": 51.4974302697085, "lng": -0.156239880291502}}}, "name": "RisCura", "place_id": "ChIJoxKRhDwFdkgR7wZKsnfGjZw", "types": ["finance", "point_of_interest", "establishment"]}, "ChIJhZDQhTwFdkgR4WsLencnD3I": {"geometry": {"location": {"lat": 51.49869529999999, "lng": -0.1550173}, "viewport": {"northeast": {"lat": 51.50012823029149, "lng": -0.153541919708498}, "southwest": {"lat": 51.4974302697085, "lng": -0.156239880291502}}}, "name": "Great Britain-China Centre", "place_id": "ChIJhZDQhTwFdkgR4WsLencnD3I", "types": ["point_of_interest", "establishment"], "rating": 3.5, "user_ratings_total": 2}, "ChIJZTCm1zgFdkgRAVhAP0lBxZU": {"geometry": {"location": {"lat": 51.4988808, "lng": -0.1550376}, "viewport": {"northeast": {"lat": 51.5002674802915, "lng": -0.1536310197084979}, "southwest": {"lat": 51.4975695197085, "lng": -0.156328980291502}}}, "name": "Leon Kaye Solicitors", "place_id": "ChIJZTCm1zgFdkgRAVhAP0lBxZU", "types": ["point_of_interest", "establishment"]}, "ChIJ3dp8ojwFdkgRBbfxdsKsk_w": {"geometry": {"location": {"lat": 51.4986363, "lng": -0.1541707}, "viewport": {"northeast": {"lat": 51.50000823859725, "lng": -0.1527245474932177}, "southwest": {"lat": 51.49731027801425, "lng": -0.1554225080762217}}}, "name": "Parking lot", "place_id": "ChIJ3dp8ojwFdkgRBbfxdsKsk_w", "types": ["parking", "premise", "point_of_interest", "establishment"]}, "ChIJtZ0xlTwFdkgR08Vyieojyzo": {"geometry": {"location": {"lat": 51.49784935042387, "lng": -0.1542359513013474}, "viewport": {"northeast": {"lat": 51.49919833029149, "lng": -0.152886969708498}, "southwest": {"lat": 51.49650036970849, "lng": -0.155584930291502}}}, "name": "Chesham Place", "place_id": "ChIJtZ0xlTwFdkgR08Vyieojyzo", "types": ["route"]}, "ChIJtaPt8TwFdkgRCci5ckYapvA": {"geometry": {"location": {"lat": 51.4974491, "lng": -0.1549203}, "viewport": {"northeast": {"lat": 51.4988085302915, "lng": -0.153595669708498}, "southwest": {"lat": 51.4961105697085, "lng": -0.156293630291502}}}, "name": "7 Chauffeurs", "place_id": "ChIJtaPt8TwFdkgRCci5ckYapvA", "types": ["point_of_interest", "establishment"], "rating": 5, "user_ratings_total": 2}, "ChIJY3AuBSa1cEgR-uYEO7GiN58": {"geometry": {"location": {"lat": 51.4978975, "lng": -0.1546785}, "viewport": {"northeast": {"lat": 51.4992128302915, "lng": -0.153389069708498}, "southwest": {"lat": 51.49651486970851, "lng": -0.156087030291502}}}, "name": "Embassy of Germany", "place_id": "ChIJY3AuBSa1cEgR-uYEO7GiN58", "types": ["embassy", "point_of_interest", "establishment"], "rating": 3.7, "user_ratings_total": 236}, "ChIJN5Ou6zwFdkgRK_zMAR9i58E": {"geometry": {"location": {"lat": 51.4975712, "lng": -0.1542477}, "viewport": {"northeast": {"lat": 51.4989906802915, "lng": -0.153008119708498}, "southwest": {"lat": 51.4962927197085, "lng": -0.155706080291502}}}, "name": "Embassy of Finland in London", "place_id": "ChIJN5Ou6zwFdkgRK_zMAR9i58E", "types": ["embassy", "point_of_interest", "establishment"], "rating": 4.6, "user_ratings_total": 36}, "ChIJJczwS5UFdkgR1issiL0mqR4": {"geometry": {"location": {"lat": 51.4978255, "lng": -0.1541088}, "viewport": {"northeast": {"lat": 51.4992004802915, "lng": -0.152799719708498}, "southwest": {"lat": 51.4965025197085, "lng": -0.155497680291502}}}, "name": "Drive Port", "place_id": "ChIJJczwS5UFdkgR1issiL0mqR4", "types": ["school", "point_of_interest", "establishment"]}, "ChIJMcnd6KoFdkgRTqqTwAlyct0": {"geometry": {"location": {"lat": 51.4974491, "lng": -0.1549203}, "viewport": {"northeast": {"lat": 51.4988158302915, "lng": -0.153599719708498}, "southwest": {"lat": 51.4961178697085, "lng": -0.156297680291502}}}, "name": "Chesham P\u0142ace Garden", "place_id": "ChIJMcnd6KoFdkgRTqqTwAlyct0", "types": ["park", "point_of_interest", "establishment"], "rating": 4.5, "user_ratings_total": 2}, "ChIJFwT1wzwFdkgRG3dRoFdC7cE": {"geometry": {"location": {"lat": 51.4974622, "lng": -0.153609}, "viewport": {"northeast": {"lat": 51.4987661802915, "lng": -0.152361969708498}, "southwest": {"lat": 51.4960682197085, "lng": -0.155059930291502}}}, "name": "Roccoco London Ltd", "place_id": "ChIJFwT1wzwFdkgRG3dRoFdC7cE", "types": ["point_of_interest", "establishment"]}, "ChIJFwT1wzwFdkgRvdw0ks11_Qk": {"geometry": {"location": {"lat": 51.4974622, "lng": -0.153609}, "viewport": {"northeast": {"lat": 51.4987661802915, "lng": -0.152361969708498}, "southwest": {"lat": 51.4960682197085, "lng": -0.155059930291502}}}, "name": "Cross Hugh", "place_id": "ChIJFwT1wzwFdkgRvdw0ks11_Qk", "types": ["point_of_interest", "establishment"]}, "ChIJsfhckjwFdkgRXDrT51va5XI": {"geometry": {"location": {"lat": 51.4980199, "lng": -0.15474}, "viewport": {"northeast": {"lat": 51.4994997802915, "lng": -0.152977869708498}, "southwest": {"lat": 51.49680181970851, "lng": -0.155675830291502}}}, "name": "Chargemaster Charging Station", "place_id": "ChIJsfhckjwFdkgRXDrT51va5XI", "types": ["point_of_interest", "establishment"]}, "ChIJfZ2qBD0FdkgRpFwRE8jMibA": {"geometry": {"location": {"lat": 51.4962081500352, "lng": -0.1548697998779182}, "viewport": {"northeast": {"lat": 51.4975571302915, "lng": -0.153520819708498}, "southwest": {"lat": 51.4948591697085, "lng": -0.156218780291502}}}, "name": "11 Lyall St", "place_id": "ChIJfZ2qBD0FdkgRpFwRE8jMibA", "types": ["route"]}, "ChIJGQOPAT0FdkgR53OkURi5jZQ": {"geometry": {"location": {"lat": 51.496745, "lng": -0.1544555}, "viewport": {"northeast": {"lat": 51.49808283029149, "lng": -0.153088319708498}, "southwest": {"lat": 51.4953848697085, "lng": -0.155786280291502}}}, "name": "Marta's Vinyard", "place_id": "ChIJGQOPAT0FdkgR53OkURi5jZQ", "types": ["liquor_store", "food", "point_of_interest", "store", "establishment"]}, "ChIJ9T0nZusNdkgRROz9ekbzZTc": {"geometry": {"location": {"lat": 51.49639620000001, "lng": -0.1536258}, "viewport": {"northeast": {"lat": 51.4977748302915, "lng": -0.152324619708498}, "southwest": {"lat": 51.49507686970851, "lng": -0.155022580291502}}}, "name": "Rise and Shine Window Cleaners Ltd", "place_id": "ChIJ9T0nZusNdkgRROz9ekbzZTc", "types": ["point_of_interest", "establishment"], "rating": 4.9, "user_ratings_total": 12}, "ChIJsWn3RyMFdkgRrRyV6tHocDw": {"geometry": {"location": {"lat": 51.4959685, "lng": -0.1542263}, "viewport": {"northeast": {"lat": 51.49736088029149, "lng": -0.1529462697084979}, "southwest": {"lat": 51.4946629197085, "lng": -0.155644230291502}}}, "name": "Bemorepanda", "place_id": "ChIJsWn3RyMFdkgRrRyV6tHocDw", "types": ["point_of_interest", "establishment"], "rating": 5, "user_ratings_total": 3}, "ChIJF499VPUFdkgRpdXoUheIssY": {"geometry": {"location": {"lat": 51.4966155, "lng": -0.1541003}, "viewport": {"northeast": {"lat": 51.4978656302915, "lng": -0.152592069708498}, "southwest": {"lat": 51.4951676697085, "lng": -0.155290030291502}}}, "name": "Bobbi Brown", "place_id": "ChIJF499VPUFdkgRpdXoUheIssY", "types": ["point_of_interest", "store", "establishment"]}, "ChIJzSNZjaAFdkgRMTjL1xppXZY": {"geometry": {"location": {"lat": 51.4964199, "lng": -0.1539773}, "viewport": {"northeast": {"lat": 51.4977379302915, "lng": -0.152578469708498}, "southwest": {"lat": 51.4950399697085, "lng": -0.155276430291502}}}, "name": "EditionLdn", "place_id": "ChIJzSNZjaAFdkgRMTjL1xppXZY", "types": ["point_of_interest", "establishment"], "rating": 5, "user_ratings_total": 6}, "ChIJvaaIID0FdkgRLMkxPrDOuK0": {"geometry": {"location": {"lat": 51.4964699, "lng": -0.1538986}, "viewport": {"northeast": {"lat": 51.49778773029151, "lng": -0.152499419708498}, "southwest": {"lat": 51.49508976970851, "lng": -0.155197380291502}}}, "name": "ARTPOINT FOUNDATION", "place_id": "ChIJvaaIID0FdkgRLMkxPrDOuK0", "types": ["point_of_interest", "establishment"]}, "ChIJVeRZ4TwFdkgRbpEspjghs4U": {"geometry": {"location": {"lat": 51.4967968, "lng": -0.1544513}, "viewport": {"northeast": {"lat": 51.49817133029151, "lng": -0.153144669708498}, "southwest": {"lat": 51.49547336970851, "lng": -0.155842630291502}}}, "name": "Lyall Management", "place_id": "ChIJVeRZ4TwFdkgRbpEspjghs4U", "types": ["point_of_interest", "establishment"]}, "ChIJ6za7Vt8FdkgR2aqKv2NShic": {"geometry": {"location": {"lat": 51.49656929999999, "lng": -0.1538297}, "viewport": {"northeast": {"lat": 51.49787308029151, "lng": -0.152407869708498}, "southwest": {"lat": 51.49517511970851, "lng": -0.155105830291502}}}, "name": "ERYS Beauty Tan", "place_id": "ChIJ6za7Vt8FdkgR2aqKv2NShic", "types": ["point_of_interest", "establishment"]}, "ChIJXzrdvwAFdkgR0l6bUh6dZDs": {"geometry": {"location": {"lat": 51.4962186, "lng": -0.1538321}, "viewport": {"northeast": {"lat": 51.49760938029149, "lng": -0.152550519708498}, "southwest": {"lat": 51.49491141970849, "lng": -0.155248480291502}}}, "name": "Rappers Delight", "place_id": "ChIJXzrdvwAFdkgR0l6bUh6dZDs", "types": ["point_of_interest", "establishment"]}, "ChIJYx-12DwFdkgR564-R5HPgKs": {"geometry": {"location": {"lat": 51.49658489999999, "lng": -0.1537287}, "viewport": {"northeast": {"lat": 51.4979005302915, "lng": -0.152325969708498}, "southwest": {"lat": 51.4952025697085, "lng": -0.155023930291502}}}, "name": "Zara Litchford's House", "place_id": "ChIJYx-12DwFdkgR564-R5HPgKs", "types": ["point_of_interest", "establishment"], "rating": 4.5, "user_ratings_total": 2}, "ChIJB_1p73kFdkgRhjuA0d885sk": {"geometry": {"location": {"lat": 51.49626410000001, "lng": -0.1537406}, "viewport": {"northeast": {"lat": 51.4976577802915, "lng": -0.152463669708498}, "southwest": {"lat": 51.4949598197085, "lng": -0.155161630291502}}}, "name": "A-Plant Logistics", "place_id": "ChIJB_1p73kFdkgRhjuA0d885sk", "types": ["point_of_interest", "establishment"]}, "ChIJo__fPj0FdkgRizIdc_8ICeI": {"geometry": {"location": {"lat": 51.4959685, "lng": -0.1542263}, "viewport": {"northeast": {"lat": 51.49736088029149, "lng": -0.1529462697084979}, "southwest": {"lat": 51.4946629197085, "lng": -0.155644230291502}}}, "name": "AA Advisors", "place_id": "ChIJo__fPj0FdkgRizIdc_8ICeI", "types": ["finance", "point_of_interest", "establishment"]}, "ChIJXw0W_TYFdkgRtrRZaSI8PeE": {"geometry": {"location": {"lat": 51.4959285, "lng": -0.1542741}, "viewport": {"northeast": {"lat": 51.4973235302915, "lng": -0.152998319708498}, "southwest": {"lat": 51.4946255697085, "lng": -0.155696280291502}}}, "name": "Fruit Strawberri", "place_id": "ChIJXw0W_TYFdkgRtrRZaSI8PeE", "types": ["point_of_interest", "establishment"]}, "ChIJUfaO8sEFdkgREC739WaVIM0": {"geometry": {"location": {"lat": 51.496286, "lng": -0.1552124}, "viewport": {"northeast": {"lat": 51.4976698802915, "lng": -0.153808269708498}, "southwest": {"lat": 51.4949719197085, "lng": -0.156506230291502}}}, "name": "Thomas Cubitt Blue Plaque", "place_id": "ChIJUfaO8sEFdkgREC739WaVIM0", "types": ["point_of_interest", "establishment"], "rating": 5, "user_ratings_total": 1}, "ChIJo1wBrz0FdkgRry4NRV3TbGI": {"geometry": {"location": {"lat": 51.496445, "lng": -0.1535393}, "viewport": {"northeast": {"lat": 51.49782493029149, "lng": -0.152240219708498}, "southwest": {"lat": 51.49512696970849, "lng": -0.154938180291502}}}, "name": "Primary Access & Research", "place_id": "ChIJo1wBrz0FdkgRry4NRV3TbGI", "types": ["point_of_interest", "establishment"]}, "ChIJZRFWDj0FdkgRV65yMA8u_D4": {"geometry": {"location": {"lat": 51.49568060055946, "lng": -0.1549654518080928}, "viewport": {"northeast": {"lat": 51.4970295802915, "lng": -0.1536164697084979}, "southwest": {"lat": 51.4943316197085, "lng": -0.156314430291502}}}, "name": "84-100 Eaton Pl", "place_id": "ChIJZRFWDj0FdkgRV65yMA8u_D4", "types": ["route"]}, "ChIJ67YnOwkFdkgRGlh9tSnf_4E": {"geometry": {"location": {"lat": 51.49554609999999, "lng": -0.1547623}, "viewport": {"northeast": {"lat": 51.49696013029149, "lng": -0.153518419708498}, "southwest": {"lat": 51.49426216970849, "lng": -0.156216380291502}}}, "name": "The Chilean Ambassadorial residence.", "place_id": "ChIJ67YnOwkFdkgRGlh9tSnf_4E", "types": ["embassy", "point_of_interest", "establishment"]}, "ChIJvf_fPj0FdkgR4P-iRUigBXU": {"geometry": {"location": {"lat": 51.495363, "lng": -0.1538191}, "viewport": {"northeast": {"lat": 51.4966547802915, "lng": -0.152377319708498}, "southwest": {"lat": 51.4939568197085, "lng": -0.155075280291502}}}, "name": "Chinese Estates Ltd", "place_id": "ChIJvf_fPj0FdkgR4P-iRUigBXU", "types": ["point_of_interest", "establishment"]}, "ChIJm1zpuVsFdkgRwLTryrxeh_k": {"geometry": {"location": {"lat": 51.495228, "lng": -0.153856}, "viewport": {"northeast": {"lat": 51.4965474802915, "lng": -0.152459069708498}, "southwest": {"lat": 51.4938495197085, "lng": -0.155157030291502}}}, "name": "George Peabody Blue Plaque", "place_id": "ChIJm1zpuVsFdkgRwLTryrxeh_k", "types": ["point_of_interest", "establishment"], "rating": 4, "user_ratings_total": 1}, "ChIJpfxkPz0FdkgRcfNUkh8OMqU": {"geometry": {"location": {"lat": 51.495228, "lng": -0.153856}, "viewport": {"northeast": {"lat": 51.4965474802915, "lng": -0.152459069708498}, "southwest": {"lat": 51.4938495197085, "lng": -0.155157030291502}}}, "name": "Bluebank Technologies Limited", "place_id": "ChIJpfxkPz0FdkgRcfNUkh8OMqU", "types": ["point_of_interest", "establishment"]}, "ChIJjRq7vkkFdkgRWhOltB3clqQ": {"geometry": {"location": {"lat": 51.4954973, "lng": -0.1549829}, "viewport": {"northeast": {"lat": 51.49688768029149, "lng": -0.153701769708498}, "southwest": {"lat": 51.4941897197085, "lng": -0.156399730291502}}}, "name": "Patrick Sport Cleaners", "place_id": "ChIJjRq7vkkFdkgRWhOltB3clqQ", "types": ["point_of_interest", "establishment"]}, "ChIJLxqDDT0FdkgRXaiMOFfAFJE": {"geometry": {"location": {"lat": 51.4953975, "lng": -0.1551571}, "viewport": {"northeast": {"lat": 51.49678523029149, "lng": -0.153871619708498}, "southwest": {"lat": 51.4940872697085, "lng": -0.156569580291502}}}, "name": "Loncroft Consultancy", "place_id": "ChIJLxqDDT0FdkgRXaiMOFfAFJE", "types": ["point_of_interest", "establishment"]}, "ChIJF8E_evgFdkgRfSUQubfs4Q8": {"geometry": {"location": {"lat": 51.4953587, "lng": -0.1552002}, "viewport": {"northeast": {"lat": 51.49672788029149, "lng": -0.153932619708498}, "southwest": {"lat": 51.4940299197085, "lng": -0.156630580291502}}}, "name": "Splash! - indoor fishing tackle", "place_id": "ChIJF8E_evgFdkgRfSUQubfs4Q8", "types": ["point_of_interest", "establishment"]}, "ChIJfe15ylkFdkgRIBX1Jhrqbh8": {"geometry": {"location": {"lat": 51.49469089999999, "lng": -0.1549833}, "viewport": {"northeast": {"lat": 51.49608888029149, "lng": -0.153558319708498}, "southwest": {"lat": 51.49339091970849, "lng": -0.156256280291502}}}, "name": "Gosh International plc", "place_id": "ChIJfe15ylkFdkgRIBX1Jhrqbh8", "types": ["secondary_school", "school", "point_of_interest", "establishment"]}, "ChIJgUy8mDsFdkgRwyyO_KE2hak": {"geometry": {"location": {"lat": 51.50042676137786, "lng": -0.1561000273342893}, "viewport": {"northeast": {"lat": 51.5017581802915, "lng": -0.154644919708498}, "southwest": {"lat": 51.4990602197085, "lng": -0.157342880291502}}}, "name": "6-15 Wilton Cres", "place_id": "ChIJgUy8mDsFdkgRwyyO_KE2hak", "types": ["route"]}, "ChIJG4IcmDkFdkgRdlQz9o4ZdC8": {"geometry": {"location": {"lat": 51.50078600000001, "lng": -0.15671}, "viewport": {"northeast": {"lat": 51.5021332302915, "lng": -0.155303819708498}, "southwest": {"lat": 51.4994352697085, "lng": -0.158001780291502}}}, "name": "Q-Park Knightsbridge", "place_id": "ChIJG4IcmDkFdkgRdlQz9o4ZdC8", "types": ["parking", "storage", "point_of_interest", "establishment"], "rating": 3.5, "user_ratings_total": 65}, "ChIJExFKvDsFdkgRv7lPTi9yrqE": {"geometry": {"location": {"lat": 51.5009735, "lng": -0.1566526}, "viewport": {"northeast": {"lat": 51.5023154802915, "lng": -0.155353669708498}, "southwest": {"lat": 51.4996175197085, "lng": -0.158051630291502}}}, "name": "egg", "place_id": "ChIJExFKvDsFdkgRv7lPTi9yrqE", "types": ["point_of_interest", "clothing_store", "store", "establishment"], "rating": 4.5, "user_ratings_total": 31}, "ChIJO8DwojsFdkgR7JUl0O7yppU": {"geometry": {"location": {"lat": 51.500574, "lng": -0.1561695}, "viewport": {"northeast": {"lat": 51.5019073802915, "lng": -0.154751819708498}, "southwest": {"lat": 51.4992094197085, "lng": -0.157449780291502}}}, "name": "NapierWilsdon Ltd", "place_id": "ChIJO8DwojsFdkgR7JUl0O7yppU", "types": ["finance", "point_of_interest", "establishment"]}, "ChIJp30cuzsFdkgRmRmeU-tIqH4": {"geometry": {"location": {"lat": 51.50092399999999, "lng": -0.1564572}, "viewport": {"northeast": {"lat": 51.5022514802915, "lng": -0.155240819708498}, "southwest": {"lat": 51.4995535197085, "lng": -0.157938780291502}}}, "name": "Dunsin Surveyors", "place_id": "ChIJp30cuzsFdkgRmRmeU-tIqH4", "types": ["point_of_interest", "establishment"]}, "ChIJjfbbygIedkgRWzFVTcPsxKs": {"geometry": {"location": {"lat": 51.5012321, "lng": -0.1564512}, "viewport": {"northeast": {"lat": 51.5026024802915, "lng": -0.154985369708498}, "southwest": {"lat": 51.49990451970851, "lng": -0.157683330291502}}}, "name": "Vibrant Bathrooms", "place_id": "ChIJjfbbygIedkgRWzFVTcPsxKs", "types": ["home_goods_store", "point_of_interest", "store", "establishment"]}, "ChIJrxp-7IAFdkgRcV9X2r6DmRk": {"geometry": {"location": {"lat": 51.50090280000001, "lng": -0.1563214}, "viewport": {"northeast": {"lat": 51.5022929302915, "lng": -0.154823719708498}, "southwest": {"lat": 51.4995949697085, "lng": -0.157521680291502}}}, "name": "George Bentham Blue Plaque", "place_id": "ChIJrxp-7IAFdkgRcV9X2r6DmRk", "types": ["point_of_interest", "establishment"]}, "ChIJvTX1pjsFdkgRaoe9MilESP8": {"geometry": {"location": {"lat": 51.5010123, "lng": -0.155755}, "viewport": {"northeast": {"lat": 51.5023279302915, "lng": -0.154526469708498}, "southwest": {"lat": 51.4996299697085, "lng": -0.157224430291502}}}, "name": "Rory Book Store", "place_id": "ChIJvTX1pjsFdkgRaoe9MilESP8", "types": ["book_store", "point_of_interest", "store", "establishment"], "rating": 1, "user_ratings_total": 1}, "ChIJ4wB_mDsFdkgRWt09pliwZxc": {"geometry": {"location": {"lat": 51.500441, "lng": -0.156157}, "viewport": {"northeast": {"lat": 51.5017850302915, "lng": -0.154799419708498}, "southwest": {"lat": 51.4990870697085, "lng": -0.157497380291502}}}, "name": "ubitricity Charging Station", "place_id": "ChIJ4wB_mDsFdkgRWt09pliwZxc", "types": ["point_of_interest", "establishment"]}, "ChIJP62djNwFdkgRW3QVmZR8wcU": {"geometry": {"location": {"lat": 51.500722, "lng": -0.1567018}, "viewport": {"northeast": {"lat": 51.5020694302915, "lng": -0.155302269708498}, "southwest": {"lat": 51.4993714697085, "lng": -0.158000230291502}}}, "name": "Master Rooters & Heating", "place_id": "ChIJP62djNwFdkgRW3QVmZR8wcU", "types": ["plumber", "general_contractor", "point_of_interest", "establishment"]}, "ChIJ334cujsFdkgRyDjMgCRPBU8": {"geometry": {"location": {"lat": 51.50105430000001, "lng": -0.1566774}, "viewport": {"northeast": {"lat": 51.5023959802915, "lng": -0.155380569708498}, "southwest": {"lat": 51.4996980197085, "lng": -0.158078530291502}}}, "name": "N F H Ltd", "place_id": "ChIJ334cujsFdkgRyDjMgCRPBU8", "types": ["point_of_interest", "establishment"]}, "ChIJAQDHqDsFdkgR9bouuoxG57M": {"geometry": {"location": {"lat": 51.5012176, "lng": -0.1558928}, "viewport": {"northeast": {"lat": 51.5025315802915, "lng": -0.154667969708498}, "southwest": {"lat": 51.4998336197085, "lng": -0.157365930291502}}}, "name": "Elephant Capital Llp", "place_id": "ChIJAQDHqDsFdkgR9bouuoxG57M", "types": ["point_of_interest", "establishment"]}, "ChIJgRZT91sFdkgRHUD3NxERsZ4": {"geometry": {"location": {"lat": 51.501241, "lng": -0.155954}, "viewport": {"northeast": {"lat": 51.5025601802915, "lng": -0.154710819708498}, "southwest": {"lat": 51.4998622197085, "lng": -0.157408780291502}}}, "name": "Physical Personal Trainer Belgravia", "place_id": "ChIJgRZT91sFdkgRHUD3NxERsZ4", "types": ["health", "point_of_interest", "establishment"]}, "ChIJAy76vjsFdkgRHz62O6lm8Ok": {"geometry": {"location": {"lat": 51.50061100000001, "lng": -0.156853}, "viewport": {"northeast": {"lat": 51.5019529802915, "lng": -0.155473019708498}, "southwest": {"lat": 51.4992550197085, "lng": -0.158170980291502}}}, "name": "Douglas Lyons & Lyons", "place_id": "ChIJAy76vjsFdkgRHz62O6lm8Ok", "types": ["finance", "real_estate_agency", "point_of_interest", "establishment"], "rating": 4.2, "user_ratings_total": 5}, "ChIJ8WH_vjsFdkgR2iFoBcyeHVw": {"geometry": {"location": {"lat": 51.5006127, "lng": -0.1569282}, "viewport": {"northeast": {"lat": 51.50194523029149, "lng": -0.155506219708498}, "southwest": {"lat": 51.4992472697085, "lng": -0.158204180291502}}}, "name": "6 West Halkin Street Limited", "place_id": "ChIJ8WH_vjsFdkgR2iFoBcyeHVw", "types": ["point_of_interest", "establishment"]}, "ChIJh7xzmzsFdkgRCpHz_pX9cLU": {"geometry": {"location": {"lat": 51.49993239789388, "lng": -0.1560160357880322}, "viewport": {"northeast": {"lat": 51.5012902802915, "lng": -0.154641169708498}, "southwest": {"lat": 51.4985923197085, "lng": -0.157339130291502}}}, "name": "50 Wilton Cres", "place_id": "ChIJh7xzmzsFdkgRCpHz_pX9cLU", "types": ["route"]}, "ChIJNyhNjjsFdkgRsWM-CAmSc2c": {"geometry": {"location": {"lat": 51.4996199, "lng": -0.156439}, "viewport": {"northeast": {"lat": 51.5009336302915, "lng": -0.155080319708498}, "southwest": {"lat": 51.4982356697085, "lng": -0.157778280291502}}}, "name": "The Alfred Tennyson Pub Belgravia", "place_id": "ChIJNyhNjjsFdkgRsWM-CAmSc2c", "types": ["bar", "restaurant", "food", "point_of_interest", "establishment"], "rating": 4.3, "user_ratings_total": 580}, "ChIJeQZHiTsFdkgRPJXdHEkgx8M": {"geometry": {"location": {"lat": 51.4994329, "lng": -0.1566803}, "viewport": {"northeast": {"lat": 51.5007977302915, "lng": -0.155228919708498}, "southwest": {"lat": 51.4980997697085, "lng": -0.157926880291502}}}, "name": "Ottolenghi", "place_id": "ChIJeQZHiTsFdkgRPJXdHEkgx8M", "types": ["bakery", "meal_takeaway", "cafe", "restaurant", "food", "point_of_interest", "store", "establishment"], "rating": 4.3, "user_ratings_total": 378}, "ChIJBWbG7DsFdkgRUoGawp2ooK8": {"geometry": {"location": {"lat": 51.49958739999999, "lng": -0.1567373}, "viewport": {"northeast": {"lat": 51.50095578029149, "lng": -0.155317769708498}, "southwest": {"lat": 51.49825781970849, "lng": -0.158015730291502}}}, "name": "Petrus by Gordon Ramsay", "place_id": "ChIJBWbG7DsFdkgRUoGawp2ooK8", "types": ["restaurant", "food", "point_of_interest", "establishment"], "rating": 4.7, "user_ratings_total": 964}, "ChIJeyXWkDsFdkgRqp_rwJablbM": {"geometry": {"location": {"lat": 51.4997651, "lng": -0.1561078}, "viewport": {"northeast": {"lat": 51.5011140802915, "lng": -0.154758819708498}, "southwest": {"lat": 51.4984161197085, "lng": -0.157456780291502}}}, "name": "Charles Street Securities Inc", "place_id": "ChIJeyXWkDsFdkgRqp_rwJablbM", "types": ["point_of_interest", "establishment"]}, "ChIJeT_HijsFdkgRg2gY1ayXDyk": {"geometry": {"location": {"lat": 51.4995127, "lng": -0.1562473}, "viewport": {"northeast": {"lat": 51.5008776802915, "lng": -0.154922069708498}, "southwest": {"lat": 51.4981797197085, "lng": -0.157620030291502}}}, "name": "London DJ", "place_id": "ChIJeT_HijsFdkgRg2gY1ayXDyk", "types": ["point_of_interest", "establishment"], "rating": 5, "user_ratings_total": 11}, "ChIJg4wor8IRdkgRDoC3vcM2LAk": {"geometry": {"location": {"lat": 51.4996357, "lng": -0.1562971}, "viewport": {"northeast": {"lat": 51.5009651802915, "lng": -0.154919169708498}, "southwest": {"lat": 51.4982672197085, "lng": -0.157617130291502}}}, "name": "Stewart Parvin", "place_id": "ChIJg4wor8IRdkgRDoC3vcM2LAk", "types": ["point_of_interest", "clothing_store", "store", "establishment"], "rating": 5, "user_ratings_total": 1}, "ChIJMVdyjzsFdkgRVssFCRU3xas": {"geometry": {"location": {"lat": 51.4996031, "lng": -0.1563644}, "viewport": {"northeast": {"lat": 51.5009291802915, "lng": -0.154981469708498}, "southwest": {"lat": 51.4982312197085, "lng": -0.157679430291502}}}, "name": "Belgravia - Motcomb St", "place_id": "ChIJMVdyjzsFdkgRVssFCRU3xas", "types": ["car_rental", "point_of_interest", "establishment"]}, "ChIJMUi9iDsFdkgRGODhIC1ZcvI": {"geometry": {"location": {"lat": 51.49943409999999, "lng": -0.1562655}, "viewport": {"northeast": {"lat": 51.5008208302915, "lng": -0.154972969708498}, "southwest": {"lat": 51.4981228697085, "lng": -0.157670930291502}}}, "name": "VIS-A-VIS", "place_id": "ChIJMUi9iDsFdkgRGODhIC1ZcvI", "types": ["home_goods_store", "point_of_interest", "store", "establishment"], "rating": 5, "user_ratings_total": 2}, "ChIJD8xczesPdkgRZhBPKa0Rr4A": {"geometry": {"location": {"lat": 51.4994445, "lng": -0.156368}, "viewport": {"northeast": {"lat": 51.5008079302915, "lng": -0.155040469708498}, "southwest": {"lat": 51.4981099697085, "lng": -0.157738430291502}}}, "name": "Teresa Tarmey", "place_id": "ChIJD8xczesPdkgRZhBPKa0Rr4A", "types": ["health", "point_of_interest", "establishment"], "rating": 4.3, "user_ratings_total": 35}, "ChIJ0x6ifjsFdkgRKDBF_bo1G-c": {"geometry": {"location": {"lat": 51.4996524, "lng": -0.1554449}, "viewport": {"northeast": {"lat": 51.50085188029151, "lng": -0.153891919708498}, "southwest": {"lat": 51.49815391970851, "lng": -0.156589880291502}}}, "name": "Embassy of Portugal", "place_id": "ChIJ0x6ifjsFdkgRKDBF_bo1G-c", "types": ["embassy", "point_of_interest", "establishment"], "rating": 1.6, "user_ratings_total": 202}, "ChIJeQZHiTsFdkgRUQym7oo-oIE": {"geometry": {"location": {"lat": 51.4994498, "lng": -0.1566639}, "viewport": {"northeast": {"lat": 51.5008129302915, "lng": -0.155232319708498}, "southwest": {"lat": 51.4981149697085, "lng": -0.157930280291502}}}, "name": "Vision Management Ltd", "place_id": "ChIJeQZHiTsFdkgRUQym7oo-oIE", "types": ["point_of_interest", "establishment"]}, "ChIJF00rUP0PdkgRiM6bChN-6E8": {"geometry": {"location": {"lat": 51.49933120000001, "lng": -0.1564487}, "viewport": {"northeast": {"lat": 51.5007549302915, "lng": -0.155116069708498}, "southwest": {"lat": 51.4980569697085, "lng": -0.157814030291502}}}, "name": "Marie-Chantal", "place_id": "ChIJF00rUP0PdkgRiM6bChN-6E8", "types": ["point_of_interest", "clothing_store", "store", "establishment"], "rating": 3.8, "user_ratings_total": 4}, "ChIJCznGkjsFdkgRtcGHLtA9k2o": {"geometry": {"location": {"lat": 51.4997565, "lng": -0.1568759}, "viewport": {"northeast": {"lat": 51.5011210802915, "lng": -0.155460169708498}, "southwest": {"lat": 51.49842311970851, "lng": -0.158158130291502}}}, "name": "Liquid Vehicle Perfection Centres", "place_id": "ChIJCznGkjsFdkgRtcGHLtA9k2o", "types": ["car_wash", "point_of_interest", "establishment"], "rating": 4.4, "user_ratings_total": 12}, "ChIJfxt-jTsFdkgRJ18_rNqWpTY": {"geometry": {"location": {"lat": 51.4997912, "lng": -0.1568957}, "viewport": {"northeast": {"lat": 51.5011556802915, "lng": -0.155480469708498}, "southwest": {"lat": 51.4984577197085, "lng": -0.158178430291502}}}, "name": "Ffs", "place_id": "ChIJfxt-jTsFdkgRJ18_rNqWpTY", "types": ["cafe", "food", "point_of_interest", "establishment"], "rating": 4.6, "user_ratings_total": 9}, "ChIJ6RX8iTsFdkgR2aBxwG-xov0": {"geometry": {"location": {"lat": 51.499361, "lng": -0.156408}, "viewport": {"northeast": {"lat": 51.5007701302915, "lng": -0.155043569708498}, "southwest": {"lat": 51.4980721697085, "lng": -0.157741530291502}}}, "name": "Rococo Chocolates Belgravia", "place_id": "ChIJ6RX8iTsFdkgR2aBxwG-xov0", "types": ["food", "point_of_interest", "store", "establishment"], "rating": 4.6, "user_ratings_total": 114}, "ChIJ52GDhTsFdkgR7hHLZk-5XCU": {"geometry": {"location": {"lat": 51.4995925, "lng": -0.1553025}, "viewport": {"northeast": {"lat": 51.50090218029149, "lng": -0.154020669708498}, "southwest": {"lat": 51.49820421970849, "lng": -0.156718630291502}}}, "name": "Motcomb Lofts", "place_id": "ChIJ52GDhTsFdkgR7hHLZk-5XCU", "types": ["general_contractor", "point_of_interest", "establishment"], "rating": 1, "user_ratings_total": 1}, "ChIJjymueTsFdkgRgoeSI6MhXCo": {"geometry": {"location": {"lat": 51.4996839, "lng": -0.155393}, "viewport": {"northeast": {"lat": 51.5008822302915, "lng": -0.153838369708498}, "southwest": {"lat": 51.4981842697085, "lng": -0.156536330291502}}}, "name": "Portuguese Chamber Of Commerce in the UK", "place_id": "ChIJjymueTsFdkgRgoeSI6MhXCo", "types": ["point_of_interest", "establishment"]}, "ChIJuQWPwDsFdkgRvGC6R4T075c": {"geometry": {"location": {"lat": 51.4997363, "lng": -0.156892}, "viewport": {"northeast": {"lat": 51.5011037802915, "lng": -0.155463869708498}, "southwest": {"lat": 51.4984058197085, "lng": -0.158161830291502}}}, "name": "Blakes Of Belgravia", "place_id": "ChIJuQWPwDsFdkgRvGC6R4T075c", "types": ["hardware_store", "home_goods_store", "point_of_interest", "store", "establishment"], "rating": 3.6, "user_ratings_total": 11}, "ChIJBcadYT0FdkgRcTkeHZzN_s0": {"geometry": {"location": {"lat": 51.49981640000001, "lng": -0.1561582}, "viewport": {"northeast": {"lat": 51.5011955802915, "lng": -0.154715519708498}, "southwest": {"lat": 51.4984976197085, "lng": -0.157413480291502}}}, "name": "Blue Plaque: Earl and Countess Mountbatten", "place_id": "ChIJBcadYT0FdkgRcTkeHZzN_s0", "types": ["point_of_interest", "establishment"], "rating": 4, "user_ratings_total": 1}, "ChIJcTaGhTsFdkgRErGvUvQWC2A": {"geometry": {"location": {"lat": 51.4995927, "lng": -0.1563108}, "viewport": {"northeast": {"lat": 51.5009410802915, "lng": -0.154960969708498}, "southwest": {"lat": 51.4982431197085, "lng": -0.157658930291502}}}, "name": "Zipcar", "place_id": "ChIJcTaGhTsFdkgRErGvUvQWC2A", "types": ["car_rental", "point_of_interest", "establishment"]}, "ChIJrYAJjzsFdkgRv8S5V2m3fuc": {"geometry": {"location": {"lat": 51.4996199, "lng": -0.156439}, "viewport": {"northeast": {"lat": 51.50093013029149, "lng": -0.155031369708498}, "southwest": {"lat": 51.49823216970849, "lng": -0.157729330291502}}}, "name": "The Turk's Head", "place_id": "ChIJrYAJjzsFdkgRv8S5V2m3fuc", "types": ["bar", "point_of_interest", "establishment"]}, "ChIJKbeBwhoFdkgRL3Dpw9ly0yE": {"geometry": {"location": {"lat": 51.49949, "lng": -0.1562982}, "viewport": {"northeast": {"lat": 51.50083593029149, "lng": -0.154954219708498}, "southwest": {"lat": 51.4981379697085, "lng": -0.157652180291502}}}, "name": "Rent A Crane For A Day", "place_id": "ChIJKbeBwhoFdkgRL3Dpw9ly0yE", "types": ["point_of_interest", "establishment"]}, "ChIJXzhx65YFdkgRy2nOLBz6p7k": {"geometry": {"location": {"lat": 51.4993923, "lng": -0.1561617}, "viewport": {"northeast": {"lat": 51.5007436302915, "lng": -0.154808819708498}, "southwest": {"lat": 51.4980456697085, "lng": -0.157506780291502}}}, "name": "Belgravia Paving & Driveways", "place_id": "ChIJXzhx65YFdkgRy2nOLBz6p7k", "types": ["general_contractor", "point_of_interest", "establishment"], "rating": 5, "user_ratings_total": 3}, "ChIJY4ok9TsFdkgRwPN25Pv8tzQ": {"geometry": {"location": {"lat": 51.4994877, "lng": -0.1566059}, "viewport": {"northeast": {"lat": 51.50084013029149, "lng": -0.155193169708498}, "southwest": {"lat": 51.4981421697085, "lng": -0.1578911302915021}}}, "name": "On Motcomb", "place_id": "ChIJY4ok9TsFdkgRwPN25Pv8tzQ", "types": ["clothing_store", "point_of_interest", "store", "establishment"], "rating": 4.2, "user_ratings_total": 9}, "ChIJ90u0jjsFdkgRL1nRYyu4lRY": {"geometry": {"location": {"lat": 51.4994786, "lng": -0.1566116}, "viewport": {"northeast": {"lat": 51.50082818029149, "lng": -0.155206869708498}, "southwest": {"lat": 51.49813021970849, "lng": -0.157904830291502}}}, "name": "Motcomb Green", "place_id": "ChIJ90u0jjsFdkgRL1nRYyu4lRY", "types": ["transit_station", "point_of_interest", "establishment"]}, "ChIJsZNTiTsFdkgRhGVzLtJ88-w": {"geometry": {"location": {"lat": 51.4994498, "lng": -0.1566639}, "viewport": {"northeast": {"lat": 51.5008129302915, "lng": -0.155232319708498}, "southwest": {"lat": 51.4981149697085, "lng": -0.157930280291502}}}, "name": "\u05d0\u05d5\u05d8\u05d5\u05dc\u05e0\u05d2\u05d9", "place_id": "ChIJsZNTiTsFdkgRhGVzLtJ88-w", "types": ["restaurant", "food", "point_of_interest", "establishment"]}, "ChIJ2xsFzDsFdkgRv3sNjxUAWio": {"geometry": {"location": {"lat": 51.4996248, "lng": -0.156835}, "viewport": {"northeast": {"lat": 51.5010016802915, "lng": -0.155402119708498}, "southwest": {"lat": 51.4983037197085, "lng": -0.158100080291502}}}, "name": "Gabhan O'Keeffe", "place_id": "ChIJ2xsFzDsFdkgRv3sNjxUAWio", "types": ["general_contractor", "point_of_interest", "establishment"]}, "ChIJxxNw3F0FdkgRyEc6sXY9E8o": {"geometry": {"location": {"lat": 51.49978429999999, "lng": -0.1568621}, "viewport": {"northeast": {"lat": 51.50114573029148, "lng": -0.155459769708498}, "southwest": {"lat": 51.49844776970849, "lng": -0.158157730291502}}}, "name": "Food Filosophy", "place_id": "ChIJxxNw3F0FdkgRyEc6sXY9E8o", "types": ["cafe", "food", "point_of_interest", "establishment"], "rating": 3.7, "user_ratings_total": 7}, "ChIJzeztySYFdkgR2CWULb6Osho": {"geometry": {"location": {"lat": 51.499432, "lng": -0.156735}, "viewport": {"northeast": {"lat": 51.5007994802915, "lng": -0.155270169708498}, "southwest": {"lat": 51.4981015197085, "lng": -0.157968130291502}}}, "name": "Harrys of London - Flagship Store", "place_id": "ChIJzeztySYFdkgR2CWULb6Osho", "types": ["shoe_store", "point_of_interest", "store", "establishment"]}, "ChIJtw73kjsFdkgRKwAdZihVzb4": {"geometry": {"location": {"lat": 51.499909, "lng": -0.15689}, "viewport": {"northeast": {"lat": 51.50126368029149, "lng": -0.1555050197084979}, "southwest": {"lat": 51.4985657197085, "lng": -0.158202980291502}}}, "name": "ChargePoint Charging Station", "place_id": "ChIJtw73kjsFdkgRKwAdZihVzb4", "types": ["point_of_interest", "establishment"]}, "ChIJb5KmiTsFdkgR9vBd08EFHho": {"geometry": {"location": {"lat": 51.499284, "lng": -0.1565664}, "viewport": {"northeast": {"lat": 51.5007313302915, "lng": -0.155193719708498}, "southwest": {"lat": 51.4980333697085, "lng": -0.157891680291502}}}, "name": "United 247 Investigations", "place_id": "ChIJb5KmiTsFdkgR9vBd08EFHho", "types": ["point_of_interest", "establishment"]}, "ChIJQS3PfjwFdkgRgdTQI3yFjFU": {"geometry": {"location": {"lat": 51.49893606145228, "lng": -0.1558700482397918}, "viewport": {"northeast": {"lat": 51.5002760802915, "lng": -0.154518619708498}, "southwest": {"lat": 51.4975781197085, "lng": -0.157216580291502}}}, "name": "1-3 W Halkin St", "place_id": "ChIJQS3PfjwFdkgRgdTQI3yFjFU", "types": ["route"]}, "ChIJt1JLYzwFdkgRaeszj2sVzQ8": {"geometry": {"location": {"lat": 51.49838940000001, "lng": -0.1558138}, "viewport": {"northeast": {"lat": 51.49984998029151, "lng": -0.154517719708498}, "southwest": {"lat": 51.49715201970851, "lng": -0.1572156802915021}}}, "name": "The Star Tavern, Belgravia", "place_id": "ChIJt1JLYzwFdkgRaeszj2sVzQ8", "types": ["bar", "point_of_interest", "establishment"], "rating": 4.4, "user_ratings_total": 679}, "ChIJa5wedTwFdkgRWhKOkEWR1os": {"geometry": {"location": {"lat": 51.4989916, "lng": -0.1567289}, "viewport": {"northeast": {"lat": 51.50042683029149, "lng": -0.155520369708498}, "southwest": {"lat": 51.4977288697085, "lng": -0.158218330291502}}}, "name": "Waitrose & Partners Belgravia", "place_id": "ChIJa5wedTwFdkgRWhKOkEWR1os", "types": ["supermarket", "bakery", "grocery_or_supermarket", "food", "point_of_interest", "store", "establishment"], "rating": 4.3, "user_ratings_total": 380}, "ChIJa5wedTwFdkgRpNN7nxSRn80": {"geometry": {"location": {"lat": 51.49896589999999, "lng": -0.1563773}, "viewport": {"northeast": {"lat": 51.50027213029149, "lng": -0.155004169708498}, "southwest": {"lat": 51.4975741697085, "lng": -0.157702130291502}}}, "name": "Mosimann's", "place_id": "ChIJa5wedTwFdkgRpNN7nxSRn80", "types": ["bar", "restaurant", "food", "point_of_interest", "establishment"], "rating": 4.7, "user_ratings_total": 149}, "ChIJhWYU9CkFdkgRSeFNOIcPYTY": {"geometry": {"location": {"lat": 51.49870199999999, "lng": -0.1564661}, "viewport": {"northeast": {"lat": 51.5001031802915, "lng": -0.155161069708498}, "southwest": {"lat": 51.4974052197085, "lng": -0.157859030291502}}}, "name": "Elizabeth Gage", "place_id": "ChIJhWYU9CkFdkgRSeFNOIcPYTY", "types": ["jewelry_store", "point_of_interest", "store", "establishment"], "rating": 5, "user_ratings_total": 3}, "ChIJEZwedTwFdkgRuNiQQPOeW4c": {"geometry": {"location": {"lat": 51.4989661, "lng": -0.1565559}, "viewport": {"northeast": {"lat": 51.5002248302915, "lng": -0.155701369708498}, "southwest": {"lat": 51.4975268697085, "lng": -0.158399330291502}}}, "name": "Consolidated Contractors International Ltd", "place_id": "ChIJEZwedTwFdkgRuNiQQPOeW4c", "types": ["general_contractor", "point_of_interest", "establishment"], "rating": 4, "user_ratings_total": 2}, "ChIJV5uwdzwFdkgRAuiq7zQSUcI": {"geometry": {"location": {"lat": 51.499026, "lng": -0.15646}, "viewport": {"northeast": {"lat": 51.5003007302915, "lng": -0.155048769708498}, "southwest": {"lat": 51.4976027697085, "lng": -0.157746730291502}}}, "name": "Acucosmetic UK", "place_id": "ChIJV5uwdzwFdkgRAuiq7zQSUcI", "types": ["beauty_salon", "spa", "health", "point_of_interest", "establishment"]}, "ChIJV5uwdzwFdkgRGoIzZ-Ez2XA": {"geometry": {"location": {"lat": 51.499026, "lng": -0.15646}, "viewport": {"northeast": {"lat": 51.5003007302915, "lng": -0.155048769708498}, "southwest": {"lat": 51.4976027697085, "lng": -0.157746730291502}}}, "name": "C C C", "place_id": "ChIJV5uwdzwFdkgRGoIzZ-Ez2XA", "types": ["general_contractor", "point_of_interest", "establishment"]}, "ChIJt6VDbjwFdkgRGXAo7uJImtQ": {"geometry": {"location": {"lat": 51.4984013, "lng": -0.1567778}, "viewport": {"northeast": {"lat": 51.4997202802915, "lng": -0.155481519708498}, "southwest": {"lat": 51.4970223197085, "lng": -0.158179480291502}}}, "name": "George Ghoneim & Associates", "place_id": "ChIJt6VDbjwFdkgRGXAo7uJImtQ", "types": ["point_of_interest", "establishment"]}, "ChIJTWMcejwFdkgRHcmDotrFSQA": {"geometry": {"location": {"lat": 51.4987545, "lng": -0.1563484}, "viewport": {"northeast": {"lat": 51.5001485802915, "lng": -0.155045319708498}, "southwest": {"lat": 51.49745061970851, "lng": -0.157743280291502}}}, "name": "Daniel Galvin Jnr", "place_id": "ChIJTWMcejwFdkgRHcmDotrFSQA", "types": ["hair_care", "point_of_interest", "establishment"], "rating": 4.2, "user_ratings_total": 31}, "ChIJXQThNvkzcEERC1AbsUBe7AU": {"geometry": {"location": {"lat": 51.49883070000001, "lng": -0.1568693}, "viewport": {"northeast": {"lat": 51.5002142802915, "lng": -0.155858069708498}, "southwest": {"lat": 51.4975163197085, "lng": -0.158556030291502}}}, "name": "Scorpio UK Ltd", "place_id": "ChIJXQThNvkzcEERC1AbsUBe7AU", "types": ["point_of_interest", "establishment"]}, "ChIJz_B9dDwFdkgRy2iiMug9rAU": {"geometry": {"location": {"lat": 51.49883070000001, "lng": -0.1568693}, "viewport": {"northeast": {"lat": 51.5002142802915, "lng": -0.155858069708498}, "southwest": {"lat": 51.4975163197085, "lng": -0.158556030291502}}}, "name": "Lorna Driver-Davies, BA (Hons), HD, DHNP, mNNA, CNHC", "place_id": "ChIJz_B9dDwFdkgRy2iiMug9rAU", "types": ["health", "point_of_interest", "establishment"], "rating": 5, "user_ratings_total": 1}, "ChIJJUPymTwFdkgR62Wq-tN3iv8": {"geometry": {"location": {"lat": 51.4986018, "lng": -0.1560963}, "viewport": {"northeast": {"lat": 51.49997513029149, "lng": -0.154703319708498}, "southwest": {"lat": 51.4972771697085, "lng": -0.157401280291502}}}, "name": "Belgravia House", "place_id": "ChIJJUPymTwFdkgR62Wq-tN3iv8", "types": ["art_gallery", "point_of_interest", "establishment"], "rating": 5, "user_ratings_total": 1}, "ChIJIahDnXoFdkgRvmwjn4r4Pew": {"geometry": {"location": {"lat": 51.4986009, "lng": -0.1559376}, "viewport": {"northeast": {"lat": 51.4999498802915, "lng": -0.154588619708498}, "southwest": {"lat": 51.4972519197085, "lng": -0.157286580291502}}}, "name": "Goldentiling, Exclusive Tiling and Design.", "place_id": "ChIJIahDnXoFdkgRvmwjn4r4Pew", "types": ["general_contractor", "point_of_interest", "establishment"]}, "ChIJ3dd0ECgFdkgRALZshcXWJdc": {"geometry": {"location": {"lat": 51.49844849999999, "lng": -0.1561627}, "viewport": {"northeast": {"lat": 51.49979748029148, "lng": -0.1548137197084979}, "southwest": {"lat": 51.49709951970848, "lng": -0.1575116802915019}}}, "name": "Lacuna London Living", "place_id": "ChIJ3dd0ECgFdkgRALZshcXWJdc", "types": ["general_contractor", "point_of_interest", "establishment"]}, "ChIJF7DhSyAFdkgReIVJDcj9Y6I": {"geometry": {"location": {"lat": 51.498731, "lng": -0.1558567}, "viewport": {"northeast": {"lat": 51.50006213029149, "lng": -0.154479219708498}, "southwest": {"lat": 51.4973641697085, "lng": -0.157177180291502}}}, "name": "SMARTCOMPASS LONDON", "place_id": "ChIJF7DhSyAFdkgReIVJDcj9Y6I", "types": ["point_of_interest", "establishment"]}, "ChIJoSTBfjwFdkgRLGU-DnOp9FQ": {"geometry": {"location": {"lat": 51.49878229999999, "lng": -0.1558822}, "viewport": {"northeast": {"lat": 51.5002062302915, "lng": -0.154553019708498}, "southwest": {"lat": 51.4975082697085, "lng": -0.157250980291502}}}, "name": "Lovat Estates Ltd", "place_id": "ChIJoSTBfjwFdkgRLGU-DnOp9FQ", "types": ["point_of_interest", "establishment"]}, "ChIJX52uZSkFdkgRG1P8BYRmQvA": {"geometry": {"location": {"lat": 51.498377, "lng": -0.1562022}, "viewport": {"northeast": {"lat": 51.4998379302915, "lng": -0.154720919708498}, "southwest": {"lat": 51.49713996970851, "lng": -0.157418880291502}}}, "name": "Cerebrum Tech", "place_id": "ChIJX52uZSkFdkgRG1P8BYRmQvA", "types": ["point_of_interest", "establishment"]}, "ChIJvSVQ6ksFdkgR4T5C34fR9SA": {"geometry": {"location": {"lat": 51.4983565, "lng": -0.1561791}, "viewport": {"northeast": {"lat": 51.49964963029149, "lng": -0.154720569708498}, "southwest": {"lat": 51.4969516697085, "lng": -0.157418530291502}}}, "name": "Geraldine London", "place_id": "ChIJvSVQ6ksFdkgR4T5C34fR9SA", "types": ["point_of_interest", "store", "establishment"], "rating": 5, "user_ratings_total": 8}, "ChIJ1cOE7mEFdkgR6ERqt4AzdQk": {"geometry": {"location": {"lat": 51.4989391, "lng": -0.1564735}, "viewport": {"northeast": {"lat": 51.5002142802915, "lng": -0.155660169708498}, "southwest": {"lat": 51.4975163197085, "lng": -0.158358130291502}}}, "name": "Enhance By Tara", "place_id": "ChIJ1cOE7mEFdkgR6ERqt4AzdQk", "types": ["health", "point_of_interest", "establishment"], "rating": 5, "user_ratings_total": 11}, "ChIJUbSGrdEadkgRZ1AHyNv0fug": {"geometry": {"location": {"lat": 51.4989308, "lng": -0.1565499}, "viewport": {"northeast": {"lat": 51.5002142802915, "lng": -0.155698369708498}, "southwest": {"lat": 51.4975163197085, "lng": -0.158396330291502}}}, "name": "Facial Sculpting | Dr Nina Bal", "place_id": "ChIJUbSGrdEadkgRZ1AHyNv0fug", "types": ["dentist", "spa", "health", "point_of_interest", "establishment"], "rating": 5, "user_ratings_total": 181}, "ChIJVVVBeDwFdkgRzDwR_JG3qT8": {"geometry": {"location": {"lat": 51.49903390000001, "lng": -0.1562059}, "viewport": {"northeast": {"lat": 51.5003180802915, "lng": -0.1548322697084979}, "southwest": {"lat": 51.4976201197085, "lng": -0.157530230291502}}}, "name": "Casa Puro Limited", "place_id": "ChIJVVVBeDwFdkgRzDwR_JG3qT8", "types": ["point_of_interest", "establishment"]}, "ChIJVVVBeDwFdkgRnGOp-KfaNXI": {"geometry": {"location": {"lat": 51.49903390000001, "lng": -0.1562059}, "viewport": {"northeast": {"lat": 51.5003180802915, "lng": -0.1548322697084979}, "southwest": {"lat": 51.4976201197085, "lng": -0.157530230291502}}}, "name": "CCC4vat2", "place_id": "ChIJVVVBeDwFdkgRnGOp-KfaNXI", "types": ["church", "place_of_worship", "point_of_interest", "establishment"]}, "ChIJ-Z9zZgsFdkgRd8Ugjm8fJMI": {"geometry": {"location": {"lat": 51.4989661, "lng": -0.1565559}, "viewport": {"northeast": {"lat": 51.5002248302915, "lng": -0.155701369708498}, "southwest": {"lat": 51.4975268697085, "lng": -0.158399330291502}}}, "name": "Tempus Belgravia", "place_id": "ChIJ-Z9zZgsFdkgRd8Ugjm8fJMI", "types": ["doctor", "health", "point_of_interest", "establishment"], "rating": 5, "user_ratings_total": 4}, "ChIJ07_3djwFdkgRZT6Yv_M1BQ0": {"geometry": {"location": {"lat": 51.4989661, "lng": -0.1565559}, "viewport": {"northeast": {"lat": 51.5002248302915, "lng": -0.155701369708498}, "southwest": {"lat": 51.4975268697085, "lng": -0.158399330291502}}}, "name": "Bamford Ltd", "place_id": "ChIJ07_3djwFdkgRZT6Yv_M1BQ0", "types": ["point_of_interest", "establishment"]}, "ChIJe0AbqSYFdkgR-dzWwRbZm5E": {"geometry": {"location": {"lat": 51.4989661, "lng": -0.1565559}, "viewport": {"northeast": {"lat": 51.5002248302915, "lng": -0.155701369708498}, "southwest": {"lat": 51.4975268697085, "lng": -0.158399330291502}}}, "name": "Dr Veerle Rotsaert Female Plastic Surgeon London", "place_id": "ChIJe0AbqSYFdkgR-dzWwRbZm5E", "types": ["spa", "doctor", "health", "point_of_interest", "establishment"], "rating": 5, "user_ratings_total": 9}, "ChIJFXA9MjYFdkgRzpJ3OdHDg7w": {"geometry": {"location": {"lat": 51.4989661, "lng": -0.1565559}, "viewport": {"northeast": {"lat": 51.5002248302915, "lng": -0.155701369708498}, "southwest": {"lat": 51.4975268697085, "lng": -0.158399330291502}}}, "name": "HRT Clinic London - Dr Victoria Manning", "place_id": "ChIJFXA9MjYFdkgRzpJ3OdHDg7w", "types": ["health", "point_of_interest", "establishment"], "rating": 5, "user_ratings_total": 2}, "ChIJz4YBnVUFdkgRQVPj9Ev_tYg": {"geometry": {"location": {"lat": 51.4991164, "lng": -0.1558847}, "viewport": {"northeast": {"lat": 51.50037758029149, "lng": -0.1545125197084979}, "southwest": {"lat": 51.49767961970849, "lng": -0.157210480291502}}}, "name": "WSI Digital Marketing Services", "place_id": "ChIJz4YBnVUFdkgRQVPj9Ev_tYg", "types": ["point_of_interest", "establishment"]}, "ChIJz_B9dDwFdkgRodqP92dRQvc": {"geometry": {"location": {"lat": 51.49883070000001, "lng": -0.1568693}, "viewport": {"northeast": {"lat": 51.5002142802915, "lng": -0.155858069708498}, "southwest": {"lat": 51.4975163197085, "lng": -0.158556030291502}}}, "name": "Stories of Art", "place_id": "ChIJz_B9dDwFdkgRodqP92dRQvc", "types": ["point_of_interest", "establishment"]}, "ChIJFzJe3wcFdkgRLut4RqkpQig": {"geometry": {"location": {"lat": 51.49891999999999, "lng": -0.1568122}, "viewport": {"northeast": {"lat": 51.5002142802915, "lng": -0.155829519708498}, "southwest": {"lat": 51.4975163197085, "lng": -0.158527480291502}}}, "name": "Wait and Load Knightsbridge", "place_id": "ChIJFzJe3wcFdkgRLut4RqkpQig", "types": ["point_of_interest", "establishment"]}, "ChIJmyz6WTwFdkgRHzEDJzvnxDA": {"geometry": {"location": {"lat": 51.49745085000157, "lng": -0.1559710999682592}, "viewport": {"northeast": {"lat": 51.4987998302915, "lng": -0.154622119708498}, "southwest": {"lat": 51.4961018697085, "lng": -0.157320080291502}}}, "name": "26-20 Chesham Pl", "place_id": "ChIJmyz6WTwFdkgRHzEDJzvnxDA", "types": ["route"]}, "ChIJYa44RTwFdkgRUJVKKazdnrA": {"geometry": {"location": {"lat": 51.49725000000001, "lng": -0.156378}, "viewport": {"northeast": {"lat": 51.4986428802915, "lng": -0.154811469708498}, "southwest": {"lat": 51.4959449197085, "lng": -0.1575094302915021}}}, "name": "The Hari", "place_id": "ChIJYa44RTwFdkgRUJVKKazdnrA", "types": ["lodging", "bar", "restaurant", "food", "point_of_interest", "establishment"], "rating": 4.5, "user_ratings_total": 653}, "ChIJxXIzZDwFdkgRGyJ2etus5Ig": {"geometry": {"location": {"lat": 51.49794219999999, "lng": -0.1560649}, "viewport": {"northeast": {"lat": 51.4992736302915, "lng": -0.154803369708498}, "southwest": {"lat": 51.4965756697085, "lng": -0.157501330291502}}}, "name": "Egyptian Consulate General", "place_id": "ChIJxXIzZDwFdkgRGyJ2etus5Ig", "types": ["embassy", "point_of_interest", "establishment"], "rating": 2.6, "user_ratings_total": 343}, "ChIJsTOhRjwFdkgR_FdASHvc1uc": {"geometry": {"location": {"lat": 51.4973295, "lng": -0.1566313}, "viewport": {"northeast": {"lat": 51.49874073029149, "lng": -0.155342919708498}, "southwest": {"lat": 51.4960427697085, "lng": -0.158040880291502}}}, "name": "Neville Hair and Beauty", "place_id": "ChIJsTOhRjwFdkgR_FdASHvc1uc", "types": ["beauty_salon", "hair_care", "point_of_interest", "store", "establishment"], "rating": 4.7, "user_ratings_total": 188}, "ChIJaZynQTwFdkgRV-I_YktgDhg": {"geometry": {"location": {"lat": 51.4975843, "lng": -0.1568743}, "viewport": {"northeast": {"lat": 51.4988635802915, "lng": -0.155505469708498}, "southwest": {"lat": 51.4961656197085, "lng": -0.158203430291502}}}, "name": "Jeeves Of Belgravia", "place_id": "ChIJaZynQTwFdkgRV-I_YktgDhg", "types": ["laundry", "point_of_interest", "establishment"], "rating": 4.2, "user_ratings_total": 43}, "ChIJ6-vbRTwFdkgR7bEAXEGPTng": {"geometry": {"location": {"lat": 51.4973269, "lng": -0.1567443}, "viewport": {"northeast": {"lat": 51.4987379302915, "lng": -0.155412969708498}, "southwest": {"lat": 51.49603996970851, "lng": -0.158110930291502}}}, "name": "Pretty Ballerinas Belgravia", "place_id": "ChIJ6-vbRTwFdkgR7bEAXEGPTng", "types": ["shoe_store", "point_of_interest", "store", "establishment"], "rating": 4.8, "user_ratings_total": 4}, "ChIJaZynQTwFdkgR6eDKhAEp-i0": {"geometry": {"location": {"lat": 51.49758730000001, "lng": -0.1566288}, "viewport": {"northeast": {"lat": 51.4988777302915, "lng": -0.155264419708498}, "southwest": {"lat": 51.4961797697085, "lng": -0.157962380291502}}}, "name": "THG Paris", "place_id": "ChIJaZynQTwFdkgR6eDKhAEp-i0", "types": ["home_goods_store", "general_contractor", "point_of_interest", "store", "establishment"], "rating": 5, "user_ratings_total": 7}, "ChIJf8029DwFdkgRhlXyyIkiOkE": {"geometry": {"location": {"lat": 51.4975129, "lng": -0.1561041}, "viewport": {"northeast": {"lat": 51.4988675302915, "lng": -0.154697969708498}, "southwest": {"lat": 51.4961695697085, "lng": -0.157395930291502}}}, "name": "Majestic Limousines", "place_id": "ChIJf8029DwFdkgRhlXyyIkiOkE", "types": ["point_of_interest", "establishment"]}, "ChIJ6-vbRTwFdkgRlLqYTm1oy7Y": {"geometry": {"location": {"lat": 51.4973938, "lng": -0.1564942}, "viewport": {"northeast": {"lat": 51.4987851302915, "lng": -0.155156369708498}, "southwest": {"lat": 51.4960871697085, "lng": -0.157854330291502}}}, "name": "Hind Property Co. Limited", "place_id": "ChIJ6-vbRTwFdkgRlLqYTm1oy7Y", "types": ["finance", "point_of_interest", "establishment"]}, "ChIJk_pBRDwFdkgRz32yG9evGkM": {"geometry": {"location": {"lat": 51.4973706, "lng": -0.1565311}, "viewport": {"northeast": {"lat": 51.4987714302915, "lng": -0.155195719708498}, "southwest": {"lat": 51.4960734697085, "lng": -0.157893680291502}}}, "name": "Salmontini le Resto", "place_id": "ChIJk_pBRDwFdkgRz32yG9evGkM", "types": ["restaurant", "night_club", "bar", "food", "point_of_interest", "establishment"], "rating": 4.5, "user_ratings_total": 31}, "ChIJodY5RDwFdkgRcqL86B0-kHk": {"geometry": {"location": {"lat": 51.4973716, "lng": -0.1566}, "viewport": {"northeast": {"lat": 51.4987684802915, "lng": -0.1552636197084979}, "southwest": {"lat": 51.4960705197085, "lng": -0.157961580291502}}}, "name": "Totally Indispensable", "place_id": "ChIJodY5RDwFdkgRcqL86B0-kHk", "types": ["travel_agency", "point_of_interest", "establishment"]}, "ChIJm4nCaTwFdkgRURU_GR4z2II": {"geometry": {"location": {"lat": 51.497873, "lng": -0.1565858}, "viewport": {"northeast": {"lat": 51.4992825302915, "lng": -0.155130469708498}, "southwest": {"lat": 51.4965845697085, "lng": -0.157828430291502}}}, "name": "UK Mission Enterprise Ltd", "place_id": "ChIJm4nCaTwFdkgRURU_GR4z2II", "types": ["point_of_interest", "establishment"]}, "ChIJ3Q9iRjwFdkgRzdLHV6hN-x0": {"geometry": {"location": {"lat": 51.4973269, "lng": -0.1567443}, "viewport": {"northeast": {"lat": 51.4987379302915, "lng": -0.155412969708498}, "southwest": {"lat": 51.49603996970851, "lng": -0.158110930291502}}}, "name": "Pretty Loafers", "place_id": "ChIJ3Q9iRjwFdkgRzdLHV6hN-x0", "types": ["shoe_store", "point_of_interest", "store", "establishment"]}, "ChIJKzIK9TwFdkgRUFJNnH8YczE": {"geometry": {"location": {"lat": 51.4976801, "lng": -0.1554341}, "viewport": {"northeast": {"lat": 51.4989590802915, "lng": -0.154072669708498}, "southwest": {"lat": 51.4962611197085, "lng": -0.156770630291502}}}, "name": "High Commission of Lesotho, London", "place_id": "ChIJKzIK9TwFdkgRUFJNnH8YczE", "types": ["embassy", "point_of_interest", "establishment"], "rating": 4, "user_ratings_total": 1}, "ChIJe6nxWzwFdkgRrsT-bAXcItk": {"geometry": {"location": {"lat": 51.4975967, "lng": -0.1562898}, "viewport": {"northeast": {"lat": 51.4989537302915, "lng": -0.154797319708498}, "southwest": {"lat": 51.4962557697085, "lng": -0.1574952802915021}}}, "name": "Chesham Court Apartments", "place_id": "ChIJe6nxWzwFdkgRrsT-bAXcItk", "types": ["real_estate_agency", "lodging", "travel_agency", "point_of_interest", "establishment"], "rating": 3.5, "user_ratings_total": 8}, "ChIJ4997WzwFdkgREdnkUilixWs": {"geometry": {"location": {"lat": 51.4972497, "lng": -0.156378}, "viewport": {"northeast": {"lat": 51.49866608029149, "lng": -0.154805869708498}, "southwest": {"lat": 51.49596811970849, "lng": -0.157503830291502}}}, "name": "Dining Room At The Sheraton Belgravia Hotel", "place_id": "ChIJ4997WzwFdkgREdnkUilixWs", "types": ["transit_station", "point_of_interest", "establishment"]}, "ChIJaZynQTwFdkgRDsFwoS7das4": {"geometry": {"location": {"lat": 51.497575, "lng": -0.15673}, "viewport": {"northeast": {"lat": 51.4988665302915, "lng": -0.1553646697084979}, "southwest": {"lat": 51.4961685697085, "lng": -0.158062630291502}}}, "name": "The European Union Youth Orchestra (EUYO)", "place_id": "ChIJaZynQTwFdkgRDsFwoS7das4", "types": ["point_of_interest", "establishment"]}, "ChIJAfnVWjwFdkgRwgA5Eg_yRlo": {"geometry": {"location": {"lat": 51.4973293, "lng": -0.1562903}, "viewport": {"northeast": {"lat": 51.4987058802915, "lng": -0.1547703197084979},