{"E00023827": {"ChIJY3icwNYadkgREQ6EuZjqHvI": {"geometry": {"location": {"lat": 51.52145525478549, "lng": -0.1456333199748692}, "viewport": {"northeast": {"lat": 51.5228042302915, "lng": -0.144284369708498}, "southwest": {"lat": 51.5201062697085, "lng": -0.146982330291502}}}, "name": "Portland Place", "place_id": "ChIJY3icwNYadkgREQ6EuZjqHvI", "types": ["route"]}, "ChIJ67HUxdYadkgRd831EcLEEtg": {"geometry": {"location": {"lat": 51.5218293, "lng": -0.1459832}, "viewport": {"northeast": {"lat": 51.5231730802915, "lng": -0.144541069708498}, "southwest": {"lat": 51.5204751197085, "lng": -0.147239030291502}}}, "name": "Royal Air Force Benevolent Fund", "place_id": "ChIJ67HUxdYadkgRd831EcLEEtg", "types": ["point_of_interest", "establishment"], "rating": 4.8, "user_ratings_total": 12}, "ChIJNybCldYadkgRASfwkQyBYdc": {"geometry": {"location": {"lat": 51.5217958, "lng": -0.1461267}, "viewport": {"northeast": {"lat": 51.5231716802915, "lng": -0.1446153197084979}, "southwest": {"lat": 51.5204737197085, "lng": -0.147313280291502}}}, "name": "The Royal Air Force Disabled Holiday Trust", "place_id": "ChIJNybCldYadkgRASfwkQyBYdc", "types": ["point_of_interest", "establishment"]}, "ChIJORu4x9YadkgRlCKbOg3KFyY": {"geometry": {"location": {"lat": 51.52162260000001, "lng": -0.1460739}, "viewport": {"northeast": {"lat": 51.5229996302915, "lng": -0.144552369708498}, "southwest": {"lat": 51.5203016697085, "lng": -0.147250330291502}}}, "name": "Southbank International School Westminster - Portland Place", "place_id": "ChIJORu4x9YadkgRlCKbOg3KFyY", "types": ["secondary_school", "school", "point_of_interest", "establishment"], "rating": 4, "user_ratings_total": 17}, "ChIJF6x4ztYadkgRxOStEGx6DOs": {"geometry": {"location": {"lat": 51.52206309999999, "lng": -0.1465937}, "viewport": {"northeast": {"lat": 51.52334998029149, "lng": -0.145217319708498}, "southwest": {"lat": 51.52065201970849, "lng": -0.147915280291502}}}, "name": "Cudd Bentley Consulting Ltd.", "place_id": "ChIJF6x4ztYadkgRxOStEGx6DOs", "types": ["point_of_interest", "establishment"], "rating": 5, "user_ratings_total": 1}, "ChIJF6x4ztYadkgRLIkSfOkW1zw": {"geometry": {"location": {"lat": 51.5220777, "lng": -0.1466544}, "viewport": {"northeast": {"lat": 51.5233529802915, "lng": -0.145272919708498}, "southwest": {"lat": 51.5206550197085, "lng": -0.147970880291502}}}, "name": "Koncept Interior Design", "place_id": "ChIJF6x4ztYadkgRLIkSfOkW1zw", "types": ["general_contractor", "point_of_interest", "establishment"]}, "ChIJZV2XzdYadkgR_bii82n0bcc": {"geometry": {"location": {"lat": 51.5221099, "lng": -0.1466233}, "viewport": {"northeast": {"lat": 51.5233726302915, "lng": -0.145236319708498}, "southwest": {"lat": 51.52067466970851, "lng": -0.147934280291502}}}, "name": "ARG Asset Management", "place_id": "ChIJZV2XzdYadkgR_bii82n0bcc", "types": ["finance", "point_of_interest", "establishment"]}, "ChIJWwMBudYadkgREv5w2Dri0ag": {"geometry": {"location": {"lat": 51.5213337, "lng": -0.1457592}, "viewport": {"northeast": {"lat": 51.5226964302915, "lng": -0.144327169708498}, "southwest": {"lat": 51.5199984697085, "lng": -0.147025130291502}}}, "name": "Dr Alan Sidi", "place_id": "ChIJWwMBudYadkgREv5w2Dri0ag", "types": ["dentist", "health", "point_of_interest", "establishment"], "rating": 5, "user_ratings_total": 13}, "ChIJ61HuzNYadkgRRw1iV1A6AsU": {"geometry": {"location": {"lat": 51.5219886, "lng": -0.1467732}, "viewport": {"northeast": {"lat": 51.5232958802915, "lng": -0.1454058197084979}, "southwest": {"lat": 51.5205979197085, "lng": -0.148103780291502}}}, "name": "Southeast Rejuvenation", "place_id": "ChIJ61HuzNYadkgRRw1iV1A6AsU", "types": ["health", "point_of_interest", "establishment"]}, "ChIJ61HuzNYadkgRLes254J5Ilo": {"geometry": {"location": {"lat": 51.5219886, "lng": -0.1467732}, "viewport": {"northeast": {"lat": 51.5232958802915, "lng": -0.1454058197084979}, "southwest": {"lat": 51.5205979197085, "lng": -0.148103780291502}}}, "name": "The Reflux Clinic", "place_id": "ChIJ61HuzNYadkgRLes254J5Ilo", "types": ["doctor", "health", "point_of_interest", "establishment"]}, "ChIJD7Fm6tYadkgR6yiz9-QZ8HQ": {"geometry": {"location": {"lat": 51.52167530000001, "lng": -0.1453408}, "viewport": {"northeast": {"lat": 51.52300898029151, "lng": -0.144080519708498}, "southwest": {"lat": 51.52031101970851, "lng": -0.146778480291502}}}, "name": "OFFICETWENTYFIVEARCHITECTS LTD", "place_id": "ChIJD7Fm6tYadkgR6yiz9-QZ8HQ", "types": ["point_of_interest", "establishment"]}, "ChIJlVHuzNYadkgRey9V3N-Ds18": {"geometry": {"location": {"lat": 51.5220069, "lng": -0.1468019}, "viewport": {"northeast": {"lat": 51.5233033802915, "lng": -0.145429769708498}, "southwest": {"lat": 51.5206054197085, "lng": -0.148127730291502}}}, "name": "Gastro Practice", "place_id": "ChIJlVHuzNYadkgRey9V3N-Ds18", "types": ["health", "point_of_interest", "establishment"]}, "ChIJKSkizdYadkgRLp4lq1Eh-wY": {"geometry": {"location": {"lat": 51.5220069, "lng": -0.1468019}, "viewport": {"northeast": {"lat": 51.5233033802915, "lng": -0.145429769708498}, "southwest": {"lat": 51.5206054197085, "lng": -0.148127730291502}}}, "name": "The Physicians' Clinic", "place_id": "ChIJKSkizdYadkgRLp4lq1Eh-wY", "types": ["hospital", "health", "point_of_interest", "establishment"], "rating": 3.3, "user_ratings_total": 31}, "ChIJIWdyv9YadkgR4MmSR1maO1M": {"geometry": {"location": {"lat": 51.5213337, "lng": -0.1457592}, "viewport": {"northeast": {"lat": 51.5226964302915, "lng": -0.144327169708498}, "southwest": {"lat": 51.5199984697085, "lng": -0.147025130291502}}}, "name": "London odonto team", "place_id": "ChIJIWdyv9YadkgR4MmSR1maO1M", "types": ["dentist", "health", "point_of_interest", "establishment"]}, "ChIJ07RL5tYadkgRRbTWQ5mO620": {"geometry": {"location": {"lat": 51.52164130000001, "lng": -0.1459149}, "viewport": {"northeast": {"lat": 51.5230058802915, "lng": -0.144471569708498}, "southwest": {"lat": 51.52030791970851, "lng": -0.147169530291502}}}, "name": "Burnett Hodd & Tam Optometry", "place_id": "ChIJ07RL5tYadkgRRbTWQ5mO620", "types": ["health", "point_of_interest", "store", "establishment"], "rating": 5, "user_ratings_total": 19}, "ChIJAe2cmNYadkgRmatuHG77tFc": {"geometry": {"location": {"lat": 51.5216362, "lng": -0.1459129}, "viewport": {"northeast": {"lat": 51.5230008302915, "lng": -0.144469469708498}, "southwest": {"lat": 51.5203028697085, "lng": -0.147167430291502}}}, "name": "Academy Of Medical Sciences", "place_id": "ChIJAe2cmNYadkgRmatuHG77tFc", "types": ["point_of_interest", "establishment"], "rating": 4.5, "user_ratings_total": 32}, "ChIJj5WE3nMFdkgRGtCpk51S_G4": {"geometry": {"location": {"lat": 51.52195200000001, "lng": -0.145278}, "viewport": {"northeast": {"lat": 51.5232706802915, "lng": -0.144104219708498}, "southwest": {"lat": 51.5205727197085, "lng": -0.146802180291502}}}, "name": "Friends of Australian Wildlife Conservancy", "place_id": "ChIJj5WE3nMFdkgRGtCpk51S_G4", "types": ["point_of_interest", "establishment"]}, "ChIJ5bdIx9YadkgRGODb0WsIS5s": {"geometry": {"location": {"lat": 51.5215386, "lng": -0.1458681}, "viewport": {"northeast": {"lat": 51.52290788029151, "lng": -0.144428219708498}, "southwest": {"lat": 51.52020991970851, "lng": -0.147126180291502}}}, "name": "Queen's College Preparatory School", "place_id": "ChIJ5bdIx9YadkgRGODb0WsIS5s", "types": ["primary_school", "school", "point_of_interest", "establishment"], "rating": 4.5, "user_ratings_total": 26}, "ChIJWwMBudYadkgRNCowbJu4xt8": {"geometry": {"location": {"lat": 51.52136489999999, "lng": -0.1459175}, "viewport": {"northeast": {"lat": 51.52273883029149, "lng": -0.144417769708498}, "southwest": {"lat": 51.5200408697085, "lng": -0.147115730291502}}}, "name": "Redhead Orthodontics", "place_id": "ChIJWwMBudYadkgRNCowbJu4xt8", "types": ["dentist", "health", "point_of_interest", "establishment"], "rating": 5, "user_ratings_total": 32}, "ChIJ48pM6tYadkgRLCu4SgtnkZE": {"geometry": {"location": {"lat": 51.5217091, "lng": -0.1452303}, "viewport": {"northeast": {"lat": 51.52303268029149, "lng": -0.144028319708498}, "southwest": {"lat": 51.52033471970849, "lng": -0.146726280291502}}}, "name": "Mara Bravo ARCHITECTURE", "place_id": "ChIJ48pM6tYadkgRLCu4SgtnkZE", "types": ["point_of_interest", "establishment"], "rating": 3, "user_ratings_total": 2}, "ChIJ4cpM6tYadkgRAg_BG4SS2o8": {"geometry": {"location": {"lat": 51.5217091, "lng": -0.1452302}, "viewport": {"northeast": {"lat": 51.52303268029149, "lng": -0.144028269708498}, "southwest": {"lat": 51.52033471970849, "lng": -0.146726230291502}}}, "name": "RIBA Publishing", "place_id": "ChIJ4cpM6tYadkgRAg_BG4SS2o8", "types": ["point_of_interest", "establishment"], "rating": 5, "user_ratings_total": 2}, "ChIJ__8DxtYadkgRagml-iBkLBk": {"geometry": {"location": {"lat": 51.5217958, "lng": -0.1461267}, "viewport": {"northeast": {"lat": 51.5231716802915, "lng": -0.1446153197084979}, "southwest": {"lat": 51.5204737197085, "lng": -0.147313280291502}}}, "name": "Royal Observer Corps Benevolent Fund", "place_id": "ChIJ__8DxtYadkgRagml-iBkLBk", "types": ["point_of_interest", "establishment"]}, "ChIJ6bEsxVYbdkgRKUhC8gngC-8": {"geometry": {"location": {"lat": 51.52163170000001, "lng": -0.1459879}, "viewport": {"northeast": {"lat": 51.5230022302915, "lng": -0.144508569708498}, "southwest": {"lat": 51.5203042697085, "lng": -0.147206530291502}}}, "name": "Frances Hodgson Burnett Blue Plaque", "place_id": "ChIJ6bEsxVYbdkgRKUhC8gngC-8", "types": ["point_of_interest", "establishment"], "rating": 4, "user_ratings_total": 1}, "ChIJN_kmwdYadkgR_7hy5wEuTuA": {"geometry": {"location": {"lat": 51.521617, "lng": -0.1460078}, "viewport": {"northeast": {"lat": 51.5229895802915, "lng": -0.144516219708498}, "southwest": {"lat": 51.5202916197085, "lng": -0.147214180291502}}}, "name": "School 2", "place_id": "ChIJN_kmwdYadkgR_7hy5wEuTuA", "types": ["school", "point_of_interest", "establishment"]}, "ChIJC3dXydYadkgRa4IW4HJvh2E": {"geometry": {"location": {"lat": 51.52194300000001, "lng": -0.1463683}, "viewport": {"northeast": {"lat": 51.5232847802915, "lng": -0.145016219708498}, "southwest": {"lat": 51.5205868197085, "lng": -0.147714180291502}}}, "name": "Advance Histopathology Laboratory Ltd.", "place_id": "ChIJC3dXydYadkgRa4IW4HJvh2E", "types": ["doctor", "health", "point_of_interest", "establishment"]}, "ChIJU6VEx9YadkgRLFCDkGDZJ5A": {"geometry": {"location": {"lat": 51.52153190000001, "lng": -0.1458466}, "viewport": {"northeast": {"lat": 51.52289483029151, "lng": -0.144413319708498}, "southwest": {"lat": 51.52019686970851, "lng": -0.147111280291502}}}, "name": "Rosy Thompson Academy Of Dance", "place_id": "ChIJU6VEx9YadkgRLFCDkGDZJ5A", "types": ["school", "point_of_interest", "establishment"], "rating": 2.3, "user_ratings_total": 3}, "ChIJBRnkigQbdkgRheQOmwKCZso": {"geometry": {"location": {"lat": 51.5214533, "lng": -0.1459717}, "viewport": {"northeast": {"lat": 51.5228284802915, "lng": -0.144464319708498}, "southwest": {"lat": 51.5201305197085, "lng": -0.147162280291502}}}, "name": "Nationalsanitationservicesindia.com", "place_id": "ChIJBRnkigQbdkgRheQOmwKCZso", "types": ["point_of_interest", "establishment"]}, "ChIJ60BKzNYadkgR3gGhlR4XqP8": {"geometry": {"location": {"lat": 51.5219866, "lng": -0.1466089}, "viewport": {"northeast": {"lat": 51.5233077302915, "lng": -0.145248369708498}, "southwest": {"lat": 51.5206097697085, "lng": -0.147946330291502}}}, "name": "ubitricity Charging Station", "place_id": "ChIJ60BKzNYadkgR3gGhlR4XqP8", "types": ["point_of_interest", "establishment"]}, "ChIJrZIO-HkbdkgRT9cuGNGPdCM": {"geometry": {"location": {"lat": 51.5217951, "lng": -0.1467243}, "viewport": {"northeast": {"lat": 51.5231962302915, "lng": -0.145398319708498}, "southwest": {"lat": 51.5204982697085, "lng": -0.1480962802915021}}}, "name": "MarvW @ Inc Images Ltd", "place_id": "ChIJrZIO-HkbdkgRT9cuGNGPdCM", "types": ["art_gallery", "point_of_interest", "establishment"]}, "ChIJlVHuzNYadkgRU9dOyCn_dBc": {"geometry": {"location": {"lat": 51.52176859999999, "lng": -0.1467367}, "viewport": {"northeast": {"lat": 51.5231810302915, "lng": -0.145415719708498}, "southwest": {"lat": 51.5204830697085, "lng": -0.148113680291502}}}, "name": "Harley Street Cardiology", "place_id": "ChIJlVHuzNYadkgRU9dOyCn_dBc", "types": ["health", "point_of_interest", "establishment"]}, "ChIJdXyHAEobdkgRGaDr5tEkBNA": {"geometry": {"location": {"lat": 51.5217614, "lng": -0.1453997}, "viewport": {"northeast": {"lat": 51.52309668029149, "lng": -0.144129919708498}, "southwest": {"lat": 51.5203987197085, "lng": -0.146827880291502}}}, "name": "HASSANY", "place_id": "ChIJdXyHAEobdkgRGaDr5tEkBNA", "types": ["restaurant", "food", "point_of_interest", "establishment"]}, "ChIJSfLH7YMbdkgRjUUehbDUWIk": {"geometry": {"location": {"lat": 51.52136489999999, "lng": -0.1459175}, "viewport": {"northeast": {"lat": 51.52273883029149, "lng": -0.144417769708498}, "southwest": {"lat": 51.5200408697085, "lng": -0.147115730291502}}}, "name": "Ian Blewitt - Endodontics", "place_id": "ChIJSfLH7YMbdkgRjUUehbDUWIk", "types": ["dentist", "health", "point_of_interest", "establishment"]}, "ChIJq6qWzdYadkgRmAa_ullOCZo": {"geometry": {"location": {"lat": 51.5220827, "lng": -0.1466339}, "viewport": {"northeast": {"lat": 51.5233572802915, "lng": -0.145252119708498}, "southwest": {"lat": 51.5206593197085, "lng": -0.147950080291502}}}, "name": "Commonwealth Heritage Forum", "place_id": "ChIJq6qWzdYadkgRmAa_ullOCZo", "types": ["point_of_interest", "establishment"]}, "ChIJN8QDI5MbdkgRsRYLX1G86Yg": {"geometry": {"location": {"lat": 51.5220827, "lng": -0.1466339}, "viewport": {"northeast": {"lat": 51.5233572802915, "lng": -0.145252119708498}, "southwest": {"lat": 51.5206593197085, "lng": -0.147950080291502}}}, "name": "Harley Street", "place_id": "ChIJN8QDI5MbdkgRsRYLX1G86Yg", "types": ["health", "point_of_interest", "establishment"], "rating": 5, "user_ratings_total": 10}, "ChIJn_xnyuYbdkgRdeb17X6xmMc": {"geometry": {"location": {"lat": 51.5220827, "lng": -0.1466339}, "viewport": {"northeast": {"lat": 51.5233572802915, "lng": -0.145252119708498}, "southwest": {"lat": 51.5206593197085, "lng": -0.147950080291502}}}, "name": "Best Photography Marylebone", "place_id": "ChIJn_xnyuYbdkgRdeb17X6xmMc", "types": ["point_of_interest", "establishment"]}, "ChIJ9z03hT0FdkgRoI4PZ2Xs8f4": {"geometry": {"location": {"lat": 51.5221016, "lng": -0.1466262}, "viewport": {"northeast": {"lat": 51.5233679802915, "lng": -0.1452408197084979}, "southwest": {"lat": 51.5206700197085, "lng": -0.147938780291502}}}, "name": "Donald Insall Associates", "place_id": "ChIJ9z03hT0FdkgRoI4PZ2Xs8f4", "types": ["point_of_interest", "establishment"], "rating": 5, "user_ratings_total": 5}, "ChIJBfQibOwbdkgRxBbsFBlhHqk": {"geometry": {"location": {"lat": 51.5220777, "lng": -0.1466544}, "viewport": {"northeast": {"lat": 51.5233529802915, "lng": -0.145272919708498}, "southwest": {"lat": 51.5206550197085, "lng": -0.147970880291502}}}, "name": "Cudd Bentley Lighting Design", "place_id": "ChIJBfQibOwbdkgRxBbsFBlhHqk", "types": ["point_of_interest", "establishment"]}, "ChIJn5xZ4rwadkgRHjwlEtL4dLA": {"geometry": {"location": {"lat": 51.5220069, "lng": -0.1468019}, "viewport": {"northeast": {"lat": 51.5233033802915, "lng": -0.145429769708498}, "southwest": {"lat": 51.5206054197085, "lng": -0.148127730291502}}}, "name": "Dr Huw Beynon", "place_id": "ChIJn5xZ4rwadkgRHjwlEtL4dLA", "types": ["doctor", "health", "point_of_interest", "establishment"], "rating": 3.7, "user_ratings_total": 9}, "ChIJJQ8SR9EadkgRVxyxLgarArQ": {"geometry": {"location": {"lat": 51.52201569999999, "lng": -0.1467277}, "viewport": {"northeast": {"lat": 51.52331398029149, "lng": -0.145356369708498}, "southwest": {"lat": 51.52061601970849, "lng": -0.148054330291502}}}, "name": "Private Counselling London", "place_id": "ChIJJQ8SR9EadkgRVxyxLgarArQ", "types": ["health", "point_of_interest", "establishment"]}, "ChIJSXZlwtYadkgRDo0EcwY7MAk": {"geometry": {"location": {"lat": 51.5219457, "lng": -0.1453204}, "viewport": {"northeast": {"lat": 51.5232680302915, "lng": -0.144125619708498}, "southwest": {"lat": 51.5205700697085, "lng": -0.146823580291502}}}, "name": "Searle Mr A", "place_id": "ChIJSXZlwtYadkgRDo0EcwY7MAk", "types": ["doctor", "health", "point_of_interest", "establishment"]}, "ChIJKULlmoMbdkgRzGVUAGXCTns": {"geometry": {"location": {"lat": 51.52201119999999, "lng": -0.1453838}, "viewport": {"northeast": {"lat": 51.5234168302915, "lng": -0.144054669708498}, "southwest": {"lat": 51.5207188697085, "lng": -0.146752630291502}}}, "name": "Flat battery Regent Street", "place_id": "ChIJKULlmoMbdkgRzGVUAGXCTns", "types": ["car_repair", "point_of_interest", "establishment"]}, "ChIJjZG6ONEadkgRIqXIGjV972M": {"geometry": {"location": {"lat": 51.5213236, "lng": -0.1457627}, "viewport": {"northeast": {"lat": 51.5226869302915, "lng": -0.144327019708498}, "southwest": {"lat": 51.5199889697085, "lng": -0.1470249802915021}}}, "name": "ARGC Portland Place", "place_id": "ChIJjZG6ONEadkgRIqXIGjV972M", "types": ["health", "point_of_interest", "establishment"]}, "ChIJZ1C4QJMbdkgRUkKToO3B7wE": {"geometry": {"location": {"lat": 51.5222276, "lng": -0.1456922}, "viewport": {"northeast": {"lat": 51.5235710302915, "lng": -0.1443750697084979}, "southwest": {"lat": 51.5208730697085, "lng": -0.147073030291502}}}, "name": "METAL ROCKS EDUCATION LTD", "place_id": "ChIJZ1C4QJMbdkgRUkKToO3B7wE", "types": ["point_of_interest", "establishment"]}, "ChIJGUQizdYadkgRtVow-ANq_UU": {"geometry": {"location": {"lat": 51.5220069, "lng": -0.1468019}, "viewport": {"northeast": {"lat": 51.5233033802915, "lng": -0.145429769708498}, "southwest": {"lat": 51.5206054197085, "lng": -0.148127730291502}}}, "name": "Dr Neal Navani", "place_id": "ChIJGUQizdYadkgRtVow-ANq_UU", "types": ["health", "point_of_interest", "establishment"]}, "ChIJGUQizdYadkgR6Kc8apEeoAM": {"geometry": {"location": {"lat": 51.5220069, "lng": -0.1468019}, "viewport": {"northeast": {"lat": 51.5233033802915, "lng": -0.145429769708498}, "southwest": {"lat": 51.5206054197085, "lng": -0.148127730291502}}}, "name": "The Endoscopy Clinic", "place_id": "ChIJGUQizdYadkgR6Kc8apEeoAM", "types": ["doctor", "health", "point_of_interest", "establishment"]}, "ChIJ12TCmdYadkgRx81hD9UZ7Es": {"geometry": {"location": {"lat": 51.5213337, "lng": -0.1457592}, "viewport": {"northeast": {"lat": 51.5226964302915, "lng": -0.144327169708498}, "southwest": {"lat": 51.5199984697085, "lng": -0.147025130291502}}}, "name": "H Thuau", "place_id": "ChIJ12TCmdYadkgRx81hD9UZ7Es", "types": ["health", "point_of_interest", "establishment"]}, "ChIJWwMBudYadkgRUtOzzulO9gE": {"geometry": {"location": {"lat": 51.5213337, "lng": -0.1457592}, "viewport": {"northeast": {"lat": 51.5226964302915, "lng": -0.144327169708498}, "southwest": {"lat": 51.5199984697085, "lng": -0.147025130291502}}}, "name": "Yerbury P J", "place_id": "ChIJWwMBudYadkgRUtOzzulO9gE", "types": ["dentist", "health", "point_of_interest", "establishment"]}, "ChIJKZqCqmAbdkgRPpcV3-HPBNU": {"geometry": {"location": {"lat": 51.5216942, "lng": -0.1452757}, "viewport": {"northeast": {"lat": 51.5230219802915, "lng": -0.1440495697084979}, "southwest": {"lat": 51.52032401970851, "lng": -0.146747530291502}}}, "name": "RIBA", "place_id": "ChIJKZqCqmAbdkgRPpcV3-HPBNU", "types": ["point_of_interest", "establishment"], "rating": 3, "user_ratings_total": 1}, "ChIJ7xKbwt4bdkgRTgWVmhxtmQM": {"geometry": {"location": {"lat": 51.5216942, "lng": -0.1452757}, "viewport": {"northeast": {"lat": 51.5230219802915, "lng": -0.1440495697084979}, "southwest": {"lat": 51.52032401970851, "lng": -0.146747530291502}}}, "name": "RIBA Incubator", "place_id": "ChIJ7xKbwt4bdkgRTgWVmhxtmQM", "types": ["point_of_interest", "establishment"]}, "ChIJbzPPiFYbdkgRRAxlRRxtngk": {"geometry": {"location": {"lat": 51.5213236, "lng": -0.1457627}, "viewport": {"northeast": {"lat": 51.5226869302915, "lng": -0.144327019708498}, "southwest": {"lat": 51.5199889697085, "lng": -0.1470249802915021}}}, "name": "ARGC 53 Portland Place", "place_id": "ChIJbzPPiFYbdkgRRAxlRRxtngk", "types": ["point_of_interest", "establishment"]}, "ChIJ1TqwxR8bdkgROEf-DtYx8t8": {"geometry": {"location": {"lat": 51.5220825, "lng": -0.1467718}, "viewport": {"northeast": {"lat": 51.5233461802915, "lng": -0.145385219708498}, "southwest": {"lat": 51.5206482197085, "lng": -0.148083180291502}}}, "name": "Dr Ahmed Yousseif", "place_id": "ChIJ1TqwxR8bdkgROEf-DtYx8t8", "types": ["hospital", "health", "point_of_interest", "establishment"]}, "ChIJR2UANw4bdkgRBDO5ot7L3YA": {"geometry": {"location": {"lat": 51.5220825, "lng": -0.1467718}, "viewport": {"northeast": {"lat": 51.5233461802915, "lng": -0.145385219708498}, "southwest": {"lat": 51.5206482197085, "lng": -0.148083180291502}}}, "name": "Dr Efthimia Karra", "place_id": "ChIJR2UANw4bdkgRBDO5ot7L3YA", "types": ["hospital", "health", "point_of_interest", "establishment"]}, "ChIJSZLF0BQbdkgRVFgsR_xM4VE": {"geometry": {"location": {"lat": 51.5220825, "lng": -0.1467718}, "viewport": {"northeast": {"lat": 51.5233461802915, "lng": -0.145385219708498}, "southwest": {"lat": 51.5206482197085, "lng": -0.148083180291502}}}, "name": "Dr Alexander Lyon", "place_id": "ChIJSZLF0BQbdkgRVFgsR_xM4VE", "types": ["hospital", "health", "point_of_interest", "establishment"]}, "ChIJWZwVqhAbdkgR34mj5X7WtAY": {"geometry": {"location": {"lat": 51.5220825, "lng": -0.1467718}, "viewport": {"northeast": {"lat": 51.5233461802915, "lng": -0.145385219708498}, "southwest": {"lat": 51.5206482197085, "lng": -0.148083180291502}}}, "name": "Dr Stuart Bloom, Gastroenterologist", "place_id": "ChIJWZwVqhAbdkgR34mj5X7WtAY", "types": ["hospital", "doctor", "health", "point_of_interest", "establishment"]}, "ChIJvRmAnRkbdkgRn8R0rw0Z_MM": {"geometry": {"location": {"lat": 51.5220825, "lng": -0.1467718}, "viewport": {"northeast": {"lat": 51.5233461802915, "lng": -0.145385219708498}, "southwest": {"lat": 51.5206482197085, "lng": -0.148083180291502}}}, "name": "Woman First - Private Gynaecologist - Harley Street Clinic, London", "place_id": "ChIJvRmAnRkbdkgRn8R0rw0Z_MM", "types": ["doctor", "health", "point_of_interest", "establishment"], "rating": 5, "user_ratings_total": 49}, "ChIJ8QlQMtEadkgRCWZxTgYFdn8": {"geometry": {"location": {"lat": 51.5220825, "lng": -0.1467718}, "viewport": {"northeast": {"lat": 51.5233461802915, "lng": -0.145385219708498}, "southwest": {"lat": 51.5206482197085, "lng": -0.148083180291502}}}, "name": "PROFESSOR JOHN KELLY", "place_id": "ChIJ8QlQMtEadkgRCWZxTgYFdn8", "types": ["doctor", "health", "point_of_interest", "establishment"]}, "ChIJdSSqdlAxcEER3KZhqQArGFo": {"geometry": {"location": {"lat": 51.5220825, "lng": -0.1467718}, "viewport": {"northeast": {"lat": 51.5233461802915, "lng": -0.145385219708498}, "southwest": {"lat": 51.5206482197085, "lng": -0.148083180291502}}}, "name": "Dr Diana Holdright", "place_id": "ChIJdSSqdlAxcEER3KZhqQArGFo", "types": ["doctor", "health", "point_of_interest", "establishment"]}, "ChIJE9Sx6dYadkgRgWr9j13r9Mg": {"geometry": {"location": {"lat": 51.5219519, "lng": -0.1452782}, "viewport": {"northeast": {"lat": 51.5233912302915, "lng": -0.143972469708498}, "southwest": {"lat": 51.5206932697085, "lng": -0.146670430291502}}}, "name": "it interaction ltd", "place_id": "ChIJE9Sx6dYadkgRgWr9j13r9Mg", "types": ["point_of_interest", "establishment"]}, "ChIJb2Zt0NYadkgR9h8kgrTQ8Kc": {"geometry": {"location": {"lat": 51.521327, "lng": -0.1457074}, "viewport": {"northeast": {"lat": 51.52268593029149, "lng": -0.144298219708498}, "southwest": {"lat": 51.5199879697085, "lng": -0.146996180291502}}}, "name": "London Chauffeuring Ltd", "place_id": "ChIJb2Zt0NYadkgR9h8kgrTQ8Kc", "types": ["point_of_interest", "establishment"], "rating": 5, "user_ratings_total": 1}, "ChIJBaP2ntYadkgR_wPWcD82ONU": {"geometry": {"location": {"lat": 51.52078825002649, "lng": -0.1453461496882129}, "viewport": {"northeast": {"lat": 51.5221372302915, "lng": -0.143997169708498}, "southwest": {"lat": 51.5194392697085, "lng": -0.1466951302915021}}}, "name": "41-49 Portland Pl", "place_id": "ChIJBaP2ntYadkgR_wPWcD82ONU", "types": ["route"]}, "ChIJOUTAotYadkgRmzXbGYihnxo": {"geometry": {"location": {"lat": 51.5206963, "lng": -0.1456521}, "viewport": {"northeast": {"lat": 51.5220726802915, "lng": -0.144141969708498}, "southwest": {"lat": 51.5193747197085, "lng": -0.146839930291502}}}, "name": "Kenya High Commission", "place_id": "ChIJOUTAotYadkgRmzXbGYihnxo", "types": ["embassy", "point_of_interest", "establishment"], "rating": 2.2, "user_ratings_total": 147}, "ChIJub_WrNYadkgRYORi4L-2dd8": {"geometry": {"location": {"lat": 51.5206256, "lng": -0.1468143}, "viewport": {"northeast": {"lat": 51.5219939302915, "lng": -0.145455519708498}, "southwest": {"lat": 51.5192959697085, "lng": -0.148153480291502}}}, "name": "Transform Hospital Group", "place_id": "ChIJub_WrNYadkgRYORi4L-2dd8", "types": ["hospital", "doctor", "health", "point_of_interest", "establishment"], "rating": 2.4, "user_ratings_total": 40}, "ChIJQSCkfNQadkgRUJpcsmfXAtQ": {"geometry": {"location": {"lat": 51.5208512, "lng": -0.1466008}, "viewport": {"northeast": {"lat": 51.5221597302915, "lng": -0.145234069708498}, "southwest": {"lat": 51.5194617697085, "lng": -0.147932030291502}}}, "name": "Mersai Health Clinic Limited", "place_id": "ChIJQSCkfNQadkgRUJpcsmfXAtQ", "types": ["health", "point_of_interest", "establishment"], "rating": 5, "user_ratings_total": 5}, "ChIJWwMBudYadkgRsoSiPQEipG0": {"geometry": {"location": {"lat": 51.5208512, "lng": -0.1466008}, "viewport": {"northeast": {"lat": 51.5221597302915, "lng": -0.145234119708498}, "southwest": {"lat": 51.5194617697085, "lng": -0.1479320802915021}}}, "name": "P & T Practice", "place_id": "ChIJWwMBudYadkgRsoSiPQEipG0", "types": ["physiotherapist", "health", "point_of_interest", "establishment"], "rating": 5, "user_ratings_total": 1}, "ChIJry_yr9YadkgRrDTbHUY69Jw": {"geometry": {"location": {"lat": 51.52072660000001, "lng": -0.1461731}, "viewport": {"northeast": {"lat": 51.52212693029149, "lng": -0.144846769708498}, "southwest": {"lat": 51.51942896970849, "lng": -0.147544730291502}}}, "name": "Maison Noblesse Furnishings", "place_id": "ChIJry_yr9YadkgRrDTbHUY69Jw", "types": ["furniture_store", "home_goods_store", "point_of_interest", "store", "establishment"], "rating": 5, "user_ratings_total": 2}, "ChIJZyCCmNYadkgRAucXBUbx7Gw": {"geometry": {"location": {"lat": 51.5206718, "lng": -0.1456185}, "viewport": {"northeast": {"lat": 51.52204638029149, "lng": -0.144119019708498}, "southwest": {"lat": 51.51934841970849, "lng": -0.146816980291502}}}, "name": "Ethemba Capital", "place_id": "ChIJZyCCmNYadkgRAucXBUbx7Gw", "types": ["finance", "point_of_interest", "establishment"]}, "ChIJR8KkstYadkgRhWvVDPJBGNQ": {"geometry": {"location": {"lat": 51.52082979999999, "lng": -0.1466857}, "viewport": {"northeast": {"lat": 51.5221415802915, "lng": -0.145320469708498}, "southwest": {"lat": 51.5194436197085, "lng": -0.148018430291502}}}, "name": "Relationship Therapy", "place_id": "ChIJR8KkstYadkgRhWvVDPJBGNQ", "types": ["doctor", "health", "point_of_interest", "establishment"]}, "ChIJ9wcyqdYadkgRBhRdx3rCsbs": {"geometry": {"location": {"lat": 51.5204837, "lng": -0.1463727}, "viewport": {"northeast": {"lat": 51.5218440302915, "lng": -0.144949869708498}, "southwest": {"lat": 51.5191460697085, "lng": -0.147647830291502}}}, "name": "Beyond Yonder Productions", "place_id": "ChIJ9wcyqdYadkgRBhRdx3rCsbs", "types": ["point_of_interest", "establishment"]}, "ChIJB0BTrNYadkgR_pZ5dVaZe98": {"geometry": {"location": {"lat": 51.52062849999999, "lng": -0.146555}, "viewport": {"northeast": {"lat": 51.52204433029149, "lng": -0.145235219708498}, "southwest": {"lat": 51.51934636970849, "lng": -0.147933180291502}}}, "name": "Bloom and Gonsai", "place_id": "ChIJB0BTrNYadkgR_pZ5dVaZe98", "types": ["dentist", "health", "point_of_interest", "establishment"], "rating": 5, "user_ratings_total": 3}, "ChIJYfnTotYadkgRm-HWdl2-kJA": {"geometry": {"location": {"lat": 51.5207965, "lng": -0.1455728}, "viewport": {"northeast": {"lat": 51.5221631302915, "lng": -0.144120069708498}, "southwest": {"lat": 51.5194651697085, "lng": -0.146818030291502}}}, "name": "Embassy of the Republic of Poland", "place_id": "ChIJYfnTotYadkgRm-HWdl2-kJA", "types": ["embassy", "point_of_interest", "establishment"], "rating": 1.8, "user_ratings_total": 336}, "ChIJRzGMrdYadkgRjJUwe42kWgc": {"geometry": {"location": {"lat": 51.5206191, "lng": -0.1465604}, "viewport": {"northeast": {"lat": 51.52203888029149, "lng": -0.1452423697084979}, "southwest": {"lat": 51.51934091970849, "lng": -0.147940330291502}}}, "name": "French Ortho", "place_id": "ChIJRzGMrdYadkgRjJUwe42kWgc", "types": ["dentist", "health", "point_of_interest", "establishment"]}, "ChIJQ1Ikp9YadkgRKFbX0FkLe_A": {"geometry": {"location": {"lat": 51.52035360000001, "lng": -0.1460938}, "viewport": {"northeast": {"lat": 51.52169748029151, "lng": -0.144777219708498}, "southwest": {"lat": 51.51899951970851, "lng": -0.147475180291502}}}, "name": "NCP London Harley Street", "place_id": "ChIJQ1Ikp9YadkgRKFbX0FkLe_A", "types": ["parking", "point_of_interest", "establishment"], "rating": 3.4, "user_ratings_total": 30}, "ChIJyx_-ltQadkgR-k_gvyCmkaE": {"geometry": {"location": {"lat": 51.5206607, "lng": -0.1466667}, "viewport": {"northeast": {"lat": 51.52205298029149, "lng": -0.1453349197084979}, "southwest": {"lat": 51.51935501970849, "lng": -0.148032880291502}}}, "name": "R S Dental", "place_id": "ChIJyx_-ltQadkgR-k_gvyCmkaE", "types": ["dentist", "health", "point_of_interest", "establishment"], "rating": 5, "user_ratings_total": 1}, "ChIJ_z9TrNYadkgRkig6IOH1dDQ": {"geometry": {"location": {"lat": 51.52066070000001, "lng": -0.1466666}, "viewport": {"northeast": {"lat": 51.52205273029151, "lng": -0.145336419708498}, "southwest": {"lat": 51.51935476970851, "lng": -0.148034380291502}}}, "name": "Dr Luc Clozier", "place_id": "ChIJ_z9TrNYadkgRkig6IOH1dDQ", "types": ["dentist", "health", "point_of_interest", "establishment"]}, "ChIJq6pavdQadkgRjnHwYl6H30A": {"geometry": {"location": {"lat": 51.5206607, "lng": -0.1466667}, "viewport": {"northeast": {"lat": 51.52205273029151, "lng": -0.145336519708498}, "southwest": {"lat": 51.51935476970851, "lng": -0.148034480291502}}}, "name": "Dr Kavit N Shah", "place_id": "ChIJq6pavdQadkgRjnHwYl6H30A", "types": ["dentist", "health", "point_of_interest", "establishment"], "rating": 5, "user_ratings_total": 1}, "ChIJB0BTrNYadkgRjIsWA1Ft4UA": {"geometry": {"location": {"lat": 51.5206607, "lng": -0.1466667}, "viewport": {"northeast": {"lat": 51.52205273029151, "lng": -0.145336519708498}, "southwest": {"lat": 51.51935476970851, "lng": -0.148034480291502}}}, "name": "Raj Gonsai", "place_id": "ChIJB0BTrNYadkgRjIsWA1Ft4UA", "types": ["dentist", "health", "point_of_interest", "establishment"], "rating": 5, "user_ratings_total": 1}, "ChIJ7X0XrdYadkgRpifybUOGovI": {"geometry": {"location": {"lat": 51.5206004, "lng": -0.1466526}, "viewport": {"northeast": {"lat": 51.52202158029149, "lng": -0.145335219708498}, "southwest": {"lat": 51.51932361970849, "lng": -0.148033180291502}}}, "name": "The London Centre for Prosthodontics", "place_id": "ChIJ7X0XrdYadkgRpifybUOGovI", "types": ["dentist", "health", "point_of_interest", "establishment"], "rating": 5, "user_ratings_total": 3}, "ChIJV6xUjzIFdkgRqxsDg2EVIFs": {"geometry": {"location": {"lat": 51.52061129999999, "lng": -0.1466672}, "viewport": {"northeast": {"lat": 51.52202628029149, "lng": -0.145347069708498}, "southwest": {"lat": 51.51932831970849, "lng": -0.148045030291502}}}, "name": "Emotional Wellness Clinic", "place_id": "ChIJV6xUjzIFdkgRqxsDg2EVIFs", "types": ["doctor", "health", "point_of_interest", "establishment"], "rating": 4, "user_ratings_total": 3}, "ChIJ69iMRNEadkgRyr2nf4wchtQ": {"geometry": {"location": {"lat": 51.52061129999999, "lng": -0.1466672}, "viewport": {"northeast": {"lat": 51.52202628029149, "lng": -0.145347069708498}, "southwest": {"lat": 51.51932831970849, "lng": -0.148045030291502}}}, "name": "Endodontic courses London", "place_id": "ChIJ69iMRNEadkgRyr2nf4wchtQ", "types": ["dentist", "university", "health", "point_of_interest", "establishment"], "rating": 5, "user_ratings_total": 1}, "ChIJM9rbCtQadkgRZ-wNU_NVUgE": {"geometry": {"location": {"lat": 51.52075569999999, "lng": -0.1467116}, "viewport": {"northeast": {"lat": 51.5221255802915, "lng": -0.145371819708498}, "southwest": {"lat": 51.5194276197085, "lng": -0.148069780291502}}}, "name": "Monroe", "place_id": "ChIJM9rbCtQadkgRZ-wNU_NVUgE", "types": ["point_of_interest", "establishment"]}, "ChIJ1-06fNQadkgRas26cijjnL8": {"geometry": {"location": {"lat": 51.5208379, "lng": -0.1467297}, "viewport": {"northeast": {"lat": 51.52214248029149, "lng": -0.1453612697084979}, "southwest": {"lat": 51.5194445197085, "lng": -0.148059230291502}}}, "name": "Dr Ian Martin", "place_id": "ChIJ1-06fNQadkgRas26cijjnL8", "types": ["doctor", "health", "point_of_interest", "establishment"], "rating": 4, "user_ratings_total": 4}, "ChIJNdqUrdYadkgRzPY0AWX1NS4": {"geometry": {"location": {"lat": 51.520704, "lng": -0.146792}, "viewport": {"northeast": {"lat": 51.5220485802915, "lng": -0.145441119708498}, "southwest": {"lat": 51.5193506197085, "lng": -0.148139080291502}}}, "name": "Harcourt House Dental Studios Ltd", "place_id": "ChIJNdqUrdYadkgRzPY0AWX1NS4", "types": ["dentist", "health", "point_of_interest", "establishment"]}, "ChIJ1bn2stYadkgRxb856-answA": {"geometry": {"location": {"lat": 51.5209377, "lng": -0.1467121}, "viewport": {"northeast": {"lat": 51.5221971802915, "lng": -0.145323969708498}, "southwest": {"lat": 51.5194992197085, "lng": -0.148021930291502}}}, "name": "Dr Susan Pacey", "place_id": "ChIJ1bn2stYadkgRxb856-answA", "types": ["health", "point_of_interest", "establishment"]}, "ChIJqfpTvNYadkgR6RoqH-XbVtc": {"geometry": {"location": {"lat": 51.521097, "lng": -0.1456637}, "viewport": {"northeast": {"lat": 51.5224601802915, "lng": -0.144229019708498}, "southwest": {"lat": 51.5197622197085, "lng": -0.1469269802915021}}}, "name": "Embassy of the People's Republic of China", "place_id": "ChIJqfpTvNYadkgR6RoqH-XbVtc", "types": ["embassy", "point_of_interest", "establishment"], "rating": 2.6, "user_ratings_total": 209}, "ChIJ64QWtX0bdkgRBU5jIN6siP8": {"geometry": {"location": {"lat": 51.5206202, "lng": -0.1460762}, "viewport": {"northeast": {"lat": 51.5219551802915, "lng": -0.144818619708498}, "southwest": {"lat": 51.5192572197085, "lng": -0.147516580291502}}}, "name": "FL Professional Translations Italian, German,Spanish, English", "place_id": "ChIJ64QWtX0bdkgRBU5jIN6siP8", "types": ["point_of_interest", "establishment"]}, "ChIJWcYvko0bdkgR05BZnBtfJ6w": {"geometry": {"location": {"lat": 51.52062919999999, "lng": -0.1461698}, "viewport": {"northeast": {"lat": 51.5219707302915, "lng": -0.144869569708498}, "southwest": {"lat": 51.5192727697085, "lng": -0.147567530291502}}}, "name": "Weymouth Mews", "place_id": "ChIJWcYvko0bdkgR05BZnBtfJ6w", "types": ["lodging", "point_of_interest", "establishment"], "rating": 4, "user_ratings_total": 1}, "ChIJW-nrNs4bdkgRO5B1Zymf8wg": {"geometry": {"location": {"lat": 51.520597, "lng": -0.145973}, "viewport": {"northeast": {"lat": 51.52192518029149, "lng": -0.144759719708498}, "southwest": {"lat": 51.51922721970849, "lng": -0.147457680291502}}}, "name": "CBT in London with Dr Basak Demiriz", "place_id": "ChIJW-nrNs4bdkgRO5B1Zymf8wg", "types": ["health", "point_of_interest", "establishment"]}, "ChIJrf4zsNYadkgRkp75rDiqRpY": {"geometry": {"location": {"lat": 51.52090020000001, "lng": -0.1463113}, "viewport": {"northeast": {"lat": 51.5222088302915, "lng": -0.144944519708498}, "southwest": {"lat": 51.5195108697085, "lng": -0.147642480291502}}}, "name": "22 Weymouth Street", "place_id": "ChIJrf4zsNYadkgRkp75rDiqRpY", "types": ["point_of_interest", "establishment"]}, "ChIJwc0A1tIadkgRLOsygoboUUw": {"geometry": {"location": {"lat": 51.5206718, "lng": -0.1456185}, "viewport": {"northeast": {"lat": 51.52204638029149, "lng": -0.144119019708498}, "southwest": {"lat": 51.51934841970849, "lng": -0.146816980291502}}}, "name": "Henry Boot Developments Limited", "place_id": "ChIJwc0A1tIadkgRLOsygoboUUw", "types": ["general_contractor", "point_of_interest", "establishment"]}, "ChIJy-_jsdYadkgRSZqzc2MC5n0": {"geometry": {"location": {"lat": 51.520848, "lng": -0.146447}, "viewport": {"northeast": {"lat": 51.5221698802915, "lng": -0.145087719708498}, "southwest": {"lat": 51.5194719197085, "lng": -0.147785680291502}}}, "name": "ubitricity Charging Station", "place_id": "ChIJy-_jsdYadkgRSZqzc2MC5n0", "types": ["point_of_interest", "establishment"]}, "ChIJ6dUdptYadkgRA-mS0xZ3m_4": {"geometry": {"location": {"lat": 51.5204408, "lng": -0.1461323}, "viewport": {"northeast": {"lat": 51.52178763029149, "lng": -0.144797069708498}, "southwest": {"lat": 51.5190896697085, "lng": -0.147495030291502}}}, "name": "Langland Estates Ltd", "place_id": "ChIJ6dUdptYadkgRA-mS0xZ3m_4", "types": ["finance", "point_of_interest", "establishment"]}, "ChIJU4jDn9YadkgRX1Tgeigz11M": {"geometry": {"location": {"lat": 51.5204408, "lng": -0.1461323}, "viewport": {"northeast": {"lat": 51.52178763029149, "lng": -0.144797069708498}, "southwest": {"lat": 51.5190896697085, "lng": -0.147495030291502}}}, "name": "Highbridge Estates Ltd", "place_id": "ChIJU4jDn9YadkgRX1Tgeigz11M", "types": ["point_of_interest", "establishment"], "rating": 4.3, "user_ratings_total": 3}, "ChIJv0cHo9YadkgRf5sPsZrvUp8": {"geometry": {"location": {"lat": 51.5206718, "lng": -0.1456184}, "viewport": {"northeast": {"lat": 51.5220463302915, "lng": -0.144118969708498}, "southwest": {"lat": 51.5193483697085, "lng": -0.146816930291502}}}, "name": "Penguin", "place_id": "ChIJv0cHo9YadkgRf5sPsZrvUp8", "types": ["point_of_interest", "establishment"]}, "ChIJuzwVptYadkgRids9tetYT_8": {"geometry": {"location": {"lat": 51.5204276, "lng": -0.1460551}, "viewport": {"northeast": {"lat": 51.52176653029149, "lng": -0.144771469708498}, "southwest": {"lat": 51.5190685697085, "lng": -0.147469430291502}}}, "name": "Campden Investments Limited", "place_id": "ChIJuzwVptYadkgRids9tetYT_8", "types": ["point_of_interest", "establishment"]}, "ChIJD5fTotYadkgRk1MtNm-BulU": {"geometry": {"location": {"lat": 51.5208181, "lng": -0.145565}, "viewport": {"northeast": {"lat": 51.5221833302915, "lng": -0.144120269708498}, "southwest": {"lat": 51.5194853697085, "lng": -0.146818230291502}}}, "name": "Praca w Anglii - og\u0142oszenia", "place_id": "ChIJD5fTotYadkgRk1MtNm-BulU", "types": ["point_of_interest", "establishment"]}, "ChIJI5kXFdgbdkgRdqYhVISyedE": {"geometry": {"location": {"lat": 51.52039800000001, "lng": -0.146187}, "viewport": {"northeast": {"lat": 51.5217401302915, "lng": -0.144882469708498}, "southwest": {"lat": 51.5190421697085, "lng": -0.147580430291502}}}, "name": "Marco Santos", "place_id": "ChIJI5kXFdgbdkgRdqYhVISyedE", "types": ["point_of_interest", "establishment"], "rating": 5, "user_ratings_total": 1}, "ChIJHbS1u9YadkgRmOyuVcYFUZ4": {"geometry": {"location": {"lat": 51.5210683, "lng": -0.1459459}, "viewport": {"northeast": {"lat": 51.5224542302915, "lng": -0.144373719708498}, "southwest": {"lat": 51.5197562697085, "lng": -0.147071680291502}}}, "name": "China Embassy", "place_id": "ChIJHbS1u9YadkgRmOyuVcYFUZ4", "types": ["embassy", "point_of_interest", "establishment"], "rating": 1.5, "user_ratings_total": 8}, "ChIJDRCtQ74bdkgRB_rsXDqLp5E": {"geometry": {"location": {"lat": 51.5205233, "lng": -0.1456144}, "viewport": {"northeast": {"lat": 51.5219026802915, "lng": -0.144086469708498}, "southwest": {"lat": 51.5192047197085, "lng": -0.146784430291502}}}, "name": "Thomas Gage Blue Plaque", "place_id": "ChIJDRCtQ74bdkgRB_rsXDqLp5E", "types": ["point_of_interest", "establishment"], "rating": 2, "user_ratings_total": 1}, "ChIJfw0Cl9QadkgR4rlwwHkYUTM": {"geometry": {"location": {"lat": 51.5206607, "lng": -0.1466667}, "viewport": {"northeast": {"lat": 51.52205273029151, "lng": -0.145336519708498}, "southwest": {"lat": 51.51935476970851, "lng": -0.148034480291502}}}, "name": "Dr. Lloyd Searson", "place_id": "ChIJfw0Cl9QadkgR4rlwwHkYUTM", "types": ["dentist", "health", "point_of_interest", "establishment"], "rating": 4.3, "user_ratings_total": 6}, "ChIJ_z9TrNYadkgRPu_qVU9NccQ": {"geometry": {"location": {"lat": 51.52066070000001, "lng": -0.1466666}, "viewport": {"northeast": {"lat": 51.52205273029151, "lng": -0.145336419708498}, "southwest": {"lat": 51.51935476970851, "lng": -0.148034380291502}}}, "name": "Daniel Flynn Endodontics", "place_id": "ChIJ_z9TrNYadkgRPu_qVU9NccQ", "types": ["dentist", "health", "point_of_interest", "establishment"]}, "ChIJ7Sv0ps0bdkgRJRYUqEq09hE": {"geometry": {"location": {"lat": 51.52061129999999, "lng": -0.1466672}, "viewport": {"northeast": {"lat": 51.52202628029149, "lng": -0.145347069708498}, "southwest": {"lat": 51.51932831970849, "lng": -0.148045030291502}}}, "name": "Dr Stavy - Holistic GP - Functional Medicine Doctor", "place_id": "ChIJ7Sv0ps0bdkgRJRYUqEq09hE", "types": ["doctor", "health", "point_of_interest", "establishment"]}, "ChIJb8VPtcobdkgRo2egXxmH5OI": {"geometry": {"location": {"lat": 51.52061129999999, "lng": -0.1466672}, "viewport": {"northeast": {"lat": 51.52202628029149, "lng": -0.145347069708498}, "southwest": {"lat": 51.51932831970849, "lng": -0.148045030291502}}}, "name": "Stefanie Gomez-Luque", "place_id": "ChIJb8VPtcobdkgRo2egXxmH5OI", "types": ["health", "point_of_interest", "establishment"], "rating": 5, "user_ratings_total": 4}, "ChIJ8QFmJj8bdkgRLhJ9KOKsX9M": {"geometry": {"location": {"lat": 51.52061129999999, "lng": -0.1466672}, "viewport": {"northeast": {"lat": 51.52202628029149, "lng": -0.145347069708498}, "southwest": {"lat": 51.51932831970849, "lng": -0.148045030291502}}}, "name": "Hifu Skin Clinic", "place_id": "ChIJ8QFmJj8bdkgRLhJ9KOKsX9M", "types": ["spa", "health", "point_of_interest", "establishment"]}, "ChIJMc3DflUbdkgRUf9G-jXnsbM": {"geometry": {"location": {"lat": 51.52061129999999, "lng": -0.1466672}, "viewport": {"northeast": {"lat": 51.52202628029149, "lng": -0.145347069708498}, "southwest": {"lat": 51.51932831970849, "lng": -0.148045030291502}}}, "name": "IV Drip UK", "place_id": "ChIJMc3DflUbdkgRUf9G-jXnsbM", "types": ["health", "point_of_interest", "establishment"], "rating": 5, "user_ratings_total": 5}, "ChIJ63MKHvYbdkgR_KRRnZUzD20": {"geometry": {"location": {"lat": 51.5206041, "lng": -0.1466721}, "viewport": {"northeast": {"lat": 51.5220220302915, "lng": -0.145353269708498}, "southwest": {"lat": 51.5193240697085, "lng": -0.148051230291502}}}, "name": "Psychotherapy Clinic Harley Street", "place_id": "ChIJ63MKHvYbdkgR_KRRnZUzD20", "types": ["health", "point_of_interest", "establishment"]}, "ChIJETl1fPYbdkgRmmrptdBr12Y": {"geometry": {"location": {"lat": 51.5206041, "lng": -0.1466721}, "viewport": {"northeast": {"lat": 51.5220220302915, "lng": -0.145353269708498}, "southwest": {"lat": 51.5193240697085, "lng": -0.148051230291502}}}, "name": "Eemaan Therapy Clinic - Islamic Counselling", "place_id": "ChIJETl1fPYbdkgRmmrptdBr12Y", "types": ["health", "point_of_interest", "establishment"], "rating": 1, "user_ratings_total": 1}, "ChIJjdQTGtcadkgRs_Zl4tGRgc0": {"geometry": {"location": {"lat": 51.5206041, "lng": -0.1466721}, "viewport": {"northeast": {"lat": 51.5220220302915, "lng": -0.145353269708498}, "southwest": {"lat": 51.5193240697085, "lng": -0.148051230291502}}}, "name": "Private Ultrasound Scans-Sonoworld", "place_id": "ChIJjdQTGtcadkgRs_Zl4tGRgc0", "types": ["health", "point_of_interest", "establishment"], "rating": 4.8, "user_ratings_total": 55}, "ChIJwf2qvV4bdkgRoJo4eAWkoUI": {"geometry": {"location": {"lat": 51.5206048, "lng": -0.1454537}, "viewport": {"northeast": {"lat": 51.5219686302915, "lng": -0.144017219708498}, "southwest": {"lat": 51.5192706697085, "lng": -0.146715180291502}}}, "name": "HBD", "place_id": "ChIJwf2qvV4bdkgRoJo4eAWkoUI", "types": ["general_contractor", "point_of_interest", "establishment"]}, "ChIJ8YkUaSsFdkgR28w0R0aG_8k": {"geometry": {"location": {"lat": 51.5206048, "lng": -0.1454537}, "viewport": {"northeast": {"lat": 51.5219686302915, "lng": -0.144017219708498}, "southwest": {"lat": 51.5192706697085, "lng": -0.146715180291502}}}, "name": "Hallam Land Management Ltd", "place_id": "ChIJ8YkUaSsFdkgR28w0R0aG_8k", "types": ["general_contractor", "point_of_interest", "establishment"]}, "ChIJa1eCstYadkgRgtX7BgLrHvU": {"geometry": {"location": {"lat": 51.5208379, "lng": -0.1467297}, "viewport": {"northeast": {"lat": 51.52214248029149, "lng": -0.1453612697084979}, "southwest": {"lat": 51.5194445197085, "lng": -0.148059230291502}}}, "name": "Central London County Court", "place_id": "ChIJa1eCstYadkgRgtX7BgLrHvU", "types": ["courthouse", "local_government_office", "point_of_interest", "establishment"]}, "ChIJa1eCstYadkgRRJtbuGRgdgE": {"geometry": {"location": {"lat": 51.5208379, "lng": -0.1467297}, "viewport": {"northeast": {"lat": 51.52214248029149, "lng": -0.1453612697084979}, "southwest": {"lat": 51.5194445197085, "lng": -0.148059230291502}}}, "name": "Prarthana Rao", "place_id": "ChIJa1eCstYadkgRRJtbuGRgdgE", "types": ["health", "point_of_interest", "establishment"]}, "ChIJx6QXBHAbdkgRrJEe_YVUr9s": {"geometry": {"location": {"lat": 51.5208379, "lng": -0.1467297}, "viewport": {"northeast": {"lat": 51.52214248029149, "lng": -0.1453612697084979}, "southwest": {"lat": 51.5194445197085, "lng": -0.148059230291502}}}, "name": "Green Door Clinic", "place_id": "ChIJx6QXBHAbdkgRrJEe_YVUr9s", "types": ["health", "point_of_interest", "establishment"], "rating": 4.2, "user_ratings_total": 15}, "ChIJodT1BUMbdkgRDvYM2CwZPFU": {"geometry": {"location": {"lat": 51.5208379, "lng": -0.1467297}, "viewport": {"northeast": {"lat": 51.52214248029149, "lng": -0.1453612697084979}, "southwest": {"lat": 51.5194445197085, "lng": -0.148059230291502}}}, "name": "Madeleine Campbell Counselling", "place_id": "ChIJodT1BUMbdkgRDvYM2CwZPFU", "types": ["doctor", "health", "point_of_interest", "establishment"]}, "ChIJNblsotYadkgRByepirfJ_kA": {"geometry": {"location": {"lat": 51.5205589, "lng": -0.1454416}, "viewport": {"northeast": {"lat": 51.5219233802915, "lng": -0.144001369708498}, "southwest": {"lat": 51.5192254197085, "lng": -0.146699330291502}}}, "name": "41 Portland Place - Conference & Events Venue", "place_id": "ChIJNblsotYadkgRByepirfJ_kA", "types": ["point_of_interest", "establishment"], "rating": 4.6, "user_ratings_total": 16}, "ChIJD5eTrNYadkgRpDb6UDHxoNo": {"geometry": {"location": {"lat": 51.52057019999999, "lng": -0.1467589}, "viewport": {"northeast": {"lat": 51.5219970802915, "lng": -0.1454439697084979}, "southwest": {"lat": 51.5192991197085, "lng": -0.148141930291502}}}, "name": "Mr Nizar Hamadeh", "place_id": "ChIJD5eTrNYadkgRpDb6UDHxoNo", "types": ["hospital", "doctor", "health", "point_of_interest", "establishment"]}, "ChIJ8WjRvtMadkgROV2ut8NtdU8": {"geometry": {"location": {"lat": 51.52097370000001, "lng": -0.14672}, "viewport": {"northeast": {"lat": 51.5222157802915, "lng": -0.145324269708498}, "southwest": {"lat": 51.5195178197085, "lng": -0.148022230291502}}}, "name": "Dr Gerald Woolfson", "place_id": "ChIJ8WjRvtMadkgROV2ut8NtdU8", "types": ["doctor", "health", "point_of_interest", "establishment"], "rating": 4.2, "user_ratings_total": 24}, "ChIJIza9mNYadkgRwy83cZBHec0": {"geometry": {"location": {"lat": 51.520576, "lng": -0.145335}, "viewport": {"northeast": {"lat": 51.5218886302915, "lng": -0.143930619708498}, "southwest": {"lat": 51.5191906697085, "lng": -0.146628580291502}}}, "name": "Portland Place (Stop K)", "place_id": "ChIJIza9mNYadkgRwy83cZBHec0", "types": ["bus_station", "transit_station", "point_of_interest", "establishment"], "rating": 5, "user_ratings_total": 1}, "ChIJRQTZftQadkgRw61heIbvyTg": {"geometry": {"location": {"lat": 51.5203485, "lng": -0.1454624}, "viewport": {"northeast": {"lat": 51.52172193029151, "lng": -0.1439695197084979}, "southwest": {"lat": 51.51902396970851, "lng": -0.146667480291502}}}, "name": "Financial Medical Partnership", "place_id": "ChIJRQTZftQadkgRw61heIbvyTg", "types": ["hospital", "finance", "health", "point_of_interest", "establishment"], "rating": 5, "user_ratings_total": 2}, "ChIJQ89aD9QadkgRXwLfSb975x0": {"geometry": {"location": {"lat": 51.51947205037067, "lng": -0.1464868003394339}, "viewport": {"northeast": {"lat": 51.52082103029149, "lng": -0.145137819708498}, "southwest": {"lat": 51.51812306970849, "lng": -0.147835780291502}}}, "name": "78-76 New Cavendish St", "place_id": "ChIJQ89aD9QadkgRXwLfSb975x0", "types": ["route"]}, "ChIJF8q2BdQadkgR1KAR_qRYy0w": {"geometry": {"location": {"lat": 51.5196236, "lng": -0.146172}, "viewport": {"northeast": {"lat": 51.5209277802915, "lng": -0.144803869708498}, "southwest": {"lat": 51.5182298197085, "lng": -0.147501830291502}}}, "name": "Asia House", "place_id": "ChIJF8q2BdQadkgR1KAR_qRYy0w", "types": ["point_of_interest", "establishment"], "rating": 4.3, "user_ratings_total": 176}, "ChIJeSL5FtQadkgRaZzZwtTDKrI": {"geometry": {"location": {"lat": 51.51944770000001, "lng": -0.1456741}, "viewport": {"northeast": {"lat": 51.5208123302915, "lng": -0.144238019708498}, "southwest": {"lat": 51.5181143697085, "lng": -0.1469359802915021}}}, "name": "Cavendish Conference Centre", "place_id": "ChIJeSL5FtQadkgRaZzZwtTDKrI", "types": ["point_of_interest", "establishment"], "rating": 4.5, "user_ratings_total": 262}, "ChIJL9m_GtQadkgRvYyRykFjRME": {"geometry": {"location": {"lat": 51.519721, "lng": -0.14602}, "viewport": {"northeast": {"lat": 51.5209914302915, "lng": -0.144637419708498}, "southwest": {"lat": 51.5182934697085, "lng": -0.147335380291502}}}, "name": "iGO OVC\u00ae Vision - Vision Correction While You Sleep", "place_id": "ChIJL9m_GtQadkgRvYyRykFjRME", "types": ["health", "point_of_interest", "establishment"], "rating": 5, "user_ratings_total": 3}, "ChIJkT1SI-kWdkgRv00M49N1hOE": {"geometry": {"location": {"lat": 51.51963970000001, "lng": -0.1460863}, "viewport": {"northeast": {"lat": 51.5209429802915, "lng": -0.144717769708498}, "southwest": {"lat": 51.51824501970851, "lng": -0.147415730291502}}}, "name": "Fresh Lime Developments", "place_id": "ChIJkT1SI-kWdkgRv00M49N1hOE", "types": ["general_contractor", "point_of_interest", "establishment"]}, "ChIJh-qDG9QadkgRiGdSqB0qK6Q": {"geometry": {"location": {"lat": 51.5196481, "lng": -0.1460657}, "viewport": {"northeast": {"lat": 51.5209490302915, "lng": -0.144696169708498}, "southwest": {"lat": 51.5182510697085, "lng": -0.1473941302915021}}}, "name": "Tydus Real Estate", "place_id": "ChIJh-qDG9QadkgRiGdSqB0qK6Q", "types": ["real_estate_agency", "point_of_interest", "establishment"], "rating": 5, "user_ratings_total": 1}, "ChIJqyExBdQadkgRgyajCoN-9rQ": {"geometry": {"location": {"lat": 51.5196236, "lng": -0.146172}, "viewport": {"northeast": {"lat": 51.5209277802915, "lng": -0.144803869708498}, "southwest": {"lat": 51.5182298197085, "lng": -0.147501830291502}}}, "name": "Institute of Diplomacy & Business", "place_id": "ChIJqyExBdQadkgRgyajCoN-9rQ", "types": ["lawyer", "point_of_interest", "establishment"]}, "ChIJUQkaG9QadkgRqpcH77hm5Gs": {"geometry": {"location": {"lat": 51.5197208, "lng": -0.1460197}, "viewport": {"northeast": {"lat": 51.5209913802915, "lng": -0.144637169708498}, "southwest": {"lat": 51.51829341970851, "lng": -0.1473351302915021}}}, "name": "SmartArm", "place_id": "ChIJUQkaG9QadkgRqpcH77hm5Gs", "types": ["point_of_interest", "establishment"]}, "ChIJHzptBdQadkgRSnQH0_6U5TI": {"geometry": {"location": {"lat": 51.5195956, "lng": -0.1462688}, "viewport": {"northeast": {"lat": 51.52090533029149, "lng": -0.144901819708498}, "southwest": {"lat": 51.51820736970849, "lng": -0.147599780291502}}}, "name": "Stichting Tripod Foundation", "place_id": "ChIJHzptBdQadkgRSnQH0_6U5TI", "types": ["point_of_interest", "establishment"]}, "ChIJHzptBdQadkgRIN01fNCaQpE": {"geometry": {"location": {"lat": 51.5195956, "lng": -0.1462688}, "viewport": {"northeast": {"lat": 51.52090533029149, "lng": -0.144901819708498}, "southwest": {"lat": 51.51820736970849, "lng": -0.147599780291502}}}, "name": "G+ Global Offshore Wind Health and Safety Organisation", "place_id": "ChIJHzptBdQadkgRIN01fNCaQpE", "types": ["point_of_interest", "establishment"]}, "ChIJu_iDG9QadkgR5gdxmjj86B4": {"geometry": {"location": {"lat": 51.51981740000001, "lng": -0.1459638}, "viewport": {"northeast": {"lat": 51.5211653302915, "lng": -0.144620569708498}, "southwest": {"lat": 51.5184673697085, "lng": -0.147318530291502}}}, "name": "Blend Property UK", "place_id": "ChIJu_iDG9QadkgR5gdxmjj86B4", "types": ["real_estate_agency", "point_of_interest", "establishment"]}, "ChIJH7ZMF9QadkgRpiIqYj-2mRA": {"geometry": {"location": {"lat": 51.5194604, "lng": -0.1457679}, "viewport": {"northeast": {"lat": 51.5208720302915, "lng": -0.144445719708498}, "southwest": {"lat": 51.51817406970851, "lng": -0.147143680291502}}}, "name": "MXT Fitness", "place_id": "ChIJH7ZMF9QadkgRpiIqYj-2mRA", "types": ["health", "point_of_interest", "establishment"]}, "ChIJgff4UyUbdkgRXqoyX3B9Lb4": {"geometry": {"location": {"lat": 51.5195657, "lng": -0.1464841}, "viewport": {"northeast": {"lat": 51.5208715802915, "lng": -0.145115369708498}, "southwest": {"lat": 51.5181736197085, "lng": -0.1478133302915021}}}, "name": "HSR UK", "place_id": "ChIJgff4UyUbdkgRXqoyX3B9Lb4", "types": ["point_of_interest", "establishment"]}, "ChIJgWVqF9QadkgRv-17tCRfYLQ": {"geometry": {"location": {"lat": 51.51944770000001, "lng": -0.1456741}, "viewport": {"northeast": {"lat": 51.5208123302915, "lng": -0.144238019708498}, "southwest": {"lat": 51.5181143697085, "lng": -0.1469359802915021}}}, "name": "The Venue Booker", "place_id": "ChIJgWVqF9QadkgRv-17tCRfYLQ", "types": ["point_of_interest", "establishment"], "rating": 5, "user_ratings_total": 6}, "ChIJw1XRCNQadkgRItV2J9qIAPs": {"geometry": {"location": {"lat": 51.5193733, "lng": -0.1465281}, "viewport": {"northeast": {"lat": 51.5207645802915, "lng": -0.145198469708498}, "southwest": {"lat": 51.5180666197085, "lng": -0.147896430291502}}}, "name": "entral London Apartments Ltd", "place_id": "ChIJw1XRCNQadkgRItV2J9qIAPs", "types": ["real_estate_agency", "point_of_interest", "establishment"]}, "ChIJ-2P9DdQadkgRdwOswgKtM28": {"geometry": {"location": {"lat": 51.5191867, "lng": -0.1461746}, "viewport": {"northeast": {"lat": 51.5205473802915, "lng": -0.1447625697084979}, "southwest": {"lat": 51.5178494197085, "lng": -0.147460530291502}}}, "name": "Bryanston Capital Limited", "place_id": "ChIJ-2P9DdQadkgRdwOswgKtM28", "types": ["finance", "point_of_interest", "establishment"]}, "ChIJUQkaG9QadkgRMh3G1EvxWak": {"geometry": {"location": {"lat": 51.5200603, "lng": -0.1459259}, "viewport": {"northeast": {"lat": 51.5211794802915, "lng": -0.144479169708498}, "southwest": {"lat": 51.5184815197085, "lng": -0.147177130291502}}}, "name": "In Demand Associates", "place_id": "ChIJUQkaG9QadkgRMh3G1EvxWak", "types": ["point_of_interest", "establishment"]}, "ChIJQ5GlCdQadkgR4UOAthOApLM": {"geometry": {"location": {"lat": 51.5193395, "lng": -0.1467151}, "viewport": {"northeast": {"lat": 51.5207310802915, "lng": -0.145385619708498}, "southwest": {"lat": 51.51803311970851, "lng": -0.148083580291502}}}, "name": "TC Group - London West End", "place_id": "ChIJQ5GlCdQadkgR4UOAthOApLM", "types": ["accounting", "finance", "point_of_interest", "establishment"], "rating": 4, "user_ratings_total": 3}, "ChIJMafWrNYadkgRcA2aqj573eY": {"geometry": {"location": {"lat": 51.52000650000001, "lng": -0.1465307}, "viewport": {"northeast": {"lat": 51.5213462302915, "lng": -0.145234919708498}, "southwest": {"lat": 51.51864826970851, "lng": -0.147932880291502}}}, "name": "J K Skuse Dental Practice", "place_id": "ChIJMafWrNYadkgRcA2aqj573eY", "types": ["dentist", "health", "point_of_interest", "establishment"]}, "ChIJMafWrNYadkgRSXN2qI1xMZs": {"geometry": {"location": {"lat": 51.52000650000001, "lng": -0.1465307}, "viewport": {"northeast": {"lat": 51.5213462302915, "lng": -0.145234919708498}, "southwest": {"lat": 51.51864826970851, "lng": -0.147932880291502}}}, "name": "Pourghadiri M", "place_id": "ChIJMafWrNYadkgRSXN2qI1xMZs", "types": ["dentist", "health", "point_of_interest", "establishment"]}, "ChIJWWSsCdQadkgRSKqSNn_OcTs": {"geometry": {"location": {"lat": 51.5193395, "lng": -0.146715}, "viewport": {"northeast": {"lat": 51.5207310802915, "lng": -0.1453855197084979}, "southwest": {"lat": 51.51803311970851, "lng": -0.148083480291502}}}, "name": "Jacob Migicovsky", "place_id": "ChIJWWSsCdQadkgRSKqSNn_OcTs", "types": ["point_of_interest", "establishment"]}, "ChIJW2SsCdQadkgR8XZxoNBFa40": {"geometry": {"location": {"lat": 51.5193395, "lng": -0.1467151}, "viewport": {"northeast": {"lat": 51.5207310802915, "lng": -0.145385619708498}, "southwest": {"lat": 51.51803311970851, "lng": -0.148083580291502}}}, "name": "The Lodge Privee ltd", "place_id": "ChIJW2SsCdQadkgR8XZxoNBFa40", "types": ["point_of_interest", "establishment"]}, "ChIJgzOnCdQadkgRc0rlrICs8mQ": {"geometry": {"location": {"lat": 51.5192906, "lng": -0.1466955}, "viewport": {"northeast": {"lat": 51.5207063802915, "lng": -0.145377119708498}, "southwest": {"lat": 51.5180084197085, "lng": -0.148075080291502}}}, "name": "Capital Advances (UK) Ltd", "place_id": "ChIJgzOnCdQadkgRc0rlrICs8mQ", "types": ["finance", "point_of_interest", "establishment"]}, "ChIJuf_jBdQadkgR3DiiVGVznDQ": {"geometry": {"location": {"lat": 51.5195657, "lng": -0.146484}, "viewport": {"northeast": {"lat": 51.5208715802915, "lng": -0.145115319708498}, "southwest": {"lat": 51.5181736197085, "lng": -0.147813280291502}}}, "name": "Nuffield Trust", "place_id": "ChIJuf_jBdQadkgR3DiiVGVznDQ", "types": ["point_of_interest", "establishment"], "rating": 5, "user_ratings_total": 4}, "ChIJF8q2BdQadkgRstksQ8LB9bs": {"geometry": {"location": {"lat": 51.5195956, "lng": -0.1462688}, "viewport": {"northeast": {"lat": 51.52090533029149, "lng": -0.144901819708498}, "southwest": {"lat": 51.51820736970849, "lng": -0.147599780291502}}}, "name": "Energy Institute", "place_id": "ChIJF8q2BdQadkgRstksQ8LB9bs", "types": ["point_of_interest", "establishment"], "rating": 4.8, "user_ratings_total": 14}, "ChIJ08TcyS8FdkgRw1Fjg_OaOAs": {"geometry": {"location": {"lat": 51.5195945, "lng": -0.1463119}, "viewport": {"northeast": {"lat": 51.5209011802915, "lng": -0.144943569708498}, "southwest": {"lat": 51.5182032197085, "lng": -0.147641530291502}}}, "name": "Iran Heritage Foundation", "place_id": "ChIJ08TcyS8FdkgRw1Fjg_OaOAs", "types": ["point_of_interest", "establishment"], "rating": 5, "user_ratings_total": 1}, "ChIJqSExBdQadkgRvqp-qEkMEcY": {"geometry": {"location": {"lat": 51.5196236, "lng": -0.1461719}, "viewport": {"northeast": {"lat": 51.5209277802915, "lng": -0.144803769708498}, "southwest": {"lat": 51.5182298197085, "lng": -0.147501730291502}}}, "name": "Leap N Link Ltd.", "place_id": "ChIJqSExBdQadkgRvqp-qEkMEcY", "types": ["point_of_interest", "store", "establishment"]}, "ChIJRagy-tMbdkgR0wN-OrVs-ug": {"geometry": {"location": {"lat": 51.51966179999999, "lng": -0.1461568}, "viewport": {"northeast": {"lat": 51.52094933029149, "lng": -0.144781519708498}, "southwest": {"lat": 51.51825136970849, "lng": -0.147479480291502}}}, "name": "Wellthy Clinic - Osteopathy | Cranial Osteopathy | Studio Pilates | Reformer Pilates | Menopause Nutritionist | Sports Massage", "place_id": "ChIJRagy-tMbdkgR0wN-OrVs-ug", "types": ["gym", "health", "point_of_interest", "establishment"], "rating": 5, "user_ratings_total": 35}, "ChIJT8eiWSobdkgRe962Ol8M-aA": {"geometry": {"location": {"lat": 51.51966179999999, "lng": -0.1461568}, "viewport": {"northeast": {"lat": 51.52094933029149, "lng": -0.144781519708498}, "southwest": {"lat": 51.51825136970849, "lng": -0.147479480291502}}}, "name": "Luisa Cerano", "place_id": "ChIJT8eiWSobdkgRe962Ol8M-aA", "types": ["point_of_interest", "establishment"]}, "ChIJi89A-NMadkgRv_wYGxU3hdE": {"geometry": {"location": {"lat": 51.5196636, "lng": -0.1459798}, "viewport": {"northeast": {"lat": 51.5210234802915, "lng": -0.144569319708498}, "southwest": {"lat": 51.5183255197085, "lng": -0.147267280291502}}}, "name": "W1 Group (LDN) Ltd", "place_id": "ChIJi89A-NMadkgRv_wYGxU3hdE", "types": ["point_of_interest", "establishment"]}, "ChIJXzUlG9QadkgR7GBELeYVhwI": {"geometry": {"location": {"lat": 51.5197208, "lng": -0.1460197}, "viewport": {"northeast": {"lat": 51.5209913802915, "lng": -0.144637169708498}, "southwest": {"lat": 51.51829341970851, "lng": -0.1473351302915021}}}, "name": "Stenig LLP", "place_id": "ChIJXzUlG9QadkgR7GBELeYVhwI", "types": ["finance", "point_of_interest", "establishment"]}, "ChIJAQAQG9QadkgRzLkNCv7q-Lo": {"geometry": {"location": {"lat": 51.51972199999999, "lng": -0.1460009}, "viewport": {"northeast": {"lat": 51.52099348029149, "lng": -0.144618769708498}, "southwest": {"lat": 51.5182955197085, "lng": -0.147316730291502}}}, "name": "tgp management advisers llp", "place_id": "ChIJAQAQG9QadkgRzLkNCv7q-Lo", "types": ["point_of_interest", "establishment"]}, "ChIJ-f8PG9QadkgR2TCr_t-Vsj0": {"geometry": {"location": {"lat": 51.51972199999999, "lng": -0.1460008}, "viewport": {"northeast": {"lat": 51.52099348029149, "lng": -0.144618669708498}, "southwest": {"lat": 51.5182955197085, "lng": -0.147316630291502}}}, "name": "Floback Ltd", "place_id": "ChIJ-f8PG9QadkgR2TCr_t-Vsj0", "types": ["point_of_interest", "establishment"]}, "ChIJHzptBdQadkgRExzDpZz96_s": {"geometry": {"location": {"lat": 51.5195956, "lng": -0.1462688}, "viewport": {"northeast": {"lat": 51.52090533029149, "lng": -0.144901819708498}, "southwest": {"lat": 51.51820736970849, "lng": -0.147599780291502}}}, "name": "World Petroleum Council", "place_id": "ChIJHzptBdQadkgRExzDpZz96_s", "types": ["point_of_interest", "establishment"]}, "ChIJmeqoG9QadkgRJgWOMFMCOns": {"geometry": {"location": {"lat": 51.5197166, "lng": -0.1459378}, "viewport": {"northeast": {"lat": 51.52106793029149, "lng": -0.144575869708498}, "southwest": {"lat": 51.51836996970849, "lng": -0.147273830291502}}}, "name": "Heriot UK Limited", "place_id": "ChIJmeqoG9QadkgRJgWOMFMCOns", "types": ["shopping_mall", "point_of_interest", "establishment"]}, "ChIJh-qDG9QadkgRIdHb735Of7w": {"geometry": {"location": {"lat": 51.5197166, "lng": -0.1459378}, "viewport": {"northeast": {"lat": 51.52106793029149, "lng": -0.1445757697084979}, "southwest": {"lat": 51.51836996970849, "lng": -0.147273730291502}}}, "name": "Everglen Capital (Pty) Ltd", "place_id": "ChIJh-qDG9QadkgRIdHb735Of7w", "types": ["finance", "point_of_interest", "establishment"]}, "ChIJq6pdENQadkgR0GaXCaIdlvg": {"geometry": {"location": {"lat": 51.5194243, "lng": -0.1459878}, "viewport": {"northeast": {"lat": 51.52081598029151, "lng": -0.144402019708498}, "southwest": {"lat": 51.51811801970851, "lng": -0.147099980291502}}}, "name": "The Retail Bulletin the Home Retail News", "place_id": "ChIJq6pdENQadkgR0GaXCaIdlvg", "types": ["point_of_interest", "establishment"]}, "ChIJh9OFG9QadkgRUTZZQHMwexQ": {"geometry": {"location": {"lat": 51.5198152, "lng": -0.1459627}, "viewport": {"northeast": {"lat": 51.52116323029151, "lng": -0.144619569708498}, "southwest": {"lat": 51.51846526970851, "lng": -0.147317530291502}}}, "name": "Heriot REIT", "place_id": "ChIJh9OFG9QadkgRUTZZQHMwexQ", "types": ["point_of_interest", "establishment"]}, "ChIJX59bENQadkgRm8OVEs5qaT4": {"geometry": {"location": {"lat": 51.51940889999999, "lng": -0.1459866}, "viewport": {"northeast": {"lat": 51.5207455302915, "lng": -0.144708519708498}, "southwest": {"lat": 51.5180475697085, "lng": -0.1474064802915021}}}, "name": "The Nicholas Boas Charitable Trust", "place_id": "ChIJX59bENQadkgRm8OVEs5qaT4", "types": ["point_of_interest", "establishment"], "rating": 5, "user_ratings_total": 2}, "ChIJ8TNEoN4bdkgR7-mz8qbVSAc": {"geometry": {"location": {"lat": 51.5193842, "lng": -0.1461284}, "viewport": {"northeast": {"lat": 51.52074168029151, "lng": -0.144730669708498}, "southwest": {"lat": 51.51804371970851, "lng": -0.147428630291502}}}, "name": "Dolpa Treks Investment Ltd", "place_id": "ChIJ8TNEoN4bdkgR7-mz8qbVSAc", "types": ["point_of_interest", "establishment"]}, "ChIJMdV2T2YbdkgRJht3P80xMl4": {"geometry": {"location": {"lat": 51.5194604, "lng": -0.145768}, "viewport": {"northeast": {"lat": 51.5208720302915, "lng": -0.144445819708498}, "southwest": {"lat": 51.51817406970851, "lng": -0.147143780291502}}}, "name": "Jon Steve", "place_id": "ChIJMdV2T2YbdkgRJht3P80xMl4", "types": ["point_of_interest", "establishment"]}, "ChIJixL5uRsbdkgRjayFtWwCYvU": {"geometry": {"location": {"lat": 51.519743, "lng": -0.1456563}, "viewport": {"northeast": {"lat": 51.5210311802915, "lng": -0.144281469708498}, "southwest": {"lat": 51.5183332197085, "lng": -0.146979430291502}}}, "name": "Tow Truck Recovery", "place_id": "ChIJixL5uRsbdkgRjayFtWwCYvU", "types": ["car_repair", "point_of_interest", "establishment"]}, "ChIJz3WhQH4bdkgRgRZOZHrynrA": {"geometry": {"location": {"lat": 51.519825, "lng": -0.1457486}, "viewport": {"northeast": {"lat": 51.5212392302915, "lng": -0.144015669708498}, "southwest": {"lat": 51.5185412697085, "lng": -0.146713630291502}}}, "name": "Merchant Accounts Provider", "place_id": "ChIJz3WhQH4bdkgRgRZOZHrynrA", "types": ["finance", "point_of_interest", "establishment"]}, "ChIJA_H4RRAbdkgR-wl-PIuMqWs": {"geometry": {"location": {"lat": 51.51933229999999, "lng": -0.1459447}, "viewport": {"northeast": {"lat": 51.52066833029149, "lng": -0.144670069708498}, "southwest": {"lat": 51.51797036970849, "lng": -0.147368030291502}}}, "name": "Charles Stanhope Blue Plaque", "place_id": "ChIJA_H4RRAbdkgR-wl-PIuMqWs", "types": ["point_of_interest", "establishment"], "rating": 4, "user_ratings_total": 1}, "ChIJOThMGNQadkgR78Kij9_n4CY": {"geometry": {"location": {"lat": 51.51962729999999, "lng": -0.145569}, "viewport": {"northeast": {"lat": 51.52097628029149, "lng": -0.144220019708498}, "southwest": {"lat": 51.51827831970849, "lng": -0.146917980291502}}}, "name": "Nik Tv", "place_id": "ChIJOThMGNQadkgR78Kij9_n4CY", "types": ["point_of_interest", "establishment"], "rating": 4, "user_ratings_total": 1}, "ChIJ66h8VWYbdkgRVHOHzPqCmPc": {"geometry": {"location": {"lat": 51.5193196, "lng": -0.1462265}, "viewport": {"northeast": {"lat": 51.5206788302915, "lng": -0.144818569708498}, "southwest": {"lat": 51.5179808697085, "lng": -0.147516530291502}}}, "name": "John Loughborough Pearson and Edwin Landseer Lutyens Blue Plaque", "place_id": "ChIJ66h8VWYbdkgRVHOHzPqCmPc", "types": ["point_of_interest", "establishment"], "rating": 5, "user_ratings_total": 1}, "ChIJq6oeD9QadkgR-_7eSJusYqg": {"geometry": {"location": {"lat": 51.51937239999999, "lng": -0.1463898}, "viewport": {"northeast": {"lat": 51.5207429302915, "lng": -0.144917169708498}, "southwest": {"lat": 51.5180449697085, "lng": -0.147615130291502}}}, "name": "RCM PREGNAPP", "place_id": "ChIJq6oeD9QadkgR-_7eSJusYqg", "types": ["point_of_interest", "establishment"]}, "ChIJ7bjBr5YbdkgRStrmqBq8dIk": {"geometry": {"location": {"lat": 51.5197175, "lng": -0.1467354}, "viewport": {"northeast": {"lat": 51.52102113029149, "lng": -0.145643469708498}, "southwest": {"lat": 51.51832316970849, "lng": -0.148341430291502}}}, "name": "Professor Nicholas Peters", "place_id": "ChIJ7bjBr5YbdkgRStrmqBq8dIk", "types": ["hospital", "health", "point_of_interest", "establishment"]}, "ChIJdaK7h6cbdkgRiD7PRNaOGN0": {"geometry": {"location": {"lat": 51.5197175, "lng": -0.1467354}, "viewport": {"northeast": {"lat": 51.52102113029149, "lng": -0.145643469708498}, "southwest": {"lat": 51.51832316970849, "lng": -0.148341430291502}}}, "name": "Professor Jamil Mayet", "place_id": "ChIJdaK7h6cbdkgRiD7PRNaOGN0", "types": ["hospital", "health", "point_of_interest", "establishment"]}, "ChIJYdVGJ6wbdkgRu5luznjgHwU": {"geometry": {"location": {"lat": 51.5197175, "lng": -0.1467354}, "viewport": {"northeast": {"lat": 51.52102113029149, "lng": -0.145643469708498}, "southwest": {"lat": 51.51832316970849, "lng": -0.148341430291502}}}, "name": "Clinilabs", "place_id": "ChIJYdVGJ6wbdkgRu5luznjgHwU", "types": ["health", "point_of_interest", "establishment"]}, "ChIJFe5_T9EadkgR6Bt2MkAMysY": {"geometry": {"location": {"lat": 51.5197175, "lng": -0.1467354}, "viewport": {"northeast": {"lat": 51.5216933302915, "lng": -0.145945869708498}, "southwest": {"lat": 51.5189953697085, "lng": -0.148643830291502}}}, "name": "London Harley Street Practice", "place_id": "ChIJFe5_T9EadkgR6Bt2MkAMysY", "types": ["hospital", "doctor", "health", "point_of_interest", "establishment"], "rating": 4.9, "user_ratings_total": 54}, "ChIJl72RINQadkgRvkR4eyiaC1o": {"geometry": {"location": {"lat": 51.5199873, "lng": -0.1456989}, "viewport": {"northeast": {"lat": 51.5213919802915, "lng": -0.144022219708498}, "southwest": {"lat": 51.51869401970851, "lng": -0.146720180291502}}}, "name": "\u4e2d\u56fd\u9a7b\u4f26\u6566\u5927\u4f7f\u9986\u62a4\u7167\u65c5\u884c\u8bc1\u529e\u7406\u5904", "place_id": "ChIJl72RINQadkgRvkR4eyiaC1o", "types": ["point_of_interest", "establishment"], "rating": 3.2, "user_ratings_total": 22}, "ChIJ-2P9DdQadkgRh_iJqJN3oEQ": {"geometry": {"location": {"lat": 51.5191867, "lng": -0.1461746}, "viewport": {"northeast": {"lat": 51.5205473802915, "lng": -0.1447625697084979}, "southwest": {"lat": 51.5178494197085, "lng": -0.147460530291502}}}, "name": "Fresh Attitude", "place_id": "ChIJ-2P9DdQadkgRh_iJqJN3oEQ", "types": ["point_of_interest", "establishment"], "rating": 5, "user_ratings_total": 1}, "ChIJ64XBdVwbdkgR_tCqtiC2inU": {"geometry": {"location": {"lat": 51.51918669999999, "lng": -0.1461747}, "viewport": {"northeast": {"lat": 51.52054743029149, "lng": -0.144762619708498}, "southwest": {"lat": 51.51784946970849, "lng": -0.147460580291502}}}, "name": "Gr\u00f6ner Developments Ltd", "place_id": "ChIJ64XBdVwbdkgR_tCqtiC2inU", "types": ["general_contractor", "point_of_interest", "establishment"]}, "ChIJ_WP9DdQadkgRwdX2b74xSH8": {"geometry": {"location": {"lat": 51.51918669999999, "lng": -0.1461747}, "viewport": {"northeast": {"lat": 51.52054743029149, "lng": -0.144762619708498}, "southwest": {"lat": 51.51784946970849, "lng": -0.147460580291502}}}, "name": "LPT Group", "place_id": "ChIJ_WP9DdQadkgRwdX2b74xSH8", "types": ["point_of_interest", "establishment"]}, "ChIJHWl7AqgbdkgR10HSTFYHKQ0": {"geometry": {"location": {"lat": 51.51918669999999, "lng": -0.1461747}, "viewport": {"northeast": {"lat": 51.52054743029149, "lng": -0.144762619708498}, "southwest": {"lat": 51.51784946970849, "lng": -0.147460580291502}}}, "name": "psivac Ltd", "place_id": "ChIJHWl7AqgbdkgR10HSTFYHKQ0", "types": ["point_of_interest", "establishment"]}, "ChIJ_WP9DdQadkgRhl6bUa8Mv3A": {"geometry": {"location": {"lat": 51.51918669999999, "lng": -0.1461747}, "viewport": {"northeast": {"lat": 51.52054743029149, "lng": -0.144762619708498}, "southwest": {"lat": 51.51784946970849, "lng": -0.147460580291502}}}, "name": "Manage My Practice Limited", "place_id": "ChIJ_WP9DdQadkgRhl6bUa8Mv3A", "types": ["point_of_interest", "establishment"]}, "ChIJS7baMdMbdkgRTQ1uccqytIM": {"geometry": {"location": {"lat": 51.51918669999999, "lng": -0.1461747}, "viewport": {"northeast": {"lat": 51.52054743029149, "lng": -0.144762619708498}, "southwest": {"lat": 51.51784946970849, "lng": -0.147460580291502}}}, "name": "Bulgaria Global", "place_id": "ChIJS7baMdMbdkgRTQ1uccqytIM", "types": ["point_of_interest", "establishment"]}, "ChIJHWDQYyMFdkgRauylUA2kLaI": {"geometry": {"location": {"lat": 51.51918669999999, "lng": -0.1461747}, "viewport": {"northeast": {"lat": 51.52054743029149, "lng": -0.144762619708498}, "southwest": {"lat": 51.51784946970849, "lng": -0.147460580291502}}}, "name": "Manage My Practice Ltd.", "place_id": "ChIJHWDQYyMFdkgRauylUA2kLaI", "types": ["finance", "health", "point_of_interest", "establishment"]}, "ChIJV3tedtQadkgR7yMoiGih-30": {"geometry": {"location": {"lat": 51.51843804730241, "lng": -0.1467034643253659}, "viewport": {"northeast": {"lat": 51.5197870302915, "lng": -0.145354469708498}, "southwest": {"lat": 51.5170890697085, "lng": -0.148052430291502}}}, "name": "42-28 Harley St", "place_id": "ChIJV3tedtQadkgR7yMoiGih-30", "types": ["route"]}, "ChIJU53khtQadkgRceLKcwvjvkk": {"geometry": {"location": {"lat": 51.518123, "lng": -0.145847}, "viewport": {"northeast": {"lat": 51.5195372302915, "lng": -0.144526019708498}, "southwest": {"lat": 51.51683926970851, "lng": -0.147223980291502}}}, "name": "Harley Street Health Centre - Private Testing & GP Clinic", "place_id": "ChIJU53khtQadkgRceLKcwvjvkk", "types": ["hospital", "doctor", "health", "point_of_interest", "establishment"], "rating": 4.3, "user_ratings_total": 93}, "ChIJTw_DJkwbdkgRtR_S5-ie414": {"geometry": {"location": {"lat": 51.5181805, "lng": -0.1458491}, "viewport": {"northeast": {"lat": 51.5195677302915, "lng": -0.144516519708498}, "southwest": {"lat": 51.5168697697085, "lng": -0.147214480291502}}}, "name": "London Jewellery School", "place_id": "ChIJTw_DJkwbdkgRtR_S5-ie414", "types": ["point_of_interest", "establishment"], "rating": 4.4, "user_ratings_total": 22}, "ChIJW_oBdtQadkgRDCxZL3tXL1o": {"geometry": {"location": {"lat": 51.5184669, "lng": -0.1468309}, "viewport": {"northeast": {"lat": 51.5198254302915, "lng": -0.145429519708498}, "southwest": {"lat": 51.5171274697085, "lng": -0.148127480291502}}}, "name": "Queen's College", "place_id": "ChIJW_oBdtQadkgRDCxZL3tXL1o", "types": ["university", "point_of_interest", "establishment"], "rating": 4.3, "user_ratings_total": 18}, "ChIJkW4vfdQadkgRtM4uer_amjc": {"geometry": {"location": {"lat": 51.51872230000001, "lng": -0.1465572}, "viewport": {"northeast": {"lat": 51.52004773029151, "lng": -0.145337269708498}, "southwest": {"lat": 51.51734976970851, "lng": -0.148035230291502}}}, "name": "Bodyset", "place_id": "ChIJkW4vfdQadkgRtM4uer_amjc", "types": ["physiotherapist", "gym", "health", "point_of_interest", "establishment"], "rating": 5, "user_ratings_total": 26}, "ChIJ5UOodtQadkgRHgwKwJIWpps": {"geometry": {"location": {"lat": 51.5184317, "lng": -0.1463775}, "viewport": {"northeast": {"lat": 51.51966073029151, "lng": -0.144977069708498}, "southwest": {"lat": 51.51696276970851, "lng": -0.147675030291502}}}, "name": "Plastic Surgery West One", "place_id": "ChIJ5UOodtQadkgRHgwKwJIWpps", "types": ["doctor", "health", "point_of_interest", "establishment"], "rating": 4, "user_ratings_total": 4}, "ChIJy4rUq9MadkgRXIi5uAYSG6Q": {"geometry": {"location": {"lat": 51.5184194, "lng": -0.1459699}, "viewport": {"northeast": {"lat": 51.5196857302915, "lng": -0.144585469708498}, "southwest": {"lat": 51.5169877697085, "lng": -0.147283430291502}}}, "name": "Lone Star Europe Acquisitions Limited", "place_id": "ChIJy4rUq9MadkgRXIi5uAYSG6Q", "types": ["finance", "point_of_interest", "establishment"], "rating": 5, "user_ratings_total": 1}, "ChIJ-0nJbtQadkgRKEyRKp2kdPA": {"geometry": {"location": {"lat": 51.5184194, "lng": -0.1459699}, "viewport": {"northeast": {"lat": 51.5196857302915, "lng": -0.144585469708498}, "southwest": {"lat": 51.5169877697085, "lng": -0.147283430291502}}}, "name": "Wolfson Foundation", "place_id": "ChIJ-0nJbtQadkgRKEyRKp2kdPA", "types": ["point_of_interest", "establishment"], "rating": 5, "user_ratings_total": 1}, "ChIJswYFHtEadkgRJf78YhJXk0U": {"geometry": {"location": {"lat": 51.5187244, "lng": -0.1465698}, "viewport": {"northeast": {"lat": 51.5200507802915, "lng": -0.145344519708498}, "southwest": {"lat": 51.5173528197085, "lng": -0.148042480291502}}}, "name": "Kersley Eye Clinic", "place_id": "ChIJswYFHtEadkgRJf78YhJXk0U", "types": ["health", "point_of_interest", "establishment"], "rating": 5, "user_ratings_total": 9}, "ChIJ5UOodtQadkgRa5d4Xj6bcp8": {"geometry": {"location": {"lat": 51.51849170000001, "lng": -0.1465184}, "viewport": {"northeast": {"lat": 51.51982298029149, "lng": -0.145266269708498}, "southwest": {"lat": 51.5171250197085, "lng": -0.147964230291502}}}, "name": "Grobbelaar A O", "place_id": "ChIJ5UOodtQadkgRa5d4Xj6bcp8", "types": ["doctor", "health", "point_of_interest", "establishment"]}, "ChIJ-fgcddQadkgRDRffg7jIzU8": {"geometry": {"location": {"lat": 51.51872459999999, "lng": -0.1465706}, "viewport": {"northeast": {"lat": 51.5200510802915, "lng": -0.1453449697084979}, "southwest": {"lat": 51.5173531197085, "lng": -0.148042930291502}}}, "name": "Italian Clinic", "place_id": "ChIJ-fgcddQadkgRDRffg7jIzU8", "types": ["dentist", "health", "point_of_interest", "establishment"]}, "ChIJib5WdNQadkgRjJRj37vTk2M": {"geometry": {"location": {"lat": 51.518674, "lng": -0.14657}, "viewport": {"northeast": {"lat": 51.5200024302915, "lng": -0.145333669708498}, "southwest": {"lat": 51.51730446970851, "lng": -0.148031630291502}}}, "name": "Paul Roblin", "place_id": "ChIJib5WdNQadkgRjJRj37vTk2M", "types": ["doctor", "health", "point_of_interest", "establishment"]}, "ChIJqcZNdNQadkgRYhCuhNO8Hok": {"geometry": {"location": {"lat": 51.51867319999999, "lng": -0.1464794}, "viewport": {"northeast": {"lat": 51.51999403029149, "lng": -0.145284619708498}, "southwest": {"lat": 51.51729606970849, "lng": -0.147982580291502}}}, "name": "Veritas Dental Care", "place_id": "ChIJqcZNdNQadkgRYhCuhNO8Hok", "types": ["dentist", "health", "point_of_interest", "establishment"], "rating": 5, "user_ratings_total": 15}, "ChIJyWrMa9QadkgRTTPBIkVMw60": {"geometry": {"location": {"lat": 51.5185884, "lng": -0.1455983}, "viewport": {"northeast": {"lat": 51.5199739802915, "lng": -0.144340469708498}, "southwest": {"lat": 51.5172760197085, "lng": -0.147038430291502}}}, "name": "Blue Plaque: Sir Robert Mayer", "place_id": "ChIJyWrMa9QadkgRTTPBIkVMw60", "types": ["point_of_interest", "establishment"], "rating": 3.4, "user_ratings_total": 5}, "ChIJ5UOodtQadkgRstPJi9q7qSs": {"geometry": {"location": {"lat": 51.5185238, "lng": -0.1465392999999999}, "viewport": {"northeast": {"lat": 51.5198890302915, "lng": -0.145102119708498}, "southwest": {"lat": 51.5171910697085, "lng": -0.147800080291502}}}, "name": "Paul Roblin Aesthetic & Reconstructive Surgeon", "place_id": "ChIJ5UOodtQadkgRstPJi9q7qSs", "types": ["doctor", "health", "point_of_interest", "establishment"]}, "ChIJYWVMdNQadkgRsNtAMVFL2QA": {"geometry": {"location": {"lat": 51.51866400000001, "lng": -0.1465444}, "viewport": {"northeast": {"lat": 51.5199906802915, "lng": -0.145317719708498}, "southwest": {"lat": 51.5172927197085, "lng": -0.148015680291502}}}, "name": "Declan Thompson", "place_id": "ChIJYWVMdNQadkgRsNtAMVFL2QA", "types": ["dentist", "health", "point_of_interest", "establishment"]}, "ChIJBaA4FtEadkgR56HSqGci0gs": {"geometry": {"location": {"lat": 51.5186672, "lng": -0.1465372}, "viewport": {"northeast": {"lat": 51.5199931302915, "lng": -0.145314519708498}, "southwest": {"lat": 51.5172951697085, "lng": -0.148012480291502}}}, "name": "London Orthodontics", "place_id": "ChIJBaA4FtEadkgR56HSqGci0gs", "types": ["dentist", "health", "point_of_interest", "establishment"], "rating": 5, "user_ratings_total": 1}, "ChIJqcZNdNQadkgRJyWFfnR3vpk": {"geometry": {"location": {"lat": 51.51866400000001, "lng": -0.1465445}, "viewport": {"northeast": {"lat": 51.5199906802915, "lng": -0.145317769708498}, "southwest": {"lat": 51.5172927197085, "lng": -0.148015730291502}}}, "name": "40 Harley Street Group Practice", "place_id": "ChIJqcZNdNQadkgRJyWFfnR3vpk", "types": ["dentist", "health", "point_of_interest", "establishment"], "rating": 3.9, "user_ratings_total": 7}, "ChIJf8NKdNQadkgRW6Kw2dT_sxc": {"geometry": {"location": {"lat": 51.5186551, "lng": -0.1465714}, "viewport": {"northeast": {"lat": 51.5199843802915, "lng": -0.145330319708498}, "southwest": {"lat": 51.5172864197085, "lng": -0.1480282802915021}}}, "name": "CTG Dental Care Center", "place_id": "ChIJf8NKdNQadkgRW6Kw2dT_sxc", "types": ["dentist", "health", "point_of_interest", "establishment"]}, "ChIJy8GgHdEadkgRogTPFYt7Ua0": {"geometry": {"location": {"lat": 51.518722, "lng": -0.1465601}, "viewport": {"northeast": {"lat": 51.5200476802915, "lng": -0.145338769708498}, "southwest": {"lat": 51.51734971970851, "lng": -0.148036730291502}}}, "name": "Mr Sheng Lim", "place_id": "ChIJy8GgHdEadkgRogTPFYt7Ua0", "types": ["doctor", "health", "point_of_interest", "establishment"], "rating": 5, "user_ratings_total": 1}, "ChIJZSqMdNQadkgRejvMPZLTm0g": {"geometry": {"location": {"lat": 51.5187254, "lng": -0.1465588}, "viewport": {"northeast": {"lat": 51.5200514302915, "lng": -0.145339069708498}, "southwest": {"lat": 51.5173534697085, "lng": -0.1480370302915021}}}, "name": "Oyku UMAN", "place_id": "ChIJZSqMdNQadkgRejvMPZLTm0g", "types": ["health", "point_of_interest", "establishment"], "rating": 5, "user_ratings_total": 47}, "ChIJa7she9QadkgRsnl5C9YyXMg": {"geometry": {"location": {"lat": 51.5181639, "lng": -0.1459812}, "viewport": {"northeast": {"lat": 51.51953553029151, "lng": -0.144712269708498}, "southwest": {"lat": 51.51683756970851, "lng": -0.147410230291502}}}, "name": "Dr Bich & Dr Nguyen", "place_id": "ChIJa7she9QadkgRsnl5C9YyXMg", "types": ["health", "point_of_interest", "establishment"]}, "ChIJZSqMdNQadkgRfvFibio341M": {"geometry": {"location": {"lat": 51.5187246, "lng": -0.1465705}, "viewport": {"northeast": {"lat": 51.5200510302915, "lng": -0.145344919708498}, "southwest": {"lat": 51.51735306970851, "lng": -0.148042880291502}}}, "name": "I\u015f\u0131k Akg\u00fcn", "place_id": "ChIJZSqMdNQadkgRfvFibio341M", "types": ["point_of_interest", "establishment"]}, "ChIJZyqMdNQadkgRF8CZnBrqLAY": {"geometry": {"location": {"lat": 51.51872459999999, "lng": -0.1465706}, "viewport": {"northeast": {"lat": 51.5200510802915, "lng": -0.1453449697084979}, "southwest": {"lat": 51.5173531197085, "lng": -0.148042930291502}}}, "name": "The Natural Screening Centre Ltd", "place_id": "ChIJZyqMdNQadkgRF8CZnBrqLAY", "types": ["health", "point_of_interest", "establishment"]}, "ChIJ-fgcddQadkgRbx_ehTmL1Wo": {"geometry": {"location": {"lat": 51.51872459999999, "lng": -0.1465706}, "viewport": {"northeast": {"lat": 51.5200510802915, "lng": -0.1453449697084979}, "southwest": {"lat": 51.5173531197085, "lng": -0.148042930291502}}}, "name": "Omiccioli", "place_id": "ChIJ-fgcddQadkgRbx_ehTmL1Wo", "types": ["health", "point_of_interest", "establishment"]}, "ChIJo33addQadkgRsJ_PQf1ThJE": {"geometry": {"location": {"lat": 51.5186147, "lng": -0.1466349}, "viewport": {"northeast": {"lat": 51.5199509302915, "lng": -0.145355819708498}, "southwest": {"lat": 51.5172529697085, "lng": -0.148053780291502}}}, "name": "Dr Patrick Tarrant - Harley Street Dental Ltd", "place_id": "ChIJo33addQadkgRsJ_PQf1ThJE", "types": ["dentist", "health", "point_of_interest", "establishment"], "rating": 5, "user_ratings_total": 9}, "ChIJne4AQdQadkgRBqY6Vw7GO4I": {"geometry": {"location": {"lat": 51.5186138, "lng": -0.1454895}, "viewport": {"northeast": {"lat": 51.5199633302915, "lng": -0.144269569708498}, "southwest": {"lat": 51.5172653697085, "lng": -0.146967530291502}}}, "name": "Periolondon", "place_id": "ChIJne4AQdQadkgRBqY6Vw7GO4I", "types": ["dentist", "health", "point_of_interest", "establishment"], "rating": 5, "user_ratings_total": 9}, "ChIJPyOKiNQadkgRwZ1p04S7te8": {"geometry": {"location": {"lat": 51.51865429999999, "lng": -0.1466605}, "viewport": {"northeast": {"lat": 51.5199913802915, "lng": -0.145378369708498}, "southwest": {"lat": 51.5172934197085, "lng": -0.148076330291502}}}, "name": "Harley Surgery London: Dr. Riccardo Frati", "place_id": "ChIJPyOKiNQadkgRwZ1p04S7te8", "types": ["doctor", "health", "point_of_interest", "establishment"], "rating": 4.9, "user_ratings_total": 29}, "ChIJjx57edQadkgRkj-nQ1Xal90": {"geometry": {"location": {"lat": 51.5185767, "lng": -0.146709}, "viewport": {"northeast": {"lat": 51.5199244802915, "lng": -0.145366569708498}, "southwest": {"lat": 51.5172265197085, "lng": -0.148064530291502}}}, "name": "Buttock Implant Centre London", "place_id": "ChIJjx57edQadkgRkj-nQ1Xal90", "types": ["doctor", "health", "point_of_interest", "establishment"]}, "ChIJay6Up_jmh0gRqw-Fs9ZYuF8": {"geometry": {"location": {"lat": 51.51814659999999, "lng": -0.1459132}, "viewport": {"northeast": {"lat": 51.51954468029149, "lng": -0.144585269708498}, "southwest": {"lat": 51.5168467197085, "lng": -0.147283230291502}}}, "name": "Veincentre", "place_id": "ChIJay6Up_jmh0gRqw-Fs9ZYuF8", "types": ["hospital", "doctor", "health", "point_of_interest", "establishment"], "rating": 4.8, "user_ratings_total": 21}, "ChIJoZm0CtQadkgRP39YwMK7sGM": {"geometry": {"location": {"lat": 51.5188116, "lng": -0.1466652}, "viewport": {"northeast": {"lat": 51.5201431802915, "lng": -0.145415119708498}, "southwest": {"lat": 51.5174452197085, "lng": -0.148113080291502}}}, "name": "F.Mavroskoufis", "place_id": "ChIJoZm0CtQadkgRP39YwMK7sGM", "types": ["dentist", "doctor", "health", "point_of_interest", "establishment"], "rating": 4.7, "user_ratings_total": 3}, "ChIJlY3ZdNQadkgR25SU_wnK5cY": {"geometry": {"location": {"lat": 51.5188116, "lng": -0.1466652}, "viewport": {"northeast": {"lat": 51.5201431802915, "lng": -0.145415119708498}, "southwest": {"lat": 51.5174452197085, "lng": -0.148113080291502}}}, "name": "d4h SEMINARS", "place_id": "ChIJlY3ZdNQadkgR25SU_wnK5cY", "types": ["point_of_interest", "establishment"]}, "ChIJacPy4tAadkgRVd7b4Brhd8Q": {"geometry": {"location": {"lat": 51.5188195, "lng": -0.1467099}, "viewport": {"northeast": {"lat": 51.5201544302915, "lng": -0.145440769708498}, "southwest": {"lat": 51.5174564697085, "lng": -0.148138730291502}}}, "name": "The British Dental Acupuncture Society", "place_id": "ChIJacPy4tAadkgRVd7b4Brhd8Q", "types": ["dentist", "health", "point_of_interest", "establishment"]}, "ChIJzVMvddQadkgR3D6bMP-LxVM": {"geometry": {"location": {"lat": 51.5188195, "lng": -0.1467099}, "viewport": {"northeast": {"lat": 51.5201544302915, "lng": -0.145440769708498}, "southwest": {"lat": 51.5174564697085, "lng": -0.148138730291502}}}, "name": "IAOMT UK", "place_id": "ChIJzVMvddQadkgR3D6bMP-LxVM", "types": ["dentist", "health", "point_of_interest", "establishment"], "rating": 3, "user_ratings_total": 2}, "ChIJu6Qhe9QadkgRcfKriXBGXKg": {"geometry": {"location": {"lat": 51.51809600000001, "lng": -0.145751}, "viewport": {"northeast": {"lat": 51.5193808802915, "lng": -0.144769169708498}, "southwest": {"lat": 51.5166829197085, "lng": -0.147467130291502}}}, "name": "A.L.O. Clinic", "place_id": "ChIJu6Qhe9QadkgRcfKriXBGXKg", "types": ["physiotherapist", "doctor", "health", "point_of_interest", "establishment"]}, "ChIJoZm0CtQadkgRbel-FMz_6d8": {"geometry": {"location": {"lat": 51.5188676, "lng": -0.1466908}, "viewport": {"northeast": {"lat": 51.5201991802915, "lng": -0.145440619708498}, "southwest": {"lat": 51.5175012197085, "lng": -0.148138580291502}}}, "name": "Guaranteed Property Ltd", "place_id": "ChIJoZm0CtQadkgRbel-FMz_6d8", "types": ["general_contractor", "point_of_interest", "establishment"], "rating": 2, "user_ratings_total": 1}, "ChIJteqZZdQadkgR9t9JAO7ezK0": {"geometry": {"location": {"lat": 51.5180678, "lng": -0.1458822}, "viewport": {"northeast": {"lat": 51.5195050302915, "lng": -0.144571069708498}, "southwest": {"lat": 51.5168070697085, "lng": -0.147269030291502}}}, "name": "Genesis Wellness", "place_id": "ChIJteqZZdQadkgR9t9JAO7ezK0", "types": ["health", "point_of_interest", "establishment"], "rating": 2.3, "user_ratings_total": 3}, "ChIJ1eF7EtQadkgR2MeHqILEOh0": {"geometry": {"location": {"lat": 51.5190487, "lng": -0.1461122}, "viewport": {"northeast": {"lat": 51.5204097302915, "lng": -0.144698419708498}, "southwest": {"lat": 51.5177117697085, "lng": -0.147396380291502}}}, "name": "Association of Veterinary Students", "place_id": "ChIJ1eF7EtQadkgR2MeHqILEOh0", "types": ["point_of_interest", "establishment"]}, "ChIJiXPVCtQadkgRl6b_WpDjF_o": {"geometry": {"location": {"lat": 51.5188676, "lng": -0.1466907}, "viewport": {"northeast": {"lat": 51.5201991802915, "lng": -0.145440569708498}, "southwest": {"lat": 51.5175012197085, "lng": -0.148138530291502}}}, "name": "Liz Hopkinson Wildi MBACP(Senior Accred)", "place_id": "ChIJiXPVCtQadkgRl6b_WpDjF_o", "types": ["health", "point_of_interest", "establishment"]}, "ChIJh3PVCtQadkgRxy6mfjWoG9M": {"geometry": {"location": {"lat": 51.5188676, "lng": -0.1466908}, "viewport": {"northeast": {"lat": 51.5201991802915, "lng": -0.145440619708498}, "southwest": {"lat": 51.5175012197085, "lng": -0.148138580291502}}}, "name": "Catherine Perry", "place_id": "ChIJh3PVCtQadkgRxy6mfjWoG9M", "types": ["health", "point_of_interest", "establishment"]}, "ChIJa2Q1ddQadkgRtO__m81Wwyc": {"geometry": {"location": {"lat": 51.5188676, "lng": -0.1466908}, "viewport": {"northeast": {"lat": 51.5201991802915, "lng": -0.145440619708498}, "southwest": {"lat": 51.5175012197085, "lng": -0.148138580291502}}}, "name": "Anchor Counselling", "place_id": "ChIJa2Q1ddQadkgRtO__m81Wwyc", "types": ["health", "point_of_interest", "establishment"], "rating": 5, "user_ratings_total": 4}, "ChIJwfJ9hNQadkgRBRC8ANMdlus": {"geometry": {"location": {"lat": 51.51814359999999, "lng": -0.1465646}, "viewport": {"northeast": {"lat": 51.51949258029149, "lng": -0.145215619708498}, "southwest": {"lat": 51.51679461970849, "lng": -0.147913580291502}}}, "name": "Professor Adrian Wilson, Knee & Sports Injury Specialists", "place_id": "ChIJwfJ9hNQadkgRBRC8ANMdlus", "types": ["doctor", "health", "point_of_interest", "establishment"], "rating": 4.9, "user_ratings_total": 40}, "ChIJW9QOd9QadkgR110aWwT1OpE": {"geometry": {"location": {"lat": 51.51802850000001, "lng": -0.1461267}, "viewport": {"northeast": {"lat": 51.51946513029149, "lng": -0.144815319708498}, "southwest": {"lat": 51.5167671697085, "lng": -0.147513280291502}}}, "name": "The Patch Test & Phototherapy Clinic Ltd", "place_id": "ChIJW9QOd9QadkgR110aWwT1OpE", "types": ["health", "point_of_interest", "establishment"]}, "ChIJw_OKhdQadkgRlSTV0tRYV50": {"geometry": {"location": {"lat": 51.51828069999999, "lng": -0.1468088}, "viewport": {"northeast": {"lat": 51.51964478029149, "lng": -0.145377169708498}, "southwest": {"lat": 51.51694681970849, "lng": -0.148075130291502}}}, "name": "Zenith Cosmetic Clinics London", "place_id": "ChIJw_OKhdQadkgRlSTV0tRYV50", "types": ["doctor", "health", "point_of_interest", "establishment"], "rating": 4.8, "user_ratings_total": 16}, "ChIJ5UOodtQadkgRCN1kr8KNJ2c": {"geometry": {"location": {"lat": 51.5184799, "lng": -0.1465424}, "viewport": {"northeast": {"lat": 51.5198136802915, "lng": -0.145276669708498}, "southwest": {"lat": 51.5171157197085, "lng": -0.147974630291502}}}, "name": "Basim A Matti MB Chb FRCS", "place_id": "ChIJ5UOodtQadkgRCN1kr8KNJ2c", "types": ["doctor", "health", "point_of_interest", "establishment"], "rating": 5, "user_ratings_total": 3}, "ChIJpZ-NbtQadkgRrIxN7MkuFMs": {"geometry": {"location": {"lat": 51.5184194, "lng": -0.1459699}, "viewport": {"northeast": {"lat": 51.5196857302915, "lng": -0.144585469708498}, "southwest": {"lat": 51.5169877697085, "lng": -0.147283430291502}}}, "name": "Eskmuir Properties Ltd", "place_id": "ChIJpZ-NbtQadkgRrIxN7MkuFMs", "types": ["point_of_interest", "establishment"]}, "ChIJx9Ffg9QadkgR4381oeULfqI": {"geometry": {"location": {"lat": 51.5188689, "lng": -0.1466974}, "viewport": {"northeast": {"lat": 51.52020098029151, "lng": -0.145444419708498}, "southwest": {"lat": 51.51750301970851, "lng": -0.148142380291502}}}, "name": "Harley Medical Foot and Nail Laser Clinic London", "place_id": "ChIJx9Ffg9QadkgR4381oeULfqI", "types": ["beauty_salon", "doctor", "health", "point_of_interest", "establishment"], "rating": 4.6, "user_ratings_total": 30}, "ChIJ1ZQtmtMadkgRtfCm4Jr6QL0": {"geometry": {"location": {"lat": 51.5184317, "lng": -0.1463775}, "viewport": {"northeast": {"lat": 51.51966073029151, "lng": -0.144977069708498}, "southwest": {"lat": 51.51696276970851, "lng": -0.147675030291502}}}, "name": "Centre for Sight", "place_id": "ChIJ1ZQtmtMadkgRtfCm4Jr6QL0", "types": ["doctor", "health", "point_of_interest", "establishment"], "rating": 5, "user_ratings_total": 8}, "ChIJYWVMdNQadkgROAgfLAu_kGc": {"geometry": {"location": {"lat": 51.5186855, "lng": -0.1466739}, "viewport": {"northeast": {"lat": 51.52002228029151, "lng": -0.145392319708498}, "southwest": {"lat": 51.51732431970851, "lng": -0.148090280291502}}}, "name": "Allen Rezai MD", "place_id": "ChIJYWVMdNQadkgROAgfLAu_kGc", "types": ["doctor", "health", "point_of_interest", "establishment"], "rating": 4.8, "user_ratings_total": 21}, "ChIJ1eF7EtQadkgRGDd_HSzQ9VI": {"geometry": {"location": {"lat": 51.5190487, "lng": -0.1461122}, "viewport": {"northeast": {"lat": 51.5204097302915, "lng": -0.144698419708498}, "southwest": {"lat": 51.5177117697085, "lng": -0.147396380291502}}}, "name": "British Veterinary Association", "place_id": "ChIJ1eF7EtQadkgRGDd_HSzQ9VI", "types": ["veterinary_care", "point_of_interest", "establishment"], "rating": 4.7, "user_ratings_total": 21}, "ChIJb2XsbtQadkgRya4tXujWD2o": {"geometry": {"location": {"lat": 51.5184364, "lng": -0.1458826}, "viewport": {"northeast": {"lat": 51.51970158029149, "lng": -0.144497669708498}, "southwest": {"lat": 51.5170036197085, "lng": -0.147195630291502}}}, "name": "IPTV", "place_id": "ChIJb2XsbtQadkgRya4tXujWD2o", "types": ["point_of_interest", "establishment"]}, "ChIJ___rbtQadkgRXLEe--Ij8Cg": {"geometry": {"location": {"lat": 51.51842850000001, "lng": -0.1458792}, "viewport": {"northeast": {"lat": 51.5196976302915, "lng": -0.144495969708498}, "southwest": {"lat": 51.5169996697085, "lng": -0.147193930291502}}}, "name": "Dr Prem Premchand MD FRCP", "place_id": "ChIJ___rbtQadkgRXLEe--Ij8Cg", "types": ["doctor", "health", "point_of_interest", "establishment"]}, "ChIJYfNuYNobdkgRjf9sSwP7uOE": {"geometry": {"location": {"lat": 51.51833589999999, "lng": -0.1459727}, "viewport": {"northeast": {"lat": 51.5196409802915, "lng": -0.144604919708498}, "southwest": {"lat": 51.5169430197085, "lng": -0.147302880291502}}}, "name": "Post box", "place_id": "ChIJYfNuYNobdkgRjf9sSwP7uOE", "types": ["post_office", "finance", "point_of_interest", "establishment"]}, "ChIJA8QTcdQadkgR156BoZxbQ7I": {"geometry": {"location": {"lat": 51.5184317, "lng": -0.1463775}, "viewport": {"northeast": {"lat": 51.51966073029151, "lng": -0.144977069708498}, "southwest": {"lat": 51.51696276970851, "lng": -0.147675030291502}}}, "name": "Plastic Surgery W1 Ltd", "place_id": "ChIJA8QTcdQadkgR156BoZxbQ7I", "types": ["doctor", "health", "point_of_interest", "establishment"], "rating": 5, "user_ratings_total": 1}, "ChIJ7Vm7a9QadkgR0SnaiIlsQ4E": {"geometry": {"location": {"lat": 51.5186518, "lng": -0.1456493}, "viewport": {"northeast": {"lat": 51.5199892802915, "lng": -0.144363869708498}, "southwest": {"lat": 51.5172913197085, "lng": -0.147061830291502}}}, "name": "Ridgeback Group Ltd", "place_id": "ChIJ7Vm7a9QadkgR0SnaiIlsQ4E", "types": ["point_of_interest", "establishment"]}, "ChIJcfKtdtQadkgRB_WIg2kCmVA": {"geometry": {"location": {"lat": 51.5184917, "lng": -0.1465183}, "viewport": {"northeast": {"lat": 51.5198567802915, "lng": -0.145083319708498}, "southwest": {"lat": 51.5171588197085, "lng": -0.147781280291502}}}, "name": "Mr N Amir Sandiford", "place_id": "ChIJcfKtdtQadkgRB_WIg2kCmVA", "types": ["doctor", "health", "point_of_interest", "establishment"]}, "ChIJcfKtdtQadkgREcjP_gvIbSA": {"geometry": {"location": {"lat": 51.5184917, "lng": -0.1465183}, "viewport": {"northeast": {"lat": 51.51982298029149, "lng": -0.145266219708498}, "southwest": {"lat": 51.51712501970849, "lng": -0.147964180291502}}}, "name": "Sentimo UK", "place_id": "ChIJcfKtdtQadkgREcjP_gvIbSA", "types": ["point_of_interest", "establishment"]}, "ChIJibG2gNIadkgRiznLXjlluR4": {"geometry": {"location": {"lat": 51.5186636, "lng": -0.1465437}, "viewport": {"northeast": {"lat": 51.5199902302915, "lng": -0.145317219708498}, "southwest": {"lat": 51.5172922697085, "lng": -0.148015180291502}}}, "name": "Simon Newbold Creative Dental", "place_id": "ChIJibG2gNIadkgRiznLXjlluR4", "types": ["dentist", "health", "point_of_interest", "establishment"], "rating": 5, "user_ratings_total": 1}, "ChIJFyh7dNQadkgRq61pzuYp7NI": {"geometry": {"location": {"lat": 51.51866400000001, "lng": -0.1465444}, "viewport": {"northeast": {"lat": 51.5199906802915, "lng": -0.145317719708498}, "southwest": {"lat": 51.5172927197085, "lng": -0.148015680291502}}}, "name": "DRS LAWRENCE, REZAVANDI AND B", "place_id": "ChIJFyh7dNQadkgRq61pzuYp7NI", "types": ["dentist", "health", "point_of_interest", "establishment"]}, "ChIJQSCkfNQadkgRweQAms0izIY": {"geometry": {"location": {"lat": 51.51796789999999, "lng": -0.1462408}, "viewport": {"northeast": {"lat": 51.51929708029149, "lng": -0.145005169708498}, "southwest": {"lat": 51.51659911970849, "lng": -0.147703130291502}}}, "name": "Optical Express Laser Eye Surgery: London Harley Street", "place_id": "ChIJQSCkfNQadkgRweQAms0izIY", "types": ["doctor", "health", "point_of_interest", "establishment"], "rating": 4.4, "user_ratings_total": 154}, "ChIJixN2PtEadkgRr3FYy1rj-dU": {"geometry": {"location": {"lat": 51.52180950569871, "lng": -0.1482371179766749}, "viewport": {"northeast": {"lat": 51.5231584802915, "lng": -0.146888169708498}, "southwest": {"lat": 51.5204605197085, "lng": -0.149586130291502}}}, "name": "117-123 Harley St", "place_id": "ChIJixN2PtEadkgRr3FYy1rj-dU", "types": ["route"]}, "ChIJU53khtQadkgR5g1jMsQI8F0": {"geometry": {"location": {"lat": 51.5215943, "lng": -0.1478518}, "viewport": {"northeast": {"lat": 51.52292033029151, "lng": -0.146636169708498}, "southwest": {"lat": 51.52022236970851, "lng": -0.149334130291502}}}, "name": "Cooperhealth", "place_id": "ChIJU53khtQadkgR5g1jMsQI8F0", "types": ["hospital", "doctor", "health", "point_of_interest", "establishment"], "rating": 4.2, "user_ratings_total": 5}, "ChIJ38cDPdEadkgRp7oogJqeU6o": {"geometry": {"location": {"lat": 51.5220073, "lng": -0.1481669}, "viewport": {"northeast": {"lat": 51.52334168029151, "lng": -0.146892369708498}, "southwest": {"lat": 51.52064371970851, "lng": -0.149590330291502}}}, "name": "Dr Jack Edmonds", "place_id": "ChIJ38cDPdEadkgRp7oogJqeU6o", "types": ["doctor", "health", "point_of_interest", "establishment"], "rating": 5, "user_ratings_total": 1}, "ChIJkwMgLM4adkgRi7fORo42GB8": {"geometry": {"location": {"lat": 51.52196679999999, "lng": -0.1473283}, "viewport": {"northeast": {"lat": 51.5232407802915, "lng": -0.145947019708498}, "southwest": {"lat": 51.5205428197085, "lng": -0.148644980291502}}}, "name": "London Urology Associates", "place_id": "ChIJkwMgLM4adkgRi7fORo42GB8", "types": ["health", "point_of_interest", "establishment"], "rating": 4, "user_ratings_total": 5}, "ChIJBckDPdEadkgRsI2QJ5leumA": {"geometry": {"location": {"lat": 51.5219447, "lng": -0.1480728}, "viewport": {"northeast": {"lat": 51.5232749802915, "lng": -0.146828519708498}, "southwest": {"lat": 51.5205770197085, "lng": -0.149526480291502}}}, "name": "London Obesity Centre", "place_id": "ChIJBckDPdEadkgRsI2QJ5leumA", "types": ["health", "point_of_interest", "establishment"]}, "ChIJxYbrU9AadkgRESOt-gjW5fo": {"geometry": {"location": {"lat": 51.5217518, "lng": -0.148471}, "viewport": {"northeast": {"lat": 51.5230347802915, "lng": -0.147093469708498}, "southwest": {"lat": 51.5203368197085, "lng": -0.149791430291502}}}, "name": "Primavesi Dr R", "place_id": "ChIJxYbrU9AadkgRESOt-gjW5fo", "types": ["doctor", "health", "point_of_interest", "establishment"], "rating": 5, "user_ratings_total": 1}, "ChIJz6kcQdEadkgRj-T8kjQfMZI": {"geometry": {"location": {"lat": 51.5215235, "lng": -0.1479471}, "viewport": {"northeast": {"lat": 51.5228596302915, "lng": -0.146672619708498}, "southwest": {"lat": 51.5201616697085, "lng": -0.149370580291502}}}, "name": "Harley Hearing Centre", "place_id": "ChIJz6kcQdEadkgRj-T8kjQfMZI", "types": ["doctor", "health", "point_of_interest", "store", "establishment"], "rating": 2, "user_ratings_total": 1}, "ChIJr7BER9EadkgRveFOHI6t7Uo": {"geometry": {"location": {"lat": 51.5214651, "lng": -0.1478718}, "viewport": {"northeast": {"lat": 51.5227973302915, "lng": -0.146620219708498}, "southwest": {"lat": 51.5200993697085, "lng": -0.149318180291502}}}, "name": "108 Xray & Imaging Clinic", "place_id": "ChIJr7BER9EadkgRveFOHI6t7Uo", "types": ["doctor", "health", "point_of_interest", "establishment"], "rating": 1.5, "user_ratings_total": 2}, "ChIJ5UOodtQadkgRi08XcdJnI24": {"geometry": {"location": {"lat": 51.5218346, "lng": -0.1480117}, "viewport": {"northeast": {"lat": 51.5231640302915, "lng": -0.146772169708498}, "southwest": {"lat": 51.5204660697085, "lng": -0.149470130291502}}}, "name": "Dr. Angus Blair", "place_id": "ChIJ5UOodtQadkgRi08XcdJnI24", "types": ["doctor", "health", "point_of_interest", "establishment"]},