{"E00023885": {"ChIJow7aPMAadkgRX4gp_01clAI": {"geometry": {"location": {"lat": 51.53524323683931, "lng": -0.1629323823120494}, "viewport": {"northeast": {"lat": 51.53659168029149, "lng": -0.161582819708498}, "southwest": {"lat": 51.53389371970849, "lng": -0.164280780291502}}}, "name": "51 A5205", "place_id": "ChIJow7aPMAadkgRX4gp_01clAI", "types": ["route"]}, "ChIJXRazPcAadkgRSI8yL-V1eC8": {"geometry": {"location": {"lat": 51.535228, "lng": -0.1630104}, "viewport": {"northeast": {"lat": 51.53659173029151, "lng": -0.161676969708498}, "southwest": {"lat": 51.53389376970851, "lng": -0.164374930291502}}}, "name": "Acs Futures Ltd", "place_id": "ChIJXRazPcAadkgRSI8yL-V1eC8", "types": ["point_of_interest", "establishment"]}, "ChIJb5hSC8AadkgRUyxdr0WUfpQ": {"geometry": {"location": {"lat": 51.53467221788576, "lng": -0.1641867951792448}, "viewport": {"northeast": {"lat": 51.5360208802915, "lng": -0.162837369708498}, "southwest": {"lat": 51.5333229197085, "lng": -0.165535330291502}}}, "name": "Prince Albert Road", "place_id": "ChIJb5hSC8AadkgRUyxdr0WUfpQ", "types": ["route"]}, "ChIJL9RGC8AadkgRx3SHR2X0SDI": {"geometry": {"location": {"lat": 51.534668, "lng": -0.164329}, "viewport": {"northeast": {"lat": 51.53599938029149, "lng": -0.162954819708498}, "southwest": {"lat": 51.53330141970849, "lng": -0.165652780291502}}}, "name": "Avenue Road (Stop G)", "place_id": "ChIJL9RGC8AadkgRx3SHR2X0SDI", "types": ["transit_station", "point_of_interest", "establishment"]}, "ChIJ-VvZE8AadkgRGrEB6ykjXoE": {"geometry": {"location": {"lat": 51.534918, "lng": -0.163634}, "viewport": {"northeast": {"lat": 51.5362528302915, "lng": -0.162311019708498}, "southwest": {"lat": 51.5335548697085, "lng": -0.165008980291502}}}, "name": "Avenue Road St John's Wood", "place_id": "ChIJ-VvZE8AadkgRGrEB6ykjXoE", "types": ["transit_station", "point_of_interest", "establishment"]}, "ChIJZSveYcAadkgRazUdaCLiHC4": {"geometry": {"location": {"lat": 51.533327889192, "lng": -0.1634623796637052}, "viewport": {"northeast": {"lat": 51.53479575000004, "lng": -0.16191945}, "southwest": {"lat": 51.53181434999996, "lng": -0.16490445}}}, "name": "Outer Circle", "place_id": "ChIJZSveYcAadkgRazUdaCLiHC4", "types": ["route"]}, "ChIJ5Rt7m8AadkgRcpGqgcdlclA": {"geometry": {"location": {"lat": 51.53250625000886, "lng": -0.1642038500536002}, "viewport": {"northeast": {"lat": 51.5338552302915, "lng": -0.162854869708498}, "southwest": {"lat": 51.5311572697085, "lng": -0.165552830291502}}}, "name": "Outer Circle", "place_id": "ChIJ5Rt7m8AadkgRcpGqgcdlclA", "types": ["route"]}, "ChIJ14Or_L8adkgRMqDPLBHeyHQ": {"geometry": {"location": {"lat": 51.53566205048414, "lng": -0.1652633010488269}, "viewport": {"northeast": {"lat": 51.5370110302915, "lng": -0.163914319708498}, "southwest": {"lat": 51.5343130697085, "lng": -0.166612280291502}}}, "name": "20 Allitsen Rd", "place_id": "ChIJ14Or_L8adkgRMqDPLBHeyHQ", "types": ["route"]}, "ChIJO2-P3b8adkgR--jO60-jGTM": {"geometry": {"location": {"lat": 51.535457, "lng": -0.1661565}, "viewport": {"northeast": {"lat": 51.5367497302915, "lng": -0.1647390697084979}, "southwest": {"lat": 51.5340517697085, "lng": -0.167437030291502}}}, "name": "The New Inn Restaurant - St Johns Wood", "place_id": "ChIJO2-P3b8adkgR--jO60-jGTM", "types": ["restaurant", "bar", "food", "point_of_interest", "establishment"], "rating": 4, "user_ratings_total": 296}, "ChIJdSN-EcAadkgR_QhMkLor2qc": {"geometry": {"location": {"lat": 51.5353881, "lng": -0.1650604}, "viewport": {"northeast": {"lat": 51.5368537302915, "lng": -0.1635007697084979}, "southwest": {"lat": 51.5341557697085, "lng": -0.166198730291502}}}, "name": "Aspaera", "place_id": "ChIJdSN-EcAadkgR_QhMkLor2qc", "types": ["point_of_interest", "establishment"]}, "ChIJpVY3-r8adkgRbSoq05b6Jvg": {"geometry": {"location": {"lat": 51.5353881, "lng": -0.1650604}, "viewport": {"northeast": {"lat": 51.5368537302915, "lng": -0.1635007697084979}, "southwest": {"lat": 51.5341557697085, "lng": -0.166198730291502}}}, "name": "247 Investigations", "place_id": "ChIJpVY3-r8adkgRbSoq05b6Jvg", "types": ["point_of_interest", "establishment"]}, "ChIJVVVF-r8adkgRDThO8zmooZw": {"geometry": {"location": {"lat": 51.5353869, "lng": -0.1651278}, "viewport": {"northeast": {"lat": 51.53686538029149, "lng": -0.163552219708498}, "southwest": {"lat": 51.5341674197085, "lng": -0.166250180291502}}}, "name": "Polorbis Holidays Ltd", "place_id": "ChIJVVVF-r8adkgRDThO8zmooZw", "types": ["travel_agency", "point_of_interest", "establishment"]}, "ChIJcfFZFQEZdkgR6HXB806R9AE": {"geometry": {"location": {"lat": 51.5354256, "lng": -0.1649943}, "viewport": {"northeast": {"lat": 51.5368727302915, "lng": -0.163468069708498}, "southwest": {"lat": 51.5341747697085, "lng": -0.166166030291502}}}, "name": "Woodmere Court", "place_id": "ChIJcfFZFQEZdkgR6HXB806R9AE", "types": ["point_of_interest", "establishment"]}, "ChIJiwR57r8adkgRNoMpdcZueW4": {"geometry": {"location": {"lat": 51.5352338, "lng": -0.1659353}, "viewport": {"northeast": {"lat": 51.53663058029149, "lng": -0.164644469708498}, "southwest": {"lat": 51.5339326197085, "lng": -0.167342430291502}}}, "name": "Townshend Court", "place_id": "ChIJiwR57r8adkgRNoMpdcZueW4", "types": ["point_of_interest", "establishment"], "rating": 4.8, "user_ratings_total": 23}, "ChIJvUud-L8adkgRwout8IgNBiA": {"geometry": {"location": {"lat": 51.5354409, "lng": -0.1646798}, "viewport": {"northeast": {"lat": 51.53683608029149, "lng": -0.163247419708498}, "southwest": {"lat": 51.53413811970849, "lng": -0.165945380291502}}}, "name": "London House", "place_id": "ChIJvUud-L8adkgRwout8IgNBiA", "types": ["point_of_interest", "establishment"]}, "ChIJfYFciskbdkgRz-sxc_Yw_XQ": {"geometry": {"location": {"lat": 51.53503709999999, "lng": -0.1656089}, "viewport": {"northeast": {"lat": 51.5364367302915, "lng": -0.164172169708498}, "southwest": {"lat": 51.5337387697085, "lng": -0.166870130291502}}}, "name": "Goldhurst Art Advisory", "place_id": "ChIJfYFciskbdkgRz-sxc_Yw_XQ", "types": ["point_of_interest", "establishment"], "rating": 5, "user_ratings_total": 2}, "ChIJAb38dCcbdkgRSA6hLT2JhuM": {"geometry": {"location": {"lat": 51.535457, "lng": -0.1661565}, "viewport": {"northeast": {"lat": 51.53684373029149, "lng": -0.164730869708498}, "southwest": {"lat": 51.5341457697085, "lng": -0.167428830291502}}}, "name": "St Johns Boutique Hotel", "place_id": "ChIJAb38dCcbdkgRSA6hLT2JhuM", "types": ["lodging", "point_of_interest", "establishment"], "rating": 5, "user_ratings_total": 2}, "ChIJ__-b3b8adkgRn9vXjSqHqNU": {"geometry": {"location": {"lat": 51.53544710000001, "lng": -0.1661634}, "viewport": {"northeast": {"lat": 51.53674193029151, "lng": -0.164748519708498}, "southwest": {"lat": 51.53404396970851, "lng": -0.167446480291502}}}, "name": "Lsdp Ltd", "place_id": "ChIJ__-b3b8adkgRn9vXjSqHqNU", "types": ["point_of_interest", "establishment"]}, "ChIJ__-b3b8adkgReUb5FYr8Byw": {"geometry": {"location": {"lat": 51.53544710000001, "lng": -0.1661634}, "viewport": {"northeast": {"lat": 51.53674193029151, "lng": -0.164748519708498}, "southwest": {"lat": 51.53404396970851, "lng": -0.167446480291502}}}, "name": "Room 1", "place_id": "ChIJ__-b3b8adkgReUb5FYr8Byw", "types": ["lodging", "point_of_interest", "establishment"]}, "ChIJHS9M8L8adkgRQBFYpCtuXfI": {"geometry": {"location": {"lat": 51.5350185, "lng": -0.1651344}, "viewport": {"northeast": {"lat": 51.5363492302915, "lng": -0.163818519708498}, "southwest": {"lat": 51.5336512697085, "lng": -0.166516480291502}}}, "name": "ubitricity Charging Station", "place_id": "ChIJHS9M8L8adkgRQBFYpCtuXfI", "types": ["point_of_interest", "establishment"]}, "ChIJn-jQiL8adkgRUE8XFZtumRU": {"geometry": {"location": {"lat": 51.53412421163524, "lng": -0.1649795724663462}, "viewport": {"northeast": {"lat": 51.5354623802915, "lng": -0.163608369708498}, "southwest": {"lat": 51.53276441970851, "lng": -0.166306330291502}}}, "name": "Prince Albert Road", "place_id": "ChIJn-jQiL8adkgRUE8XFZtumRU", "types": ["route"]}, "ChIJBw5Zib8adkgRdTAeINLbaFA": {"geometry": {"location": {"lat": 51.53426400000001, "lng": -0.1649229}, "viewport": {"northeast": {"lat": 51.53559958029149, "lng": -0.163544669708498}, "southwest": {"lat": 51.5329016197085, "lng": -0.166242630291502}}}, "name": "ubitricity Charging Station", "place_id": "ChIJBw5Zib8adkgRdTAeINLbaFA", "types": ["point_of_interest", "establishment"]}, "ChIJ3TzNlL8adkgRevRK1RzgiaU": {"geometry": {"location": {"lat": 51.5346009, "lng": -0.1658558}, "viewport": {"northeast": {"lat": 51.5359315802915, "lng": -0.1645321197084979}, "southwest": {"lat": 51.5332336197085, "lng": -0.167230080291502}}}, "name": "ubitricity Charging Station", "place_id": "ChIJ3TzNlL8adkgRevRK1RzgiaU", "types": ["point_of_interest", "establishment"]}, "ChIJJeDEYwMbdkgRUuSbkIHEcoE": {"geometry": {"location": {"lat": 51.5340742, "lng": -0.1655554}, "viewport": {"northeast": {"lat": 51.53535078029149, "lng": -0.164031719708498}, "southwest": {"lat": 51.5326528197085, "lng": -0.166729680291502}}}, "name": "ping", "place_id": "ChIJJeDEYwMbdkgRUuSbkIHEcoE", "types": ["school", "point_of_interest", "establishment"]}, "ChIJ50iYj78adkgRzPQ3jWsQBME": {"geometry": {"location": {"lat": 51.534023, "lng": -0.165205}, "viewport": {"northeast": {"lat": 51.5353558802915, "lng": -0.163821019708498}, "southwest": {"lat": 51.53265791970851, "lng": -0.166518980291502}}}, "name": "ubitricity Charging Station", "place_id": "ChIJ50iYj78adkgRzPQ3jWsQBME", "types": ["point_of_interest", "establishment"]}, "ChIJQcDgnb8adkgRVDcle7e3lMo": {"geometry": {"location": {"lat": 51.53338159675804, "lng": -0.1657352944727063}, "viewport": {"northeast": {"lat": 51.5347237302915, "lng": -0.164365169708498}, "southwest": {"lat": 51.5320257697085, "lng": -0.167063130291502}}}, "name": "86-75 A5205", "place_id": "ChIJQcDgnb8adkgRVDcle7e3lMo", "types": ["route"]}, "ChIJC_DMnb8adkgRjbwoCZ0FiOc": {"geometry": {"location": {"lat": 51.53344749999999, "lng": -0.165654}, "viewport": {"northeast": {"lat": 51.53478958029149, "lng": -0.164282769708498}, "southwest": {"lat": 51.5320916197085, "lng": -0.166980730291502}}}, "name": "Eamont Street", "place_id": "ChIJC_DMnb8adkgRjbwoCZ0FiOc", "types": ["transit_station", "point_of_interest", "establishment"]}, "ChIJIRzYkxIQdkgRA_E8BIfAKNo": {"geometry": {"location": {"lat": 51.5335528, "lng": -0.1654531}, "viewport": {"northeast": {"lat": 51.53492053029151, "lng": -0.164156519708498}, "southwest": {"lat": 51.53222256970851, "lng": -0.166854480291502}}}, "name": "Dr R Dicuffa - The Practice Albert Road", "place_id": "ChIJIRzYkxIQdkgRA_E8BIfAKNo", "types": ["doctor", "health", "point_of_interest", "establishment"]}, "ChIJIRzYkxIQdkgR1Pm2TVXIKsg": {"geometry": {"location": {"lat": 51.5335528, "lng": -0.1654531}, "viewport": {"northeast": {"lat": 51.53492053029151, "lng": -0.164156519708498}, "southwest": {"lat": 51.53222256970851, "lng": -0.166854480291502}}}, "name": "Dr T Radwan - The Practice Albert Road", "place_id": "ChIJIRzYkxIQdkgR1Pm2TVXIKsg", "types": ["doctor", "health", "point_of_interest", "establishment"]}, "ChIJIRzYkxIQdkgRKs8y24ivXuA": {"geometry": {"location": {"lat": 51.5335528, "lng": -0.1654531}, "viewport": {"northeast": {"lat": 51.53492053029151, "lng": -0.164156519708498}, "southwest": {"lat": 51.53222256970851, "lng": -0.166854480291502}}}, "name": "Dr D Buhorah - The Practice Albert Road", "place_id": "ChIJIRzYkxIQdkgRKs8y24ivXuA", "types": ["doctor", "health", "point_of_interest", "establishment"]}, "ChIJIRzYkxIQdkgRWvIW_3OPguM": {"geometry": {"location": {"lat": 51.5335528, "lng": -0.1654531}, "viewport": {"northeast": {"lat": 51.53492053029151, "lng": -0.164156519708498}, "southwest": {"lat": 51.53222256970851, "lng": -0.166854480291502}}}, "name": "Dr R Ishaque - The Practice Albert Road", "place_id": "ChIJIRzYkxIQdkgRWvIW_3OPguM", "types": ["doctor", "health", "point_of_interest", "establishment"]}, "ChIJt5aWnL8adkgR93Z9VWGZ_JQ": {"geometry": {"location": {"lat": 51.533562, "lng": -0.165455}, "viewport": {"northeast": {"lat": 51.5349283302915, "lng": -0.164154469708498}, "southwest": {"lat": 51.5322303697085, "lng": -0.166852430291502}}}, "name": "Eamont Street (Stop E)", "place_id": "ChIJt5aWnL8adkgR93Z9VWGZ_JQ", "types": ["transit_station", "point_of_interest", "establishment"]}, "ChIJQwEwnr8adkgRgU7vlYEw1Kk": {"geometry": {"location": {"lat": 51.533333, "lng": -0.165853}, "viewport": {"northeast": {"lat": 51.5346763802915, "lng": -0.164485969708498}, "southwest": {"lat": 51.5319784197085, "lng": -0.167183930291502}}}, "name": "Eamont Street (Stop F)", "place_id": "ChIJQwEwnr8adkgRgU7vlYEw1Kk", "types": ["transit_station", "point_of_interest", "establishment"]}, "ChIJwzI7n78adkgRHuYIjbvHWK8": {"geometry": {"location": {"lat": 51.533565, "lng": -0.1659455}, "viewport": {"northeast": {"lat": 51.5348676802915, "lng": -0.164455219708498}, "southwest": {"lat": 51.5321697197085, "lng": -0.167153180291502}}}, "name": "Bentinck Close", "place_id": "ChIJwzI7n78adkgRHuYIjbvHWK8", "types": ["point_of_interest", "establishment"]}, "ChIJUdby1b8adkgRxoSNM_D-QsM": {"geometry": {"location": {"lat": 51.5358502005647, "lng": -0.1673691013637734}, "viewport": {"northeast": {"lat": 51.5371991802915, "lng": -0.166020119708498}, "southwest": {"lat": 51.5345012197085, "lng": -0.168718080291502}}}, "name": "Saint John's Wood Terrace", "place_id": "ChIJUdby1b8adkgRxoSNM_D-QsM", "types": ["route"]}, "ChIJw5SDzr8adkgRseNxXn2AjaA": {"geometry": {"location": {"lat": 51.53503480000001, "lng": -0.1672193}, "viewport": {"northeast": {"lat": 51.53640673029149, "lng": -0.165897619708498}, "southwest": {"lat": 51.5337087697085, "lng": -0.168595580291502}}}, "name": "All Translation", "place_id": "ChIJw5SDzr8adkgRseNxXn2AjaA", "types": ["point_of_interest", "establishment"]}, "ChIJ5091Eb4adkgRVLCBzEsOZNk": {"geometry": {"location": {"lat": 51.53553149999999, "lng": -0.1676279}, "viewport": {"northeast": {"lat": 51.53694653029149, "lng": -0.166351069708498}, "southwest": {"lat": 51.5342485697085, "lng": -0.169049030291502}}}, "name": "Adventure Play Hub", "place_id": "ChIJ5091Eb4adkgRVLCBzEsOZNk", "types": ["point_of_interest", "establishment"], "rating": 5, "user_ratings_total": 5}, "ChIJAQD00b8adkgRNFgjH8hLSlY": {"geometry": {"location": {"lat": 51.53532239999999, "lng": -0.167175}, "viewport": {"northeast": {"lat": 51.53660678029149, "lng": -0.165757069708498}, "southwest": {"lat": 51.53390881970849, "lng": -0.168455030291502}}}, "name": "library", "place_id": "ChIJAQD00b8adkgRNFgjH8hLSlY", "types": ["library", "point_of_interest", "establishment"]}, "ChIJL6ertwQbdkgRzyWjUMa0uWA": {"geometry": {"location": {"lat": 51.53569220000001, "lng": -0.1671312}, "viewport": {"northeast": {"lat": 51.53698993029151, "lng": -0.165722469708498}, "southwest": {"lat": 51.53429196970851, "lng": -0.168420430291502}}}, "name": "Training Dog", "place_id": "ChIJL6ertwQbdkgRzyWjUMa0uWA", "types": ["point_of_interest", "establishment"], "rating": 5, "user_ratings_total": 3}, "ChIJhbr_0L8adkgRwdzhxMyGkXU": {"geometry": {"location": {"lat": 51.53562199999999, "lng": -0.1673804}, "viewport": {"northeast": {"lat": 51.5369059302915, "lng": -0.165955569708498}, "southwest": {"lat": 51.5342079697085, "lng": -0.168653530291502}}}, "name": "Turner House", "place_id": "ChIJhbr_0L8adkgRwdzhxMyGkXU", "types": ["point_of_interest", "establishment"]}, "ChIJOdqxoh4bdkgR9b5KlFzebLc": {"geometry": {"location": {"lat": 51.5352378, "lng": -0.1674553}, "viewport": {"northeast": {"lat": 51.5366365302915, "lng": -0.166164319708498}, "southwest": {"lat": 51.5339385697085, "lng": -0.168862280291502}}}, "name": "Townshend Estate", "place_id": "ChIJOdqxoh4bdkgR9b5KlFzebLc", "types": ["point_of_interest", "establishment"], "rating": 3.7, "user_ratings_total": 3}, "ChIJYfiz2r8adkgRG_QoqaZzJsc": {"geometry": {"location": {"lat": 51.5352617, "lng": -0.166749}, "viewport": {"northeast": {"lat": 51.53661718029151, "lng": -0.165406769708498}, "southwest": {"lat": 51.53391921970851, "lng": -0.168104730291502}}}, "name": "Opie House", "place_id": "ChIJYfiz2r8adkgRG_QoqaZzJsc", "types": ["point_of_interest", "establishment"], "rating": 5, "user_ratings_total": 1}, "ChIJL2RK44obdkgRKGOSrDYmxYA": {"geometry": {"location": {"lat": 51.53584600000001, "lng": -0.1673782}, "viewport": {"northeast": {"lat": 51.5371697802915, "lng": -0.165998819708498}, "southwest": {"lat": 51.5344718197085, "lng": -0.1686967802915021}}}, "name": "Fine Tutors St John's wood", "place_id": "ChIJL2RK44obdkgRKGOSrDYmxYA", "types": ["point_of_interest", "establishment"]}, "ChIJQ6ly1b8adkgRF5D050TixlI": {"geometry": {"location": {"lat": 51.53583699999999, "lng": -0.16743}, "viewport": {"northeast": {"lat": 51.5372014302915, "lng": -0.166099669708498}, "southwest": {"lat": 51.5345034697085, "lng": -0.168797630291502}}}, "name": "Landcruiser Spares", "place_id": "ChIJQ6ly1b8adkgRF5D050TixlI", "types": ["car_repair", "point_of_interest", "store", "establishment"]}, "ChIJV_uB3L8adkgRorHDBfdI1ZY": {"geometry": {"location": {"lat": 51.53540799999999, "lng": -0.1664608}, "viewport": {"northeast": {"lat": 51.5367570302915, "lng": -0.165111719708498}, "southwest": {"lat": 51.5340590697085, "lng": -0.167809680291502}}}, "name": "Cruiksink House", "place_id": "ChIJV_uB3L8adkgRorHDBfdI1ZY", "types": ["point_of_interest", "establishment"]}, "ChIJtbM3zL8adkgRRdXHKcyHN_Y": {"geometry": {"location": {"lat": 51.535051, "lng": -0.1672649}, "viewport": {"northeast": {"lat": 51.5364021302915, "lng": -0.165907519708498}, "southwest": {"lat": 51.5337041697085, "lng": -0.168605480291502}}}, "name": "Ramsay House", "place_id": "ChIJtbM3zL8adkgRRdXHKcyHN_Y", "types": ["point_of_interest", "establishment"], "rating": 3, "user_ratings_total": 1}, "ChIJeYS4Lb4adkgRzpDXiG_lkZg": {"geometry": {"location": {"lat": 51.535371, "lng": -0.167841}, "viewport": {"northeast": {"lat": 51.5366690802915, "lng": -0.166432669708498}, "southwest": {"lat": 51.5339711197085, "lng": -0.169130630291502}}}, "name": "Tigerlillies PreSchool", "place_id": "ChIJeYS4Lb4adkgRzpDXiG_lkZg", "types": ["school", "point_of_interest", "establishment"]}, "ChIJ-eetyr8adkgRHN3brpLiHnM": {"geometry": {"location": {"lat": 51.53463895003485, "lng": -0.1675417500814617}, "viewport": {"northeast": {"lat": 51.5359879302915, "lng": -0.166192769708498}, "southwest": {"lat": 51.5332899697085, "lng": -0.168890730291502}}}, "name": "53 Allitsen Rd", "place_id": "ChIJ-eetyr8adkgRHN3brpLiHnM", "types": ["route"]}, "ChIJS-Optb8adkgReQoehpk4eTs": {"geometry": {"location": {"lat": 51.53446210000001, "lng": -0.1673758}, "viewport": {"northeast": {"lat": 51.5358505302915, "lng": -0.165959419708498}, "southwest": {"lat": 51.5331525697085, "lng": -0.168657380291502}}}, "name": "St Johns Wood Luxury Travel", "place_id": "ChIJS-Optb8adkgReQoehpk4eTs", "types": ["travel_agency", "point_of_interest", "establishment"]}, "ChIJU1XmTL4adkgRkcdWI3xNKlU": {"geometry": {"location": {"lat": 51.5341408, "lng": -0.1676626}, "viewport": {"northeast": {"lat": 51.5354546302915, "lng": -0.166368969708498}, "southwest": {"lat": 51.5327566697085, "lng": -0.169066930291502}}}, "name": "Emerge Media", "place_id": "ChIJU1XmTL4adkgRkcdWI3xNKlU", "types": ["point_of_interest", "establishment"]}, "ChIJU1XmTL4adkgRNcqmkw--QHM": {"geometry": {"location": {"lat": 51.5341408, "lng": -0.1676626}, "viewport": {"northeast": {"lat": 51.5354546302915, "lng": -0.166368969708498}, "southwest": {"lat": 51.5327566697085, "lng": -0.169066930291502}}}, "name": "Touch Tones Music", "place_id": "ChIJU1XmTL4adkgRNcqmkw--QHM", "types": ["point_of_interest", "establishment"]}, "ChIJAbivTb4adkgRdvRiLZo23lQ": {"geometry": {"location": {"lat": 51.5341364, "lng": -0.1676816}, "viewport": {"northeast": {"lat": 51.53545433029149, "lng": -0.166381569708498}, "southwest": {"lat": 51.5327563697085, "lng": -0.169079530291502}}}, "name": "Trust Management", "place_id": "ChIJAbivTb4adkgRdvRiLZo23lQ", "types": ["point_of_interest", "establishment"]}, "ChIJc_A3tb8adkgRw1KWSDgkj_I": {"geometry": {"location": {"lat": 51.534531, "lng": -0.167441}, "viewport": {"northeast": {"lat": 51.5359301802915, "lng": -0.166150719708498}, "southwest": {"lat": 51.5332322197085, "lng": -0.168848680291502}}}, "name": "Passion Hair", "place_id": "ChIJc_A3tb8adkgRw1KWSDgkj_I", "types": ["hair_care", "point_of_interest", "establishment"], "rating": 3.9, "user_ratings_total": 134}, "ChIJq6o2sb8adkgRJDXG3c4ne7E": {"geometry": {"location": {"lat": 51.5342545, "lng": -0.1670766}, "viewport": {"northeast": {"lat": 51.53564903029149, "lng": -0.165656569708498}, "southwest": {"lat": 51.5329510697085, "lng": -0.168354530291502}}}, "name": "Alexander Moss", "place_id": "ChIJq6o2sb8adkgRJDXG3c4ne7E", "types": ["point_of_interest", "establishment"]}, "ChIJM-UEyr8adkgR9LwJrWdEnYo": {"geometry": {"location": {"lat": 51.5346369, "lng": -0.167226}, "viewport": {"northeast": {"lat": 51.5359610302915, "lng": -0.165919469708498}, "southwest": {"lat": 51.5332630697085, "lng": -0.168617430291502}}}, "name": "ubitricity Charging Station", "place_id": "ChIJM-UEyr8adkgR9LwJrWdEnYo", "types": ["point_of_interest", "establishment"]}, "ChIJpdy7RNQbdkgRN5ux-iJq8aM": {"geometry": {"location": {"lat": 51.5344013, "lng": -0.1667318}, "viewport": {"northeast": {"lat": 51.5357044302915, "lng": -0.165454369708498}, "southwest": {"lat": 51.5330064697085, "lng": -0.168152330291502}}}, "name": "11-21 Eamont Court", "place_id": "ChIJpdy7RNQbdkgRN5ux-iJq8aM", "types": ["general_contractor", "point_of_interest", "establishment"]}, "ChIJre3QSL4adkgRHmSr49Lpmks": {"geometry": {"location": {"lat": 51.5345675, "lng": -0.1674604}, "viewport": {"northeast": {"lat": 51.53595188029151, "lng": -0.166152819708498}, "southwest": {"lat": 51.53325391970851, "lng": -0.168850780291502}}}, "name": "Whisson News & Food London", "place_id": "ChIJre3QSL4adkgRHmSr49Lpmks", "types": ["convenience_store", "food", "point_of_interest", "store", "establishment"], "rating": 3.7, "user_ratings_total": 7}, "ChIJQxChRb4adkgRZhCKYDzXhas": {"geometry": {"location": {"lat": 51.53440089999999, "lng": -0.1676309}, "viewport": {"northeast": {"lat": 51.53581488029149, "lng": -0.166357369708498}, "southwest": {"lat": 51.53311691970849, "lng": -0.169055330291502}}}, "name": "Linnet House Clinic", "place_id": "ChIJQxChRb4adkgRZhCKYDzXhas", "types": ["physiotherapist", "hospital", "health", "point_of_interest", "establishment"]}, "ChIJowosur8adkgRJhPAX4C7aWw": {"geometry": {"location": {"lat": 51.53425499999999, "lng": -0.166657}, "viewport": {"northeast": {"lat": 51.5355871802915, "lng": -0.165333769708498}, "southwest": {"lat": 51.53288921970851, "lng": -0.168031730291502}}}, "name": "ubitricity Charging Station", "place_id": "ChIJowosur8adkgRJhPAX4C7aWw", "types": ["point_of_interest", "establishment"]}, "ChIJ6bWgSr4adkgReQebYafzCjk": {"geometry": {"location": {"lat": 51.534598, "lng": -0.167632}, "viewport": {"northeast": {"lat": 51.5359215802915, "lng": -0.166253369708498}, "southwest": {"lat": 51.5332236197085, "lng": -0.168951330291502}}}, "name": "ENERGY PERFORMANCE CERTIFICATES: EPC SERVICES", "place_id": "ChIJ6bWgSr4adkgReQebYafzCjk", "types": ["point_of_interest", "establishment"]}, "ChIJiQPZdnobdkgR6MUptlEyVwE": {"geometry": {"location": {"lat": 51.534598, "lng": -0.1676323}, "viewport": {"northeast": {"lat": 51.53594698029149, "lng": -0.166283319708498}, "southwest": {"lat": 51.53324901970849, "lng": -0.168981280291502}}}, "name": "Truck Jump Start St John's Wood", "place_id": "ChIJiQPZdnobdkgR6MUptlEyVwE", "types": ["car_repair", "point_of_interest", "establishment"]}, "ChIJa1S4TL4adkgRvdSsC8k9eIM": {"geometry": {"location": {"lat": 51.5342015, "lng": -0.1676158}, "viewport": {"northeast": {"lat": 51.5354925302915, "lng": -0.166358019708498}, "southwest": {"lat": 51.53279456970851, "lng": -0.169055980291502}}}, "name": "Dermatonics Ltd", "place_id": "ChIJa1S4TL4adkgRvdSsC8k9eIM", "types": ["point_of_interest", "establishment"]}, "ChIJR1q4TL4adkgRqsTfYcqKPxQ": {"geometry": {"location": {"lat": 51.5341994, "lng": -0.167615}, "viewport": {"northeast": {"lat": 51.5354908802915, "lng": -0.166356569708498}, "southwest": {"lat": 51.5327929197085, "lng": -0.169054530291502}}}, "name": "Shiny Awards Limited", "place_id": "ChIJR1q4TL4adkgRqsTfYcqKPxQ", "types": ["point_of_interest", "establishment"]}, "ChIJQ4rmTL4adkgRLbCjfoP6qz8": {"geometry": {"location": {"lat": 51.5341994, "lng": -0.167615}, "viewport": {"northeast": {"lat": 51.5354908802915, "lng": -0.166356569708498}, "southwest": {"lat": 51.5327929197085, "lng": -0.169054530291502}}}, "name": "RAK Recording Studio", "place_id": "ChIJQ4rmTL4adkgRLbCjfoP6qz8", "types": ["electronics_store", "home_goods_store", "point_of_interest", "store", "establishment"], "rating": 4.8, "user_ratings_total": 56}, "ChIJ09axTb4adkgR2PHvKfV41GM": {"geometry": {"location": {"lat": 51.5341409, "lng": -0.1676887}, "viewport": {"northeast": {"lat": 51.5354587802915, "lng": -0.166388769708498}, "southwest": {"lat": 51.5327608197085, "lng": -0.169086730291502}}}, "name": "Rak Publishing", "place_id": "ChIJ09axTb4adkgR2PHvKfV41GM", "types": ["point_of_interest", "establishment"]}, "ChIJAQA8u78adkgRAmtAedyoK-4": {"geometry": {"location": {"lat": 51.5340088, "lng": -0.166569}, "viewport": {"northeast": {"lat": 51.5351843802915, "lng": -0.165486419708498}, "southwest": {"lat": 51.5324864197085, "lng": -0.168184380291502}}}, "name": "iConnect21 Ltd", "place_id": "ChIJAQA8u78adkgRAmtAedyoK-4", "types": ["point_of_interest", "establishment"]}, "ChIJhd3VqL8adkgRE69egofKYJw": {"geometry": {"location": {"lat": 51.53359961675825, "lng": -0.1669970527655954}, "viewport": {"northeast": {"lat": 51.53494818029149, "lng": -0.165648719708498}, "southwest": {"lat": 51.5322502197085, "lng": -0.168346680291502}}}, "name": "16 Charlbert St", "place_id": "ChIJhd3VqL8adkgRE69egofKYJw", "types": ["route"]}, "ChIJDZbaB78adkgRdFGa_pOHBiw": {"geometry": {"location": {"lat": 51.53316729999999, "lng": -0.1669341}, "viewport": {"northeast": {"lat": 51.53461203029149, "lng": -0.165421369708498}, "southwest": {"lat": 51.5319140697085, "lng": -0.168119330291502}}}, "name": "Oslo Court Restaurant", "place_id": "ChIJDZbaB78adkgRdFGa_pOHBiw", "types": ["restaurant", "food", "point_of_interest", "establishment"], "rating": 4.7, "user_ratings_total": 452}, "ChIJeVEXAr8adkgRrLJmyUXprcY": {"geometry": {"location": {"lat": 51.5330039, "lng": -0.1673695}, "viewport": {"northeast": {"lat": 51.53439543029149, "lng": -0.165991419708498}, "southwest": {"lat": 51.5316974697085, "lng": -0.168689380291502}}}, "name": "The Tibet House Trust", "place_id": "ChIJeVEXAr8adkgRrLJmyUXprcY", "types": ["point_of_interest", "establishment"], "rating": 5, "user_ratings_total": 5}, "ChIJeTYgkAAQdkgRA4CF8jQfr9g": {"geometry": {"location": {"lat": 51.5331661, "lng": -0.166955}, "viewport": {"northeast": {"lat": 51.5344425302915, "lng": -0.165534969708498}, "southwest": {"lat": 51.5317445697085, "lng": -0.168232930291502}}}, "name": "Denise Cuddigan BSc DO MOst Registered Osteopath St John's Wood", "place_id": "ChIJeTYgkAAQdkgRA4CF8jQfr9g", "types": ["health", "point_of_interest", "establishment"], "rating": 5, "user_ratings_total": 2}, "ChIJqb7Z_L4adkgRKqZALUj6sOM": {"geometry": {"location": {"lat": 51.53316599999999, "lng": -0.167047}, "viewport": {"northeast": {"lat": 51.5344497802915, "lng": -0.165573869708498}, "southwest": {"lat": 51.5317518197085, "lng": -0.1682718302915021}}}, "name": "Glass Mandala", "place_id": "ChIJqb7Z_L4adkgRKqZALUj6sOM", "types": ["health", "point_of_interest", "establishment"]}, "ChIJv7WiU8gadkgRG7bsV9cfgIA": {"geometry": {"location": {"lat": 51.5331661, "lng": -0.166955}, "viewport": {"northeast": {"lat": 51.5344425302915, "lng": -0.165534969708498}, "southwest": {"lat": 51.5317445697085, "lng": -0.168232930291502}}}, "name": "Your Nutritional Health", "place_id": "ChIJv7WiU8gadkgRG7bsV9cfgIA", "types": ["health", "point_of_interest", "establishment"]}, "ChIJXwXxC-oadkgRCtA-zCf2Llo": {"geometry": {"location": {"lat": 51.53322199999999, "lng": -0.167126}, "viewport": {"northeast": {"lat": 51.5344939302915, "lng": -0.165829719708498}, "southwest": {"lat": 51.5317959697085, "lng": -0.1685276802915021}}}, "name": "Mora Clock", "place_id": "ChIJXwXxC-oadkgRCtA-zCf2Llo", "types": ["furniture_store", "home_goods_store", "point_of_interest", "store", "establishment"], "rating": 5, "user_ratings_total": 1}, "ChIJAQCwB78adkgRc7HdkF4gfj4": {"geometry": {"location": {"lat": 51.5331661, "lng": -0.166955}, "viewport": {"northeast": {"lat": 51.5344425302915, "lng": -0.165534969708498}, "southwest": {"lat": 51.5317445697085, "lng": -0.168232930291502}}}, "name": "David Mundy", "place_id": "ChIJAQCwB78adkgRc7HdkF4gfj4", "types": ["health", "point_of_interest", "establishment"]}, "ChIJOcgy_r4adkgRxJaew_6LfU0": {"geometry": {"location": {"lat": 51.53322799999999, "lng": -0.167433}, "viewport": {"northeast": {"lat": 51.5345841302915, "lng": -0.166105819708498}, "southwest": {"lat": 51.5318861697085, "lng": -0.168803780291502}}}, "name": "Private Art Education", "place_id": "ChIJOcgy_r4adkgRxJaew_6LfU0", "types": ["point_of_interest", "establishment"], "rating": 4.8, "user_ratings_total": 6}, "ChIJYU_KB78adkgR0lOUDj7AvCo": {"geometry": {"location": {"lat": 51.5331389, "lng": -0.1669002}, "viewport": {"northeast": {"lat": 51.5344207302915, "lng": -0.165503869708498}, "southwest": {"lat": 51.5317227697085, "lng": -0.168201830291502}}}, "name": "Ingrid Moore", "place_id": "ChIJYU_KB78adkgR0lOUDj7AvCo", "types": ["health", "point_of_interest", "establishment"]}, "ChIJR2_aB78adkgRlL5cYNSDxBQ": {"geometry": {"location": {"lat": 51.5331699, "lng": -0.1668483}, "viewport": {"northeast": {"lat": 51.5344327802915, "lng": -0.165490869708498}, "southwest": {"lat": 51.5317348197085, "lng": -0.168188830291502}}}, "name": "Saharah", "place_id": "ChIJR2_aB78adkgRlL5cYNSDxBQ", "types": ["gym", "health", "point_of_interest", "establishment"]}, "ChIJQ2_aB78adkgRlmHIxeFPgUo": {"geometry": {"location": {"lat": 51.5331698, "lng": -0.1668484}, "viewport": {"northeast": {"lat": 51.53443273029149, "lng": -0.165490869708498}, "southwest": {"lat": 51.53173476970849, "lng": -0.168188830291502}}}, "name": "eyal chehanowski bodywork/yoga", "place_id": "ChIJQ2_aB78adkgRlmHIxeFPgUo", "types": ["school", "point_of_interest", "establishment"]}, "ChIJpUvPq78adkgR93Ef0lLoq74": {"geometry": {"location": {"lat": 51.533005, "lng": -0.167474}, "viewport": {"northeast": {"lat": 51.5344077802915, "lng": -0.166088219708498}, "southwest": {"lat": 51.5317098197085, "lng": -0.168786180291502}}}, "name": "Ana Maria Lavin Acupuncture and Herbs", "place_id": "ChIJpUvPq78adkgR93Ef0lLoq74", "types": ["health", "point_of_interest", "establishment"], "rating": 5, "user_ratings_total": 1}, "ChIJpUvPq78adkgRDH70kpRv_aI": {"geometry": {"location": {"lat": 51.53302259999999, "lng": -0.167531}, "viewport": {"northeast": {"lat": 51.5343910802915, "lng": -0.166245369708498}, "southwest": {"lat": 51.5316931197085, "lng": -0.168943330291502}}}, "name": "Leigh Blyth - Psychotherapy, Coaching & Massage", "place_id": "ChIJpUvPq78adkgRDH70kpRv_aI", "types": ["health", "point_of_interest", "establishment"], "rating": 5, "user_ratings_total": 1}, "ChIJw4DkAb8adkgRuH1WcNPbtj4": {"geometry": {"location": {"lat": 51.5330108, "lng": -0.1675281}, "viewport": {"northeast": {"lat": 51.5343807802915, "lng": -0.166247369708498}, "southwest": {"lat": 51.53168281970851, "lng": -0.168945330291502}}}, "name": "\u200bMindfulness Based Psychotherapy - Andrew Baxter", "place_id": "ChIJw4DkAb8adkgRuH1WcNPbtj4", "types": ["health", "point_of_interest", "establishment"]}, "ChIJw4DkAb8adkgR5IGuD8A32Q4": {"geometry": {"location": {"lat": 51.5330108, "lng": -0.1675281}, "viewport": {"northeast": {"lat": 51.5343807802915, "lng": -0.166247369708498}, "southwest": {"lat": 51.53168281970851, "lng": -0.168945330291502}}}, "name": "Nick Buxton", "place_id": "ChIJw4DkAb8adkgR5IGuD8A32Q4", "types": ["health", "point_of_interest", "establishment"]}, "ChIJR2_aB78adkgRh9hhdf147cw": {"geometry": {"location": {"lat": 51.5329756, "lng": -0.1674664}, "viewport": {"northeast": {"lat": 51.53435668029149, "lng": -0.1662217197084979}, "southwest": {"lat": 51.5316587197085, "lng": -0.168919680291502}}}, "name": "West End Acupuncture", "place_id": "ChIJR2_aB78adkgRh9hhdf147cw", "types": ["health", "point_of_interest", "establishment"], "rating": 5, "user_ratings_total": 7}, "ChIJqb7Z_L4adkgROIFOnphiWNA": {"geometry": {"location": {"lat": 51.5329697, "lng": -0.1674576}, "viewport": {"northeast": {"lat": 51.53435243029149, "lng": -0.166218319708498}, "southwest": {"lat": 51.5316544697085, "lng": -0.168916280291502}}}, "name": "Kailash Centre", "place_id": "ChIJqb7Z_L4adkgROIFOnphiWNA", "types": ["health", "point_of_interest", "establishment"], "rating": 4.2, "user_ratings_total": 5}, "ChIJE43FB78adkgR7wKylf9toXk": {"geometry": {"location": {"lat": 51.53322060000001, "lng": -0.1672246}, "viewport": {"northeast": {"lat": 51.53456878029149, "lng": -0.166036719708498}, "southwest": {"lat": 51.53187081970849, "lng": -0.168734680291502}}}, "name": "Oslo Court Garage", "place_id": "ChIJE43FB78adkgR7wKylf9toXk", "types": ["car_wash", "car_repair", "point_of_interest", "store", "establishment"], "rating": 4.9, "user_ratings_total": 155}, "ChIJsZ38qr8adkgRq1eDEQPrg8I": {"geometry": {"location": {"lat": 51.5333331, "lng": -0.1673269}, "viewport": {"northeast": {"lat": 51.5347082302915, "lng": -0.166006919708498}, "southwest": {"lat": 51.5320102697085, "lng": -0.168704880291502}}}, "name": "ubitricity Charging Station", "place_id": "ChIJsZ38qr8adkgRq1eDEQPrg8I", "types": ["point_of_interest", "establishment"]}, "ChIJFY3FB78adkgR_e70KfdCG1w": {"geometry": {"location": {"lat": 51.5332355, "lng": -0.1673026}, "viewport": {"northeast": {"lat": 51.5344845302915, "lng": -0.165768619708498}, "southwest": {"lat": 51.5317865697085, "lng": -0.168466580291502}}}, "name": "cdcarriage", "place_id": "ChIJFY3FB78adkgR_e70KfdCG1w", "types": ["car_repair", "point_of_interest", "establishment"]}, "ChIJpUvPq78adkgR5Djl2J0yB0U": {"geometry": {"location": {"lat": 51.53316599999999, "lng": -0.167047}, "viewport": {"northeast": {"lat": 51.5344497802915, "lng": -0.165573869708498}, "southwest": {"lat": 51.5317518197085, "lng": -0.1682718302915021}}}, "name": "Japanese Aromatherapist London, \u65e5\u672c\u4eba\u30a2\u30ed\u30de\u30bb\u30e9\u30d4\u30b9\u30c8 \u30ed\u30f3\u30c9\u30f3UK", "place_id": "ChIJpUvPq78adkgR5Djl2J0yB0U", "types": ["health", "point_of_interest", "establishment"]}, "ChIJAQCwB78adkgRLLSfPVy1WOo": {"geometry": {"location": {"lat": 51.5331661, "lng": -0.166955}, "viewport": {"northeast": {"lat": 51.5344425302915, "lng": -0.165534969708498}, "southwest": {"lat": 51.5317445697085, "lng": -0.168232930291502}}}, "name": "Esc", "place_id": "ChIJAQCwB78adkgRLLSfPVy1WOo", "types": ["point_of_interest", "establishment"]}, "ChIJAQCwB78adkgRALic_ofs390": {"geometry": {"location": {"lat": 51.5331661, "lng": -0.166955}, "viewport": {"northeast": {"lat": 51.5344425302915, "lng": -0.165534969708498}, "southwest": {"lat": 51.5317445697085, "lng": -0.168232930291502}}}, "name": "Sigita Thai Yoga Massage", "place_id": "ChIJAQCwB78adkgRALic_ofs390", "types": ["point_of_interest", "establishment"], "rating": 5, "user_ratings_total": 1}, "ChIJVa6RixYbdkgRVkGVaxmCTVQ": {"geometry": {"location": {"lat": 51.5331661, "lng": -0.166955}, "viewport": {"northeast": {"lat": 51.5344425302915, "lng": -0.165534969708498}, "southwest": {"lat": 51.5317445697085, "lng": -0.168232930291502}}}, "name": "Eastern Scholars Clinic", "place_id": "ChIJVa6RixYbdkgRVkGVaxmCTVQ", "types": ["health", "point_of_interest", "establishment"], "rating": 5, "user_ratings_total": 1}, "ChIJ6w64B78adkgRZUhfk-glCw0": {"geometry": {"location": {"lat": 51.53316969999999, "lng": -0.1669109}, "viewport": {"northeast": {"lat": 51.5344396802915, "lng": -0.165615869708498}, "southwest": {"lat": 51.5317417197085, "lng": -0.168313830291502}}}, "name": "Enterprize Excellence", "place_id": "ChIJ6w64B78adkgRZUhfk-glCw0", "types": ["point_of_interest", "establishment"]}, "ChIJBeKBLQcbdkgRgGkTtclv_wc": {"geometry": {"location": {"lat": 51.53316969999999, "lng": -0.1669109}, "viewport": {"northeast": {"lat": 51.5344396802915, "lng": -0.165517319708498}, "southwest": {"lat": 51.5317417197085, "lng": -0.168215280291502}}}, "name": "PUREFLOWYOGA", "place_id": "ChIJBeKBLQcbdkgRgGkTtclv_wc", "types": ["gym", "health", "point_of_interest", "establishment"], "rating": 5, "user_ratings_total": 5}, "ChIJpTtzsF0bdkgRe9RIuqs5p3A": {"geometry": {"location": {"lat": 51.53316969999999, "lng": -0.1669109}, "viewport": {"northeast": {"lat": 51.5344396802915, "lng": -0.165517319708498}, "southwest": {"lat": 51.5317417197085, "lng": -0.168215280291502}}}, "name": "Ashtanga yoga NW London- Netta Imber", "place_id": "ChIJpTtzsF0bdkgRe9RIuqs5p3A", "types": ["school", "point_of_interest", "establishment"]}, "ChIJpUvPq78adkgRG4eHfbqad8Q": {"geometry": {"location": {"lat": 51.5331698, "lng": -0.1668484}, "viewport": {"northeast": {"lat": 51.53443273029149, "lng": -0.165490869708498}, "southwest": {"lat": 51.53173476970849, "lng": -0.168188830291502}}}, "name": "Acupuncture chinese and yoga", "place_id": "ChIJpUvPq78adkgRG4eHfbqad8Q", "types": ["health", "point_of_interest", "establishment"]}, "ChIJpUvPq78adkgR0hXxx-bD0yk": {"geometry": {"location": {"lat": 51.5331698, "lng": -0.1668484}, "viewport": {"northeast": {"lat": 51.53443273029149, "lng": -0.165490869708498}, "southwest": {"lat": 51.53173476970849, "lng": -0.168188830291502}}}, "name": "Integrated Cranial Practice Ltd", "place_id": "ChIJpUvPq78adkgR0hXxx-bD0yk", "types": ["health", "point_of_interest", "establishment"]}, "ChIJIzKWqL8adkgRAICReX6nGvk": {"geometry": {"location": {"lat": 51.533533, "lng": -0.166878}, "viewport": {"northeast": {"lat": 51.5348579802915, "lng": -0.165566669708498}, "southwest": {"lat": 51.53216001970851, "lng": -0.168264630291502}}}, "name": "ubitricity Charging Station", "place_id": "ChIJIzKWqL8adkgRAICReX6nGvk", "types": ["point_of_interest", "establishment"]}, "ChIJEXhSr78adkgRFi7mqgZu4FE": {"geometry": {"location": {"lat": 51.5336307, "lng": -0.1668656}, "viewport": {"northeast": {"lat": 51.5349510302915, "lng": -0.165561169708498}, "southwest": {"lat": 51.5322530697085, "lng": -0.168259130291502}}}, "name": "Charlbert Court", "place_id": "ChIJEXhSr78adkgRFi7mqgZu4FE", "types": ["point_of_interest", "establishment"]}, "ChIJx1CzLlwbdkgRR_HpeNTufus": {"geometry": {"location": {"lat": 51.53382509999999, "lng": -0.1671452}, "viewport": {"northeast": {"lat": 51.53513908029149, "lng": -0.1658513197084979}, "southwest": {"lat": 51.5324411197085, "lng": -0.168549280291502}}}, "name": "BujuPet London", "place_id": "ChIJx1CzLlwbdkgRR_HpeNTufus", "types": ["point_of_interest", "establishment"]}, "ChIJy9UzG-0bdkgR6rw6efmEOco": {"geometry": {"location": {"lat": 51.5338313, "lng": -0.1671445}, "viewport": {"northeast": {"lat": 51.5351435802915, "lng": -0.165853269708498}, "southwest": {"lat": 51.5324456197085, "lng": -0.168551230291502}}}, "name": "BujuDance London", "place_id": "ChIJy9UzG-0bdkgR6rw6efmEOco", "types": ["point_of_interest", "establishment"]}, "ChIJhRQnIb8adkgR_TYvd63BlY8": {"geometry": {"location": {"lat": 51.5328172, "lng": -0.1667919}, "viewport": {"northeast": {"lat": 51.5341257802915, "lng": -0.165288519708498}, "southwest": {"lat": 51.5314278197085, "lng": -0.167986480291502}}}, "name": "Lordsgate Properties Ltd", "place_id": "ChIJhRQnIb8adkgR_TYvd63BlY8", "types": ["point_of_interest", "establishment"], "rating": 5, "user_ratings_total": 1}, "ChIJAQAA474adkgReKmbpV0A5iM": {"geometry": {"location": {"lat": 51.53246670000001, "lng": -0.167733}, "viewport": {"northeast": {"lat": 51.5338664802915, "lng": -0.166540269708498}, "southwest": {"lat": 51.5311685197085, "lng": -0.169238230291502}}}, "name": "Dr Emma Ostrovskaya", "place_id": "ChIJAQAA474adkgReKmbpV0A5iM", "types": ["health", "point_of_interest", "establishment"]}, "ChIJAQAA474adkgRIo7w9Ys7WMs": {"geometry": {"location": {"lat": 51.53246670000001, "lng": -0.167733}, "viewport": {"northeast": {"lat": 51.5338664802915, "lng": -0.166540269708498}, "southwest": {"lat": 51.5311685197085, "lng": -0.169238230291502}}}, "name": "Dr Emma Ostrovskaya BSc, DCouns", "place_id": "ChIJAQAA474adkgRIo7w9Ys7WMs", "types": ["health", "point_of_interest", "establishment"]}, "ChIJ0dOwJL4adkgRaxfhjxzsXxk": {"geometry": {"location": {"lat": 51.53520555031793, "lng": -0.1687861007730135}, "viewport": {"northeast": {"lat": 51.5365545302915, "lng": -0.167437119708498}, "southwest": {"lat": 51.5338565697085, "lng": -0.170135080291502}}}, "name": "38 St John's Wood Terrace", "place_id": "ChIJ0dOwJL4adkgRaxfhjxzsXxk", "types": ["route"]}, "ChIJDzRBJ74adkgROlmoua53OaQ": {"geometry": {"location": {"lat": 51.53585880000001, "lng": -0.1685723}, "viewport": {"northeast": {"lat": 51.53702688029151, "lng": -0.167020369708498}, "southwest": {"lat": 51.53432891970851, "lng": -0.169718330291502}}}, "name": "St Marylebone Almshouses", "place_id": "ChIJDzRBJ74adkgROlmoua53OaQ", "types": ["point_of_interest", "establishment"]}, "ChIJRTz_yfobdkgRVCreepm0ooA": {"geometry": {"location": {"lat": 51.53514239999999, "lng": -0.1688928}, "viewport": {"northeast": {"lat": 51.5364744802915, "lng": -0.167523269708498}, "southwest": {"lat": 51.5337765197085, "lng": -0.170221230291502}}}, "name": "24Hr Local Minicab St Johns Wood", "place_id": "ChIJRTz_yfobdkgRVCreepm0ooA", "types": ["point_of_interest", "establishment"]}, "ChIJjwdzL74adkgROTY4EI8s1yg": {"geometry": {"location": {"lat": 51.5354523, "lng": -0.1682224}, "viewport": {"northeast": {"lat": 51.5368187802915, "lng": -0.1668916697084979}, "southwest": {"lat": 51.5341208197085, "lng": -0.169589630291502}}}, "name": "ubitricity Charging Station", "place_id": "ChIJjwdzL74adkgROTY4EI8s1yg", "types": ["point_of_interest", "establishment"]}, "ChIJy7OjK74adkgRrBJnuGsnS9I": {"geometry": {"location": {"lat": 51.535825, "lng": -0.1685499}, "viewport": {"northeast": {"lat": 51.5370099802915, "lng": -0.167009169708498}, "southwest": {"lat": 51.5343120197085, "lng": -0.169707130291502}}}, "name": "Adams Facility", "place_id": "ChIJy7OjK74adkgRrBJnuGsnS9I", "types": ["health", "point_of_interest", "establishment"]}, "ChIJD-IUO74adkgRaSSsMq2E5e4": {"geometry": {"location": {"lat": 51.53513090000001, "lng": -0.1684798}, "viewport": {"northeast": {"lat": 51.5365489302915, "lng": -0.167216569708498}, "southwest": {"lat": 51.5338509697085, "lng": -0.169914530291502}}}, "name": "Cameron House", "place_id": "ChIJD-IUO74adkgRaSSsMq2E5e4", "types": ["point_of_interest", "establishment"]}, "ChIJd42zVngbdkgRD7sRTyE0AQs": {"geometry": {"location": {"lat": 51.53503550000001, "lng": -0.168789}, "viewport": {"northeast": {"lat": 51.5364392302915, "lng": -0.167502969708498}, "southwest": {"lat": 51.5337412697085, "lng": -0.170200930291502}}}, "name": "Secondary Glazing St John's Wood", "place_id": "ChIJd42zVngbdkgRD7sRTyE0AQs", "types": ["point_of_interest", "establishment"], "rating": 5, "user_ratings_total": 3}, "ChIJyTIxPL4adkgRY3VcXf6G82g": {"geometry": {"location": {"lat": 51.5350124, "lng": -0.1687454}, "viewport": {"northeast": {"lat": 51.5364304802915, "lng": -0.167475119708498}, "southwest": {"lat": 51.5337325197085, "lng": -0.170173080291502}}}, "name": "Drunch", "place_id": "ChIJyTIxPL4adkgRY3VcXf6G82g", "types": ["restaurant", "bar", "food", "point_of_interest", "establishment"], "rating": 4, "user_ratings_total": 314}, "ChIJpUPFd_kbdkgRmNApVxw3r4I": {"geometry": {"location": {"lat": 51.53515729999999, "lng": -0.1682039}, "viewport": {"northeast": {"lat": 51.5366087302915, "lng": -0.166948219708498}, "southwest": {"lat": 51.5339107697085, "lng": -0.169646180291502}}}, "name": "15 Square Meter LTD.", "place_id": "ChIJpUPFd_kbdkgRmNApVxw3r4I", "types": ["point_of_interest", "establishment"]}, "ChIJ8yUDaL4adkgRnfjHQ-lMCdk": {"geometry": {"location": {"lat": 51.53416673834873, "lng": -0.1686306965350101}, "viewport": {"northeast": {"lat": 51.5355118302915, "lng": -0.1672767697084979}, "southwest": {"lat": 51.5328138697085, "lng": -0.169974730291502}}}, "name": "88-76 Allitsen Rd", "place_id": "ChIJ8yUDaL4adkgRnfjHQ-lMCdk", "types": ["route"]}, "ChIJh6khQ74adkgRFUejqr1DopE": {"geometry": {"location": {"lat": 51.53403829999999, "lng": -0.1691912}, "viewport": {"northeast": {"lat": 51.5353469302915, "lng": -0.167796219708498}, "southwest": {"lat": 51.5326489697085, "lng": -0.170494180291502}}}, "name": "St Johns Wood Removals", "place_id": "ChIJh6khQ74adkgRFUejqr1DopE", "types": ["moving_company", "storage", "point_of_interest", "establishment"]}, "ChIJZ8sjT74adkgRuAMkQPDVjvk": {"geometry": {"location": {"lat": 51.5342163, "lng": -0.1682095}, "viewport": {"northeast": {"lat": 51.5355964802915, "lng": -0.1668095197084979}, "southwest": {"lat": 51.5328985197085, "lng": -0.169507480291502}}}, "name": "Dementia Specialists", "place_id": "ChIJZ8sjT74adkgRuAMkQPDVjvk", "types": ["health", "point_of_interest", "establishment"], "rating": 5, "user_ratings_total": 1}, "ChIJn_XPRykFdkgRHEsLabZ04TE": {"geometry": {"location": {"lat": 51.5345244, "lng": -0.1686733}, "viewport": {"northeast": {"lat": 51.53591108029151, "lng": -0.167239669708498}, "southwest": {"lat": 51.53321311970851, "lng": -0.169937630291502}}}, "name": "St John's Wood Dry Cleaners", "place_id": "ChIJn_XPRykFdkgRHEsLabZ04TE", "types": ["laundry", "point_of_interest", "establishment"], "rating": 4.3, "user_ratings_total": 16}, "ChIJExx9P74adkgR0kzYQwVH9OA": {"geometry": {"location": {"lat": 51.53436550000001, "lng": -0.1684231}, "viewport": {"northeast": {"lat": 51.5357394302915, "lng": -0.167011669708498}, "southwest": {"lat": 51.5330414697085, "lng": -0.169709630291502}}}, "name": "Brown's Of St Johns Wood", "place_id": "ChIJExx9P74adkgR0kzYQwVH9OA", "types": ["restaurant", "food", "point_of_interest", "store", "establishment"], "rating": 4.4, "user_ratings_total": 35}, "ChIJVeeOQL4adkgRjwI8D0ftBbk": {"geometry": {"location": {"lat": 51.53447380000001, "lng": -0.1687409}, "viewport": {"northeast": {"lat": 51.5358789302915, "lng": -0.167265619708498}, "southwest": {"lat": 51.53318096970851, "lng": -0.169963580291502}}}, "name": "Toolbase Environmental Limited", "place_id": "ChIJVeeOQL4adkgRjwI8D0ftBbk", "types": ["point_of_interest", "establishment"]}, "ChIJVeeOQL4adkgRkLJjGLee47c": {"geometry": {"location": {"lat": 51.53447380000001, "lng": -0.1687409}, "viewport": {"northeast": {"lat": 51.5358789302915, "lng": -0.167265619708498}, "southwest": {"lat": 51.53318096970851, "lng": -0.169963580291502}}}, "name": "Nintech Testing Limited", "place_id": "ChIJVeeOQL4adkgRkLJjGLee47c", "types": ["point_of_interest", "establishment"]}, "ChIJoeAYQL4adkgRMvgOaIf21nE": {"geometry": {"location": {"lat": 51.53452799999999, "lng": -0.1690049}, "viewport": {"northeast": {"lat": 51.53585253029149, "lng": -0.167626819708498}, "southwest": {"lat": 51.53315456970849, "lng": -0.170324780291502}}}, "name": "The Golf Course Wildlife Trust", "place_id": "ChIJoeAYQL4adkgRMvgOaIf21nE", "types": ["point_of_interest", "establishment"]}, "ChIJ2TP4ar4adkgRjVDudc2py_s": {"geometry": {"location": {"lat": 51.5344454, "lng": -0.1691751}, "viewport": {"northeast": {"lat": 51.5359204302915, "lng": -0.167547219708498}, "southwest": {"lat": 51.5332224697085, "lng": -0.170245180291502}}}, "name": "KeyNest - Smart Key Exchange", "place_id": "ChIJ2TP4ar4adkgRjVDudc2py_s", "types": ["point_of_interest", "store", "establishment"]}, "ChIJS5gTR74adkgRVBmE6hMtBFU": {"geometry": {"location": {"lat": 51.5345501, "lng": -0.1686152}, "viewport": {"northeast": {"lat": 51.53591623029151, "lng": -0.167202769708498}, "southwest": {"lat": 51.53321826970851, "lng": -0.169900730291502}}}, "name": "St John's Wood Supermarket", "place_id": "ChIJS5gTR74adkgRVBmE6hMtBFU", "types": ["convenience_store", "hardware_store", "post_office", "grocery_or_supermarket", "finance", "food", "point_of_interest", "store", "establishment"], "rating": 4.1, "user_ratings_total": 19}, "ChIJQxsxTe4bdkgRST5tqo4j4MY": {"geometry": {"location": {"lat": 51.5344979, "lng": -0.1685538}, "viewport": {"northeast": {"lat": 51.5358714802915, "lng": -0.167149569708498}, "southwest": {"lat": 51.53317351970851, "lng": -0.169847530291502}}}, "name": "Post Office Travel Money", "place_id": "ChIJQxsxTe4bdkgRST5tqo4j4MY", "types": ["finance", "point_of_interest", "establishment"]}, "ChIJaVOZar4adkgRtT5ke2kOv5E": {"geometry": {"location": {"lat": 51.5346258, "lng": -0.1687311}, "viewport": {"northeast": {"lat": 51.5360035302915, "lng": -0.167316369708498}, "southwest": {"lat": 51.5333055697085, "lng": -0.170014330291502}}}, "name": "ViVi Nail Spa (St John\u2019s Wood)", "place_id": "ChIJaVOZar4adkgRtT5ke2kOv5E", "types": ["beauty_salon", "point_of_interest", "establishment"], "rating": 4.5, "user_ratings_total": 36}, "ChIJz9rxrpgbdkgRDHc-K1-klnQ": {"geometry": {"location": {"lat": 51.53451690000001, "lng": -0.16854}, "viewport": {"northeast": {"lat": 51.53588498029151, "lng": -0.167147269708498}, "southwest": {"lat": 51.53318701970851, "lng": -0.169845230291502}}}, "name": "MoneyGram", "place_id": "ChIJz9rxrpgbdkgRDHc-K1-klnQ", "types": ["finance", "point_of_interest", "establishment"]}, "ChIJPXW62XUbdkgRjNoh3aeCat8": {"geometry": {"location": {"lat": 51.5344254, "lng": -0.1685025}, "viewport": {"northeast": {"lat": 51.53580373029149, "lng": -0.167087619708498}, "southwest": {"lat": 51.5331057697085, "lng": -0.169785580291502}}}, "name": "Browns of St Johns Wood", "place_id": "ChIJPXW62XUbdkgRjNoh3aeCat8", "types": ["food", "point_of_interest", "store", "establishment"]}, "ChIJRR90BO8bdkgR8b3mXpRy1J8": {"geometry": {"location": {"lat": 51.5344996, "lng": -0.1685212}, "viewport": {"northeast": {"lat": 51.5358681302915, "lng": -0.167128419708498}, "southwest": {"lat": 51.5331701697085, "lng": -0.169826380291502}}}, "name": "Post Office", "place_id": "ChIJRR90BO8bdkgR8b3mXpRy1J8", "types": ["post_office", "finance", "point_of_interest", "establishment"], "rating": 3.7, "user_ratings_total": 6}, "ChIJv4oP0LQadkgR-xD00ZTOBFg": {"geometry": {"location": {"lat": 51.53411639999999, "lng": -0.1688875}, "viewport": {"northeast": {"lat": 51.5354535802915, "lng": -0.167522769708498}, "southwest": {"lat": 51.5327556197085, "lng": -0.1702207302915021}}}, "name": "Russian Education Centre Dar", "place_id": "ChIJv4oP0LQadkgR-xD00ZTOBFg", "types": ["point_of_interest", "establishment"], "rating": 5, "user_ratings_total": 4}, "ChIJq6ppP74adkgRZkSMFD1w5fQ": {"geometry": {"location": {"lat": 51.5346526, "lng": -0.1687699}, "viewport": {"northeast": {"lat": 51.53603158029149, "lng": -0.167352319708498}, "southwest": {"lat": 51.5333336197085, "lng": -0.170050280291502}}}, "name": "Blujade Limited", "place_id": "ChIJq6ppP74adkgRZkSMFD1w5fQ", "types": ["jewelry_store", "point_of_interest", "store", "establishment"], "rating": 1, "user_ratings_total": 1}, "ChIJAQB0Qr4adkgREJqTJB4mzWc": {"geometry": {"location": {"lat": 51.5341696, "lng": -0.1690086}, "viewport": {"northeast": {"lat": 51.5354697302915, "lng": -0.167582319708498}, "southwest": {"lat": 51.5327717697085, "lng": -0.170280280291502}}}, "name": "Jin Capital Ltd", "place_id": "ChIJAQB0Qr4adkgREJqTJB4mzWc", "types": ["point_of_interest", "establishment"]}, "ChIJA6SCP74adkgRW0pC5kxTu44": {"geometry": {"location": {"lat": 51.5346837, "lng": -0.1687976}, "viewport": {"northeast": {"lat": 51.5360615802915, "lng": -0.167382519708498}, "southwest": {"lat": 51.5333636197085, "lng": -0.1700804802915021}}}, "name": "Cluttons", "place_id": "ChIJA6SCP74adkgRW0pC5kxTu44", "types": ["real_estate_agency", "point_of_interest", "establishment"]}, "ChIJebKvEuYbdkgRFkXQe58GKXU": {"geometry": {"location": {"lat": 51.534704, "lng": -0.168824}, "viewport": {"northeast": {"lat": 51.53608243029149, "lng": -0.167409869708498}, "southwest": {"lat": 51.5333844697085, "lng": -0.170107830291502}}}, "name": "Medivet St Johns Wood", "place_id": "ChIJebKvEuYbdkgRFkXQe58GKXU", "types": ["veterinary_care", "health", "point_of_interest", "establishment"], "rating": 4.8, "user_ratings_total": 37}, "ChIJFTAbRr4adkgR7UeH-HQYYBI": {"geometry": {"location": {"lat": 51.5343593, "lng": -0.1684138}, "viewport": {"northeast": {"lat": 51.5357280802915, "lng": -0.166994219708498}, "southwest": {"lat": 51.5330301197085, "lng": -0.169692180291502}}}, "name": "The Lyndhurst Club", "place_id": "ChIJFTAbRr4adkgR7UeH-HQYYBI", "types": ["point_of_interest", "establishment"], "rating": 3.7, "user_ratings_total": 9}, "ChIJw0cbP74adkgR44h1fwRI4HI": {"geometry": {"location": {"lat": 51.5347402, "lng": -0.1688019}, "viewport": {"northeast": {"lat": 51.5361093802915, "lng": -0.167406769708498}, "southwest": {"lat": 51.53341141970851, "lng": -0.170104730291502}}}, "name": "Burrows Brentwood Limited", "place_id": "ChIJw0cbP74adkgR44h1fwRI4HI", "types": ["point_of_interest", "establishment"]}, "ChIJeyhcaL4adkgRXfWwMEWL0B4": {"geometry": {"location": {"lat": 51.53403829999999, "lng": -0.1691912}, "viewport": {"northeast": {"lat": 51.5353469302915, "lng": -0.167796219708498}, "southwest": {"lat": 51.5326489697085, "lng": -0.170494180291502}}}, "name": "Gralyn Limited", "place_id": "ChIJeyhcaL4adkgRXfWwMEWL0B4", "types": ["point_of_interest", "establishment"]}, "ChIJeyhcaL4adkgRDI3ak8y_ZwY": {"geometry": {"location": {"lat": 51.53403829999999, "lng": -0.1691912}, "viewport": {"northeast": {"lat": 51.5353469302915, "lng": -0.167796219708498}, "southwest": {"lat": 51.5326489697085, "lng": -0.170494180291502}}}, "name": "Rolleygolf Ltd", "place_id": "ChIJeyhcaL4adkgRDI3ak8y_ZwY", "types": ["point_of_interest", "establishment"]}, "ChIJeyhcaL4adkgR2GIJ2Xgq2W4": {"geometry": {"location": {"lat": 51.53403829999999, "lng": -0.1691912}, "viewport": {"northeast": {"lat": 51.5353469302915, "lng": -0.167796219708498}, "southwest": {"lat": 51.5326489697085, "lng": -0.170494180291502}}}, "name": "India Jane (Interiors) Ltd", "place_id": "ChIJeyhcaL4adkgR2GIJ2Xgq2W4", "types": ["point_of_interest", "establishment"]}, "ChIJeyhcaL4adkgRfm_z_ADdIAU": {"geometry": {"location": {"lat": 51.53403829999999, "lng": -0.1691912}, "viewport": {"northeast": {"lat": 51.5353469302915, "lng": -0.167796219708498}, "southwest": {"lat": 51.5326489697085, "lng": -0.170494180291502}}}, "name": "Engines Solution Ltd", "place_id": "ChIJeyhcaL4adkgRfm_z_ADdIAU", "types": ["point_of_interest", "establishment"]}, "ChIJo3qp55cadkgR9viLJdeCoGw": {"geometry": {"location": {"lat": 51.53420070000001, "lng": -0.1681563}, "viewport": {"northeast": {"lat": 51.5355357302915, "lng": -0.166733119708498}, "southwest": {"lat": 51.53283776970851, "lng": -0.169431080291502}}}, "name": "Aura Dental London", "place_id": "ChIJo3qp55cadkgR9viLJdeCoGw", "types": ["dentist", "health", "point_of_interest", "establishment"], "rating": 4.4, "user_ratings_total": 69}, "ChIJ5enSbL4adkgRxls7zvsNb48": {"geometry": {"location": {"lat": 51.53489070000001, "lng": -0.1690003}, "viewport": {"northeast": {"lat": 51.5363102302915, "lng": -0.167734019708498}, "southwest": {"lat": 51.5336122697085, "lng": -0.170431980291502}}}, "name": "Equipe Hair", "place_id": "ChIJ5enSbL4adkgRxls7zvsNb48", "types": ["hair_care", "point_of_interest", "establishment"], "rating": 4.5, "user_ratings_total": 26}, "ChIJBw4dPr4adkgRREvce78QTjE": {"geometry": {"location": {"lat": 51.53489070000001, "lng": -0.1690003}, "viewport": {"northeast": {"lat": 51.5363102302915, "lng": -0.167734019708498}, "southwest": {"lat": 51.5336122697085, "lng": -0.170431980291502}}}, "name": "St. Georges Property Management", "place_id": "ChIJBw4dPr4adkgRREvce78QTjE", "types": ["point_of_interest", "establishment"]}, "ChIJnVU86f8bdkgR7c5i5aURDFs": {"geometry": {"location": {"lat": 51.5342087, "lng": -0.1681661}, "viewport": {"northeast": {"lat": 51.5355833802915, "lng": -0.166773069708498}, "southwest": {"lat": 51.5328854197085, "lng": -0.169471030291502}}}, "name": "Beautox St John's Wood London", "place_id": "ChIJnVU86f8bdkgR7c5i5aURDFs", "types": ["health", "point_of_interest", "establishment"], "rating": 5, "user_ratings_total": 15}, "ChIJlZnrRL4adkgRniaFL4BaIVM": {"geometry": {"location": {"lat": 51.5339335, "lng": -0.1687578}, "viewport": {"northeast": {"lat": 51.5353955302915, "lng": -0.167309369708498}, "southwest": {"lat": 51.5326975697085, "lng": -0.170007330291502}}}, "name": "Swallow House", "place_id": "ChIJlZnrRL4adkgRniaFL4BaIVM", "types": ["point_of_interest", "establishment"], "rating": 3.9, "user_ratings_total": 9}, "ChIJi3On5tIbdkgRFQfAvS1B2Hg": {"geometry": {"location": {"lat": 51.533928, "lng": -0.1688415}, "viewport": {"northeast": {"lat": 51.5353500802915, "lng": -0.167374969708498}, "southwest": {"lat": 51.5326521197085, "lng": -0.170072930291502}}}, "name": "Les Petits Bellots - Bilingual (French-English) Creche St John's Wood", "place_id": "ChIJi3On5tIbdkgRFQfAvS1B2Hg", "types": ["point_of_interest", "establishment"]}, "ChIJmV147fUbdkgRwTBtBOBjW6w": {"geometry": {"location": {"lat": 51.5339238, "lng": -0.1688053}, "viewport": {"northeast": {"lat": 51.5353479802915, "lng": -0.167374969708498}, "southwest": {"lat": 51.5326500197085, "lng": -0.170072930291502}}}, "name": "The Village Club", "place_id": "ChIJmV147fUbdkgRwTBtBOBjW6w", "types": ["school", "point_of_interest", "establishment"]}, "ChIJPRGCtcwEdkgRJ5TRQHqDYqA": {"geometry": {"location": {"lat": 51.53392340000001, "lng": -0.168777}, "viewport": {"northeast": {"lat": 51.5353477802915, "lng": -0.167374969708498}, "southwest": {"lat": 51.5326498197085, "lng": -0.170072930291502}}}, "name": "Crefovi", "place_id": "ChIJPRGCtcwEdkgRJ5TRQHqDYqA", "types": ["lawyer", "point_of_interest", "establishment"], "rating": 4.2, "user_ratings_total": 10}, "ChIJkycxSb4adkgR-qHN62nHptE": {"geometry": {"location": {"lat": 51.53429999999999, "lng": -0.168074}, "viewport": {"northeast": {"lat": 51.5356501802915, "lng": -0.166723019708498}, "southwest": {"lat": 51.5329522197085, "lng": -0.169420980291502}}}, "name": "Santander Cycles", "place_id": "ChIJkycxSb4adkgR-qHN62nHptE", "types": ["point_of_interest", "establishment"], "rating": 4, "user_ratings_total": 4}, "ChIJxevKuiIbdkgR13k5EYDaAsI": {"geometry": {"location": {"lat": 51.5339055, "lng": -0.1688737}, "viewport": {"northeast": {"lat": 51.5353388302915, "lng": -0.167374969708498}, "southwest": {"lat": 51.5326408697085, "lng": -0.170072930291502}}}, "name": "Alyssia Fleur School of Dance", "place_id": "ChIJxevKuiIbdkgR13k5EYDaAsI", "types": ["point_of_interest", "establishment"], "rating": 5, "user_ratings_total": 1}, "ChIJr8qjsusbdkgRGaKbwyG9XQU": {"geometry": {"location": {"lat": 51.533884, "lng": -0.1688756}, "viewport": {"northeast": {"lat": 51.53527818029151, "lng": -0.1674984697084979}, "southwest": {"lat": 51.53258021970851, "lng": -0.170196430291502}}}, "name": "Drainage John's Wood- Drains St John's Wood", "place_id": "ChIJr8qjsusbdkgRGaKbwyG9XQU", "types": ["general_contractor", "point_of_interest", "establishment"]}, "ChIJD-uHQpEbdkgRJI6LinmCZJ4": {"geometry": {"location": {"lat": 51.533884, "lng": -0.1688756}, "viewport": {"northeast": {"lat": 51.5353280802915, "lng": -0.167374969708498}, "southwest": {"lat": 51.5326301197085, "lng": -0.170072930291502}}}, "name": "Drainage St - Block Drains St Johns Wood", "place_id": "ChIJD-uHQpEbdkgRJI6LinmCZJ4", "types": ["general_contractor", "point_of_interest", "establishment"]}, "ChIJn1bW9L4adkgRJdDr6ihs0Zc": {"geometry": {"location": {"lat": 51.5332419372269, "lng": -0.1690103991186428}, "viewport": {"northeast": {"lat": 51.5345893802915, "lng": -0.167664569708498}, "southwest": {"lat": 51.5318914197085, "lng": -0.1703625302915021}}}, "name": "12-6 Bridgeman St", "place_id": "ChIJn1bW9L4adkgRJdDr6ihs0Zc", "types": ["route"]}, "ChIJz79YLFobdkgRjbzJk7A3d0Q": {"geometry": {"location": {"lat": 51.53340499999999, "lng": -0.1689017}, "viewport": {"northeast": {"lat": 51.5347079302915, "lng": -0.167650319708498}, "southwest": {"lat": 51.5320099697085, "lng": -0.170348280291502}}}, "name": "Zino\u2019s Corner", "place_id": "ChIJz79YLFobdkgRjbzJk7A3d0Q", "types": ["restaurant", "food", "point_of_interest", "establishment"]}, "ChIJHxJT9L4adkgR6B9VVfSQ12w": {"geometry": {"location": {"lat": 51.53311499999999, "lng": -0.168811}, "viewport": {"northeast": {"lat": 51.5344696302915, "lng": -0.167449969708498}, "southwest": {"lat": 51.5317716697085, "lng": -0.170147930291502}}}, "name": "ubitricity Charging Station", "place_id": "ChIJHxJT9L4adkgR6B9VVfSQ12w", "types": ["point_of_interest", "establishment"]}, "ChIJH05N9b4adkgR438HnVTDjLU": {"geometry": {"location": {"lat": 51.5328345, "lng": -0.1690695}, "viewport": {"northeast": {"lat": 51.53413373029149, "lng": -0.167561019708498}, "southwest": {"lat": 51.53143576970849, "lng": -0.170258980291502}}}, "name": "Barrow Hill Junior School", "place_id": "ChIJH05N9b4adkgR438HnVTDjLU", "types": ["school", "point_of_interest", "establishment"], "rating": 5, "user_ratings_total": 7}, "ChIJ-2Kl7b4adkgRznXzi9I9sl8": {"geometry": {"location": {"lat": 51.53254, "lng": -0.1688054}, "viewport": {"northeast": {"lat": 51.53391218029149, "lng": -0.167496869708498}, "southwest": {"lat": 51.5312142197085, "lng": -0.170194830291502}}}, "name": "MyBerry", "place_id": "ChIJ-2Kl7b4adkgRznXzi9I9sl8", "types": ["restaurant", "food", "point_of_interest", "establishment"], "rating": 4, "user_ratings_total": 3}, "ChIJHbL98b4adkgRLLhcfkF8W6A": {"geometry": {"location": {"lat": 51.53255999999999, "lng": -0.16862}, "viewport": {"northeast": {"lat": 51.5338947802915, "lng": -0.167302469708498}, "southwest": {"lat": 51.53119681970851, "lng": -0.170000430291502}}}, "name": "Santander Cycles", "place_id": "ChIJHbL98b4adkgRLLhcfkF8W6A", "types": ["point_of_interest", "establishment"], "rating": 3.7, "user_ratings_total": 6}, "ChIJwWVW7L4adkgRiXTPQyvnqeU": {"geometry": {"location": {"lat": 51.5324423, "lng": -0.1688468}, "viewport": {"northeast": {"lat": 51.5338150802915, "lng": -0.167563119708498}, "southwest": {"lat": 51.5311171197085, "lng": -0.170261080291502}}}, "name": "Kinleigh Folkard & Hayward St John's Wood Estate Agents", "place_id": "ChIJwWVW7L4adkgRiXTPQyvnqeU", "types": ["point_of_interest", "establishment"], "rating": 4.9, "user_ratings_total": 240}, "ChIJ4eSYk74adkgRB0N_4MUj4RE": {"geometry": {"location": {"lat": 51.5324852, "lng": -0.1691364}, "viewport": {"northeast": {"lat": 51.5337848802915, "lng": -0.167891969708498}, "southwest": {"lat": 51.5310869197085, "lng": -0.170589930291502}}}, "name": "Safarian & Simon Opticians (Specialist Dry Eye Clinic)", "place_id": "ChIJ4eSYk74adkgRB0N_4MUj4RE", "types": ["health", "point_of_interest", "store", "establishment"], "rating": 5, "user_ratings_total": 125}, "ChIJq_Dq7b4adkgRSsyvhvxm8yA": {"geometry": {"location": {"lat": 51.5325122, "lng": -0.1687823}, "viewport": {"northeast": {"lat": 51.5338847802915, "lng": -0.167498119708498}, "southwest": {"lat": 51.5311868197085, "lng": -0.170196080291502}}}, "name": "Azan Enterprises London", "place_id": "ChIJq_Dq7b4adkgRSsyvhvxm8yA", "types": ["point_of_interest", "store", "establishment"], "rating": 4, "user_ratings_total": 2}, "ChIJ784JpFYbdkgR9gq5lEdDoNM": {"geometry": {"location": {"lat": 51.5324711, "lng": -0.1691494}, "viewport": {"northeast": {"lat": 51.5337752802915, "lng": -0.167895369708498}, "southwest": {"lat": 51.5310773197085, "lng": -0.170593330291502}}}, "name": "Meiji kickboxing", "place_id": "ChIJ784JpFYbdkgR9gq5lEdDoNM", "types": ["health", "point_of_interest", "establishment"], "rating": 5, "user_ratings_total": 2}, "ChIJPaxhFKUbdkgREkQKk-HY3yc": {"geometry": {"location": {"lat": 51.5324742, "lng": -0.1691839}, "viewport": {"northeast": {"lat": 51.53378298029149, "lng": -0.167920119708498}, "southwest": {"lat": 51.53108501970849, "lng": -0.170618080291502}}}, "name": "Mobile Tyre Replacement Marylebone", "place_id": "ChIJPaxhFKUbdkgREkQKk-HY3yc", "types": ["car_repair", "point_of_interest", "establishment"]}, "ChIJXRnokr4adkgRM4erWpeBgv0": {"geometry": {"location": {"lat": 51.53250980000001, "lng": -0.1691153}, "viewport": {"northeast": {"lat": 51.5338385802915, "lng": -0.167709519708498}, "southwest": {"lat": 51.5311406197085, "lng": -0.170407480291502}}}, "name": "Luxury Spa & Wellness Summit", "place_id": "ChIJXRnokr4adkgRM4erWpeBgv0", "types": ["spa", "point_of_interest", "establishment"]}, "ChIJEThw7r4adkgRXFB7Z68iQbY": {"geometry": {"location": {"lat": 51.53251400000001, "lng": -0.168613}, "viewport": {"northeast": {"lat": 51.53386258029149, "lng": -0.167264869708498}, "southwest": {"lat": 51.5311646197085, "lng": -0.169962830291502}}}, "name": "ubitricity Charging Station", "place_id": "ChIJEThw7r4adkgRXFB7Z68iQbY", "types": ["point_of_interest", "establishment"]}, "ChIJExEpY58bdkgRWZB8L9_n5zg": {"geometry": {"location": {"lat": 51.53255979999999, "lng": -0.169128}, "viewport": {"northeast": {"lat": 51.5338445802915, "lng": -0.167915119708498}, "southwest": {"lat": 51.5311466197085, "lng": -0.170613080291502}}}, "name": "Isaac Events", "place_id": "ChIJExEpY58bdkgRWZB8L9_n5zg", "types": ["point_of_interest", "establishment"]}, "ChIJcSA0llcbdkgR0Ore5dtcsIA": {"geometry": {"location": {"lat": 51.5326419, "lng": -0.1688434}, "viewport": {"northeast": {"lat": 51.5340085302915, "lng": -0.167536319708498}, "southwest": {"lat": 51.5313105697085, "lng": -0.170234280291502}}}, "name": "JB FiTNESS", "place_id": "ChIJcSA0llcbdkgR0Ore5dtcsIA", "types": ["health", "point_of_interest", "establishment"], "rating": 5, "user_ratings_total": 1}, "ChIJH4vdFMAadkgRYpfTlNeGjM0": {"geometry": {"location": {"lat": 51.535127, "lng": -0.1629833}, "viewport": {"northeast": {"lat": 51.5363416302915, "lng": -0.161909669708498}, "southwest": {"lat": 51.5336436697085, "lng": -0.164607630291502}}}, "name": "Macclesfield Bridge", "place_id": "ChIJH4vdFMAadkgRYpfTlNeGjM0", "types": ["tourist_attraction", "point_of_interest", "establishment"], "rating": 4.1, "user_ratings_total": 30}, "ChIJ0bbmPMAadkgRP7G1yXnIvCA": {"geometry": {"location": {"lat": 51.53516799999999, "lng": -0.162939}, "viewport": {"northeast": {"lat": 51.53654143029151, "lng": -0.161615669708498}, "southwest": {"lat": 51.53384346970851, "lng": -0.164313630291502}}}, "name": "Avenue Road (Stop D)", "place_id": "ChIJ0bbmPMAadkgRP7G1yXnIvCA", "types": ["transit_station", "point_of_interest", "establishment"], "rating": 4, "user_ratings_total": 1}, "ChIJLWNUBsAadkgRgxmKGmtqbK0": {"geometry": {"location": {"lat": 51.53546138043192, "lng": -0.1644102024657842}, "viewport": {"northeast": {"lat": 51.5368071802915, "lng": -0.163066069708498}, "southwest": {"lat": 51.5341092197085, "lng": -0.1657640302915021}}}, "name": "10-2 Avenue Road", "place_id": "ChIJLWNUBsAadkgRgxmKGmtqbK0", "types": ["route"]}, "ChIJQ11hAsAadkgRigjAqfF3Z2c": {"geometry": {"location": {"lat": 51.53602549999999, "lng": -0.1637743}, "viewport": {"northeast": {"lat": 51.5374515802915, "lng": -0.162504869708498}, "southwest": {"lat": 51.5347536197085, "lng": -0.165202830291502}}}, "name": "Handmaids Of The Sacred Heart Of Jesus", "place_id": "ChIJQ11hAsAadkgRigjAqfF3Z2c", "types": ["church", "place_of_worship", "point_of_interest", "establishment"], "rating": 5, "user_ratings_total": 8}, "ChIJe37zC8AadkgRVR0yPW79vro": {"geometry": {"location": {"lat": 51.5347939, "lng": -0.1643745}, "viewport": {"northeast": {"lat": 51.53607883029149, "lng": -0.162937769708498}, "southwest": {"lat": 51.5333808697085, "lng": -0.165635730291502}}}, "name": "Imperial Court Ltd", "place_id": "ChIJe37zC8AadkgRVR0yPW79vro", "types": ["point_of_interest", "establishment"], "rating": 5, "user_ratings_total": 1}, "ChIJabymDsAadkgR-EFovOTKzlc": {"geometry": {"location": {"lat": 51.5349535, "lng": -0.1641867}, "viewport": {"northeast": {"lat": 51.5362227802915, "lng": -0.162725069708498}, "southwest": {"lat": 51.5335248197085, "lng": -0.165423030291502}}}, "name": "Central Park Estates Limited", "place_id": "ChIJabymDsAadkgR-EFovOTKzlc", "types": ["real_estate_agency", "point_of_interest", "establishment"]}, "ChIJK_jnfMAadkgRRt8gLQ_bAus": {"geometry": {"location": {"lat": 51.532785, "lng": -0.164545}, "viewport": {"northeast": {"lat": 51.53405738029149, "lng": -0.162970919708498}, "southwest": {"lat": 51.53135941970849, "lng": -0.165668880291502}}}, "name": "Gorilla Circus Regents Park Flying Trapeze School", "place_id": "ChIJK_jnfMAadkgRRt8gLQ_bAus", "types": ["tourist_attraction", "point_of_interest", "establishment"], "rating": 4.8, "user_ratings_total": 81}, "ChIJYWtt3r8adkgR__l6y562Kk0": {"geometry": {"location": {"lat": 51.53568635022337, "lng": -0.1662394492528215}, "viewport": {"northeast": {"lat": 51.53703533029149, "lng": -0.164890469708498}, "southwest": {"lat": 51.5343373697085, "lng": -0.167588430291502}}}, "name": "11 Townshend Rd", "place_id": "ChIJYWtt3r8adkgR__l6y562Kk0", "types": ["route"]}, "ChIJVxd_w78adkgRN0bF6jAKpAM": {"geometry": {"location": {"lat": 51.53513050015864, "lng": -0.1664786003769111}, "viewport": {"northeast": {"lat": 51.5364794802915, "lng": -0.165129619708498}, "southwest": {"lat": 51.5337815197085, "lng": -0.167827580291502}}}, "name": "53 Allitsen Rd", "place_id": "ChIJVxd_w78adkgRN0bF6jAKpAM", "types": ["route"]}, "ChIJzc4Fw78adkgR8A1Dv9RWuqc": {"geometry": {"location": {"lat": 51.535122, "lng": -0.166313}, "viewport": {"northeast": {"lat": 51.5364983302915, "lng": -0.164996519708498}, "southwest": {"lat": 51.5338003697085, "lng": -0.167694480291502}}}, "name": "ubitricity Charging Station", "place_id": "ChIJzc4Fw78adkgR8A1Dv9RWuqc", "types": ["point_of_interest", "establishment"]}, "ChIJA4GH91gbdkgR3hSTp-u2xjg": {"geometry": {"location": {"lat": 51.53494999999999, "lng": -0.1665462}, "viewport": {"northeast": {"lat": 51.5362855302915, "lng": -0.165219119708498}, "southwest": {"lat": 51.5335875697085, "lng": -0.167917080291502}}}, "name": "Upright Physio & Pilates", "place_id": "ChIJA4GH91gbdkgR3hSTp-u2xjg", "types": ["health", "point_of_interest", "establishment"]}, "ChIJa7j8wL8adkgREVpZB2wALkU": {"geometry": {"location": {"lat": 51.534724, "lng": -0.1663435}, "viewport": {"northeast": {"lat": 51.53610113029149, "lng": -0.164949119708498}, "southwest": {"lat": 51.5334031697085, "lng": -0.167647080291502}}}, "name": "Ian and Nick", "place_id": "ChIJa7j8wL8adkgREVpZB2wALkU", "types": ["point_of_interest", "establishment"]}, "ChIJ_ZuPxr8adkgRHs5PX68fZrk": {"geometry": {"location": {"lat": 51.5348769, "lng": -0.1666268}, "viewport": {"northeast": {"lat": 51.53626083029149, "lng": -0.165221019708498}, "southwest": {"lat": 51.5335628697085, "lng": -0.167918980291502}}}, "name": "Eamont Court", "place_id": "ChIJ_ZuPxr8adkgRHs5PX68fZrk", "types": ["point_of_interest", "establishment"], "rating": 3, "user_ratings_total": 1}, "ChIJASOdk78adkgRpBnPSpSzz8c": {"geometry": {"location": {"lat": 51.5343438, "lng": -0.1662493}, "viewport": {"northeast": {"lat": 51.5356479302915, "lng": -0.164804319708498}, "southwest": {"lat": 51.5329499697085, "lng": -0.167502280291502}}}, "name": "Gladstone", "place_id": "ChIJASOdk78adkgRpBnPSpSzz8c", "types": ["point_of_interest", "establishment"]}, "ChIJQd72vL8adkgRC73wjj6NnGA": {"geometry": {"location": {"lat": 51.5337606, "lng": -0.1662889}, "viewport": {"northeast": {"lat": 51.53514328029151, "lng": -0.165037169708498}, "southwest": {"lat": 51.53244531970851, "lng": -0.167735130291502}}}, "name": "Energie Personal Trainer St Johns Wood", "place_id": "ChIJQd72vL8adkgRC73wjj6NnGA", "types": ["gym", "health", "point_of_interest", "establishment"], "rating": 4.9, "user_ratings_total": 11}, "ChIJd1_Lur8adkgRlJHEnxFfxoo": {"geometry": {"location": {"lat": 51.5339482, "lng": -0.1666979}, "viewport": {"northeast": {"lat": 51.5351603802915, "lng": -0.165561519708498}, "southwest": {"lat": 51.5324624197085, "lng": -0.168259480291502}}}, "name": "Lisatec ltd", "place_id": "ChIJd1_Lur8adkgRlJHEnxFfxoo", "types": ["moving_company", "point_of_interest", "establishment"]}, "ChIJUX95Db8adkgRC9w2Q1HPBCs": {"geometry": {"location": {"lat": 51.53266700002741, "lng": -0.1662480002194403}, "viewport": {"northeast": {"lat": 51.53401598029151, "lng": -0.1648990197084979}, "southwest": {"lat": 51.53131801970851, "lng": -0.167596980291502}}}, "name": "Prince Albert Road", "place_id": "ChIJUX95Db8adkgRC9w2Q1HPBCs", "types": ["route"]}, "ChIJoVerDL8adkgRiUtCYDcZk_4": {"geometry": {"location": {"lat": 51.5329719, "lng": -0.1661931}, "viewport": {"northeast": {"lat": 51.5343028802915, "lng": -0.1647794697084979}, "southwest": {"lat": 51.5316049197085, "lng": -0.167477430291502}}}, "name": "TRANCE-FORMED HYPNOTHERAPY", "place_id": "ChIJoVerDL8adkgRiUtCYDcZk_4", "types": ["health", "point_of_interest", "establishment"]}, "ChIJdc4UgJUadkgR_eGpffZFvW4": {"geometry": {"location": {"lat": 51.536014, "lng": -0.1675247}, "viewport": {"northeast": {"lat": 51.5372873802915, "lng": -0.166084419708498}, "southwest": {"lat": 51.5345894197085, "lng": -0.168782380291502}}}, "name": "St Martins in the Fields Almshouse Charity", "place_id": "ChIJdc4UgJUadkgR_eGpffZFvW4", "types": ["health", "point_of_interest", "establishment"], "rating": 2, "user_ratings_total": 1}, "ChIJmVQoSr4adkgRROUWp97TDXQ": {"geometry": {"location": {"lat": 51.53450505018203, "lng": -0.1678392504225946}, "viewport": {"northeast": {"lat": 51.5358540302915, "lng": -0.166490269708498}, "southwest": {"lat": 51.5331560697085, "lng": -0.169188230291502}}}, "name": "66-54 Allitsen Rd", "place_id": "ChIJmVQoSr4adkgRROUWp97TDXQ", "types": ["route"]}, "ChIJr1SJUaEbdkgRStKXBmTkDSI": {"geometry": {"location": {"lat": 51.53476010000001, "lng": -0.1681556}, "viewport": {"northeast": {"lat": 51.5361253802915, "lng": -0.166771119708498}, "southwest": {"lat": 51.5334274197085, "lng": -0.169469080291502}}}, "name": "Indian Kitchen", "place_id": "ChIJr1SJUaEbdkgRStKXBmTkDSI", "types": ["meal_takeaway", "restaurant", "food", "point_of_interest", "establishment"], "rating": 5, "user_ratings_total": 4}, "ChIJPXLoOb4adkgR7FLDNAq7Ywc": {"geometry": {"location": {"lat": 51.53485449999999, "lng": -0.168348}, "viewport": {"northeast": {"lat": 51.5362329302915, "lng": -0.166934969708498}, "southwest": {"lat": 51.53353496970851, "lng": -0.1696329302915021}}}, "name": "Cotman House", "place_id": "ChIJPXLoOb4adkgR7FLDNAq7Ywc", "types": ["point_of_interest", "establishment"], "rating": 4.7, "user_ratings_total": 3}, "ChIJRwAcUr4adkgRkZ-tCISXfpA": {"geometry": {"location": {"lat": 51.53388359999999, "lng": -0.1679025}, "viewport": {"northeast": {"lat": 51.5353003802915, "lng": -0.166446819708498}, "southwest": {"lat": 51.5326024197085, "lng": -0.169144780291502}}}, "name": "Enjay Training Ltd", "place_id": "ChIJRwAcUr4adkgRkZ-tCISXfpA", "types": ["point_of_interest", "establishment"], "rating": 5, "user_ratings_total": 1}, "ChIJVVUZUr4adkgRQ5V8xJo3rIM": {"geometry": {"location": {"lat": 51.5338652, "lng": -0.1678918}, "viewport": {"northeast": {"lat": 51.5352848802915, "lng": -0.166431319708498}, "southwest": {"lat": 51.5325869197085, "lng": -0.169129280291502}}}, "name": "St John's Wood driving School", "place_id": "ChIJVVUZUr4adkgRQ5V8xJo3rIM", "types": ["school", "point_of_interest", "establishment"], "rating": 4.9, "user_ratings_total": 39}, "ChIJF5xALV0bdkgREetYld6Z4Kw": {"geometry": {"location": {"lat": 51.5341515, "lng": -0.1679063}, "viewport": {"northeast": {"lat": 51.53552238029151, "lng": -0.166521369708498}, "southwest": {"lat": 51.53282441970851, "lng": -0.169219330291502}}}, "name": "Rise Aesthetics", "place_id": "ChIJF5xALV0bdkgREetYld6Z4Kw", "types": ["health", "point_of_interest", "establishment"], "rating": 4, "user_ratings_total": 5}, "ChIJDc-XoVQbdkgRlHp9BiZbKgU": {"geometry": {"location": {"lat": 51.5341515, "lng": -0.1679063}, "viewport": {"northeast": {"lat": 51.53552258029149, "lng": -0.166521219708498}, "southwest": {"lat": 51.53282461970849, "lng": -0.169219180291502}}}, "name": "Gina John Osteopathy & Pilates at Aura Wellbeing", "place_id": "ChIJDc-XoVQbdkgRlHp9BiZbKgU", "types": ["dentist", "health", "point_of_interest", "establishment"]}, "ChIJ6dv4RU4bdkgREZ8wY5oCSb8": {"geometry": {"location": {"lat": 51.5342583, "lng": -0.168035}, "viewport": {"northeast": {"lat": 51.5356168802915, "lng": -0.166670319708498}, "southwest": {"lat": 51.5329189197085, "lng": -0.169368280291502}}}, "name": "Save Minds", "place_id": "ChIJ6dv4RU4bdkgREZ8wY5oCSb8", "types": ["health", "point_of_interest", "establishment"]}, "ChIJn1bW9L4adkgRJeCI-Zid5hE": {"geometry": {"location": {"lat": 51.5328314874114, "lng": -0.1686727178061418}, "viewport": {"northeast": {"lat": 51.5341815802915, "lng": -0.167352419708498}, "southwest": {"lat": 51.5314836197085, "lng": -0.170050380291502}}}, "name": "3 Bridgeman St", "place_id": "ChIJn1bW9L4adkgRJeCI-Zid5hE", "types": ["route"]}, "ChIJ1_Zv8r4adkgRJyZNd2GRNH0": {"geometry": {"location": {"lat": 51.5333084, "lng": -0.1679911}, "viewport": {"northeast": {"lat": 51.5346330302915, "lng": -0.166588369708498}, "southwest": {"lat": 51.5319350697085, "lng": -0.169286330291502}}}, "name": "Anglia Design", "place_id": "ChIJ1_Zv8r4adkgRJyZNd2GRNH0", "types": ["point_of_interest", "establishment"]}, "ChIJf3uC-74adkgR8lhZTebXkVg": {"geometry": {"location": {"lat": 51.532797, "lng": -0.167952}, "viewport": {"northeast": {"lat": 51.5341353802915, "lng": -0.166570369708498}, "southwest": {"lat": 51.5314374197085, "lng": -0.169268330291502}}}, "name": "ubitricity Charging Station", "place_id": "ChIJf3uC-74adkgR8lhZTebXkVg", "types": ["point_of_interest", "establishment"]}, "ChIJlZ1m-74adkgRe9PIjEUhwSM": {"geometry": {"location": {"lat": 51.53273309999999, "lng": -0.1679492}, "viewport": {"northeast": {"lat": 51.53408588029149, "lng": -0.166611869708498}, "southwest": {"lat": 51.53138791970849, "lng": -0.169309830291502}}}, "name": "Denman Projects", "place_id": "ChIJlZ1m-74adkgRe9PIjEUhwSM", "types": ["point_of_interest", "establishment"]}, "ChIJnU3X_L4adkgRv8v001pJjX8": {"geometry": {"location": {"lat": 51.53266929999999, "lng": -0.1677564}, "viewport": {"northeast": {"lat": 51.5340443802915, "lng": -0.166487619708498}, "southwest": {"lat": 51.53134641970851, "lng": -0.169185580291502}}}, "name": "Ethio Opal", "place_id": "ChIJnU3X_L4adkgRv8v001pJjX8", "types": ["point_of_interest", "establishment"]}}}