{"E00023530": {"ChIJTxNGIdYEdkgRHJoA_FnnoVE": {"geometry": {"location": {"lat": 51.491172, "lng": -0.147083}, "viewport": {"northeast": {"lat": 51.4924885302915, "lng": -0.145642669708498}, "southwest": {"lat": 51.4897905697085, "lng": -0.148340630291502}}}, "name": "Re10 Restructuring and Advisory Limited", "place_id": "ChIJTxNGIdYEdkgRHJoA_FnnoVE", "types": ["accounting", "finance", "point_of_interest", "establishment"], "rating": 3.9, "user_ratings_total": 8}, "ChIJeYC9AhkFdkgRtuBBlAS8_NE": {"geometry": {"location": {"lat": 51.49179059999999, "lng": -0.1480708}, "viewport": {"northeast": {"lat": 51.4932109802915, "lng": -0.146887019708498}, "southwest": {"lat": 51.4905130197085, "lng": -0.149584980291502}}}, "name": "The Education & Training Foundation", "place_id": "ChIJeYC9AhkFdkgRtuBBlAS8_NE", "types": ["point_of_interest", "establishment"], "rating": 5, "user_ratings_total": 1}, "ChIJeYC9AhkFdkgRn4eSiXctX_o": {"geometry": {"location": {"lat": 51.49179059999999, "lng": -0.1480707}, "viewport": {"northeast": {"lat": 51.49321103029149, "lng": -0.146886919708498}, "southwest": {"lat": 51.49051306970849, "lng": -0.149584880291502}}}, "name": "Professional Standards Authority", "place_id": "ChIJeYC9AhkFdkgRn4eSiXctX_o", "types": ["point_of_interest", "establishment"], "rating": 2.2, "user_ratings_total": 13}, "ChIJ5_TUOS4FdkgRXm6vpKSmlV0": {"geometry": {"location": {"lat": 51.4916134, "lng": -0.14763}, "viewport": {"northeast": {"lat": 51.4931268802915, "lng": -0.146661569708498}, "southwest": {"lat": 51.4904289197085, "lng": -0.149359530291502}}}, "name": "Victoria Station North Sidings.", "place_id": "ChIJ5_TUOS4FdkgRXm6vpKSmlV0", "types": ["point_of_interest", "establishment"]}, "ChIJq6ojKhkFdkgRWkbqFDJEVIQ": {"geometry": {"location": {"lat": 51.4911736, "lng": -0.1470571}, "viewport": {"northeast": {"lat": 51.4924893302915, "lng": -0.145629719708498}, "southwest": {"lat": 51.4897913697085, "lng": -0.148327680291502}}}, "name": "Astrocyte Quant Limited", "place_id": "ChIJq6ojKhkFdkgRWkbqFDJEVIQ", "types": ["point_of_interest", "establishment"]}, "ChIJq6ojKhkFdkgREv5vteyTt68": {"geometry": {"location": {"lat": 51.4911736, "lng": -0.1470571}, "viewport": {"northeast": {"lat": 51.4924893302915, "lng": -0.145629719708498}, "southwest": {"lat": 51.4897913697085, "lng": -0.148327680291502}}}, "name": "Domo Direct Limited", "place_id": "ChIJq6ojKhkFdkgREv5vteyTt68", "types": ["point_of_interest", "establishment"]}, "ChIJq6ojKhkFdkgRu-_iKJG4BrM": {"geometry": {"location": {"lat": 51.4911736, "lng": -0.1470571}, "viewport": {"northeast": {"lat": 51.4924893302915, "lng": -0.145629719708498}, "southwest": {"lat": 51.4897913697085, "lng": -0.148327680291502}}}, "name": "V8 Gourmet Limited", "place_id": "ChIJq6ojKhkFdkgRu-_iKJG4BrM", "types": ["point_of_interest", "establishment"]}, "ChIJq6ojKhkFdkgR3iopV7WZdzQ": {"geometry": {"location": {"lat": 51.4911736, "lng": -0.1470571}, "viewport": {"northeast": {"lat": 51.4924893302915, "lng": -0.145629719708498}, "southwest": {"lat": 51.4897913697085, "lng": -0.148327680291502}}}, "name": "Apppay Umbrella Limited", "place_id": "ChIJq6ojKhkFdkgR3iopV7WZdzQ", "types": ["point_of_interest", "establishment"]}, "ChIJ9TwHLsMFdkgRUCblKonyppg": {"geometry": {"location": {"lat": 51.4911736, "lng": -0.1470571}, "viewport": {"northeast": {"lat": 51.4924893302915, "lng": -0.145629719708498}, "southwest": {"lat": 51.4897913697085, "lng": -0.148327680291502}}}, "name": "Gobest4windows Ltd", "place_id": "ChIJ9TwHLsMFdkgRUCblKonyppg", "types": ["general_contractor", "point_of_interest", "establishment"]}, "ChIJsWhJIdYEdkgRi7blhZdNKFM": {"geometry": {"location": {"lat": 51.4911736, "lng": -0.1470571}, "viewport": {"northeast": {"lat": 51.4924893302915, "lng": -0.145629719708498}, "southwest": {"lat": 51.4897913697085, "lng": -0.148327680291502}}}, "name": "The Mayfair Networking Club", "place_id": "ChIJsWhJIdYEdkgRi7blhZdNKFM", "types": ["point_of_interest", "establishment"], "rating": 4.5, "user_ratings_total": 2}, "ChIJq6ojKhkFdkgRNdglFT6IFAw": {"geometry": {"location": {"lat": 51.4911736, "lng": -0.1470571}, "viewport": {"northeast": {"lat": 51.4924893302915, "lng": -0.145629719708498}, "southwest": {"lat": 51.4897913697085, "lng": -0.148327680291502}}}, "name": "Enso Europe Limited", "place_id": "ChIJq6ojKhkFdkgRNdglFT6IFAw", "types": ["point_of_interest", "establishment"]}, "ChIJq6ojKhkFdkgRBf2807VgNlU": {"geometry": {"location": {"lat": 51.4911736, "lng": -0.1470571}, "viewport": {"northeast": {"lat": 51.4924893302915, "lng": -0.145629719708498}, "southwest": {"lat": 51.4897913697085, "lng": -0.148327680291502}}}, "name": "Nk Desserts Ltd", "place_id": "ChIJq6ojKhkFdkgRBf2807VgNlU", "types": ["store", "point_of_interest", "establishment"]}, "ChIJX3U9KhkFdkgRIZ6HcF-S_-A": {"geometry": {"location": {"lat": 51.4911791, "lng": -0.1470342}, "viewport": {"northeast": {"lat": 51.4924956802915, "lng": -0.1456140197084979}, "southwest": {"lat": 51.48979771970851, "lng": -0.148311980291502}}}, "name": "Plane Catering Limited", "place_id": "ChIJX3U9KhkFdkgRIZ6HcF-S_-A", "types": ["point_of_interest", "establishment"]}, "ChIJX3U9KhkFdkgRCD0PAv5vq6w": {"geometry": {"location": {"lat": 51.4911791, "lng": -0.1470342}, "viewport": {"northeast": {"lat": 51.4924956802915, "lng": -0.1456140197084979}, "southwest": {"lat": 51.48979771970851, "lng": -0.148311980291502}}}, "name": "Debt Help Central", "place_id": "ChIJX3U9KhkFdkgRCD0PAv5vq6w", "types": ["point_of_interest", "establishment"]}, "ChIJX3U9KhkFdkgRNzGLdd1XIcs": {"geometry": {"location": {"lat": 51.4911791, "lng": -0.1470342}, "viewport": {"northeast": {"lat": 51.4924952302915, "lng": -0.145614469708498}, "southwest": {"lat": 51.4897972697085, "lng": -0.148312430291502}}}, "name": "Assured Accounting Services", "place_id": "ChIJX3U9KhkFdkgRNzGLdd1XIcs", "types": ["accounting", "finance", "point_of_interest", "establishment"]}, "ChIJeYC9AhkFdkgRE1zagoaExmM": {"geometry": {"location": {"lat": 51.491773, "lng": -0.1480747}, "viewport": {"northeast": {"lat": 51.4931956802915, "lng": -0.146896219708498}, "southwest": {"lat": 51.49049771970851, "lng": -0.149594180291502}}}, "name": "GeoPlace LLP", "place_id": "ChIJeYC9AhkFdkgRE1zagoaExmM", "types": ["point_of_interest", "establishment"], "rating": 5, "user_ratings_total": 9}, "ChIJhzhrKRkFdkgRb1fu_e76t_E": {"geometry": {"location": {"lat": 51.490906, "lng": -0.147145}, "viewport": {"northeast": {"lat": 51.49229143029149, "lng": -0.145898669708498}, "southwest": {"lat": 51.4895934697085, "lng": -0.148596630291502}}}, "name": "Caxton Youth Organisation", "place_id": "ChIJhzhrKRkFdkgRb1fu_e76t_E", "types": ["point_of_interest", "establishment"], "rating": 4.5, "user_ratings_total": 4}, "ChIJkQIx2xgFdkgRyQh3UefpVCA": {"geometry": {"location": {"lat": 51.4919015, "lng": -0.1477153}, "viewport": {"northeast": {"lat": 51.49324036829786, "lng": -0.1463571330173742}, "southwest": {"lat": 51.49054240771486, "lng": -0.1490550936003782}}}, "name": "Parking lot", "place_id": "ChIJkQIx2xgFdkgRyQh3UefpVCA", "types": ["parking", "premise", "point_of_interest", "establishment"]}, "ChIJ2c-3QBkFdkgRb_f-VGk9MNA": {"geometry": {"location": {"lat": 51.48985856834652, "lng": -0.1478913167648041}, "viewport": {"northeast": {"lat": 51.4912208302915, "lng": -0.1465072197084979}, "southwest": {"lat": 51.4885228697085, "lng": -0.149205180291502}}}, "name": "Sutherland Street", "place_id": "ChIJ2c-3QBkFdkgRb_f-VGk9MNA", "types": ["route"]}, "ChIJW-1aMhkFdkgRwWV_-qwrBe0": {"geometry": {"location": {"lat": 51.49049249999999, "lng": -0.1469171}, "viewport": {"northeast": {"lat": 51.4917909802915, "lng": -0.145456569708498}, "southwest": {"lat": 51.48909301970851, "lng": -0.148154530291502}}}, "name": "Third Age Counselling", "place_id": "ChIJW-1aMhkFdkgRwWV_-qwrBe0", "types": ["point_of_interest", "establishment"], "rating": 3, "user_ratings_total": 1}, "ChIJk3-w1FMFdkgR9T6fc5ll-fk": {"geometry": {"location": {"lat": 51.490035, "lng": -0.1471421}, "viewport": {"northeast": {"lat": 51.4914582802915, "lng": -0.145439869708498}, "southwest": {"lat": 51.4887603197085, "lng": -0.148137830291502}}}, "name": "Furness House", "place_id": "ChIJk3-w1FMFdkgR9T6fc5ll-fk", "types": ["point_of_interest", "establishment"]}, "ChIJQcfSgkgFdkgRD1LvLNvlbW4": {"geometry": {"location": {"lat": 51.4899745, "lng": -0.1472423}, "viewport": {"northeast": {"lat": 51.49142803029149, "lng": -0.145489969708498}, "southwest": {"lat": 51.4887300697085, "lng": -0.148187930291502}}}, "name": "Abbots Manor Playground", "place_id": "ChIJQcfSgkgFdkgRD1LvLNvlbW4", "types": ["point_of_interest", "establishment"], "rating": 2, "user_ratings_total": 1}, "ChIJA7RZMhkFdkgR6eNzcLlQFdw": {"geometry": {"location": {"lat": 51.49049249999999, "lng": -0.1469171}, "viewport": {"northeast": {"lat": 51.4917909802915, "lng": -0.145456569708498}, "southwest": {"lat": 51.48909301970851, "lng": -0.148154530291502}}}, "name": "Coach Station Apartment", "place_id": "ChIJA7RZMhkFdkgR6eNzcLlQFdw", "types": ["lodging", "point_of_interest", "establishment"]}, "ChIJs8pGTxkFdkgR9vvMTFhgPD4": {"geometry": {"location": {"lat": 51.48962509113932, "lng": -0.1474754444326607}, "viewport": {"northeast": {"lat": 51.4909722302915, "lng": -0.1461291197084979}, "southwest": {"lat": 51.4882742697085, "lng": -0.148827080291502}}}, "name": "1 Sutherland St", "place_id": "ChIJs8pGTxkFdkgR9vvMTFhgPD4", "types": ["route"]}, "ChIJxyjJHRwFdkgRO7Mnl6petk0": {"geometry": {"location": {"lat": 51.48935549999999, "lng": -0.1471938}, "viewport": {"northeast": {"lat": 51.49070448029149, "lng": -0.145844819708498}, "southwest": {"lat": 51.48800651970849, "lng": -0.148542780291502}}}, "name": "Sir Simon Milton Westminster UTC", "place_id": "ChIJxyjJHRwFdkgRO7Mnl6petk0", "types": ["university", "school", "point_of_interest", "establishment"], "rating": 3.6, "user_ratings_total": 23}, "ChIJY-zsqdQFdkgRqHw8AxVqeHw": {"geometry": {"location": {"lat": 51.4890489, "lng": -0.1473558}, "viewport": {"northeast": {"lat": 51.49040918029149, "lng": -0.1459390697084979}, "southwest": {"lat": 51.4877112197085, "lng": -0.148637030291502}}}, "name": "Renk records", "place_id": "ChIJY-zsqdQFdkgRqHw8AxVqeHw", "types": ["point_of_interest", "establishment"]}, "ChIJXfepGZUFdkgRjbRdzjvsUgE": {"geometry": {"location": {"lat": 51.4894864, "lng": -0.14714}, "viewport": {"northeast": {"lat": 51.4908336302915, "lng": -0.145793719708498}, "southwest": {"lat": 51.48813566970851, "lng": -0.148491680291502}}}, "name": "Melrose House", "place_id": "ChIJXfepGZUFdkgRjbRdzjvsUgE", "types": ["lodging", "point_of_interest", "establishment"]}, "ChIJFT1UTRkFdkgRG1JUHtWWhKk": {"geometry": {"location": {"lat": 51.48932660000001, "lng": -0.1468347}, "viewport": {"northeast": {"lat": 51.49065738029151, "lng": -0.145512669708498}, "southwest": {"lat": 51.48795941970851, "lng": -0.148210630291502}}}, "name": "Westmoreland Terrace Sutherland Row (Stop J)", "place_id": "ChIJFT1UTRkFdkgRG1JUHtWWhKk", "types": ["bus_station", "transit_station", "point_of_interest", "establishment"], "rating": 5, "user_ratings_total": 2}, "ChIJCdzLgdUFdkgR9rZr7fQQOBM": {"geometry": {"location": {"lat": 51.48969449999999, "lng": -0.1472804}, "viewport": {"northeast": {"lat": 51.4909931802915, "lng": -0.145999019708498}, "southwest": {"lat": 51.4882952197085, "lng": -0.148696980291502}}}, "name": "Ebury apartment", "place_id": "ChIJCdzLgdUFdkgR9rZr7fQQOBM", "types": ["point_of_interest", "establishment"]}, "ChIJ56Yy_BsFdkgROg2Hyjq87aA": {"geometry": {"location": {"lat": 51.4885361, "lng": -0.1471006}, "viewport": {"northeast": {"lat": 51.48990698029151, "lng": -0.145660119708498}, "southwest": {"lat": 51.48720901970851, "lng": -0.148358080291502}}}, "name": "3queens.co.uk", "place_id": "ChIJ56Yy_BsFdkgROg2Hyjq87aA", "types": ["food", "point_of_interest", "establishment"]}, "ChIJV_B2AhkFdkgRY6jGLHRa9yA": {"geometry": {"location": {"lat": 51.49114695015633, "lng": -0.1492995506878921}, "viewport": {"northeast": {"lat": 51.4924959302915, "lng": -0.147950569708498}, "southwest": {"lat": 51.4897979697085, "lng": -0.150648530291502}}}, "name": "193-203 Buckingham Palace Rd", "place_id": "ChIJV_B2AhkFdkgRY6jGLHRa9yA", "types": ["route"]}, "ChIJfVlQ-xgFdkgRVgygaLaJKdk": {"geometry": {"location": {"lat": 51.49170340000001, "lng": -0.1490415}, "viewport": {"northeast": {"lat": 51.49301478029151, "lng": -0.147542569708498}, "southwest": {"lat": 51.49031681970851, "lng": -0.150240530291502}}}, "name": "Hertz - London - Victoria Coach Station (Central London)", "place_id": "ChIJfVlQ-xgFdkgRVgygaLaJKdk", "types": ["car_rental", "point_of_interest", "establishment"], "rating": 2.9, "user_ratings_total": 96}, "ChIJn76RVRgFdkgRi_B9k778xkw": {"geometry": {"location": {"lat": 51.4914824, "lng": -0.1497179}, "viewport": {"northeast": {"lat": 51.4927110302915, "lng": -0.148104169708498}, "southwest": {"lat": 51.4900130697085, "lng": -0.150802130291502}}}, "name": "The Police Rehabilitation Trust", "place_id": "ChIJn76RVRgFdkgRi_B9k778xkw", "types": ["point_of_interest", "establishment"]}, "ChIJe2KU9NsEdkgRSVeJcdY2-dU": {"geometry": {"location": {"lat": 51.49170900000001, "lng": -0.1489303}, "viewport": {"northeast": {"lat": 51.4930173302915, "lng": -0.147487269708498}, "southwest": {"lat": 51.4903193697085, "lng": -0.150185230291502}}}, "name": "TFL Pension Fund", "place_id": "ChIJe2KU9NsEdkgRSVeJcdY2-dU", "types": ["point_of_interest", "establishment"], "rating": 2, "user_ratings_total": 8}, "ChIJpZtI-BgFdkgRJGBcP7lIY94": {"geometry": {"location": {"lat": 51.49185500000001, "lng": -0.1496131}, "viewport": {"northeast": {"lat": 51.4932184802915, "lng": -0.148296619708498}, "southwest": {"lat": 51.4905205197085, "lng": -0.150994580291502}}}, "name": "NCP", "place_id": "ChIJpZtI-BgFdkgRJGBcP7lIY94", "types": ["parking", "point_of_interest", "establishment"], "rating": 3.5, "user_ratings_total": 82}, "ChIJBZypVBgFdkgRj-kHGl5ITMU": {"geometry": {"location": {"lat": 51.4910848, "lng": -0.1499694}, "viewport": {"northeast": {"lat": 51.4925560802915, "lng": -0.148754619708498}, "southwest": {"lat": 51.4898581197085, "lng": -0.151452580291502}}}, "name": "Miss Daisy's Nursery School, Belgravia", "place_id": "ChIJBZypVBgFdkgRj-kHGl5ITMU", "types": ["school", "point_of_interest", "establishment"], "rating": 5, "user_ratings_total": 3}, "ChIJc4Hq-xgFdkgRm115ygGGJoc": {"geometry": {"location": {"lat": 51.4916692, "lng": -0.1493671}, "viewport": {"northeast": {"lat": 51.4930629802915, "lng": -0.148043619708498}, "southwest": {"lat": 51.4903650197085, "lng": -0.150741580291502}}}, "name": "Belgravia Police Station (Stop X)", "place_id": "ChIJc4Hq-xgFdkgRm115ygGGJoc", "types": ["bus_station", "transit_station", "point_of_interest", "establishment"], "rating": 4, "user_ratings_total": 7}, "ChIJaTCuAxkFdkgRWXo4wPZMnQ4": {"geometry": {"location": {"lat": 51.49107060000001, "lng": -0.1491541}, "viewport": {"northeast": {"lat": 51.4924544302915, "lng": -0.147881769708498}, "southwest": {"lat": 51.4897564697085, "lng": -0.150579730291502}}}, "name": "Consort Rise House", "place_id": "ChIJaTCuAxkFdkgRWXo4wPZMnQ4", "types": ["point_of_interest", "establishment"]}, "ChIJd82a6d8FdkgRQeIQYKFfU_8": {"geometry": {"location": {"lat": 51.49166409999999, "lng": -0.1489586}, "viewport": {"northeast": {"lat": 51.4929950302915, "lng": -0.147522919708498}, "southwest": {"lat": 51.4902970697085, "lng": -0.150220880291502}}}, "name": "Local Victoria Coach Station Cab Minicab", "place_id": "ChIJd82a6d8FdkgRQeIQYKFfU_8", "types": ["taxi_stand", "point_of_interest", "establishment"], "rating": 5, "user_ratings_total": 1}, "ChIJN2y1O44FdkgRAKJEt10Ym80": {"geometry": {"location": {"lat": 51.49178209999999, "lng": -0.1492452}, "viewport": {"northeast": {"lat": 51.4930934802915, "lng": -0.147760469708498}, "southwest": {"lat": 51.4903955197085, "lng": -0.150458430291502}}}, "name": "SFA Team", "place_id": "ChIJN2y1O44FdkgRAKJEt10Ym80", "types": ["point_of_interest", "establishment"], "rating": 5, "user_ratings_total": 3}, "ChIJkzARARkFdkgRpPpJZCiBm8M": {"geometry": {"location": {"lat": 51.49091670000001, "lng": -0.1492911}, "viewport": {"northeast": {"lat": 51.49230693029151, "lng": -0.148032919708498}, "southwest": {"lat": 51.48960896970851, "lng": -0.150730880291502}}}, "name": "Penship Couriers", "place_id": "ChIJkzARARkFdkgRpPpJZCiBm8M", "types": ["point_of_interest", "establishment"]}, "ChIJ2eHCSBkFdkgRc1wJNhBnNJI": {"geometry": {"location": {"lat": 51.4908939, "lng": -0.1491565}, "viewport": {"northeast": {"lat": 51.49230808029149, "lng": -0.147950969708498}, "southwest": {"lat": 51.48961011970849, "lng": -0.150648930291502}}}, "name": "A Cleaner Carpet", "place_id": "ChIJ2eHCSBkFdkgRc1wJNhBnNJI", "types": ["laundry", "point_of_interest", "establishment"]}, "ChIJOxGyWuIFdkgRAiAWXLWeJfs": {"geometry": {"location": {"lat": 51.491876, "lng": -0.14954}, "viewport": {"northeast": {"lat": 51.4932012302915, "lng": -0.148215319708498}, "southwest": {"lat": 51.4905032697085, "lng": -0.150913280291502}}}, "name": "Virtuo Car Hire | London Victoria", "place_id": "ChIJOxGyWuIFdkgRAiAWXLWeJfs", "types": ["car_rental", "point_of_interest", "establishment"], "rating": 4.9, "user_ratings_total": 12}, "ChIJx7Ox_xgFdkgRzlU-ZdaJQvw": {"geometry": {"location": {"lat": 51.491386, "lng": -0.1495266}, "viewport": {"northeast": {"lat": 51.49272280682342, "lng": -0.148148554915141}, "southwest": {"lat": 51.49002484624042, "lng": -0.150846515498145}}}, "name": "Parking lot", "place_id": "ChIJx7Ox_xgFdkgRzlU-ZdaJQvw", "types": ["parking", "premise", "point_of_interest", "establishment"]}, "ChIJh8-nDxkFdkgRBgYx9XcCgKk": {"geometry": {"location": {"lat": 51.49048673372796, "lng": -0.1490994865646553}, "viewport": {"northeast": {"lat": 51.4918354802915, "lng": -0.147750819708498}, "southwest": {"lat": 51.4891375197085, "lng": -0.150448780291502}}}, "name": "Ebury Bridge", "place_id": "ChIJh8-nDxkFdkgRBgYx9XcCgKk", "types": ["route"]}, "ChIJu76uphkFdkgRsar-Z9FwYuc": {"geometry": {"location": {"lat": 51.4902977, "lng": -0.1499046}, "viewport": {"northeast": {"lat": 51.49165168029149, "lng": -0.148658869708498}, "southwest": {"lat": 51.48895371970849, "lng": -0.151356830291502}}}, "name": "Granite Man,", "place_id": "ChIJu76uphkFdkgRsar-Z9FwYuc", "types": ["point_of_interest", "establishment"]}, "ChIJT8mgphkFdkgRyLJ-1zPg55I": {"geometry": {"location": {"lat": 51.49030690000001, "lng": -0.1499269}, "viewport": {"northeast": {"lat": 51.49166033029151, "lng": -0.148669519708498}, "southwest": {"lat": 51.48896236970851, "lng": -0.151367480291502}}}, "name": "Vival Property", "place_id": "ChIJT8mgphkFdkgRyLJ-1zPg55I", "types": ["real_estate_agency", "point_of_interest", "establishment"], "rating": 5, "user_ratings_total": 1}, "ChIJu76uphkFdkgR4X_oVOUpueE": {"geometry": {"location": {"lat": 51.4902977, "lng": -0.1499046}, "viewport": {"northeast": {"lat": 51.49165168029149, "lng": -0.148658869708498}, "southwest": {"lat": 51.48895371970849, "lng": -0.151356830291502}}}, "name": "London Coach Hire Company", "place_id": "ChIJu76uphkFdkgR4X_oVOUpueE", "types": ["point_of_interest", "establishment"], "rating": 5, "user_ratings_total": 6}, "ChIJ4xMy6B8GdkgR5xxB7aH6q-U": {"geometry": {"location": {"lat": 51.4902977, "lng": -0.1499046}, "viewport": {"northeast": {"lat": 51.49165168029149, "lng": -0.148658869708498}, "southwest": {"lat": 51.48895371970849, "lng": -0.151356830291502}}}, "name": "Fine Art Restoration Company", "place_id": "ChIJ4xMy6B8GdkgR5xxB7aH6q-U", "types": ["general_contractor", "point_of_interest", "store", "establishment"], "rating": 4.9, "user_ratings_total": 35}, "ChIJfyNJnxkFdkgRJhUbWVnuig0": {"geometry": {"location": {"lat": 51.4902977, "lng": -0.1499046}, "viewport": {"northeast": {"lat": 51.49165168029149, "lng": -0.148658869708498}, "southwest": {"lat": 51.48895371970849, "lng": -0.151356830291502}}}, "name": "Damp Proofing London SW", "place_id": "ChIJfyNJnxkFdkgRJhUbWVnuig0", "types": ["general_contractor", "point_of_interest", "establishment"]}, "ChIJ2xFBSBIFdkgRave19nC73E0": {"geometry": {"location": {"lat": 51.49049099999999, "lng": -0.149186}, "viewport": {"northeast": {"lat": 51.4918395302915, "lng": -0.147837669708498}, "southwest": {"lat": 51.4891415697085, "lng": -0.150535630291502}}}, "name": "Santander Cycles", "place_id": "ChIJ2xFBSBIFdkgRave19nC73E0", "types": ["point_of_interest", "establishment"], "rating": 3, "user_ratings_total": 1}, "ChIJ_wByERkFdkgR1kI7ziyL3j8": {"geometry": {"location": {"lat": 51.4904179, "lng": -0.1488179}, "viewport": {"northeast": {"lat": 51.4917400302915, "lng": -0.147494969708498}, "southwest": {"lat": 51.4890420697085, "lng": -0.150192930291502}}}, "name": "Ebury Bridge", "place_id": "ChIJ_wByERkFdkgR1kI7ziyL3j8", "types": ["bus_station", "transit_station", "point_of_interest", "establishment"], "rating": 3, "user_ratings_total": 1}, "ChIJgSDMphkFdkgR9rmz5e6q8hM": {"geometry": {"location": {"lat": 51.4902977, "lng": -0.1499046}, "viewport": {"northeast": {"lat": 51.49165168029149, "lng": -0.148658869708498}, "southwest": {"lat": 51.48895371970849, "lng": -0.151356830291502}}}, "name": "Civic Circle", "place_id": "ChIJgSDMphkFdkgR9rmz5e6q8hM", "types": ["point_of_interest", "establishment"]}, "ChIJfWIqPNl5eUgRAu-J5ZbT6ik": {"geometry": {"location": {"lat": 51.4902977, "lng": -0.1499046}, "viewport": {"northeast": {"lat": 51.49165168029149, "lng": -0.148658869708498}, "southwest": {"lat": 51.48895371970849, "lng": -0.151356830291502}}}, "name": "bforex", "place_id": "ChIJfWIqPNl5eUgRAu-J5ZbT6ik", "types": ["bank", "finance", "point_of_interest", "establishment"]}, "ChIJ_bwWoRkFdkgRJhJzopIeqA0": {"geometry": {"location": {"lat": 51.490179, "lng": -0.149907}, "viewport": {"northeast": {"lat": 51.4915346302915, "lng": -0.148668469708498}, "southwest": {"lat": 51.4888366697085, "lng": -0.151366430291502}}}, "name": "Tours & Visas", "place_id": "ChIJ_bwWoRkFdkgRJhJzopIeqA0", "types": ["real_estate_agency", "travel_agency", "point_of_interest", "establishment"]}, "ChIJofJImRkFdkgR9RCsqDdmg6w": {"geometry": {"location": {"lat": 51.4902837, "lng": -0.1499682}, "viewport": {"northeast": {"lat": 51.49163618029149, "lng": -0.148691719708498}, "southwest": {"lat": 51.48893821970849, "lng": -0.151389680291502}}}, "name": "Hair Priv\u00e9 Salon", "place_id": "ChIJofJImRkFdkgR9RCsqDdmg6w", "types": ["hair_care", "point_of_interest", "establishment"], "rating": 4.3, "user_ratings_total": 16}, "ChIJqzvZoxkFdkgR2_0HZOvUuL8": {"geometry": {"location": {"lat": 51.4900969, "lng": -0.15001}, "viewport": {"northeast": {"lat": 51.49144983029149, "lng": -0.148726719708498}, "southwest": {"lat": 51.48875186970849, "lng": -0.151424680291502}}}, "name": "Ideal Cafe", "place_id": "ChIJqzvZoxkFdkgR2_0HZOvUuL8", "types": ["cafe", "food", "point_of_interest", "establishment"], "rating": 4, "user_ratings_total": 82}, "ChIJ8w9xoRkFdkgRzRY5GJpFsMw": {"geometry": {"location": {"lat": 51.49014140000001, "lng": -0.1499646}, "viewport": {"northeast": {"lat": 51.4914954802915, "lng": -0.148700419708498}, "southwest": {"lat": 51.4887975197085, "lng": -0.151398380291502}}}, "name": "Sal Cafe Ltd", "place_id": "ChIJ8w9xoRkFdkgRzRY5GJpFsMw", "types": ["bar", "point_of_interest", "establishment"]}, "ChIJL46boRkFdkgRyQjkyBdRv7s": {"geometry": {"location": {"lat": 51.49008990000001, "lng": -0.1499636}, "viewport": {"northeast": {"lat": 51.49144423029151, "lng": -0.1487038697084979}, "southwest": {"lat": 51.48874626970851, "lng": -0.151401830291502}}}, "name": "Ebury Bridge Regeneration Base", "place_id": "ChIJL46boRkFdkgRyQjkyBdRv7s", "types": ["point_of_interest", "establishment"]}, "ChIJ94-RoRkFdkgROIePOixpqR4": {"geometry": {"location": {"lat": 51.49001209999999, "lng": -0.1499371}, "viewport": {"northeast": {"lat": 51.4913675802915, "lng": -0.148696419708498}, "southwest": {"lat": 51.4886696197085, "lng": -0.151394380291502}}}, "name": "Savill Roofing & Building Ltd", "place_id": "ChIJ94-RoRkFdkgROIePOixpqR4", "types": ["roofing_contractor", "point_of_interest", "establishment"]}, "ChIJ157g4bYFdkgRs8Lp_wGnm1A": {"geometry": {"location": {"lat": 51.4896008, "lng": -0.1491726}, "viewport": {"northeast": {"lat": 51.4909487802915, "lng": -0.147678069708498}, "southwest": {"lat": 51.4882508197085, "lng": -0.150376030291502}}}, "name": "\ub7f0\ub358 \uc2dc\uc778\uc758 \uc9d1", "place_id": "ChIJ157g4bYFdkgRs8Lp_wGnm1A", "types": ["lodging", "point_of_interest", "establishment"]}, "ChIJTRFgZzoFdkgRv0EELeqAjY4": {"geometry": {"location": {"lat": 51.48972329999999, "lng": -0.1496325}, "viewport": {"northeast": {"lat": 51.4910891802915, "lng": -0.148564869708498}, "southwest": {"lat": 51.4883912197085, "lng": -0.151262830291502}}}, "name": "AA FROST", "place_id": "ChIJTRFgZzoFdkgRv0EELeqAjY4", "types": ["point_of_interest", "establishment"]}, "ChIJc0TiPvcFdkgRLTHjOXe-E0c": {"geometry": {"location": {"lat": 51.4891895, "lng": -0.1501651}, "viewport": {"northeast": {"lat": 51.4905459802915, "lng": -0.148878419708498}, "southwest": {"lat": 51.4878480197085, "lng": -0.151576380291502}}}, "name": "Clay Habitat (Ebury Edge)", "place_id": "ChIJc0TiPvcFdkgRLTHjOXe-E0c", "types": ["art_gallery", "point_of_interest", "store", "establishment"], "rating": 5, "user_ratings_total": 2}, "ChIJW99SsRkFdkgRQuTFzE3ibQA": {"geometry": {"location": {"lat": 51.49091460002972, "lng": -0.1507339000218215}, "viewport": {"northeast": {"lat": 51.4922635802915, "lng": -0.149384919708498}, "southwest": {"lat": 51.4895656197085, "lng": -0.152082880291502}}}, "name": "8-6 Pimlico Rd", "place_id": "ChIJW99SsRkFdkgRQuTFzE3ibQA", "types": ["route"]}, "ChIJ8fPgxXUXdkgRc4KQ_Z7sATw": {"geometry": {"location": {"lat": 51.49115889999999, "lng": -0.1505586}, "viewport": {"northeast": {"lat": 51.4923988302915, "lng": -0.149190969708498}, "southwest": {"lat": 51.4897008697085, "lng": -0.151888930291502}}}, "name": "Pimlico Airport Specialist Taxi \ud83d\ude95", "place_id": "ChIJ8fPgxXUXdkgRc4KQ_Z7sATw", "types": ["point_of_interest", "establishment"]}, "ChIJDcUNtBkFdkgRbs1soTVTPK0": {"geometry": {"location": {"lat": 51.49102380000001, "lng": -0.150754}, "viewport": {"northeast": {"lat": 51.4923628802915, "lng": -0.149460169708498}, "southwest": {"lat": 51.4896649197085, "lng": -0.152158130291502}}}, "name": "Walden House", "place_id": "ChIJDcUNtBkFdkgRbs1soTVTPK0", "types": ["point_of_interest", "establishment"]}, "ChIJj8VrtBkFdkgRrkvszRHZrZo": {"geometry": {"location": {"lat": 51.4909238, "lng": -0.1510302}, "viewport": {"northeast": {"lat": 51.4922468802915, "lng": -0.149668969708498}, "southwest": {"lat": 51.4895489197085, "lng": -0.152366930291502}}}, "name": "Ebury Bridge Road (Stop R)", "place_id": "ChIJj8VrtBkFdkgRrkvszRHZrZo", "types": ["bus_station", "transit_station", "point_of_interest", "establishment"], "rating": 4.5, "user_ratings_total": 2}, "ChIJKwKbNBgFdkgR-mAkxsL0UxA": {"geometry": {"location": {"lat": 51.4913836, "lng": -0.1514554}, "viewport": {"northeast": {"lat": 51.49272358886545, "lng": -0.1501184816523126}, "southwest": {"lat": 51.49002562828245, "lng": -0.1528164422353167}}}, "name": "Parking lot", "place_id": "ChIJKwKbNBgFdkgR-mAkxsL0UxA", "types": ["parking", "premise", "point_of_interest", "establishment"]}, "ChIJZ8SDzRkFdkgRY2iju4H9MJ4": {"geometry": {"location": {"lat": 51.4911572, "lng": -0.1518905}, "viewport": {"northeast": {"lat": 51.49249868703022, "lng": -0.1505190390784269}, "southwest": {"lat": 51.48980072644722, "lng": -0.153216999661431}}}, "name": "Parking lot", "place_id": "ChIJZ8SDzRkFdkgRY2iju4H9MJ4", "types": ["parking", "premise", "point_of_interest", "establishment"]}, "ChIJWWOOzRkFdkgR7KNQj_1GM_E": {"geometry": {"location": {"lat": 51.4910341, "lng": -0.1518439}, "viewport": {"northeast": {"lat": 51.49237870350657, "lng": -0.1504836525064302}, "southwest": {"lat": 51.48968074292357, "lng": -0.1531816130894343}}}, "name": "Parking lot", "place_id": "ChIJWWOOzRkFdkgR7KNQj_1GM_E", "types": ["parking", "premise", "point_of_interest", "establishment"]}, "ChIJAfIsyRkFdkgRsmLkf1awB1I": {"geometry": {"location": {"lat": 51.49079465018439, "lng": -0.1514894501482275}, "viewport": {"northeast": {"lat": 51.4921436302915, "lng": -0.150140469708498}, "southwest": {"lat": 51.4894456697085, "lng": -0.152838430291502}}}, "name": "13-23 Pimlico Rd", "place_id": "ChIJAfIsyRkFdkgRsmLkf1awB1I", "types": ["route"]}, "ChIJp_k8thkFdkgRYTGAnXvfRiw": {"geometry": {"location": {"lat": 51.49077409999999, "lng": -0.1511284}, "viewport": {"northeast": {"lat": 51.49216033029149, "lng": -0.149787619708498}, "southwest": {"lat": 51.48946236970849, "lng": -0.152485580291502}}}, "name": "Dr Victoria Muir's Practice, Belgrave Medical Centre", "place_id": "ChIJp_k8thkFdkgRYTGAnXvfRiw", "types": ["hospital", "health", "point_of_interest", "establishment"], "rating": 3.3, "user_ratings_total": 26}, "ChIJp_k8thkFdkgRPzvXRAlWeH8": {"geometry": {"location": {"lat": 51.49066529999999, "lng": -0.1513367}, "viewport": {"northeast": {"lat": 51.4920863302915, "lng": -0.150016669708498}, "southwest": {"lat": 51.4893883697085, "lng": -0.152714630291502}}}, "name": "Dr V R Muir", "place_id": "ChIJp_k8thkFdkgRPzvXRAlWeH8", "types": ["doctor", "health", "point_of_interest", "establishment"], "rating": 3.8, "user_ratings_total": 33}, "ChIJ1QH-vhkFdkgReI-Ty-cL0W8": {"geometry": {"location": {"lat": 51.4901315, "lng": -0.1509434}, "viewport": {"northeast": {"lat": 51.49140878029149, "lng": -0.149561519708498}, "southwest": {"lat": 51.48871081970849, "lng": -0.152259480291502}}}, "name": "Ebury Bridge Road", "place_id": "ChIJ1QH-vhkFdkgReI-Ty-cL0W8", "types": ["transit_station", "point_of_interest", "establishment"]}, "ChIJseC8uRkFdkgRWm78Ml2liUM": {"geometry": {"location": {"lat": 51.4904865, "lng": -0.1508663}, "viewport": {"northeast": {"lat": 51.4918620802915, "lng": -0.149562919708498}, "southwest": {"lat": 51.4891641197085, "lng": -0.152260880291502}}}, "name": "D D C", "place_id": "ChIJseC8uRkFdkgRWm78Ml2liUM", "types": ["point_of_interest", "establishment"]}, "ChIJ8YZGr0MFdkgRq0k8sJQSPGc": {"geometry": {"location": {"lat": 51.4904902, "lng": -0.1512632}, "viewport": {"northeast": {"lat": 51.4918032302915, "lng": -0.149852619708498}, "southwest": {"lat": 51.4891052697085, "lng": -0.152550580291502}}}, "name": "The Dog Nutritionist", "place_id": "ChIJ8YZGr0MFdkgRq0k8sJQSPGc", "types": ["health", "point_of_interest", "establishment"], "rating": 5, "user_ratings_total": 15}, "ChIJp_k8thkFdkgRX4JSj7Z6dck": {"geometry": {"location": {"lat": 51.4907494, "lng": -0.1513302}, "viewport": {"northeast": {"lat": 51.49213133029149, "lng": -0.149994469708498}, "southwest": {"lat": 51.4894333697085, "lng": -0.152692430291502}}}, "name": "Dr Shakarchi's Practice", "place_id": "ChIJp_k8thkFdkgRX4JSj7Z6dck", "types": ["doctor", "health", "point_of_interest", "establishment"], "rating": 4, "user_ratings_total": 27}, "ChIJSxI5sRkFdkgRisKT3W-D0bQ": {"geometry": {"location": {"lat": 51.4908083, "lng": -0.1508083}, "viewport": {"northeast": {"lat": 51.49221703029149, "lng": -0.149370569708498}, "southwest": {"lat": 51.48951906970849, "lng": -0.152068530291502}}}, "name": "No 11 Pimlico Road", "place_id": "ChIJSxI5sRkFdkgRisKT3W-D0bQ", "types": ["bar", "restaurant", "food", "point_of_interest", "establishment"], "rating": 4.1, "user_ratings_total": 726}, "ChIJy1dLqiAFdkgR5I4b0FOhfJM": {"geometry": {"location": {"lat": 51.4901055, "lng": -0.1504001}, "viewport": {"northeast": {"lat": 51.49144678029149, "lng": -0.1489229197084979}, "southwest": {"lat": 51.4887488197085, "lng": -0.151620880291502}}}, "name": "Amma's Kitchen", "place_id": "ChIJy1dLqiAFdkgR5I4b0FOhfJM", "types": ["restaurant", "food", "point_of_interest", "establishment"], "rating": 5, "user_ratings_total": 5}, "ChIJH8KlxBkFdkgRtCZc2SAh6JY": {"geometry": {"location": {"lat": 51.4903979, "lng": -0.1518174}, "viewport": {"northeast": {"lat": 51.49174688029151, "lng": -0.1504684197084979}, "southwest": {"lat": 51.48904891970851, "lng": -0.153166380291502}}}, "name": "Church of St Barnabas, Pimlico", "place_id": "ChIJH8KlxBkFdkgRtCZc2SAh6JY", "types": ["church", "place_of_worship", "point_of_interest", "establishment"], "rating": 4.7, "user_ratings_total": 42}, "ChIJ9-4qvRkFdkgRVEP2aWm_Yp4": {"geometry": {"location": {"lat": 51.4901074, "lng": -0.1503432}, "viewport": {"northeast": {"lat": 51.49145038029149, "lng": -0.148894069708498}, "southwest": {"lat": 51.4887524197085, "lng": -0.151592030291502}}}, "name": "Urban Kitchen", "place_id": "ChIJ9-4qvRkFdkgRVEP2aWm_Yp4", "types": ["restaurant", "food", "point_of_interest", "establishment"]}, "ChIJCbL0t74FdkgRKlpDj4Py62Y": {"geometry": {"location": {"lat": 51.4907831, "lng": -0.1510691}, "viewport": {"northeast": {"lat": 51.4921688302915, "lng": -0.149748269708498}, "southwest": {"lat": 51.4894708697085, "lng": -0.152446230291502}}}, "name": "To go", "place_id": "ChIJCbL0t74FdkgRKlpDj4Py62Y", "types": ["shopping_mall", "point_of_interest", "establishment"]}, "ChIJV4nYohkFdkgR79JgNla1GRg": {"geometry": {"location": {"lat": 51.4901086, "lng": -0.1503335}, "viewport": {"northeast": {"lat": 51.4914518302915, "lng": -0.1488890697084979}, "southwest": {"lat": 51.4887538697085, "lng": -0.151587030291502}}}, "name": "Belgravia Man and Van", "place_id": "ChIJV4nYohkFdkgR79JgNla1GRg", "types": ["point_of_interest", "establishment"]}, "ChIJTy2AbAAFdkgR4pRMCDH_eaw": {"geometry": {"location": {"lat": 51.4901022, "lng": -0.1503348}, "viewport": {"northeast": {"lat": 51.4914454302915, "lng": -0.148890219708498}, "southwest": {"lat": 51.4887474697085, "lng": -0.151588180291502}}}, "name": "ENI International Resources - ENI House", "place_id": "ChIJTy2AbAAFdkgR4pRMCDH_eaw", "types": ["point_of_interest", "establishment"], "rating": 4.6, "user_ratings_total": 13}, "ChIJsRgzzxkFdkgR_BlzQ7bHA9Y": {"geometry": {"location": {"lat": 51.49071499999999, "lng": -0.1515037}, "viewport": {"northeast": {"lat": 51.49210043029149, "lng": -0.150169369708498}, "southwest": {"lat": 51.48940246970849, "lng": -0.152867330291502}}}, "name": "Padma Children's Home", "place_id": "ChIJsRgzzxkFdkgR_BlzQ7bHA9Y", "types": ["point_of_interest", "establishment"]}, "ChIJ3yINlBkFdkgRXrNCaBjUQDk": {"geometry": {"location": {"lat": 51.4896642024143, "lng": -0.1508062803486885}, "viewport": {"northeast": {"lat": 51.49101288029149, "lng": -0.149457519708498}, "southwest": {"lat": 51.48831491970849, "lng": -0.152155480291502}}}, "name": "27-33 St Barnabas St", "place_id": "ChIJ3yINlBkFdkgRXrNCaBjUQDk", "types": ["route"]}, "ChIJy0MfmhkFdkgRVCCLwhQjuH8": {"geometry": {"location": {"lat": 51.489413, "lng": -0.150436}, "viewport": {"northeast": {"lat": 51.49075793029149, "lng": -0.148993819708498}, "southwest": {"lat": 51.48805996970849, "lng": -0.151691780291502}}}, "name": "Belgravia Garage - Pimlico branch", "place_id": "ChIJy0MfmhkFdkgRVCCLwhQjuH8", "types": ["car_wash", "car_rental", "car_dealer", "point_of_interest", "store", "establishment"], "rating": 3.8, "user_ratings_total": 29}, "ChIJaW3mkxkFdkgR4XHEqAs6yzU": {"geometry": {"location": {"lat": 51.48955489999999, "lng": -0.1507964}, "viewport": {"northeast": {"lat": 51.49095158029149, "lng": -0.149420519708498}, "southwest": {"lat": 51.48825361970849, "lng": -0.152118480291502}}}, "name": "Malcolm Crowthers", "place_id": "ChIJaW3mkxkFdkgR4XHEqAs6yzU", "types": ["point_of_interest", "establishment"]}, "ChIJd6h-7BkFdkgRqT1IMeu9X0E": {"geometry": {"location": {"lat": 51.48959850000001, "lng": -0.1513281}, "viewport": {"northeast": {"lat": 51.49102473029149, "lng": -0.149935919708498}, "southwest": {"lat": 51.48832676970849, "lng": -0.152633880291502}}}, "name": "Vera Balden hovell", "place_id": "ChIJd6h-7BkFdkgRqT1IMeu9X0E", "types": ["point_of_interest", "establishment"]}, "ChIJbQqGTWCFdUgRKwMVtFsAQ1k": {"geometry": {"location": {"lat": 51.4891431, "lng": -0.1503581}, "viewport": {"northeast": {"lat": 51.4904922302915, "lng": -0.149010219708498}, "southwest": {"lat": 51.4877942697085, "lng": -0.151708180291502}}}, "name": "Glow Organic", "place_id": "ChIJbQqGTWCFdUgRKwMVtFsAQ1k", "types": ["point_of_interest", "store", "establishment"], "rating": 5, "user_ratings_total": 4}, "ChIJiWlsPvkFdkgRhwkVFvIAhE8": {"geometry": {"location": {"lat": 51.4890958, "lng": -0.1503259}, "viewport": {"northeast": {"lat": 51.49045278029149, "lng": -0.149025719708498}, "southwest": {"lat": 51.4877548197085, "lng": -0.151723680291502}}}, "name": "Each x Every", "place_id": "ChIJiWlsPvkFdkgRhwkVFvIAhE8", "types": ["point_of_interest", "establishment"]}, "ChIJ83qjtJAFdkgRUXH_EwYq0KM": {"geometry": {"location": {"lat": 51.4890958, "lng": -0.1503259}, "viewport": {"northeast": {"lat": 51.49045278029149, "lng": -0.149025719708498}, "southwest": {"lat": 51.4877548197085, "lng": -0.151723680291502}}}, "name": "Ebury by Fat Macy's", "place_id": "ChIJ83qjtJAFdkgRUXH_EwYq0KM", "types": ["restaurant", "food", "point_of_interest", "establishment"], "rating": 4.7, "user_ratings_total": 24}, "ChIJZTlejlIFdkgRA2vNCgRI57I": {"geometry": {"location": {"lat": 51.48895599999999, "lng": -0.1504005}, "viewport": {"northeast": {"lat": 51.4903049802915, "lng": -0.149051519708498}, "southwest": {"lat": 51.4876070197085, "lng": -0.151749480291502}}}, "name": "Glow Organic", "place_id": "ChIJZTlejlIFdkgRA2vNCgRI57I", "types": ["point_of_interest", "store", "establishment"]}, "ChIJB1YqKW0FdkgRjX9Koo9wF2w": {"geometry": {"location": {"lat": 51.4888902, "lng": -0.1504517}, "viewport": {"northeast": {"lat": 51.4902262302915, "lng": -0.1490531697084979}, "southwest": {"lat": 51.4875282697085, "lng": -0.151751130291502}}}, "name": "Manufactured Culture", "place_id": "ChIJB1YqKW0FdkgRjX9Koo9wF2w", "types": ["furniture_store", "home_goods_store", "point_of_interest", "store", "establishment"], "rating": 5, "user_ratings_total": 7}, "ChIJFX4khRkFdkgRiH0V9HM4hJ8": {"geometry": {"location": {"lat": 51.489052, "lng": -0.150274}, "viewport": {"northeast": {"lat": 51.4904048302915, "lng": -0.148944319708498}, "southwest": {"lat": 51.4877068697085, "lng": -0.151642280291502}}}, "name": "Ebury Bridge Road", "place_id": "ChIJFX4khRkFdkgRiH0V9HM4hJ8", "types": ["transit_station", "point_of_interest", "establishment"]}, "ChIJAz67XtMFdkgRznhpD3zMGaU": {"geometry": {"location": {"lat": 51.4890841, "lng": -0.1502487}, "viewport": {"northeast": {"lat": 51.49043733029149, "lng": -0.148927719708498}, "southwest": {"lat": 51.4877393697085, "lng": -0.151625680291502}}}, "name": "Car wash", "place_id": "ChIJAz67XtMFdkgRznhpD3zMGaU", "types": ["shopping_mall", "cafe", "real_estate_agency", "food", "point_of_interest", "establishment"], "rating": 1, "user_ratings_total": 1}, "ChIJv2vV1B4FdkgRNSfQnJ_maxY": {"geometry": {"location": {"lat": 51.491098, "lng": -0.146717}, "viewport": {"northeast": {"lat": 51.4924250302915, "lng": -0.1454014197084979}, "southwest": {"lat": 51.4897270697085, "lng": -0.148099380291502}}}, "name": "Pimlico - Alderney St", "place_id": "ChIJv2vV1B4FdkgRNSfQnJ_maxY", "types": ["car_rental", "point_of_interest", "establishment"]}, "ChIJOyB42KoFdkgRHxLwvS2s7rk": {"geometry": {"location": {"lat": 51.490769, "lng": -0.146813}, "viewport": {"northeast": {"lat": 51.4920597802915, "lng": -0.145494469708498}, "southwest": {"lat": 51.4893618197085, "lng": -0.148192430291502}}}, "name": "Abbots Manor Residents' Association", "place_id": "ChIJOyB42KoFdkgRHxLwvS2s7rk", "types": ["point_of_interest", "establishment"]}, "ChIJE9BeqWgFdkgRPB9_6ho_EtY": {"geometry": {"location": {"lat": 51.49102260000001, "lng": -0.1467906}, "viewport": {"northeast": {"lat": 51.49236673029149, "lng": -0.145447669708498}, "southwest": {"lat": 51.48966876970849, "lng": -0.148145630291502}}}, "name": "Metal gate", "place_id": "ChIJE9BeqWgFdkgRPB9_6ho_EtY", "types": ["point_of_interest", "establishment"]}, "ChIJhzhrKRkFdkgR-we8b5fkBJ0": {"geometry": {"location": {"lat": 51.4908759, "lng": -0.1471588}, "viewport": {"northeast": {"lat": 51.4922631802915, "lng": -0.1459176697084979}, "southwest": {"lat": 51.4895652197085, "lng": -0.148615630291502}}}, "name": "Memiada Ltd", "place_id": "ChIJhzhrKRkFdkgR-we8b5fkBJ0", "types": ["point_of_interest", "establishment"]}, "ChIJs8pGTxkFdkgRa6iKfANjtew": {"geometry": {"location": {"lat": 51.48941100004475, "lng": -0.1470922998622771}, "viewport": {"northeast": {"lat": 51.49075998029149, "lng": -0.145743319708498}, "southwest": {"lat": 51.48806201970849, "lng": -0.148441280291502}}}, "name": "Sutherland Street", "place_id": "ChIJs8pGTxkFdkgRa6iKfANjtew", "types": ["route"]}, "ChIJX2MvNRkFdkgRS7_RtPCD1s0": {"geometry": {"location": {"lat": 51.49008899999999, "lng": -0.146763}, "viewport": {"northeast": {"lat": 51.49148528029149, "lng": -0.145250319708498}, "southwest": {"lat": 51.48878731970849, "lng": -0.147948280291502}}}, "name": "Chargemaster Charging Station", "place_id": "ChIJX2MvNRkFdkgRS7_RtPCD1s0", "types": ["point_of_interest", "establishment"]}, "ChIJHV_CrB4FdkgRQaTpWsgHYvc": {"geometry": {"location": {"lat": 51.4890708, "lng": -0.1467326}, "viewport": {"northeast": {"lat": 51.4904401302915, "lng": -0.145462419708498}, "southwest": {"lat": 51.4877421697085, "lng": -0.148160380291502}}}, "name": "The White Ferry, Victoria (PUBLOVE)", "place_id": "ChIJHV_CrB4FdkgRQaTpWsgHYvc", "types": ["lodging", "bar", "restaurant", "food", "point_of_interest", "establishment"], "rating": 3.8, "user_ratings_total": 733}, "ChIJKzE2ABwFdkgRzMWmF1OQo9E": {"geometry": {"location": {"lat": 51.4889671, "lng": -0.1467881}, "viewport": {"northeast": {"lat": 51.4903882802915, "lng": -0.145490169708498}, "southwest": {"lat": 51.48769031970851, "lng": -0.148188130291502}}}, "name": "S W 1 Surveyors", "place_id": "ChIJKzE2ABwFdkgRzMWmF1OQo9E", "types": ["point_of_interest", "establishment"], "rating": 4, "user_ratings_total": 1}, "ChIJVSo9UBkFdkgRHKFcH6mWATQ": {"geometry": {"location": {"lat": 51.48900859999999, "lng": -0.1467587}, "viewport": {"northeast": {"lat": 51.4904090302915, "lng": -0.145475469708498}, "southwest": {"lat": 51.4877110697085, "lng": -0.148173430291502}}}, "name": "Ebury Place - Taylor Wimpey Central London", "place_id": "ChIJVSo9UBkFdkgRHKFcH6mWATQ", "types": ["point_of_interest", "establishment"], "rating": 5, "user_ratings_total": 5}, "ChIJKddRRo4FdkgRtA6NsouQm6Y": {"geometry": {"location": {"lat": 51.48900859999999, "lng": -0.1467587}, "viewport": {"northeast": {"lat": 51.4904090302915, "lng": -0.145475469708498}, "southwest": {"lat": 51.4877110697085, "lng": -0.148173430291502}}}, "name": "LuggageHero", "place_id": "ChIJKddRRo4FdkgRtA6NsouQm6Y", "types": ["storage", "point_of_interest", "establishment"]}, "ChIJQYzAZ_cFdkgRQIbZ2QkzA6I": {"geometry": {"location": {"lat": 51.48900859999999, "lng": -0.1467587}, "viewport": {"northeast": {"lat": 51.4904090302915, "lng": -0.145475469708498}, "southwest": {"lat": 51.4877110697085, "lng": -0.148173430291502}}}, "name": "Mei Quan Tai Chi - Victoria Central", "place_id": "ChIJQYzAZ_cFdkgRQIbZ2QkzA6I", "types": ["health", "point_of_interest", "establishment"]}, "ChIJuedUpx4FdkgRk2S7Ixl2MJQ": {"geometry": {"location": {"lat": 51.4890291, "lng": -0.1467358}, "viewport": {"northeast": {"lat": 51.49043853029149, "lng": -0.145449419708498}, "southwest": {"lat": 51.4877405697085, "lng": -0.148147380291502}}}, "name": "White Ferry House", "place_id": "ChIJuedUpx4FdkgRk2S7Ixl2MJQ", "types": ["bar", "point_of_interest", "establishment"], "rating": 4.1, "user_ratings_total": 66}, "ChIJPQOCed5zlR4RqewQw6H040w": {"geometry": {"location": {"lat": 51.49181799999999, "lng": -0.1484}, "viewport": {"northeast": {"lat": 51.4931859302915, "lng": -0.147094819708498}, "southwest": {"lat": 51.4904879697085, "lng": -0.149792780291502}}}, "name": "Antiva Professional Services", "place_id": "ChIJPQOCed5zlR4RqewQw6H040w", "types": ["point_of_interest", "establishment"]}, "ChIJnQrZydwEdkgReza1_1H7LsI": {"geometry": {"location": {"lat": 51.49185840000001, "lng": -0.1480284}, "viewport": {"northeast": {"lat": 51.49327393029149, "lng": -0.146833419708498}, "southwest": {"lat": 51.49057596970849, "lng": -0.149531380291502}}}, "name": "Investors in People", "place_id": "ChIJnQrZydwEdkgReza1_1H7LsI", "types": ["point_of_interest", "establishment"], "rating": 5, "user_ratings_total": 2}, "ChIJ2Z9x5xgFdkgR842-QQS8jV0": {"geometry": {"location": {"lat": 51.4916158, "lng": -0.1483733}, "viewport": {"northeast": {"lat": 51.4930205302915, "lng": -0.147153219708498}, "southwest": {"lat": 51.4903225697085, "lng": -0.149851180291502}}}, "name": "National Audit Office", "place_id": "ChIJ2Z9x5xgFdkgR842-QQS8jV0", "types": ["local_government_office", "point_of_interest", "establishment"], "rating": 4.1, "user_ratings_total": 8}, "ChIJIVpjVxgFdkgRB0zHWu2nqoU": {"geometry": {"location": {"lat": 51.49190419999999, "lng": -0.1494187}, "viewport": {"northeast": {"lat": 51.49320788029149, "lng": -0.1481408697084979}, "southwest": {"lat": 51.49050991970849, "lng": -0.150838830291502}}}, "name": "Europcar London Victoria", "place_id": "ChIJIVpjVxgFdkgRB0zHWu2nqoU", "types": ["car_rental", "point_of_interest", "establishment"], "rating": 3.3, "user_ratings_total": 221}, "ChIJpYqwURgFdkgRtRHi7fqzW2U": {"geometry": {"location": {"lat": 51.4917546, "lng": -0.1502174}, "viewport": {"northeast": {"lat": 51.4932176302915, "lng": -0.148747769708498}, "southwest": {"lat": 51.4905196697085, "lng": -0.151445730291502}}}, "name": "Ebury Square Gardens", "place_id": "ChIJpYqwURgFdkgRtRHi7fqzW2U", "types": ["park", "point_of_interest", "establishment"], "rating": 4.3, "user_ratings_total": 139}, "ChIJ_ZmGUBgFdkgRIL3a62ff_Jg": {"geometry": {"location": {"lat": 51.491892, "lng": -0.150198}, "viewport": {"northeast": {"lat": 51.4933490802915, "lng": -0.148905569708498}, "southwest": {"lat": 51.4906511197085, "lng": -0.151603530291502}}}, "name": "Source London Charging Station", "place_id": "ChIJ_ZmGUBgFdkgRIL3a62ff_Jg", "types": ["point_of_interest", "establishment"]}, "ChIJ36_zqxkFdkgRjqNhTd47foY": {"geometry": {"location": {"lat": 51.4918899, "lng": -0.1506989}, "viewport": {"northeast": {"lat": 51.4932208802915, "lng": -0.149304819708498}, "southwest": {"lat": 51.4905229197085, "lng": -0.152002780291502}}}, "name": "Fountain Court", "place_id": "ChIJ36_zqxkFdkgRjqNhTd47foY", "types": ["point_of_interest", "establishment"], "rating": 5, "user_ratings_total": 1}, "ChIJyZjaABkFdkgRig05Wpm3tLg": {"geometry": {"location": {"lat": 51.49088975005559, "lng": -0.1496056502348954}, "viewport": {"northeast": {"lat": 51.4922387302915, "lng": -0.148256669708498}, "southwest": {"lat": 51.4895407697085, "lng": -0.150954630291502}}}, "name": "52 Buckingham Palace Rd", "place_id": "ChIJyZjaABkFdkgRig05Wpm3tLg", "types": ["route"]}, "ChIJGUmQWZcFdkgRuGkzisy1q08": {"geometry": {"location": {"lat": 51.49077, "lng": -0.150379}, "viewport": {"northeast": {"lat": 51.4920330302915, "lng": -0.148820269708498}, "southwest": {"lat": 51.4893350697085, "lng": -0.151518230291502}}}, "name": "Eni (UK) Ltd", "place_id": "ChIJGUmQWZcFdkgRuGkzisy1q08", "types": ["point_of_interest", "establishment"]}, "ChIJR6OjrRkFdkgRvJjmKfaDae8": {"geometry": {"location": {"lat": 51.49106929999999, "lng": -0.1502895}, "viewport": {"northeast": {"lat": 51.4924215302915, "lng": -0.148974069708498}, "southwest": {"lat": 51.4897235697085, "lng": -0.151672030291502}}}, "name": "Marquess of Westminster Memorial Fountain", "place_id": "ChIJR6OjrRkFdkgRvJjmKfaDae8", "types": ["park", "point_of_interest", "establishment"], "rating": 3.8, "user_ratings_total": 4}, "ChIJU8i2kBkFdkgRwLd6FfGLpyI": {"geometry": {"location": {"lat": 51.48961090748813, "lng": -0.1504188420819768}, "viewport": {"northeast": {"lat": 51.49096033029149, "lng": -0.149069769708498}, "southwest": {"lat": 51.48826236970849, "lng": -0.151767730291502}}}, "name": "56 St Barnabas St", "place_id": "ChIJU8i2kBkFdkgRwLd6FfGLpyI", "types": ["route"]}, "ChIJV3LQmRkFdkgRnAskI7D6OUA": {"geometry": {"location": {"lat": 51.489718, "lng": -0.150385}, "viewport": {"northeast": {"lat": 51.49106683029149, "lng": -0.148944469708498}, "southwest": {"lat": 51.48836886970849, "lng": -0.151642430291502}}}, "name": "The Rising Sun Pub", "place_id": "ChIJV3LQmRkFdkgRnAskI7D6OUA", "types": ["meal_takeaway", "bar", "restaurant", "food", "point_of_interest", "establishment"], "rating": 4.1, "user_ratings_total": 290}, "ChIJk9XbmBkFdkgRlTHmSzbQL20": {"geometry": {"location": {"lat": 51.48980539999999, "lng": -0.1500233}, "viewport": {"northeast": {"lat": 51.4911360802915, "lng": -0.1487558197084979}, "southwest": {"lat": 51.4884381197085, "lng": -0.151453780291502}}}, "name": "Occasions Pimlico", "place_id": "ChIJk9XbmBkFdkgRlTHmSzbQL20", "types": ["home_goods_store", "point_of_interest", "store", "establishment"], "rating": 5, "user_ratings_total": 58}, "ChIJ5VFbmRkFdkgRpt5gb8BRIkE": {"geometry": {"location": {"lat": 51.4896597, "lng": -0.1500886}, "viewport": {"northeast": {"lat": 51.49105833029149, "lng": -0.1487916197084979}, "southwest": {"lat": 51.4883603697085, "lng": -0.151489580291502}}}, "name": "Ayanski Fabrics", "place_id": "ChIJ5VFbmRkFdkgRpt5gb8BRIkE", "types": ["home_goods_store", "point_of_interest", "store", "establishment"]}, "ChIJ94-RoRkFdkgR45NGPnrjFuE": {"geometry": {"location": {"lat": 51.4896429, "lng": -0.1500113}, "viewport": {"northeast": {"lat": 51.4910499302915, "lng": -0.148762219708498}, "southwest": {"lat": 51.4883519697085, "lng": -0.151460180291502}}}, "name": "MW & More", "place_id": "ChIJ94-RoRkFdkgR45NGPnrjFuE", "types": ["point_of_interest", "establishment"]}, "ChIJ-1A4nhkFdkgRKRqWBge_mWs": {"geometry": {"location": {"lat": 51.4896429, "lng": -0.1500113}, "viewport": {"northeast": {"lat": 51.4910499302915, "lng": -0.148762219708498}, "southwest": {"lat": 51.4883519697085, "lng": -0.151460180291502}}}, "name": "T Hats Gallery", "place_id": "ChIJ-1A4nhkFdkgRKRqWBge_mWs", "types": ["point_of_interest", "clothing_store", "store", "establishment"]}, "ChIJb0lePRoFdkgRXno3boTlEvk": {"geometry": {"location": {"lat": 51.4898505, "lng": -0.1500282}, "viewport": {"northeast": {"lat": 51.4911582802915, "lng": -0.148754819708498}, "southwest": {"lat": 51.4884603197085, "lng": -0.151452780291502}}}, "name": "Ebury News", "place_id": "ChIJb0lePRoFdkgRXno3boTlEvk", "types": ["book_store", "point_of_interest", "store", "establishment"], "rating": 4, "user_ratings_total": 1}, "ChIJzV4xFhoFdkgRHwIjcAdeydM": {"geometry": {"location": {"lat": 51.48969859999999, "lng": -0.1500569}, "viewport": {"northeast": {"lat": 51.49107778029149, "lng": -0.148780919708498}, "southwest": {"lat": 51.48837981970849, "lng": -0.151478880291502}}}, "name": "Mauro Sergio", "place_id": "ChIJzV4xFhoFdkgRHwIjcAdeydM", "types": ["hair_care", "point_of_interest", "establishment"], "rating": 4.4, "user_ratings_total": 7}, "ChIJ00IhmRkFdkgRoU0WNvE-ud0": {"geometry": {"location": {"lat": 51.4897394, "lng": -0.150043}, "viewport": {"northeast": {"lat": 51.49110183029151, "lng": -0.148769419708498}, "southwest": {"lat": 51.48840386970851, "lng": -0.151467380291502}}}, "name": "Green's Pharmacy", "place_id": "ChIJ00IhmRkFdkgRoU0WNvE-ud0", "types": ["pharmacy", "health", "point_of_interest", "store", "establishment"], "rating": 4.8, "user_ratings_total": 20}, "ChIJjWWW_MIFdkgRpFeLuNGzq9s": {"geometry": {"location": {"lat": 51.48980900000001, "lng": -0.1500303}, "viewport": {"northeast": {"lat": 51.4911376302915, "lng": -0.1487590697084979}, "southwest": {"lat": 51.4884396697085, "lng": -0.151457030291502}}}, "name": "Private Black Taxi", "place_id": "ChIJjWWW_MIFdkgRpFeLuNGzq9s", "types": ["point_of_interest", "establishment"]}, "ChIJp_JImRkFdkgR3cOhSSwl63E": {"geometry": {"location": {"lat": 51.4896895, "lng": -0.1500626}, "viewport": {"northeast": {"lat": 51.49107323029149, "lng": -0.148784519708498}, "southwest": {"lat": 51.4883752697085, "lng": -0.151482480291502}}}, "name": "LONDON LASH AND BROW CLINIC", "place_id": "ChIJp_JImRkFdkgR3cOhSSwl63E", "types": ["beauty_salon", "point_of_interest", "establishment"]}, "ChIJl26grvkFdkgRNXdVXlJ6rew": {"geometry": {"location": {"lat": 51.48984189999999, "lng": -0.1500253}, "viewport": {"northeast": {"lat": 51.49115408029149, "lng": -0.148754019708498}, "southwest": {"lat": 51.48845611970849, "lng": -0.151451980291502}}}, "name": "Leonora Couture", "place_id": "ChIJl26grvkFdkgRNXdVXlJ6rew", "types": ["point_of_interest", "clothing_store", "store", "establishment"]}, "ChIJBdSokyMFdkgRfBgGlO_nGV8": {"geometry": {"location": {"lat": 51.4896488, "lng": -0.1500797}, "viewport": {"northeast": {"lat": 51.4910528802915, "lng": -0.1487924197084979}, "southwest": {"lat": 51.4883549197085, "lng": -0.151490380291502}}}, "name": "Ian Bennett Millinery", "place_id": "ChIJBdSokyMFdkgRfBgGlO_nGV8", "types": ["clothing_store", "point_of_interest", "store", "establishment"], "rating": 5, "user_ratings_total": 1}, "ChIJu04DmmcFdkgRIm5EqoalAeo": {"geometry": {"location": {"lat": 51.4897042, "lng": -0.1503737}, "viewport": {"northeast": {"lat": 51.49104813029149, "lng": -0.148940369708498}, "southwest": {"lat": 51.4883501697085, "lng": -0.151638330291502}}}, "name": "Burger Singh - Chelsea", "place_id": "ChIJu04DmmcFdkgRIm5EqoalAeo", "types": ["restaurant", "food", "point_of_interest", "establishment"], "rating": 3.6, "user_ratings_total": 13}, "ChIJT_FemRkFdkgR_lffza0UM4s": {"geometry": {"location": {"lat": 51.489649, "lng": -0.1500701}, "viewport": {"northeast": {"lat": 51.4910529802915, "lng": -0.148791419708498}, "southwest": {"lat": 51.4883550197085, "lng": -0.151489380291502}}}, "name": "Decorative Arts", "place_id": "ChIJT_FemRkFdkgR_lffza0UM4s", "types": ["general_contractor", "point_of_interest", "establishment"]}, "ChIJQ6PKmBkFdkgRw_vZzPpBdoQ": {"geometry": {"location": {"lat": 51.48986419999999, "lng": -0.1500281}, "viewport": {"northeast": {"lat": 51.49116508029149, "lng": -0.1487537197084979}, "southwest": {"lat": 51.4884671197085, "lng": -0.151451680291502}}}, "name": "Velmar Pearls", "place_id": "ChIJQ6PKmBkFdkgRw_vZzPpBdoQ", "types": ["jewelry_store", "point_of_interest", "store", "establishment"]}, "ChIJvYesnhkFdkgR0TP_Oeya5-E": {"geometry": {"location": {"lat": 51.4896429, "lng": -0.1500113}, "viewport": {"northeast": {"lat": 51.4910499302915, "lng": -0.148762219708498}, "southwest": {"lat": 51.4883519697085, "lng": -0.151460180291502}}}, "name": "Hadley Solutions Limited", "place_id": "ChIJvYesnhkFdkgR0TP_Oeya5-E", "types": ["point_of_interest", "establishment"]}, "ChIJ9_wKf9EFdkgR90aA08Ehips": {"geometry": {"location": {"lat": 51.4896429, "lng": -0.1500113}, "viewport": {"northeast": {"lat": 51.4910499302915, "lng": -0.148762219708498}, "southwest": {"lat": 51.4883519697085, "lng": -0.151460180291502}}}, "name": "Elderflower", "place_id": "ChIJ9_wKf9EFdkgR90aA08Ehips", "types": ["grocery_or_supermarket", "food", "point_of_interest", "store", "establishment"], "rating": 5, "user_ratings_total": 3}, "ChIJbwhxmBkFdkgRQm1PcAqDa-g": {"geometry": {"location": {"lat": 51.489918, "lng": -0.150268}, "viewport": {"northeast": {"lat": 51.4912699302915, "lng": -0.148869969708498}, "southwest": {"lat": 51.4885719697085, "lng": -0.151567930291502}}}, "name": "Ebury Bridge Road", "place_id": "ChIJbwhxmBkFdkgRQm1PcAqDa-g", "types": ["transit_station", "point_of_interest", "establishment"], "rating": 1, "user_ratings_total": 1}, "ChIJE3osmhkFdkgRZ2M09mVUDO0": {"geometry": {"location": {"lat": 51.48959789999999, "lng": -0.1502199}, "viewport": {"northeast": {"lat": 51.4909468802915, "lng": -0.1488709197084979}, "southwest": {"lat": 51.4882489197085, "lng": -0.151568880291502}}}, "name": "Hugo Techno", "place_id": "ChIJE3osmhkFdkgRZ2M09mVUDO0", "types": ["point_of_interest", "establishment"]}, "ChIJZ6OLohkFdkgRUwMw0fxc0LM": {"geometry": {"location": {"lat": 51.490018, "lng": -0.150224}, "viewport": {"northeast": {"lat": 51.4913794802915, "lng": -0.148838719708498}, "southwest": {"lat": 51.48868151970851, "lng": -0.151536680291502}}}, "name": "ubitricity Charging Station", "place_id": "ChIJZ6OLohkFdkgRUwMw0fxc0LM", "types": ["point_of_interest", "establishment"]}, "ChIJNVMUbeMFdkgRbMM2sRdTsE8": {"geometry": {"location": {"lat": 51.48944179999999, "lng": -0.1501102}, "viewport": {"northeast": {"lat": 51.4907948802915, "lng": -0.148827319708498}, "southwest": {"lat": 51.4880969197085, "lng": -0.151525280291502}}}, "name": "Parking", "place_id": "ChIJNVMUbeMFdkgRbMM2sRdTsE8", "types": ["parking", "point_of_interest", "establishment"]}, "ChIJKUGUiBkFdkgRWEtdfXlM08g": {"geometry": {"location": {"lat": 51.48886650001551, "lng": -0.1504609001185656}, "viewport": {"northeast": {"lat": 51.4902154802915, "lng": -0.149111919708498}, "southwest": {"lat": 51.4875175197085, "lng": -0.151809880291502}}}, "name": "Ebury Bridge Road", "place_id": "ChIJKUGUiBkFdkgRWEtdfXlM08g", "types": ["route"]}, "ChIJuwIahxkFdkgR_wraY5qcL4g": {"geometry": {"location": {"lat": 51.4888201, "lng": -0.1503183}, "viewport": {"northeast": {"lat": 51.4901880802915, "lng": -0.149043469708498}, "southwest": {"lat": 51.4874901197085, "lng": -0.151741430291502}}}, "name": "Kamila London's Award winning Beauty Specialist", "place_id": "ChIJuwIahxkFdkgR_wraY5qcL4g", "types": ["beauty_salon", "point_of_interest", "establishment"], "rating": 5, "user_ratings_total": 1}, "ChIJJU7VULEFdkgRBITj7NMX5WY": {"geometry": {"location": {"lat": 51.48859109999999, "lng": -0.1500448}, "viewport": {"northeast": {"lat": 51.4900078802915, "lng": -0.148951269708498}, "southwest": {"lat": 51.4873099197085, "lng": -0.151649230291502}}}, "name": "Learning and Skills Solutions", "place_id": "ChIJJU7VULEFdkgRBITj7NMX5WY", "types": ["point_of_interest", "establishment"]}, "ChIJhycKipQFdkgRyyGrZVa5M88": {"geometry": {"location": {"lat": 51.4886833, "lng": -0.1504553}, "viewport": {"northeast": {"lat": 51.4900468802915, "lng": -0.149161369708498}, "southwest": {"lat": 51.4873489197085, "lng": -0.151859330291502}}}, "name": "Heir Wardrobe", "place_id": "ChIJhycKipQFdkgRyyGrZVa5M88", "types": ["point_of_interest", "clothing_store", "store", "establishment"]}, "ChIJkxEQsAsFdkgRC4Rl_7a3FR8": {"geometry": {"location": {"lat": 51.48890220000001, "lng": -0.1500057}, "viewport": {"northeast": {"lat": 51.4902921802915, "lng": -0.148846269708498}, "southwest": {"lat": 51.4875942197085, "lng": -0.151544230291502}}}, "name": "Ebury Edge", "place_id": "ChIJkxEQsAsFdkgRC4Rl_7a3FR8", "types": ["point_of_interest", "establishment"]}, "ChIJuzA40BkFdkgRqIMcOQWuppE": {"geometry": {"location": {"lat": 51.49072418341446, "lng": -0.1519489315668869}, "viewport": {"northeast": {"lat": 51.4920714802915, "lng": -0.150599169708498}, "southwest": {"lat": 51.48937351970851, "lng": -0.153297130291502}}}, "name": "25-33 Pimlico Rd", "place_id": "ChIJuzA40BkFdkgRqIMcOQWuppE", "types": ["route"]}, "ChIJPRUfTRgFdkgRzlkxbiJHaAs": {"geometry": {"location": {"lat": 51.4909024, "lng": -0.1516977}, "viewport": {"northeast": {"lat": 51.4921854302915, "lng": -0.150459319708498}, "southwest": {"lat": 51.4894874697085, "lng": -0.153157280291502}}}, "name": "Teachweb", "place_id": "ChIJPRUfTRgFdkgRzlkxbiJHaAs", "types": ["point_of_interest", "establishment"], "rating": 5, "user_ratings_total": 9}, "ChIJOfyB2hkFdkgRZEHroVL9YfI": {"geometry": {"location": {"lat": 51.49062359999999, "lng": -0.1518876}, "viewport": {"northeast": {"lat": 51.4919214802915, "lng": -0.150655419708498}, "southwest": {"lat": 51.4892235197085, "lng": -0.153353380291502}}}, "name": "St Barnabas Primary School", "place_id": "ChIJOfyB2hkFdkgRZEHroVL9YfI", "types": ["primary_school", "school", "point_of_interest", "establishment"], "rating": 4.4, "user_ratings_total": 8}, "ChIJ7-Pp0RkFdkgRnXVzMPTbmEQ": {"geometry": {"location": {"lat": 51.4908075, "lng": -0.1519324}, "viewport": {"northeast": {"lat": 51.4921133302915, "lng": -0.150607369708498}, "southwest": {"lat": 51.4894153697085, "lng": -0.153305330291502}}}, "name": "Gallery 25", "place_id": "ChIJ7-Pp0RkFdkgRnXVzMPTbmEQ", "types": ["home_goods_store", "point_of_interest", "store", "establishment"], "rating": 5, "user_ratings_total": 6}, "ChIJM_gjzhkFdkgRMHhufUx0tD8": {"geometry": {"location": {"lat": 51.490856, "lng": -0.151738}, "viewport": {"northeast": {"lat": 51.4921578302915, "lng": -0.150487569708498}, "southwest": {"lat": 51.4894598697085, "lng": -0.153185530291502}}}, "name": "Luke Irwin Rugs Ltd", "place_id": "ChIJM_gjzhkFdkgRMHhufUx0tD8", "types": ["home_goods_store", "point_of_interest", "store", "establishment"], "rating": 5, "user_ratings_total": 2}, "ChIJ61Ej_kYFdkgRABo3HUKWhxw": {"geometry": {"location": {"lat": 51.4908258, "lng": -0.1519499}, "viewport": {"northeast": {"lat": 51.4921266802915, "lng": -0.150593419708498}, "southwest": {"lat": 51.4894287197085, "lng": -0.153291380291502}}}, "name": "Recovery Truck Sloane Square", "place_id": "ChIJ61Ej_kYFdkgRABo3HUKWhxw", "types": ["car_repair", "point_of_interest", "establishment"]}, "ChIJ0XzsZBcFdkgRjm5bCZekXHQ": {"geometry": {"location": {"lat": 51.4908349, "lng": -0.1517894}, "viewport": {"northeast": {"lat": 51.4921423802915, "lng": -0.150432769708498}, "southwest": {"lat": 51.4894444197085, "lng": -0.153130730291502}}}, "name": "OCHRE", "place_id": "ChIJ0XzsZBcFdkgRjm5bCZekXHQ", "types": ["furniture_store", "home_goods_store", "point_of_interest", "store", "establishment"], "rating": 5, "user_ratings_total": 2}, "ChIJ4RkY0BkFdkgRsfwbEkkbRuA": {"geometry": {"location": {"lat": 51.490725, "lng": -0.1516489}, "viewport": {"northeast": {"lat": 51.4920856302915, "lng": -0.150304519708498}, "southwest": {"lat": 51.4893876697085, "lng": -0.153002480291502}}}, "name": "Pimlico Road Ebury Bridge Road (Stop Q)", "place_id": "ChIJ4RkY0BkFdkgRsfwbEkkbRuA", "types": ["bus_station", "transit_station", "point_of_interest", "establishment"]}, "ChIJ1elOyRkFdkgRNEvijwNQWg4": {"geometry": {"location": {"lat": 51.4908756, "lng": -0.1514677}, "viewport": {"northeast": {"lat": 51.4921830802915, "lng": -0.150356169708498}, "southwest": {"lat": 51.4894851197085, "lng": -0.153054130291502}}}, "name": "Jet & Co", "place_id": "ChIJ1elOyRkFdkgRNEvijwNQWg4", "types": ["point_of_interest", "establishment"]}, "ChIJRTQ66hkFdkgR359ho2DFp9g": {"geometry": {"location": {"lat": 51.48979610855775, "lng": -0.1514481857735882}, "viewport": {"northeast": {"lat": 51.4911957802915, "lng": -0.150051719708498}, "southwest": {"lat": 51.4884978197085, "lng": -0.152749680291502}}}, "name": "7-25 St Barnabas St", "place_id": "ChIJRTQ66hkFdkgR359ho2DFp9g", "types": ["route"]}, "ChIJfybI6RkFdkgRlJVPSMU1H78": {"geometry": {"location": {"lat": 51.4898768, "lng": -0.1516189}, "viewport": {"northeast": {"lat": 51.4912038302915, "lng": -0.150305769708498}, "southwest": {"lat": 51.4885058697085, "lng": -0.153003730291502}}}, "name": "Perform Within St Barnabas' Ce Primary School", "place_id": "ChIJfybI6RkFdkgRlJVPSMU1H78", "types": ["primary_school", "school", "point_of_interest", "establishment"]}, "ChIJ73Wv6xkFdkgRoLkQxYqTX-k": {"geometry": {"location": {"lat": 51.48974570000001, "lng": -0.151343}, "viewport": {"northeast": {"lat": 51.4910902802915, "lng": -0.149996319708498}, "southwest": {"lat": 51.4883923197085, "lng": -0.152694280291502}}}, "name": "Perform Within St Barnabas Church", "place_id": "ChIJ73Wv6xkFdkgRoLkQxYqTX-k", "types": ["church", "place_of_worship", "point_of_interest", "establishment"]}}}