{"E00023768": {"ChIJ5d_CyqcadkgRPkYgNXKiMtE": {"geometry": {"location": {"lat": 51.52648390233991, "lng": -0.1853975298664088}, "viewport": {"northeast": {"lat": 51.5278400802915, "lng": -0.1827011500000001}, "southwest": {"lat": 51.5251421197085, "lng": -0.18811215}}}, "name": "134-188 Sutherland Ave", "place_id": "ChIJ5d_CyqcadkgRPkYgNXKiMtE", "types": ["route"]}, "ChIJMZZ7T6YadkgRYhnQibCYzDs": {"geometry": {"location": {"lat": 51.5271565, "lng": -0.1844766}, "viewport": {"northeast": {"lat": 51.5284373802915, "lng": -0.183036269708498}, "southwest": {"lat": 51.5257394197085, "lng": -0.185734230291502}}}, "name": "Christa Phelps", "place_id": "ChIJMZZ7T6YadkgRYhnQibCYzDs", "types": ["point_of_interest", "establishment"], "rating": 5, "user_ratings_total": 1}, "ChIJB9DKNKYadkgR2RbOWkiCwfo": {"geometry": {"location": {"lat": 51.526912, "lng": -0.1849913}, "viewport": {"northeast": {"lat": 51.5281891302915, "lng": -0.183552869708498}, "southwest": {"lat": 51.5254911697085, "lng": -0.186250830291502}}}, "name": "The Unique Traveller", "place_id": "ChIJB9DKNKYadkgR2RbOWkiCwfo", "types": ["travel_agency", "point_of_interest", "establishment"]}, "ChIJ20y8pacadkgRKSSA1mpyyDg": {"geometry": {"location": {"lat": 51.5277179, "lng": -0.1844978}, "viewport": {"northeast": {"lat": 51.5289972302915, "lng": -0.183396869708498}, "southwest": {"lat": 51.5262992697085, "lng": -0.186094830291502}}}, "name": "Lauderdale Road Synagogue", "place_id": "ChIJ20y8pacadkgRKSSA1mpyyDg", "types": ["synagogue", "place_of_worship", "point_of_interest", "establishment"], "rating": 4.8, "user_ratings_total": 8}, "ChIJmTNeQs8bdkgRVl68CV07YUU": {"geometry": {"location": {"lat": 51.5270786, "lng": -0.1846327}, "viewport": {"northeast": {"lat": 51.5283555302915, "lng": -0.183194469708498}, "southwest": {"lat": 51.5256575697085, "lng": -0.185892430291502}}}, "name": "Andreas Kalvos Blue Plaque", "place_id": "ChIJmTNeQs8bdkgRVl68CV07YUU", "types": ["point_of_interest", "establishment"], "rating": 4, "user_ratings_total": 1}, "ChIJd5oJS6YadkgRshdtIidrQgk": {"geometry": {"location": {"lat": 51.52727650000001, "lng": -0.184237}, "viewport": {"northeast": {"lat": 51.5285608802915, "lng": -0.182791069708498}, "southwest": {"lat": 51.5258629197085, "lng": -0.185489030291502}}}, "name": "Energy Business Consultants Ltd", "place_id": "ChIJd5oJS6YadkgRshdtIidrQgk", "types": ["point_of_interest", "establishment"], "rating": 4, "user_ratings_total": 1}, "ChIJFYavSaYadkgRe5GkRcnzzbM": {"geometry": {"location": {"lat": 51.526822, "lng": -0.1846748}, "viewport": {"northeast": {"lat": 51.5281980302915, "lng": -0.183359319708498}, "southwest": {"lat": 51.5255000697085, "lng": -0.186057280291502}}}, "name": "ubitricity Charging Station", "place_id": "ChIJFYavSaYadkgRe5GkRcnzzbM", "types": ["point_of_interest", "establishment"]}, "ChIJCW6PW6YadkgRSJjNGPlHJ8w": {"geometry": {"location": {"lat": 51.527558, "lng": -0.184114}, "viewport": {"northeast": {"lat": 51.5288932802915, "lng": -0.182785069708498}, "southwest": {"lat": 51.5261953197085, "lng": -0.185483030291502}}}, "name": "ubitricity Charging Station", "place_id": "ChIJCW6PW6YadkgRSJjNGPlHJ8w", "types": ["point_of_interest", "establishment"]}, "ChIJxUhZYKYadkgR3TnDeIP9uAg": {"geometry": {"location": {"lat": 51.5275715, "lng": -0.1841151}, "viewport": {"northeast": {"lat": 51.5288972802915, "lng": -0.182754919708498}, "southwest": {"lat": 51.52619931970851, "lng": -0.185452880291502}}}, "name": "ubitricity Charging Station", "place_id": "ChIJxUhZYKYadkgR3TnDeIP9uAg", "types": ["point_of_interest", "establishment"]}, "ChIJRVrQW6YadkgRW6Mwgs3ZcgE": {"geometry": {"location": {"lat": 51.52764469999999, "lng": -0.1842294}, "viewport": {"northeast": {"lat": 51.52893483029149, "lng": -0.182882519708498}, "southwest": {"lat": 51.5262368697085, "lng": -0.185580480291502}}}, "name": "Greene & Co", "place_id": "ChIJRVrQW6YadkgRW6Mwgs3ZcgE", "types": ["real_estate_agency", "point_of_interest", "establishment"]}, "ChIJ5RvWdQ8bdkgRP_YeScyQznY": {"geometry": {"location": {"lat": 51.5277179, "lng": -0.1844978}, "viewport": {"northeast": {"lat": 51.5289972302915, "lng": -0.183396869708498}, "southwest": {"lat": 51.5262992697085, "lng": -0.186094830291502}}}, "name": "La Petite Nursery", "place_id": "ChIJ5RvWdQ8bdkgRP_YeScyQznY", "types": ["school", "point_of_interest", "establishment"], "rating": 5, "user_ratings_total": 7}, "ChIJl9ATVKYadkgRNdNlcicPQ7Y": {"geometry": {"location": {"lat": 51.5277299, "lng": -0.1848909}, "viewport": {"northeast": {"lat": 51.52904568029149, "lng": -0.183627919708498}, "southwest": {"lat": 51.52634771970849, "lng": -0.186325880291502}}}, "name": "Spanish and Portuguese Jews' Synagogue", "place_id": "ChIJl9ATVKYadkgRNdNlcicPQ7Y", "types": ["point_of_interest", "establishment"]}, "ChIJmdgYNaYadkgRF_eUyDjj_UE": {"geometry": {"location": {"lat": 51.52670910000001, "lng": -0.1845531}, "viewport": {"northeast": {"lat": 51.5280776302915, "lng": -0.183226719708498}, "southwest": {"lat": 51.5253796697085, "lng": -0.1859246802915021}}}, "name": "ubitricity Charging Station", "place_id": "ChIJmdgYNaYadkgRF_eUyDjj_UE", "types": ["point_of_interest", "establishment"]}, "ChIJl2J1zKcadkgRq3SCpCHY5z4": {"geometry": {"location": {"lat": 51.52642804150228, "lng": -0.1852651612374513}, "viewport": {"northeast": {"lat": 51.5277835802915, "lng": -0.182728}, "southwest": {"lat": 51.52508561970851, "lng": -0.1878192}}}, "name": "193-147 Sutherland Ave", "place_id": "ChIJl2J1zKcadkgRq3SCpCHY5z4", "types": ["route"]}, "ChIJGwfXO6YadkgRDxSDO_YWwT8": {"geometry": {"location": {"lat": 51.52622470000001, "lng": -0.1841378}, "viewport": {"northeast": {"lat": 51.52755818029151, "lng": -0.182681169708498}, "southwest": {"lat": 51.52486021970851, "lng": -0.185379130291502}}}, "name": "Authentic Sharing", "place_id": "ChIJGwfXO6YadkgRDxSDO_YWwT8", "types": ["health", "point_of_interest", "establishment"]}, "ChIJ3_YoOaYadkgRQO3c-Oo7JbI": {"geometry": {"location": {"lat": 51.52651609999999, "lng": -0.1841139}, "viewport": {"northeast": {"lat": 51.5278375802915, "lng": -0.182617319708498}, "southwest": {"lat": 51.5251396197085, "lng": -0.185315280291502}}}, "name": "Thea Films", "place_id": "ChIJ3_YoOaYadkgRQO3c-Oo7JbI", "types": ["point_of_interest", "establishment"]}, "ChIJVR65zacadkgRpfIJI2JVJos": {"geometry": {"location": {"lat": 51.5261409, "lng": -0.1854415}, "viewport": {"northeast": {"lat": 51.52755418029151, "lng": -0.184171369708498}, "southwest": {"lat": 51.52485621970851, "lng": -0.186869330291502}}}, "name": "Wan-Hye Park", "place_id": "ChIJVR65zacadkgRpfIJI2JVJos", "types": ["point_of_interest", "establishment"]}, "ChIJGwfXO6YadkgRPWKmh78hvMM": {"geometry": {"location": {"lat": 51.5265802, "lng": -0.1840658}, "viewport": {"northeast": {"lat": 51.5279031802915, "lng": -0.182577119708498}, "southwest": {"lat": 51.5252052197085, "lng": -0.1852750802915021}}}, "name": "In Other Words", "place_id": "ChIJGwfXO6YadkgRPWKmh78hvMM", "types": ["point_of_interest", "establishment"], "rating": 5, "user_ratings_total": 1}, "ChIJWSC8bZkbdkgReQ8ZQHCtdG4": {"geometry": {"location": {"lat": 51.52620940000001, "lng": -0.1852543}, "viewport": {"northeast": {"lat": 51.5276290802915, "lng": -0.183992069708498}, "southwest": {"lat": 51.5249311197085, "lng": -0.186690030291502}}}, "name": "LBA", "place_id": "ChIJWSC8bZkbdkgReQ8ZQHCtdG4", "types": ["lodging", "point_of_interest", "establishment"]}, "ChIJYxXKI6YadkgRTvLX0naJ2UI": {"geometry": {"location": {"lat": 51.52585660307184, "lng": -0.1840346587033986}, "viewport": {"northeast": {"lat": 51.52819570000005, "lng": -0.182550019708498}, "southwest": {"lat": 51.52348609999994, "lng": -0.185247980291502}}}, "name": "4-62 Warrington Cres", "place_id": "ChIJYxXKI6YadkgRTvLX0naJ2UI", "types": ["route"]}, "ChIJwaAiIqYadkgRtpD4I4qESos": {"geometry": {"location": {"lat": 51.5255206, "lng": -0.1844143}, "viewport": {"northeast": {"lat": 51.5268549802915, "lng": -0.182927119708498}, "southwest": {"lat": 51.5241570197085, "lng": -0.185625080291502}}}, "name": "Just So Stylish", "place_id": "ChIJwaAiIqYadkgRtpD4I4qESos", "types": ["point_of_interest", "clothing_store", "store", "establishment"]}, "ChIJwaAiIqYadkgRpMeeVpuwg_s": {"geometry": {"location": {"lat": 51.52551999999999, "lng": -0.184314}, "viewport": {"northeast": {"lat": 51.5268595302915, "lng": -0.1828756697084979}, "southwest": {"lat": 51.5241615697085, "lng": -0.185573630291502}}}, "name": "Drifters Travel", "place_id": "ChIJwaAiIqYadkgRpMeeVpuwg_s", "types": ["travel_agency", "point_of_interest", "establishment"]}, "ChIJMQdGmqgadkgR_3D-0zPHkZY": {"geometry": {"location": {"lat": 51.5248561, "lng": -0.1844703}, "viewport": {"northeast": {"lat": 51.5262006802915, "lng": -0.1830041197084979}, "southwest": {"lat": 51.5235027197085, "lng": -0.185702080291502}}}, "name": "Swiftrem Ltd.", "place_id": "ChIJMQdGmqgadkgR_3D-0zPHkZY", "types": ["point_of_interest", "establishment"]}, "ChIJ09yMnagadkgRr79qg-wcAOc": {"geometry": {"location": {"lat": 51.5253167, "lng": -0.1842977}, "viewport": {"northeast": {"lat": 51.52666163029151, "lng": -0.182887969708498}, "southwest": {"lat": 51.52396366970851, "lng": -0.185585930291502}}}, "name": "ubitricity Charging Station", "place_id": "ChIJ09yMnagadkgRr79qg-wcAOc", "types": ["point_of_interest", "establishment"]}, "ChIJ04hoyxAbdkgRZCwrgw-kYcU": {"geometry": {"location": {"lat": 51.52473330000002, "lng": -0.1848548}, "viewport": {"northeast": {"lat": 51.52608228029151, "lng": -0.183505819708498}, "southwest": {"lat": 51.52338431970851, "lng": -0.1862037802915021}}}, "name": "Aaron Hands gardens", "place_id": "ChIJ04hoyxAbdkgRZCwrgw-kYcU", "types": ["park", "point_of_interest", "establishment"], "rating": 5, "user_ratings_total": 2}, "ChIJy8hVmagadkgRnPkScXqpkhc": {"geometry": {"location": {"lat": 51.5249983, "lng": -0.1840018}, "viewport": {"northeast": {"lat": 51.52635138029149, "lng": -0.1827621697084979}, "southwest": {"lat": 51.52365341970849, "lng": -0.185460130291502}}}, "name": "PURPLE PEOPLE", "place_id": "ChIJy8hVmagadkgRnPkScXqpkhc", "types": ["point_of_interest", "establishment"]}, "ChIJVX_FJ6YadkgRt9blN6n6cUY": {"geometry": {"location": {"lat": 51.5254989, "lng": -0.1843797}, "viewport": {"northeast": {"lat": 51.5268353802915, "lng": -0.182912219708498}, "southwest": {"lat": 51.5241374197085, "lng": -0.185610180291502}}}, "name": "505VR", "place_id": "ChIJVX_FJ6YadkgRt9blN6n6cUY", "types": ["point_of_interest", "establishment"]}, "ChIJA0IT2HEbdkgRI4V4u7gHkl0": {"geometry": {"location": {"lat": 51.52466200000001, "lng": -0.184915}, "viewport": {"northeast": {"lat": 51.52595778029151, "lng": -0.183540269708498}, "southwest": {"lat": 51.52325981970851, "lng": -0.186238230291502}}}, "name": "UPS Access Point", "place_id": "ChIJA0IT2HEbdkgRI4V4u7gHkl0", "types": ["point_of_interest", "establishment"], "rating": 5, "user_ratings_total": 2}, "ChIJAa6LXcsbdkgRFbV-Y-K0xuI": {"geometry": {"location": {"lat": 51.5252134, "lng": -0.1838831}, "viewport": {"northeast": {"lat": 51.5265738302915, "lng": -0.182687669708498}, "southwest": {"lat": 51.5238758697085, "lng": -0.185385630291502}}}, "name": "Small Jobs Handyman", "place_id": "ChIJAa6LXcsbdkgRFbV-Y-K0xuI", "types": ["point_of_interest", "establishment"]}, "ChIJJ425o6cadkgRgQq41zgl6wg": {"geometry": {"location": {"lat": 51.52757060052666, "lng": -0.1863392999195961}, "viewport": {"northeast": {"lat": 51.52891958029149, "lng": -0.184990319708498}, "southwest": {"lat": 51.5262216197085, "lng": -0.187688280291502}}}, "name": "96-60 Lauderdale Rd", "place_id": "ChIJJ425o6cadkgRgQq41zgl6wg", "types": ["route"]}, "ChIJ20y8pacadkgRE_LC3NAijPw": {"geometry": {"location": {"lat": 51.5275648, "lng": -0.1860271}, "viewport": {"northeast": {"lat": 51.5288806302915, "lng": -0.184680669708498}, "southwest": {"lat": 51.5261826697085, "lng": -0.187378630291502}}}, "name": "Word Up Language Services", "place_id": "ChIJ20y8pacadkgRE_LC3NAijPw", "types": ["point_of_interest", "establishment"]}, "ChIJw9hAo6cadkgRiAGiDOWxnA0": {"geometry": {"location": {"lat": 51.52738600000001, "lng": -0.1866124}, "viewport": {"northeast": {"lat": 51.5288310802915, "lng": -0.185256069708498}, "southwest": {"lat": 51.5261331197085, "lng": -0.187954030291502}}}, "name": "Reiki Courses", "place_id": "ChIJw9hAo6cadkgRiAGiDOWxnA0", "types": ["health", "point_of_interest", "establishment"]}, "ChIJs6UlgqQbdkgRdbFQKaxaLow": {"geometry": {"location": {"lat": 51.5276782, "lng": -0.1859465}, "viewport": {"northeast": {"lat": 51.5289677802915, "lng": -0.184600969708498}, "southwest": {"lat": 51.5262698197085, "lng": -0.187298930291502}}}, "name": "Marie", "place_id": "ChIJs6UlgqQbdkgRdbFQKaxaLow", "types": ["point_of_interest", "establishment"]}, "ChIJmW0MxacadkgRJrIObnQeyjE": {"geometry": {"location": {"lat": 51.5261724, "lng": -0.1860225}, "viewport": {"northeast": {"lat": 51.5275059802915, "lng": -0.184654269708498}, "southwest": {"lat": 51.5248080197085, "lng": -0.187352230291502}}}, "name": "ubitricity Charging Station", "place_id": "ChIJmW0MxacadkgRJrIObnQeyjE", "types": ["point_of_interest", "establishment"]}, "ChIJdZKj3KcadkgRMuNmSoj5Iig": {"geometry": {"location": {"lat": 51.52596679999999, "lng": -0.1863106}, "viewport": {"northeast": {"lat": 51.5273186302915, "lng": -0.184965119708498}, "southwest": {"lat": 51.5246206697085, "lng": -0.1876630802915021}}}, "name": "ubitricity Charging Station", "place_id": "ChIJdZKj3KcadkgRMuNmSoj5Iig", "types": ["point_of_interest", "establishment"]}, "ChIJuQ-A3acadkgRGBf-yZZBRXs": {"geometry": {"location": {"lat": 51.5259386, "lng": -0.1866568}, "viewport": {"northeast": {"lat": 51.5272716302915, "lng": -0.185287869708498}, "southwest": {"lat": 51.5245736697085, "lng": -0.187985830291502}}}, "name": "ubitricity Charging Station", "place_id": "ChIJuQ-A3acadkgRGBf-yZZBRXs", "types": ["point_of_interest", "establishment"]}, "ChIJBfPG3p8adkgRQIgFrtDiXCY": {"geometry": {"location": {"lat": 51.5258591, "lng": -0.1859327}, "viewport": {"northeast": {"lat": 51.52720808029149, "lng": -0.184583719708498}, "southwest": {"lat": 51.5245101197085, "lng": -0.187281680291502}}}, "name": "Mana Decors", "place_id": "ChIJBfPG3p8adkgRQIgFrtDiXCY", "types": ["general_contractor", "point_of_interest", "establishment"]}, "ChIJf06dzqcadkgR8U-pCUni5QE": {"geometry": {"location": {"lat": 51.52623889999999, "lng": -0.1855499}, "viewport": {"northeast": {"lat": 51.52759693029151, "lng": -0.1842120197084979}, "southwest": {"lat": 51.52489896970851, "lng": -0.186909980291502}}}, "name": "ubitricity Charging Station", "place_id": "ChIJf06dzqcadkgR8U-pCUni5QE", "types": ["point_of_interest", "establishment"]}, "ChIJaejKcKgadkgRWdSS72RrZgI": {"geometry": {"location": {"lat": 51.52503739976586, "lng": -0.1860152168368218}, "viewport": {"northeast": {"lat": 51.5263877302915, "lng": -0.184663769708498}, "southwest": {"lat": 51.5236897697085, "lng": -0.187361730291502}}}, "name": "32-2 Castellain Rd", "place_id": "ChIJaejKcKgadkgRWdSS72RrZgI", "types": ["route"]}, "ChIJ6zN5DagadkgRJPzUDXACi3s": {"geometry": {"location": {"lat": 51.52478180000001, "lng": -0.1868002}, "viewport": {"northeast": {"lat": 51.5261551802915, "lng": -0.185403919708498}, "southwest": {"lat": 51.5234572197085, "lng": -0.188101880291502}}}, "name": "Wavevend Communications Ltd", "place_id": "ChIJ6zN5DagadkgRJPzUDXACi3s", "types": ["point_of_interest", "establishment"], "rating": 4, "user_ratings_total": 3}, "ChIJdX1Es7cadkgR8qgwAhJ0ptE": {"geometry": {"location": {"lat": 51.52476370000001, "lng": -0.18643}, "viewport": {"northeast": {"lat": 51.5260837302915, "lng": -0.185133719708498}, "southwest": {"lat": 51.5233857697085, "lng": -0.187831680291502}}}, "name": "DLBP Ltd Town planning and development consultants", "place_id": "ChIJdX1Es7cadkgR8qgwAhJ0ptE", "types": ["local_government_office", "point_of_interest", "establishment"]}, "ChIJT5OQdagadkgRmN0lI-DsIfQ": {"geometry": {"location": {"lat": 51.52491819999999, "lng": -0.1862465}, "viewport": {"northeast": {"lat": 51.5263286302915, "lng": -0.184784469708498}, "southwest": {"lat": 51.5236306697085, "lng": -0.1874824302915021}}}, "name": "Maida Vale Reiki", "place_id": "ChIJT5OQdagadkgRmN0lI-DsIfQ", "types": ["health", "point_of_interest", "establishment"], "rating": 5, "user_ratings_total": 2}, "ChIJIa65DKgadkgRJE_nz8nmDS0": {"geometry": {"location": {"lat": 51.5249745, "lng": -0.186697}, "viewport": {"northeast": {"lat": 51.5262923302915, "lng": -0.185406719708498}, "southwest": {"lat": 51.5235943697085, "lng": -0.188104680291502}}}, "name": "Sicily \u00e0 la carte", "place_id": "ChIJIa65DKgadkgRJE_nz8nmDS0", "types": ["health", "point_of_interest", "establishment"], "rating": 5, "user_ratings_total": 1}, "ChIJ6zN5DagadkgRYw_hCz7A-VU": {"geometry": {"location": {"lat": 51.52506760000001, "lng": -0.186846}, "viewport": {"northeast": {"lat": 51.5263815302915, "lng": -0.185539069708498}, "southwest": {"lat": 51.5236835697085, "lng": -0.188237030291502}}}, "name": "Pindock Productions Ltd", "place_id": "ChIJ6zN5DagadkgRYw_hCz7A-VU", "types": ["point_of_interest", "establishment"]}, "ChIJ__9vl9QadkgR39hAtRDEmFc": {"geometry": {"location": {"lat": 51.5247714, "lng": -0.1860159}, "viewport": {"northeast": {"lat": 51.5261780302915, "lng": -0.184560819708498}, "southwest": {"lat": 51.5234800697085, "lng": -0.187258780291502}}}, "name": "Bird&Co Group", "place_id": "ChIJ__9vl9QadkgR39hAtRDEmFc", "types": ["point_of_interest", "establishment"], "rating": 5, "user_ratings_total": 1}, "ChIJ6zN5DagadkgRaZrTe7fzTO4": {"geometry": {"location": {"lat": 51.5247648, "lng": -0.1867558}, "viewport": {"northeast": {"lat": 51.52613488029149, "lng": -0.1853659697084979}, "southwest": {"lat": 51.52343691970849, "lng": -0.188063930291502}}}, "name": "Arendt Associates Architects", "place_id": "ChIJ6zN5DagadkgRaZrTe7fzTO4", "types": ["point_of_interest", "establishment"]}, "ChIJ6zN5DagadkgRGMnBNamgRvA": {"geometry": {"location": {"lat": 51.5247201, "lng": -0.1867112}, "viewport": {"northeast": {"lat": 51.5260930802915, "lng": -0.185317369708498}, "southwest": {"lat": 51.5233951197085, "lng": -0.1880153302915021}}}, "name": "Wavend Ltd", "place_id": "ChIJ6zN5DagadkgRGMnBNamgRvA", "types": ["point_of_interest", "establishment"]}, "ChIJ6zN5DagadkgRrt14oNRzu_Q": {"geometry": {"location": {"lat": 51.5247201, "lng": -0.1867112}, "viewport": {"northeast": {"lat": 51.5260930802915, "lng": -0.185317369708498}, "southwest": {"lat": 51.5233951197085, "lng": -0.1880153302915021}}}, "name": "App Slicker", "place_id": "ChIJ6zN5DagadkgRrt14oNRzu_Q", "types": ["point_of_interest", "establishment"]}, "ChIJn0i8eqgadkgRcPDC_IOrH2w": {"geometry": {"location": {"lat": 51.52478680000002, "lng": -0.1858426}, "viewport": {"northeast": {"lat": 51.5261638302915, "lng": -0.184443069708498}, "southwest": {"lat": 51.5234658697085, "lng": -0.187141030291502}}}, "name": "Nova Star Capital Ltd", "place_id": "ChIJn0i8eqgadkgRcPDC_IOrH2w", "types": ["finance", "point_of_interest", "establishment"]}, "ChIJ6zN5DagadkgRdypUKWTAMN4": {"geometry": {"location": {"lat": 51.5248139, "lng": -0.1868233}, "viewport": {"northeast": {"lat": 51.5261842802915, "lng": -0.185432869708498}, "southwest": {"lat": 51.5234863197085, "lng": -0.188130830291502}}}, "name": "Minder Music", "place_id": "ChIJ6zN5DagadkgRdypUKWTAMN4", "types": ["electronics_store", "home_goods_store", "point_of_interest", "store", "establishment"]}, "ChIJh7UfdKgadkgRDKLWSPU3yIc": {"geometry": {"location": {"lat": 51.52511799999999, "lng": -0.186281}, "viewport": {"northeast": {"lat": 51.5264904302915, "lng": -0.184888569708498}, "southwest": {"lat": 51.5237924697085, "lng": -0.187586530291502}}}, "name": "ubitricity Charging Station", "place_id": "ChIJh7UfdKgadkgRDKLWSPU3yIc", "types": ["point_of_interest", "establishment"]}, "ChIJsyM1d6gadkgRKXdkJz0Yak0": {"geometry": {"location": {"lat": 51.5250502, "lng": -0.1860082}, "viewport": {"northeast": {"lat": 51.52641218029149, "lng": -0.184635269708498}, "southwest": {"lat": 51.5237142197085, "lng": -0.187333230291502}}}, "name": "Get Chauffeured London", "place_id": "ChIJsyM1d6gadkgRKXdkJz0Yak0", "types": ["point_of_interest", "establishment"], "rating": 4, "user_ratings_total": 1}, "ChIJb0oKdqgadkgRIPXMS-GMECg": {"geometry": {"location": {"lat": 51.5253095, "lng": -0.1862798}, "viewport": {"northeast": {"lat": 51.5266434302915, "lng": -0.1849586697084979}, "southwest": {"lat": 51.5239454697085, "lng": -0.187656630291502}}}, "name": "ubitricity Charging Station", "place_id": "ChIJb0oKdqgadkgRIPXMS-GMECg", "types": ["point_of_interest", "establishment"]}, "ChIJWSDycqgadkgRzdld7pr1Ho0": {"geometry": {"location": {"lat": 51.5248187, "lng": -0.1864968}, "viewport": {"northeast": {"lat": 51.5261377802915, "lng": -0.185203769708498}, "southwest": {"lat": 51.5234398197085, "lng": -0.187901730291502}}}, "name": "Christopher Ridley Photographer", "place_id": "ChIJWSDycqgadkgRzdld7pr1Ho0", "types": ["point_of_interest", "establishment"]}, "ChIJwdNh4KcadkgRBWLfHFuOE90": {"geometry": {"location": {"lat": 51.5253611, "lng": -0.1862407}, "viewport": {"northeast": {"lat": 51.5266751302915, "lng": -0.184956469708498}, "southwest": {"lat": 51.5239771697085, "lng": -0.187654430291502}}}, "name": "Kythira Investments Ltd", "place_id": "ChIJwdNh4KcadkgRBWLfHFuOE90", "types": ["general_contractor", "point_of_interest", "establishment"], "rating": 5, "user_ratings_total": 1}, "ChIJaSbTc6gadkgRxBuqIWRUqLA": {"geometry": {"location": {"lat": 51.52478680000002, "lng": -0.1858426}, "viewport": {"northeast": {"lat": 51.5261638302915, "lng": -0.184443069708498}, "southwest": {"lat": 51.5234658697085, "lng": -0.187141030291502}}}, "name": "Thomas Massengale - Classical Homeopath", "place_id": "ChIJaSbTc6gadkgRxBuqIWRUqLA", "types": ["health", "point_of_interest", "establishment"]}, "ChIJRaP-9tUEdkgR7OlhDGMngV8": {"geometry": {"location": {"lat": 51.5248114, "lng": -0.186879}, "viewport": {"northeast": {"lat": 51.5261908302915, "lng": -0.185471069708498}, "southwest": {"lat": 51.5234928697085, "lng": -0.188169030291502}}}, "name": "Karmel Foods Limited", "place_id": "ChIJRaP-9tUEdkgR7OlhDGMngV8", "types": ["food", "point_of_interest", "establishment"], "rating": 5, "user_ratings_total": 1}, "ChIJZxkre6gadkgRloFmtxXBY_4": {"geometry": {"location": {"lat": 51.5247264, "lng": -0.1857009}, "viewport": {"northeast": {"lat": 51.5260961802915, "lng": -0.184318569708498}, "southwest": {"lat": 51.5233982197085, "lng": -0.187016530291502}}}, "name": "ubitricity Charging Station", "place_id": "ChIJZxkre6gadkgRloFmtxXBY_4", "types": ["point_of_interest", "establishment"]}, "ChIJnQrWZKgadkgRVkAEC4lIspQ": {"geometry": {"location": {"lat": 51.5246971, "lng": -0.1857149}, "viewport": {"northeast": {"lat": 51.52607423029149, "lng": -0.184315119708498}, "southwest": {"lat": 51.5233762697085, "lng": -0.187013080291502}}}, "name": "Nicolas Kent", "place_id": "ChIJnQrWZKgadkgRVkAEC4lIspQ", "types": ["point_of_interest", "establishment"]}, "ChIJVz-UhKcadkgR3TvndrpLnkY": {"geometry": {"location": {"lat": 51.5276055510883, "lng": -0.1875652998516343}, "viewport": {"northeast": {"lat": 51.5289545302915, "lng": -0.186216319708498}, "southwest": {"lat": 51.52625656970851, "lng": -0.188914280291502}}}, "name": "Lauderdale Road", "place_id": "ChIJVz-UhKcadkgR3TvndrpLnkY", "types": ["route"]}, "ChIJZw2Qm6cadkgR_wKsTXNkgog": {"geometry": {"location": {"lat": 51.52751689999999, "lng": -0.1875454}, "viewport": {"northeast": {"lat": 51.52890988029149, "lng": -0.186193419708498}, "southwest": {"lat": 51.52621191970849, "lng": -0.188891380291502}}}, "name": "Quin Tel Comms Home Automation", "place_id": "ChIJZw2Qm6cadkgR_wKsTXNkgog", "types": ["electrician", "point_of_interest", "establishment"]}, "ChIJv1xzhKcadkgR1eSMp5T5vxQ": {"geometry": {"location": {"lat": 51.527649, "lng": -0.187668}, "viewport": {"northeast": {"lat": 51.5289887302915, "lng": -0.186319669708498}, "southwest": {"lat": 51.5262907697085, "lng": -0.189017630291502}}}, "name": "Supernova IT Solutions Limited", "place_id": "ChIJv1xzhKcadkgR1eSMp5T5vxQ", "types": ["point_of_interest", "establishment"], "rating": 5, "user_ratings_total": 1}, "ChIJWzdQLwgQdkgRLH7G1B86lxo": {"geometry": {"location": {"lat": 51.5273789, "lng": -0.1885364}, "viewport": {"northeast": {"lat": 51.5288513802915, "lng": -0.187185519708498}, "southwest": {"lat": 51.5261534197085, "lng": -0.189883480291502}}}, "name": "The Reinvention Works Limited", "place_id": "ChIJWzdQLwgQdkgRLH7G1B86lxo", "types": ["health", "point_of_interest", "establishment"]}, "ChIJWzdQLwgQdkgRLwDliDr98SY": {"geometry": {"location": {"lat": 51.5273789, "lng": -0.1885364}, "viewport": {"northeast": {"lat": 51.5288513802915, "lng": -0.187185519708498}, "southwest": {"lat": 51.5261534197085, "lng": -0.189883480291502}}}, "name": "Ig Antibacterial Cleaning", "place_id": "ChIJWzdQLwgQdkgRLwDliDr98SY", "types": ["point_of_interest", "establishment"]}, "ChIJ5dxm9lQRdkgRi3IC77vVzJE": {"geometry": {"location": {"lat": 51.5273789, "lng": -0.1885364}, "viewport": {"northeast": {"lat": 51.5288513802915, "lng": -0.187185519708498}, "southwest": {"lat": 51.5261534197085, "lng": -0.189883480291502}}}, "name": "CG Forensic Mental Health", "place_id": "ChIJ5dxm9lQRdkgRi3IC77vVzJE", "types": ["point_of_interest", "establishment"]}, "ChIJd5VCLwgQdkgR22FMus-HEGg": {"geometry": {"location": {"lat": 51.52738819999999, "lng": -0.1885862}, "viewport": {"northeast": {"lat": 51.52885618029149, "lng": -0.1872353697084979}, "southwest": {"lat": 51.52615821970849, "lng": -0.189933330291502}}}, "name": "Caroline Harper Homeopathy", "place_id": "ChIJd5VCLwgQdkgR22FMus-HEGg", "types": ["health", "point_of_interest", "establishment"], "rating": 5, "user_ratings_total": 14}, "ChIJRdzIhqcadkgR_uejUeU9Bwc": {"geometry": {"location": {"lat": 51.5276717, "lng": -0.1878478}, "viewport": {"northeast": {"lat": 51.5289913302915, "lng": -0.186498469708498}, "southwest": {"lat": 51.5262933697085, "lng": -0.189196430291502}}}, "name": "ubitricity Charging Station", "place_id": "ChIJRdzIhqcadkgR_uejUeU9Bwc", "types": ["point_of_interest", "establishment"]}, "ChIJ-TN3m6cadkgR1MXWR_HAd_Q": {"geometry": {"location": {"lat": 51.5275174, "lng": -0.1874048}, "viewport": {"northeast": {"lat": 51.5289081302915, "lng": -0.186047819708498}, "southwest": {"lat": 51.5262101697085, "lng": -0.188745780291502}}}, "name": "ubitricity Charging Station", "place_id": "ChIJ-TN3m6cadkgR1MXWR_HAd_Q", "types": ["point_of_interest", "establishment"]}, "ChIJjX72HggQdkgRJmLjA1eSLlo": {"geometry": {"location": {"lat": 51.52649748517702, "lng": -0.1882208201640752}, "viewport": {"northeast": {"lat": 51.52779693029149, "lng": -0.186}, "southwest": {"lat": 51.52509896970849, "lng": -0.1905852}}}, "name": "45-63 Castellain Rd", "place_id": "ChIJjX72HggQdkgRJmLjA1eSLlo", "types": ["route"]}, "ChIJNzMD9KcadkgRHXDKZZl1QkE": {"geometry": {"location": {"lat": 51.52636270000001, "lng": -0.1877895}, "viewport": {"northeast": {"lat": 51.52769423029149, "lng": -0.186470369708498}, "southwest": {"lat": 51.5249962697085, "lng": -0.189168330291502}}}, "name": "ubitricity Charging Station", "place_id": "ChIJNzMD9KcadkgRHXDKZZl1QkE", "types": ["point_of_interest", "establishment"]}, "ChIJ4129HWMRdkgRPcrDbQzxnPM": {"geometry": {"location": {"lat": 51.52591950000001, "lng": -0.1881685}, "viewport": {"northeast": {"lat": 51.5274086302915, "lng": -0.186571869708498}, "southwest": {"lat": 51.52471066970851, "lng": -0.189269830291502}}}, "name": "Sutherland North Garden", "place_id": "ChIJ4129HWMRdkgRPcrDbQzxnPM", "types": ["park", "point_of_interest", "establishment"]}, "ChIJoSWqHggQdkgRzfd8_miOy9c": {"geometry": {"location": {"lat": 51.5263635, "lng": -0.1884714}, "viewport": {"northeast": {"lat": 51.5277929802915, "lng": -0.187026469708498}, "southwest": {"lat": 51.52509501970851, "lng": -0.189724430291502}}}, "name": "Ingrid Coltart & Associates", "place_id": "ChIJoSWqHggQdkgRzfd8_miOy9c", "types": ["health", "point_of_interest", "establishment"]}, "ChIJU1UR9acadkgRuZl9osU78hA": {"geometry": {"location": {"lat": 51.52658280000001, "lng": -0.1880105}, "viewport": {"northeast": {"lat": 51.5278729302915, "lng": -0.1867316197084979}, "southwest": {"lat": 51.5251749697085, "lng": -0.189429580291502}}}, "name": "NEPOTIS LTD", "place_id": "ChIJU1UR9acadkgRuZl9osU78hA", "types": ["point_of_interest", "establishment"]}, "ChIJ16h6HhobdkgRVpzBjCC8a_s": {"geometry": {"location": {"lat": 51.5266039, "lng": -0.1880069}, "viewport": {"northeast": {"lat": 51.5278867302915, "lng": -0.186736769708498}, "southwest": {"lat": 51.5251887697085, "lng": -0.189434730291502}}}, "name": "Tamar Posner", "place_id": "ChIJ16h6HhobdkgRVpzBjCC8a_s", "types": ["health", "point_of_interest", "establishment"]}, "ChIJiyagHwgQdkgRL67yo5FEc0U": {"geometry": {"location": {"lat": 51.52660189999999, "lng": -0.188302}, "viewport": {"northeast": {"lat": 51.5279329802915, "lng": -0.186974369708498}, "southwest": {"lat": 51.5252350197085, "lng": -0.189672330291502}}}, "name": "ubitricity Charging Station", "place_id": "ChIJiyagHwgQdkgRL67yo5FEc0U", "types": ["point_of_interest", "establishment"]}, "ChIJNZv7-6cadkgRWuVwo7b1PWY": {"geometry": {"location": {"lat": 51.5257294, "lng": -0.1877258}, "viewport": {"northeast": {"lat": 51.5269905302915, "lng": -0.186294169708498}, "southwest": {"lat": 51.5242925697085, "lng": -0.188992130291502}}}, "name": "Iam Experts", "place_id": "ChIJNZv7-6cadkgRWuVwo7b1PWY", "types": ["point_of_interest", "establishment"]}, "ChIJHyVO5AcQdkgRVwXfXFMagWk": {"geometry": {"location": {"lat": 51.52507870008967, "lng": -0.1885767501652374}, "viewport": {"northeast": {"lat": 51.5264276802915, "lng": -0.187227769708498}, "southwest": {"lat": 51.5237297197085, "lng": -0.189925730291502}}}, "name": "Sutherland Avenue", "place_id": "ChIJHyVO5AcQdkgRVwXfXFMagWk", "types": ["route"]}, "ChIJZy3iB6gadkgR_uhRB20CZRo": {"geometry": {"location": {"lat": 51.52517499999999, "lng": -0.1879654}, "viewport": {"northeast": {"lat": 51.52657168029149, "lng": -0.186659019708498}, "southwest": {"lat": 51.52387371970849, "lng": -0.189356980291502}}}, "name": "Wytham Hall", "place_id": "ChIJZy3iB6gadkgR_uhRB20CZRo", "types": ["point_of_interest", "establishment"], "rating": 4.4, "user_ratings_total": 5}, "ChIJ_5qHJNEEdkgR14lnsTeZCzE": {"geometry": {"location": {"lat": 51.5252977, "lng": -0.1876564000000001}, "viewport": {"northeast": {"lat": 51.5266902302915, "lng": -0.186348769708498}, "southwest": {"lat": 51.5239922697085, "lng": -0.189046730291502}}}, "name": "Daria Tiesler Wellness", "place_id": "ChIJ_5qHJNEEdkgR14lnsTeZCzE", "types": ["health", "point_of_interest", "establishment"], "rating": 5, "user_ratings_total": 63}, "ChIJVVXhAagadkgRlLzNBvAFYyM": {"geometry": {"location": {"lat": 51.5251041, "lng": -0.1880927}, "viewport": {"northeast": {"lat": 51.5265090302915, "lng": -0.186796819708498}, "southwest": {"lat": 51.5238110697085, "lng": -0.189494780291502}}}, "name": "neosmile", "place_id": "ChIJVVXhAagadkgRlLzNBvAFYyM", "types": ["dentist", "health", "point_of_interest", "establishment"]}, "ChIJgUq8_wcQdkgR5lm6IN97vW0": {"geometry": {"location": {"lat": 51.525263, "lng": -0.188221}, "viewport": {"northeast": {"lat": 51.52660948029149, "lng": -0.186816169708498}, "southwest": {"lat": 51.5239115197085, "lng": -0.189514130291502}}}, "name": "ubitricity Charging Station", "place_id": "ChIJgUq8_wcQdkgR5lm6IN97vW0", "types": ["point_of_interest", "establishment"]}, "ChIJJ0HOaQ4RdkgRV1d1qHDHl64": {"geometry": {"location": {"lat": 51.5253466, "lng": -0.1881292}, "viewport": {"northeast": {"lat": 51.5266955802915, "lng": -0.186780219708498}, "southwest": {"lat": 51.5239976197085, "lng": -0.1894781802915021}}}, "name": "GT Rooters & Heating", "place_id": "ChIJJ0HOaQ4RdkgRV1d1qHDHl64", "types": ["plumber", "general_contractor", "point_of_interest", "establishment"]}, "ChIJYSEjMb4RdkgRqmaWZxB7hQ8": {"geometry": {"location": {"lat": 51.5253466, "lng": -0.1881292}, "viewport": {"northeast": {"lat": 51.5266955802915, "lng": -0.186780219708498}, "southwest": {"lat": 51.5239976197085, "lng": -0.1894781802915021}}}, "name": "NRG CCTV & Intercom Systems", "place_id": "ChIJYSEjMb4RdkgRqmaWZxB7hQ8", "types": ["point_of_interest", "establishment"]}, "ChIJaZbHRgYQdkgRSZDRaB6xU0Y": {"geometry": {"location": {"lat": 51.5253466, "lng": -0.1881292}, "viewport": {"northeast": {"lat": 51.5266955802915, "lng": -0.186780219708498}, "southwest": {"lat": 51.5239976197085, "lng": -0.1894781802915021}}}, "name": "Endy Engel Photography", "place_id": "ChIJaZbHRgYQdkgRSZDRaB6xU0Y", "types": ["point_of_interest", "establishment"], "rating": 5, "user_ratings_total": 2}, "ChIJt30lHagadkgRobUt4rshJqQ": {"geometry": {"location": {"lat": 51.5246725, "lng": -0.1879651}, "viewport": {"northeast": {"lat": 51.5260916802915, "lng": -0.186530419708498}, "southwest": {"lat": 51.5233937197085, "lng": -0.189228380291502}}}, "name": "DR GAWDAT MAGD", "place_id": "ChIJt30lHagadkgRobUt4rshJqQ", "types": ["health", "point_of_interest", "establishment"]}, "ChIJ9xGb_6cadkgRiB_lbehVg-0": {"geometry": {"location": {"lat": 51.52550840000001, "lng": -0.188064}, "viewport": {"northeast": {"lat": 51.52680598029151, "lng": -0.186666669708498}, "southwest": {"lat": 51.52410801970851, "lng": -0.189364630291502}}}, "name": "E C S T", "place_id": "ChIJ9xGb_6cadkgRiB_lbehVg-0", "types": ["point_of_interest", "establishment"]}, "ChIJqbTssOsbdkgR0NydawpDSPM": {"geometry": {"location": {"lat": 51.52550840000001, "lng": -0.188064}, "viewport": {"northeast": {"lat": 51.52680598029151, "lng": -0.186666619708498}, "southwest": {"lat": 51.52410801970851, "lng": -0.189364580291502}}}, "name": "Hanimpex", "place_id": "ChIJqbTssOsbdkgR0NydawpDSPM", "types": ["point_of_interest", "store", "establishment"]}, "ChIJjdlxM00bdkgRTPZ-IbaquKk": {"geometry": {"location": {"lat": 51.525578, "lng": -0.1878477}, "viewport": {"northeast": {"lat": 51.5268789802915, "lng": -0.186453569708498}, "southwest": {"lat": 51.52418101970851, "lng": -0.189151530291502}}}, "name": "AcademicsOnDemand", "place_id": "ChIJjdlxM00bdkgRTPZ-IbaquKk", "types": ["point_of_interest", "establishment"], "rating": 5, "user_ratings_total": 4}, "ChIJYR6yPKYadkgRbzxjk3_n-68": {"geometry": {"location": {"lat": 51.52565059999999, "lng": -0.1839149999999999}, "viewport": {"northeast": {"lat": 51.5270087802915, "lng": -0.182653269708498}, "southwest": {"lat": 51.5243108197085, "lng": -0.185351230291502}}}, "name": "Omni Contractor Pay", "place_id": "ChIJYR6yPKYadkgRbzxjk3_n-68", "types": ["general_contractor", "point_of_interest", "establishment"]}, "ChIJ3clfFKYadkgRCWp8MdpyE50": {"geometry": {"location": {"lat": 51.5257368, "lng": -0.1837272}, "viewport": {"northeast": {"lat": 51.52710538029149, "lng": -0.182544219708498}, "southwest": {"lat": 51.5244074197085, "lng": -0.185242180291502}}}, "name": "Coach Me Quick", "place_id": "ChIJ3clfFKYadkgRCWp8MdpyE50", "types": ["point_of_interest", "establishment"]}, "ChIJw-8kJ6YadkgRI_cdvpRzago": {"geometry": {"location": {"lat": 51.5255071, "lng": -0.1840203}, "viewport": {"northeast": {"lat": 51.5268602802915, "lng": -0.182726869708498}, "southwest": {"lat": 51.5241623197085, "lng": -0.185424830291502}}}, "name": "ubitricity Charging Station", "place_id": "ChIJw-8kJ6YadkgRI_cdvpRzago", "types": ["point_of_interest", "establishment"]}, "ChIJ73Y3rKcadkgR2jZhCJmk3as": {"geometry": {"location": {"lat": 51.52755180058884, "lng": -0.1856150999313317}, "viewport": {"northeast": {"lat": 51.5289007802915, "lng": -0.184266119708498}, "southwest": {"lat": 51.5262028197085, "lng": -0.186964080291502}}}, "name": "42 Lauderdale Rd", "place_id": "ChIJ73Y3rKcadkgR2jZhCJmk3as", "types": ["route"]}, "ChIJe2W5yacadkgR3B2IVE8ropE": {"geometry": {"location": {"lat": 51.526589, "lng": -0.1856718}, "viewport": {"northeast": {"lat": 51.5278649302915, "lng": -0.184232469708498}, "southwest": {"lat": 51.52516696970851, "lng": -0.186930430291502}}}, "name": "Bobbun Books", "place_id": "ChIJe2W5yacadkgR3B2IVE8ropE", "types": ["point_of_interest", "establishment"]}, "ChIJ81KDyqcadkgRtSUwZCDY3mk": {"geometry": {"location": {"lat": 51.52667149999999, "lng": -0.1853198}, "viewport": {"northeast": {"lat": 51.5279744302915, "lng": -0.183913869708498}, "southwest": {"lat": 51.5252764697085, "lng": -0.186611830291502}}}, "name": "The Oakleaves", "place_id": "ChIJ81KDyqcadkgRtSUwZCDY3mk", "types": ["point_of_interest", "establishment"]}, "ChIJXzWKyqcadkgRiXiIxRr1U_4": {"geometry": {"location": {"lat": 51.526623, "lng": -0.1853537}, "viewport": {"northeast": {"lat": 51.52793608029151, "lng": -0.183960319708498}, "southwest": {"lat": 51.52523811970851, "lng": -0.186658280291502}}}, "name": "ubitricity Charging Station", "place_id": "ChIJXzWKyqcadkgRiXiIxRr1U_4", "types": ["point_of_interest", "establishment"]}, "ChIJY7SMcfobdkgRkqYt7qfLOKc": {"geometry": {"location": {"lat": 51.5255903, "lng": -0.1852265}, "viewport": {"northeast": {"lat": 51.5269392802915, "lng": -0.183877519708498}, "southwest": {"lat": 51.5242413197085, "lng": -0.186575480291502}}}, "name": "Formosa Garden", "place_id": "ChIJY7SMcfobdkgRkqYt7qfLOKc", "types": ["park", "point_of_interest", "establishment"]}, "ChIJiYj__KcadkgRQohBYCN1Huk": {"geometry": {"location": {"lat": 51.52551405089844, "lng": -0.187669451690737}, "viewport": {"northeast": {"lat": 51.5268630302915, "lng": -0.186320469708498}, "southwest": {"lat": 51.5241650697085, "lng": -0.189018430291502}}}, "name": "114-130 Sutherland Ave", "place_id": "ChIJiYj__KcadkgRQohBYCN1Huk", "types": ["route"]}, "ChIJQYSo5qcadkgRNtG3J6QV9g8": {"geometry": {"location": {"lat": 51.5257408, "lng": -0.1870022}, "viewport": {"northeast": {"lat": 51.5270897802915, "lng": -0.185653219708498}, "southwest": {"lat": 51.52439181970851, "lng": -0.188351180291502}}}, "name": "Eight Hour Studio", "place_id": "ChIJQYSo5qcadkgRNtG3J6QV9g8", "types": ["point_of_interest", "establishment"]}, "ChIJ9UJO5KcadkgRrSnSMofD1v8": {"geometry": {"location": {"lat": 51.5258394, "lng": -0.1871463}, "viewport": {"northeast": {"lat": 51.52718838029149, "lng": -0.185797319708498}, "southwest": {"lat": 51.5244904197085, "lng": -0.188495280291502}}}, "name": "Express Maida Vale Pest Control", "place_id": "ChIJ9UJO5KcadkgRrSnSMofD1v8", "types": ["home_goods_store", "point_of_interest", "store", "establishment"]}, "ChIJcy_5_KcadkgRVSFnFhmbwV0": {"geometry": {"location": {"lat": 51.5255879, "lng": -0.1876647}, "viewport": {"northeast": {"lat": 51.5269102802915, "lng": -0.186289719708498}, "southwest": {"lat": 51.5242123197085, "lng": -0.188987680291502}}}, "name": "ubitricity Charging Station", "place_id": "ChIJcy_5_KcadkgRVSFnFhmbwV0", "types": ["point_of_interest", "establishment"]}, "ChIJmWm430sbdkgRUAU4VexJ5hU": {"geometry": {"location": {"lat": 51.5256383, "lng": -0.1879122000000001}, "viewport": {"northeast": {"lat": 51.5269080802915, "lng": -0.186488719708498}, "southwest": {"lat": 51.52421011970851, "lng": -0.1891866802915021}}}, "name": "Cryptopros", "place_id": "ChIJmWm430sbdkgRUAU4VexJ5hU", "types": ["finance", "point_of_interest", "establishment"]}, "ChIJ4zmNGAgQdkgRpGDSh54NCGc": {"geometry": {"location": {"lat": 51.526605, "lng": -0.188639}, "viewport": {"northeast": {"lat": 51.5279814802915, "lng": -0.187257319708498}, "southwest": {"lat": 51.5252835197085, "lng": -0.189955280291502}}}, "name": "ubitricity Charging Station", "place_id": "ChIJ4zmNGAgQdkgRpGDSh54NCGc", "types": ["point_of_interest", "establishment"]}, "ChIJn0hE_gcQdkgRkfarQ6_qjT0": {"geometry": {"location": {"lat": 51.52527048601607, "lng": -0.1883702285511568}, "viewport": {"northeast": {"lat": 51.5266196802915, "lng": -0.187021419708498}, "southwest": {"lat": 51.5239217197085, "lng": -0.189719380291502}}}, "name": "Sutherland Avenue", "place_id": "ChIJn0hE_gcQdkgRkfarQ6_qjT0", "types": ["route"]}, "ChIJA8yc4gcQdkgRlVG-WOBE7Io": {"geometry": {"location": {"lat": 51.52536079999999, "lng": -0.1889993}, "viewport": {"northeast": {"lat": 51.5267398302915, "lng": -0.187615519708498}, "southwest": {"lat": 51.5240418697085, "lng": -0.190313480291502}}}, "name": "Source London Charging Station", "place_id": "ChIJA8yc4gcQdkgRlVG-WOBE7Io", "types": ["point_of_interest", "establishment"]}, "ChIJ66194gcQdkgRO0qGq5ctngA": {"geometry": {"location": {"lat": 51.525341, "lng": -0.189048}, "viewport": {"northeast": {"lat": 51.5267335302915, "lng": -0.187647719708498}, "southwest": {"lat": 51.5240355697085, "lng": -0.1903456802915021}}}, "name": "ubitricity Charging Station", "place_id": "ChIJ66194gcQdkgRO0qGq5ctngA", "types": ["point_of_interest", "establishment"]}}}