{"E00023936": {"ChIJNdZRX8kEdkgRON8sXW2yR9E": {"geometry": {"location": {"lat": 51.50964035003641, "lng": -0.1221804498540428}, "viewport": {"northeast": {"lat": 51.51098933029149, "lng": -0.120831469708498}, "southwest": {"lat": 51.50829136970849, "lng": -0.123529430291502}}}, "name": "11 Adam St", "place_id": "ChIJNdZRX8kEdkgRON8sXW2yR9E", "types": ["route"]}, "ChIJobwF38sEdkgRDfI4xnuEzvI": {"geometry": {"location": {"lat": 51.5101173, "lng": -0.1218421}, "viewport": {"northeast": {"lat": 51.5115229302915, "lng": -0.120549269708498}, "southwest": {"lat": 51.5088249697085, "lng": -0.123247230291502}}}, "name": "Virgin Active", "place_id": "ChIJobwF38sEdkgRDfI4xnuEzvI", "types": ["gym", "health", "point_of_interest", "store", "establishment"], "rating": 4.1, "user_ratings_total": 218}, "ChIJC0ilIO4adkgRsmqKrTg8vHI": {"geometry": {"location": {"lat": 51.50962850000001, "lng": -0.121906}, "viewport": {"northeast": {"lat": 51.5110029802915, "lng": -0.120499069708498}, "southwest": {"lat": 51.5083050197085, "lng": -0.123197030291502}}}, "name": "Careers In Depth", "place_id": "ChIJC0ilIO4adkgRsmqKrTg8vHI", "types": ["point_of_interest", "establishment"], "rating": 5, "user_ratings_total": 1}, "ChIJTdMQWskEdkgRkXKGL4z7sYI": {"geometry": {"location": {"lat": 51.5093989, "lng": -0.1216305}, "viewport": {"northeast": {"lat": 51.51071693029149, "lng": -0.120349269708498}, "southwest": {"lat": 51.5080189697085, "lng": -0.123047230291502}}}, "name": "Strand Marketing", "place_id": "ChIJTdMQWskEdkgRkXKGL4z7sYI", "types": ["point_of_interest", "establishment"]}, "ChIJmwlZGisbdkgRSEbHCZ5dY84": {"geometry": {"location": {"lat": 51.509343, "lng": -0.121756}, "viewport": {"northeast": {"lat": 51.5110242802915, "lng": -0.120775169708498}, "southwest": {"lat": 51.5083263197085, "lng": -0.123473130291502}}}, "name": "Kin", "place_id": "ChIJmwlZGisbdkgRSEbHCZ5dY84", "types": ["point_of_interest", "establishment"], "rating": 5, "user_ratings_total": 1}, "ChIJ8_JRt84EdkgRUNLIg-BdZwE": {"geometry": {"location": {"lat": 51.50962850000001, "lng": -0.121906}, "viewport": {"northeast": {"lat": 51.51093693029151, "lng": -0.120613519708498}, "southwest": {"lat": 51.50823896970851, "lng": -0.123311480291502}}}, "name": "Jolly IT Solutions Ltd", "place_id": "ChIJ8_JRt84EdkgRUNLIg-BdZwE", "types": ["point_of_interest", "establishment"]}, "ChIJa7w6Dh2hc0gRu4-o91SBF5c": {"geometry": {"location": {"lat": 51.50962850000001, "lng": -0.121906}, "viewport": {"northeast": {"lat": 51.5110029802915, "lng": -0.120499069708498}, "southwest": {"lat": 51.5083050197085, "lng": -0.123197030291502}}}, "name": "New Wave Ventures", "place_id": "ChIJa7w6Dh2hc0gRu4-o91SBF5c", "types": ["point_of_interest", "establishment"]}, "ChIJD__pX8kEdkgRpK0T95dzFnw": {"geometry": {"location": {"lat": 51.5095727, "lng": -0.1218857}, "viewport": {"northeast": {"lat": 51.5108963802915, "lng": -0.120586869708498}, "southwest": {"lat": 51.5081984197085, "lng": -0.123284830291502}}}, "name": "Actors Benevolent Fund", "place_id": "ChIJD__pX8kEdkgRpK0T95dzFnw", "types": ["point_of_interest", "establishment"], "rating": 3.7, "user_ratings_total": 6}, "ChIJ5cE44csEdkgRE6awPjQrh8w": {"geometry": {"location": {"lat": 51.5101173, "lng": -0.1218421}, "viewport": {"northeast": {"lat": 51.5115221302915, "lng": -0.120551619708498}, "southwest": {"lat": 51.5088241697085, "lng": -0.123249580291502}}}, "name": "Phones 4u", "place_id": "ChIJ5cE44csEdkgRE6awPjQrh8w", "types": ["point_of_interest", "store", "establishment"]}, "ChIJibiYX8kEdkgR_RGhvJh5zP4": {"geometry": {"location": {"lat": 51.5097497, "lng": -0.1220831}, "viewport": {"northeast": {"lat": 51.5110624802915, "lng": -0.1208066197084979}, "southwest": {"lat": 51.5083645197085, "lng": -0.123504580291502}}}, "name": "Mozart Symphony Orchestra", "place_id": "ChIJibiYX8kEdkgR_RGhvJh5zP4", "types": ["point_of_interest", "establishment"]}, "ChIJ3UeEX8kEdkgRtEH5UgW41LY": {"geometry": {"location": {"lat": 51.509637, "lng": -0.1219104}, "viewport": {"northeast": {"lat": 51.5109411802915, "lng": -0.120615719708498}, "southwest": {"lat": 51.5082432197085, "lng": -0.123313680291502}}}, "name": "FaberBrent Ltd", "place_id": "ChIJ3UeEX8kEdkgRtEH5UgW41LY", "types": ["point_of_interest", "establishment"]}, "ChIJ84LQZskEdkgRyIwZrl0T12I": {"geometry": {"location": {"lat": 51.50939900000001, "lng": -0.121631}, "viewport": {"northeast": {"lat": 51.51071708029151, "lng": -0.120349669708498}, "southwest": {"lat": 51.50801911970851, "lng": -0.123047630291502}}}, "name": "Bluepost Digital", "place_id": "ChIJ84LQZskEdkgRyIwZrl0T12I", "types": ["point_of_interest", "establishment"]}, "ChIJibiYX8kEdkgRotmAwNzHd9g": {"geometry": {"location": {"lat": 51.5097497, "lng": -0.1220831}, "viewport": {"northeast": {"lat": 51.5110624802915, "lng": -0.1208066197084979}, "southwest": {"lat": 51.5083645197085, "lng": -0.123504580291502}}}, "name": "Accounts Assist UK", "place_id": "ChIJibiYX8kEdkgRotmAwNzHd9g", "types": ["accounting", "finance", "point_of_interest", "establishment"]}, "ChIJ3UeEX8kEdkgR6cRP8ix6fiY": {"geometry": {"location": {"lat": 51.509637, "lng": -0.1219104}, "viewport": {"northeast": {"lat": 51.5109411802915, "lng": -0.120615719708498}, "southwest": {"lat": 51.5082432197085, "lng": -0.123313680291502}}}, "name": "minerva advisory group limited", "place_id": "ChIJ3UeEX8kEdkgR6cRP8ix6fiY", "types": ["point_of_interest", "establishment"]}, "ChIJ3UeEX8kEdkgR0JT1NFhJSVw": {"geometry": {"location": {"lat": 51.50962850000001, "lng": -0.121906}, "viewport": {"northeast": {"lat": 51.51093693029151, "lng": -0.120613519708498}, "southwest": {"lat": 51.50823896970851, "lng": -0.123311480291502}}}, "name": "Clarity In Marketing", "place_id": "ChIJ3UeEX8kEdkgR0JT1NFhJSVw", "types": ["point_of_interest", "establishment"]}, "ChIJUWr9BCsbdkgRfDewxGl4HK4": {"geometry": {"location": {"lat": 51.50966080000001, "lng": -0.1219127}, "viewport": {"northeast": {"lat": 51.51095308029151, "lng": -0.120616869708498}, "southwest": {"lat": 51.50825511970851, "lng": -0.123314830291502}}}, "name": "Sim Kapila", "place_id": "ChIJUWr9BCsbdkgRfDewxGl4HK4", "types": ["accounting", "finance", "point_of_interest", "establishment"]}, "ChIJ5U5f3csEdkgR8QXU2zuYoSs": {"geometry": {"location": {"lat": 51.5101173, "lng": -0.1218421}, "viewport": {"northeast": {"lat": 51.5115221302915, "lng": -0.120551619708498}, "southwest": {"lat": 51.5088241697085, "lng": -0.123249580291502}}}, "name": "Pearson Assessment", "place_id": "ChIJ5U5f3csEdkgR8QXU2zuYoSs", "types": ["point_of_interest", "establishment"], "rating": 4.2, "user_ratings_total": 19}, "ChIJibiYX8kEdkgRiCsgjH4304A": {"geometry": {"location": {"lat": 51.5097497, "lng": -0.1220831}, "viewport": {"northeast": {"lat": 51.5110624802915, "lng": -0.1208066197084979}, "southwest": {"lat": 51.5083645197085, "lng": -0.123504580291502}}}, "name": "TJM Law", "place_id": "ChIJibiYX8kEdkgRiCsgjH4304A", "types": ["point_of_interest", "establishment"]}, "ChIJn-enX8kEdkgRXsx7uVUtUBg": {"geometry": {"location": {"lat": 51.509567, "lng": -0.122008}, "viewport": {"northeast": {"lat": 51.5109257302915, "lng": -0.120651269708498}, "southwest": {"lat": 51.5082277697085, "lng": -0.123349230291502}}}, "name": "Charles Rich Consultancy", "place_id": "ChIJn-enX8kEdkgRXsx7uVUtUBg", "types": ["point_of_interest", "establishment"]}, "ChIJdd4hrwug2EcRmSrV3Vo6llI": {"geometry": {"location": {"lat": 51.5073509, "lng": -0.1277583}, "viewport": {"northeast": {"lat": 51.67234324898703, "lng": 0.1482710335611201}, "southwest": {"lat": 51.38494012429096, "lng": -0.3514683384218145}}}, "name": "London", "place_id": "ChIJdd4hrwug2EcRmSrV3Vo6llI", "types": ["locality", "political"]}, "ChIJcXuhX8kEdkgRQjq104xZLls": {"geometry": {"location": {"lat": 51.5096046, "lng": -0.1219685}, "viewport": {"northeast": {"lat": 51.5109249802915, "lng": -0.120644769708498}, "southwest": {"lat": 51.5082270197085, "lng": -0.123342730291502}}}, "name": "Stylepilot Ltd", "place_id": "ChIJcXuhX8kEdkgRQjq104xZLls", "types": ["point_of_interest", "establishment"]}, "ChIJp3TzYskEdkgRF1U3yn0Vx4k": {"geometry": {"location": {"lat": 51.5095978, "lng": -0.1212502}, "viewport": {"northeast": {"lat": 51.5108811802915, "lng": -0.119690919708498}, "southwest": {"lat": 51.5081832197085, "lng": -0.122388880291502}}}, "name": "Baxterstorey", "place_id": "ChIJp3TzYskEdkgRF1U3yn0Vx4k", "types": ["food", "point_of_interest", "establishment"], "rating": 2.3, "user_ratings_total": 3}, "ChIJibiYX8kEdkgRnk8k8jxEr1E": {"geometry": {"location": {"lat": 51.5097497, "lng": -0.1220831}, "viewport": {"northeast": {"lat": 51.5110624802915, "lng": -0.1208066197084979}, "southwest": {"lat": 51.5083645197085, "lng": -0.123504580291502}}}, "name": "Improving Care", "place_id": "ChIJibiYX8kEdkgRnk8k8jxEr1E", "types": ["point_of_interest", "establishment"]}, "ChIJNUsN4tQadkgRnR713jsBQSM": {"geometry": {"location": {"lat": 51.5096231, "lng": -0.1218837}, "viewport": {"northeast": {"lat": 51.5109342302915, "lng": -0.120602369708498}, "southwest": {"lat": 51.5082362697085, "lng": -0.123300330291502}}}, "name": "TMGLondon", "place_id": "ChIJNUsN4tQadkgRnR713jsBQSM", "types": ["point_of_interest", "establishment"], "rating": 5, "user_ratings_total": 1}, "ChIJUw_FX8kEdkgRKFayTyfyGMc": {"geometry": {"location": {"lat": 51.5095727, "lng": -0.1218857}, "viewport": {"northeast": {"lat": 51.5108963802915, "lng": -0.120586869708498}, "southwest": {"lat": 51.5081984197085, "lng": -0.123284830291502}}}, "name": "Bacchus Capital Advisers Limited", "place_id": "ChIJUw_FX8kEdkgRKFayTyfyGMc", "types": ["finance", "point_of_interest", "establishment"]}, "ChIJ0XPsX8kEdkgRWsUqlL4BJ4E": {"geometry": {"location": {"lat": 51.5096285, "lng": -0.1219059}, "viewport": {"northeast": {"lat": 51.51093693029149, "lng": -0.120613469708498}, "southwest": {"lat": 51.5082389697085, "lng": -0.123311430291502}}}, "name": "IIoC", "place_id": "ChIJ0XPsX8kEdkgRWsUqlL4BJ4E", "types": ["point_of_interest", "establishment"]}, "ChIJ0XPsX8kEdkgRFZo_eiNPnXc": {"geometry": {"location": {"lat": 51.5096285, "lng": -0.1219059}, "viewport": {"northeast": {"lat": 51.51093693029149, "lng": -0.120613469708498}, "southwest": {"lat": 51.5082389697085, "lng": -0.123311430291502}}}, "name": "Crystal Tax", "place_id": "ChIJ0XPsX8kEdkgRFZo_eiNPnXc", "types": ["accounting", "finance", "point_of_interest", "establishment"], "rating": 4.6, "user_ratings_total": 24}, "ChIJw0eEX8kEdkgRPlPLIHU0zmg": {"geometry": {"location": {"lat": 51.5096285, "lng": -0.1219059}, "viewport": {"northeast": {"lat": 51.51093693029149, "lng": -0.120613469708498}, "southwest": {"lat": 51.5082389697085, "lng": -0.123311430291502}}}, "name": "Red Carpet Enterprises & Concierge Club", "place_id": "ChIJw0eEX8kEdkgRPlPLIHU0zmg", "types": ["point_of_interest", "establishment"], "rating": 4, "user_ratings_total": 1}, "ChIJ0XPsX8kEdkgR-qn0AXWrN-Y": {"geometry": {"location": {"lat": 51.5096285, "lng": -0.1219059}, "viewport": {"northeast": {"lat": 51.51093693029149, "lng": -0.120613469708498}, "southwest": {"lat": 51.5082389697085, "lng": -0.123311430291502}}}, "name": "Tregrehan Partners Limited", "place_id": "ChIJ0XPsX8kEdkgR-qn0AXWrN-Y", "types": ["finance", "point_of_interest", "establishment"]}, "ChIJ0XPsX8kEdkgRmyjTm_nk660": {"geometry": {"location": {"lat": 51.5096285, "lng": -0.1219059}, "viewport": {"northeast": {"lat": 51.51093693029149, "lng": -0.120613469708498}, "southwest": {"lat": 51.5082389697085, "lng": -0.123311430291502}}}, "name": "Temple Goodchild LLP", "place_id": "ChIJ0XPsX8kEdkgRmyjTm_nk660", "types": ["point_of_interest", "establishment"]}, "ChIJ0XPsX8kEdkgRoAlZcwtuH6s": {"geometry": {"location": {"lat": 51.5096285, "lng": -0.1219059}, "viewport": {"northeast": {"lat": 51.51093693029149, "lng": -0.120613469708498}, "southwest": {"lat": 51.5082389697085, "lng": -0.123311430291502}}}, "name": "Campus2Corporate", "place_id": "ChIJ0XPsX8kEdkgRoAlZcwtuH6s", "types": ["point_of_interest", "establishment"]}, "ChIJ0XPsX8kEdkgR-0nprUAvQ0Y": {"geometry": {"location": {"lat": 51.5096285, "lng": -0.1219059}, "viewport": {"northeast": {"lat": 51.51093693029149, "lng": -0.120613469708498}, "southwest": {"lat": 51.5082389697085, "lng": -0.123311430291502}}}, "name": "The Change Institute", "place_id": "ChIJ0XPsX8kEdkgR-0nprUAvQ0Y", "types": ["point_of_interest", "establishment"]}, "ChIJ0XPsX8kEdkgRKF8cnPU-BYI": {"geometry": {"location": {"lat": 51.5096285, "lng": -0.1219059}, "viewport": {"northeast": {"lat": 51.51093693029149, "lng": -0.120613469708498}, "southwest": {"lat": 51.5082389697085, "lng": -0.123311430291502}}}, "name": "Emersons Law", "place_id": "ChIJ0XPsX8kEdkgRKF8cnPU-BYI", "types": ["point_of_interest", "establishment"]}, "ChIJGXLsX8kEdkgRoLTyGbJawXU": {"geometry": {"location": {"lat": 51.509629, "lng": -0.1219059}, "viewport": {"northeast": {"lat": 51.5109371802915, "lng": -0.120613469708498}, "southwest": {"lat": 51.5082392197085, "lng": -0.123311430291502}}}, "name": "Corporate Advisors Ltd", "place_id": "ChIJGXLsX8kEdkgRoLTyGbJawXU", "types": ["point_of_interest", "establishment"]}, "ChIJGXLsX8kEdkgRMG8LNEh52_o": {"geometry": {"location": {"lat": 51.509629, "lng": -0.1219059}, "viewport": {"northeast": {"lat": 51.5109371802915, "lng": -0.120613469708498}, "southwest": {"lat": 51.5082392197085, "lng": -0.123311430291502}}}, "name": "Reputation Value", "place_id": "ChIJGXLsX8kEdkgRMG8LNEh52_o", "types": ["point_of_interest", "establishment"]}, "ChIJGXLsX8kEdkgR0gtnm8kel6k": {"geometry": {"location": {"lat": 51.509629, "lng": -0.1219059}, "viewport": {"northeast": {"lat": 51.5109371802915, "lng": -0.120613469708498}, "southwest": {"lat": 51.5082392197085, "lng": -0.123311430291502}}}, "name": "Scott Capurro", "place_id": "ChIJGXLsX8kEdkgR0gtnm8kel6k", "types": ["point_of_interest", "establishment"]}, "ChIJw0eEX8kEdkgRA5EI0YjKasM": {"geometry": {"location": {"lat": 51.509629, "lng": -0.1219059}, "viewport": {"northeast": {"lat": 51.5109371802915, "lng": -0.120613469708498}, "southwest": {"lat": 51.5082392197085, "lng": -0.123311430291502}}}, "name": "Maxxia Limited", "place_id": "ChIJw0eEX8kEdkgRA5EI0YjKasM", "types": ["finance", "point_of_interest", "establishment"]}, "ChIJ13PsX8kEdkgRmRpJLeUnLyI": {"geometry": {"location": {"lat": 51.50962850000001, "lng": -0.121906}, "viewport": {"northeast": {"lat": 51.51093693029151, "lng": -0.120613519708498}, "southwest": {"lat": 51.50823896970851, "lng": -0.123311480291502}}}, "name": "Hoar Marshall Ltd", "place_id": "ChIJ13PsX8kEdkgRmRpJLeUnLyI", "types": ["point_of_interest", "establishment"]}, "ChIJ13PsX8kEdkgRk--n5Tu7iK4": {"geometry": {"location": {"lat": 51.50962850000001, "lng": -0.121906}, "viewport": {"northeast": {"lat": 51.5110029802915, "lng": -0.120499069708498}, "southwest": {"lat": 51.5083050197085, "lng": -0.123197030291502}}}, "name": "Learning Dynamics", "place_id": "ChIJ13PsX8kEdkgRk--n5Tu7iK4", "types": ["point_of_interest", "establishment"]}, "ChIJoxBrs84EdkgR0LaThPgJ_DA": {"geometry": {"location": {"lat": 51.50962850000001, "lng": -0.121906}, "viewport": {"northeast": {"lat": 51.51093693029151, "lng": -0.120613519708498}, "southwest": {"lat": 51.50823896970851, "lng": -0.123311480291502}}}, "name": "Emerging Crowd", "place_id": "ChIJoxBrs84EdkgR0LaThPgJ_DA", "types": ["finance", "point_of_interest", "establishment"]}, "ChIJkVSEX8kEdkgRYSKhWbXD0l8": {"geometry": {"location": {"lat": 51.50962850000001, "lng": -0.121906}, "viewport": {"northeast": {"lat": 51.51093693029151, "lng": -0.120613519708498}, "southwest": {"lat": 51.50823896970851, "lng": -0.123311480291502}}}, "name": "Laurie Mansfield Associates Ltd", "place_id": "ChIJkVSEX8kEdkgRYSKhWbXD0l8", "types": ["point_of_interest", "establishment"]}, "ChIJhdZyT8wEdkgRkPlDyxs0VAs": {"geometry": {"location": {"lat": 51.50962850000001, "lng": -0.121906}, "viewport": {"northeast": {"lat": 51.51093693029151, "lng": -0.120613519708498}, "southwest": {"lat": 51.50823896970851, "lng": -0.123311480291502}}}, "name": "Academy Consulting", "place_id": "ChIJhdZyT8wEdkgRkPlDyxs0VAs", "types": ["point_of_interest", "establishment"]}, "ChIJw0eEX8kEdkgRh0T8Da46NRU": {"geometry": {"location": {"lat": 51.50962850000001, "lng": -0.121906}, "viewport": {"northeast": {"lat": 51.51093693029151, "lng": -0.120613519708498}, "southwest": {"lat": 51.50823896970851, "lng": -0.123311480291502}}}, "name": "Avalon", "place_id": "ChIJw0eEX8kEdkgRh0T8Da46NRU", "types": ["point_of_interest", "establishment"], "rating": 4, "user_ratings_total": 1}, "ChIJw0eEX8kEdkgRaBt-dAJne9g": {"geometry": {"location": {"lat": 51.5096286, "lng": -0.1219044}, "viewport": {"northeast": {"lat": 51.5109775802915, "lng": -0.120555419708498}, "southwest": {"lat": 51.5082796197085, "lng": -0.123253380291502}}}, "name": "Adam House", "place_id": "ChIJw0eEX8kEdkgRaBt-dAJne9g", "types": ["real_estate_agency", "point_of_interest", "establishment"], "rating": 4, "user_ratings_total": 41}, "ChIJ13PsX8kEdkgRz5LePjkI_44": {"geometry": {"location": {"lat": 51.50962850000001, "lng": -0.121906}, "viewport": {"northeast": {"lat": 51.51093693029151, "lng": -0.120613519708498}, "southwest": {"lat": 51.50823896970851, "lng": -0.123311480291502}}}, "name": "Brand Impact Group", "place_id": "ChIJ13PsX8kEdkgRz5LePjkI_44", "types": ["point_of_interest", "establishment"]}, "ChIJ13PsX8kEdkgRIFtmTtpb4vQ": {"geometry": {"location": {"lat": 51.509637, "lng": -0.1219104}, "viewport": {"northeast": {"lat": 51.5109411802915, "lng": -0.120615719708498}, "southwest": {"lat": 51.5082432197085, "lng": -0.123313680291502}}}, "name": "LINKS (Dialogue-Analysis-Research)", "place_id": "ChIJ13PsX8kEdkgRIFtmTtpb4vQ", "types": ["point_of_interest", "establishment"]}, "ChIJ13PsX8kEdkgRDHppi4RtYUo": {"geometry": {"location": {"lat": 51.509637, "lng": -0.1219104}, "viewport": {"northeast": {"lat": 51.5110107302915, "lng": -0.120505219708498}, "southwest": {"lat": 51.5083127697085, "lng": -0.123203180291502}}}, "name": "Jaegerson Digital", "place_id": "ChIJ13PsX8kEdkgRDHppi4RtYUo", "types": ["point_of_interest", "establishment"]}, "ChIJpRokX8kEdkgR47sGjSVEx_o": {"geometry": {"location": {"lat": 51.509637, "lng": -0.1219104}, "viewport": {"northeast": {"lat": 51.5109411802915, "lng": -0.120615719708498}, "southwest": {"lat": 51.5082432197085, "lng": -0.123313680291502}}}, "name": "Private Equity Research Ltd", "place_id": "ChIJpRokX8kEdkgR47sGjSVEx_o", "types": ["finance", "point_of_interest", "establishment"]}, "ChIJURlgfNEadkgRNxEmeg4vf-A": {"geometry": {"location": {"lat": 51.509637, "lng": -0.1219104}, "viewport": {"northeast": {"lat": 51.5109411802915, "lng": -0.120615719708498}, "southwest": {"lat": 51.5082432197085, "lng": -0.123313680291502}}}, "name": "Darren Marks", "place_id": "ChIJURlgfNEadkgRNxEmeg4vf-A", "types": ["health", "point_of_interest", "establishment"], "rating": 4.9, "user_ratings_total": 16}, "ChIJ65ooYckEdkgRT79BCxEv1pU": {"geometry": {"location": {"lat": 51.5093989, "lng": -0.1216305}, "viewport": {"northeast": {"lat": 51.51071693029149, "lng": -0.120349269708498}, "southwest": {"lat": 51.5080189697085, "lng": -0.123047230291502}}}, "name": "Woodard Academies Trust", "place_id": "ChIJ65ooYckEdkgRT79BCxEv1pU", "types": ["point_of_interest", "establishment"], "rating": 3.3, "user_ratings_total": 3}, "ChIJj5ooYckEdkgRdYt7r2mTa-4": {"geometry": {"location": {"lat": 51.5093988, "lng": -0.1216303}, "viewport": {"northeast": {"lat": 51.5107167802915, "lng": -0.120349119708498}, "southwest": {"lat": 51.5080188197085, "lng": -0.123047080291502}}}, "name": "Red Rock Resources plc", "place_id": "ChIJj5ooYckEdkgRdYt7r2mTa-4", "types": ["finance", "point_of_interest", "establishment"]}, "ChIJ84LQZskEdkgRmKaVi2XOuuc": {"geometry": {"location": {"lat": 51.5093988, "lng": -0.1216304}, "viewport": {"northeast": {"lat": 51.5107168302915, "lng": -0.1203491697084979}, "southwest": {"lat": 51.5080188697085, "lng": -0.123047130291502}}}, "name": "illion Digital Tech Solutions (Formerly TALKINGTECH)", "place_id": "ChIJ84LQZskEdkgRmKaVi2XOuuc", "types": ["point_of_interest", "establishment"], "rating": 5, "user_ratings_total": 1}, "ChIJl5ooYckEdkgRMmlk-RW_SLU": {"geometry": {"location": {"lat": 51.5093988, "lng": -0.1216305}, "viewport": {"northeast": {"lat": 51.5107168302915, "lng": -0.1203492197084979}, "southwest": {"lat": 51.5080188697085, "lng": -0.123047180291502}}}, "name": "OWL Regulatory Consulting", "place_id": "ChIJl5ooYckEdkgRMmlk-RW_SLU", "types": ["point_of_interest", "establishment"]}, "ChIJJdkvUskEdkgRvw42NKC1g78": {"geometry": {"location": {"lat": 51.5093962, "lng": -0.1216279}, "viewport": {"northeast": {"lat": 51.5107142802915, "lng": -0.120346469708498}, "southwest": {"lat": 51.5080163197085, "lng": -0.123044430291502}}}, "name": "Formation Technologies", "place_id": "ChIJJdkvUskEdkgRvw42NKC1g78", "types": ["point_of_interest", "establishment"], "rating": 5, "user_ratings_total": 1}, "ChIJ13PsX8kEdkgRQTqaEoq_b0k": {"geometry": {"location": {"lat": 51.5095405, "lng": -0.1218941}, "viewport": {"northeast": {"lat": 51.51087483029149, "lng": -0.120577119708498}, "southwest": {"lat": 51.50817686970849, "lng": -0.123275080291502}}}, "name": "Material Architects", "place_id": "ChIJ13PsX8kEdkgRQTqaEoq_b0k", "types": ["point_of_interest", "establishment"]}, "ChIJ23dmTYkBdkgRAqgoiD5MS_k": {"geometry": {"location": {"lat": 51.5096308, "lng": -0.1219539}, "viewport": {"northeast": {"lat": 51.5109381802915, "lng": -0.120637819708498}, "southwest": {"lat": 51.5082402197085, "lng": -0.123335780291502}}}, "name": "Spectrum Window Cleaning Ltd", "place_id": "ChIJ23dmTYkBdkgRAqgoiD5MS_k", "types": ["point_of_interest", "establishment"], "rating": 4.7, "user_ratings_total": 14}, "ChIJfWLJ_ucFdkgR2muylJR4jjY": {"geometry": {"location": {"lat": 51.5097578, "lng": -0.1220757}, "viewport": {"northeast": {"lat": 51.51106788029151, "lng": -0.120804669708498}, "southwest": {"lat": 51.50836991970851, "lng": -0.123502630291502}}}, "name": "Potion Events", "place_id": "ChIJfWLJ_ucFdkgR2muylJR4jjY", "types": ["point_of_interest", "store", "establishment"]}, "ChIJw0eEX8kEdkgRvtlxmVZntw8": {"geometry": {"location": {"lat": 51.5096622, "lng": -0.1219825}, "viewport": {"northeast": {"lat": 51.5109768302915, "lng": -0.120702319708498}, "southwest": {"lat": 51.5082788697085, "lng": -0.123400280291502}}}, "name": "Morgan Henton", "place_id": "ChIJw0eEX8kEdkgRvtlxmVZntw8", "types": ["point_of_interest", "establishment"], "rating": 5, "user_ratings_total": 1}, "ChIJmx_6jtQEdkgRhNdlsFhPSuo": {"geometry": {"location": {"lat": 51.50933070000001, "lng": -0.1215126}, "viewport": {"northeast": {"lat": 51.51063938029151, "lng": -0.120236769708498}, "southwest": {"lat": 51.50794141970851, "lng": -0.122934730291502}}}, "name": "Presentia", "place_id": "ChIJmx_6jtQEdkgRhNdlsFhPSuo", "types": ["point_of_interest", "establishment"]}, "ChIJvVPOWMkEdkgRzQ3Lzy9qZsg": {"geometry": {"location": {"lat": 51.5097497, "lng": -0.1220831}, "viewport": {"northeast": {"lat": 51.5110624802915, "lng": -0.1208066197084979}, "southwest": {"lat": 51.5083645197085, "lng": -0.123504580291502}}}, "name": "Pro Tem Consultancy & Management Ltd", "place_id": "ChIJvVPOWMkEdkgRzQ3Lzy9qZsg", "types": ["point_of_interest", "establishment"]}, "ChIJaWEMDckEdkgRTf5CrgHb4_c": {"geometry": {"location": {"lat": 51.50843386830894, "lng": -0.1208306581086261}, "viewport": {"northeast": {"lat": 51.5097802302915, "lng": -0.119475269708498}, "southwest": {"lat": 51.50708226970851, "lng": -0.122173230291502}}}, "name": "25 A3211", "place_id": "ChIJaWEMDckEdkgRTf5CrgHb4_c", "types": ["route"]}, "ChIJUQ5zDrQEdkgRiAyVFAj2Z8Q": {"geometry": {"location": {"lat": 51.508396, "lng": -0.121205}, "viewport": {"northeast": {"lat": 51.5096983302915, "lng": -0.119737869708498}, "southwest": {"lat": 51.5070003697085, "lng": -0.122435830291502}}}, "name": "Embankment Cafe\u2019", "place_id": "ChIJUQ5zDrQEdkgRiAyVFAj2Z8Q", "types": ["cafe", "restaurant", "food", "point_of_interest", "establishment"], "rating": 3.6, "user_ratings_total": 116}, "ChIJ-XA538gEdkgRUrbYejgUa84": {"geometry": {"location": {"lat": 51.50840220000001, "lng": -0.1211716}, "viewport": {"northeast": {"lat": 51.5097083302915, "lng": -0.119714119708498}, "southwest": {"lat": 51.5070103697085, "lng": -0.122412080291502}}}, "name": "DUMPY & CO. Ltd", "place_id": "ChIJ-XA538gEdkgRUrbYejgUa84", "types": ["point_of_interest", "establishment"], "rating": 1, "user_ratings_total": 1}, "ChIJ91qCZbIEdkgR6gWpj4il_6U": {"geometry": {"location": {"lat": 51.50895690000001, "lng": -0.1219977}, "viewport": {"northeast": {"lat": 51.5103903302915, "lng": -0.120871769708498}, "southwest": {"lat": 51.5076923697085, "lng": -0.123569730291502}}}, "name": "New Zealand Institute of Chartered Accountants", "place_id": "ChIJ91qCZbIEdkgR6gWpj4il_6U", "types": ["accounting", "finance", "point_of_interest", "establishment"]}, "ChIJ6_nW7vUFdkgRa0BE7LA4h1I": {"geometry": {"location": {"lat": 51.50861809999999, "lng": -0.1214705}, "viewport": {"northeast": {"lat": 51.51008518029149, "lng": -0.120261269708498}, "southwest": {"lat": 51.50738721970849, "lng": -0.122959230291502}}}, "name": "Park Keepers Hut", "place_id": "ChIJ6_nW7vUFdkgRa0BE7LA4h1I", "types": ["point_of_interest", "establishment"]}, "ChIJK5zoaskEdkgR8NtH7TSOzb0": {"geometry": {"location": {"lat": 51.5084707, "lng": -0.1216879}, "viewport": {"northeast": {"lat": 51.5096991802915, "lng": -0.120016519708498}, "southwest": {"lat": 51.5070012197085, "lng": -0.122714480291502}}}, "name": "Imperial Camel Corps Memorial", "place_id": "ChIJK5zoaskEdkgR8NtH7TSOzb0", "types": ["point_of_interest", "establishment"], "rating": 3.9, "user_ratings_total": 20}, "ChIJzypdaskEdkgRqb5OvnJqEQo": {"geometry": {"location": {"lat": 51.5085797, "lng": -0.1217226}, "viewport": {"northeast": {"lat": 51.51002178029151, "lng": -0.120483769708498}, "southwest": {"lat": 51.50732381970851, "lng": -0.123181730291502}}}, "name": "Robert Burns Statue", "place_id": "ChIJzypdaskEdkgRqb5OvnJqEQo", "types": ["point_of_interest", "establishment"], "rating": 4.4, "user_ratings_total": 12}, "ChIJ0eFksXgFdkgRP_OiQUkuFlE": {"geometry": {"location": {"lat": 51.50881769999999, "lng": -0.1218432}, "viewport": {"northeast": {"lat": 51.5101881302915, "lng": -0.120519519708498}, "southwest": {"lat": 51.5074901697085, "lng": -0.123217480291502}}}, "name": "Spotify UK", "place_id": "ChIJ0eFksXgFdkgRP_OiQUkuFlE", "types": ["point_of_interest", "establishment"], "rating": 4.5, "user_ratings_total": 4}, "ChIJceDKYtwFdkgRZ03YxtPiBEo": {"geometry": {"location": {"lat": 51.5081951, "lng": -0.1212003}, "viewport": {"northeast": {"lat": 51.5095271802915, "lng": -0.119804769708498}, "southwest": {"lat": 51.5068292197085, "lng": -0.122502730291502}}}, "name": "Figo", "place_id": "ChIJceDKYtwFdkgRZ03YxtPiBEo", "types": ["store", "point_of_interest", "establishment"]}, "ChIJw4g8c8kEdkgRuCV1lvtNbxA": {"geometry": {"location": {"lat": 51.5085128, "lng": -0.1208549}, "viewport": {"northeast": {"lat": 51.50984228029149, "lng": -0.119468819708498}, "southwest": {"lat": 51.50714431970849, "lng": -0.122166780291502}}}, "name": "Embankment Station (Stop 40C)", "place_id": "ChIJw4g8c8kEdkgRuCV1lvtNbxA", "types": ["transit_station", "point_of_interest", "establishment"], "rating": 5, "user_ratings_total": 1}, "ChIJDTPBQ8kEdkgRbJ7bxZH7klc": {"geometry": {"location": {"lat": 51.508771, "lng": -0.1220794}, "viewport": {"northeast": {"lat": 51.51013493029151, "lng": -0.120747969708498}, "southwest": {"lat": 51.50743696970851, "lng": -0.123445930291502}}}, "name": "Paid Motorcycle Parking", "place_id": "ChIJDTPBQ8kEdkgRbJ7bxZH7klc", "types": ["parking", "point_of_interest", "establishment"]}, "ChIJ42B1DGMFdkgRSFtPr_bAODo": {"geometry": {"location": {"lat": 51.5080828, "lng": -0.1216318}, "viewport": {"northeast": {"lat": 51.5094291302915, "lng": -0.120275319708498}, "southwest": {"lat": 51.5067311697085, "lng": -0.122973280291502}}}, "name": "Karakalpak Restaurant", "place_id": "ChIJ42B1DGMFdkgRSFtPr_bAODo", "types": ["restaurant", "food", "point_of_interest", "establishment"]}, "ChIJOyzHE8kEdkgR7qybI930wmo": {"geometry": {"location": {"lat": 51.5080743, "lng": -0.1213031}, "viewport": {"northeast": {"lat": 51.50941433029151, "lng": -0.119905319708498}, "southwest": {"lat": 51.50671636970851, "lng": -0.122603280291502}}}, "name": "Embankment (Stop 40B)", "place_id": "ChIJOyzHE8kEdkgR7qybI930wmo", "types": ["transit_station", "point_of_interest", "establishment"], "rating": 3, "user_ratings_total": 2}, "ChIJF1AqF8kEdkgR_3mWAH1e1bE": {"geometry": {"location": {"lat": 51.5080736, "lng": -0.1212783}, "viewport": {"northeast": {"lat": 51.5089842802915, "lng": -0.120257769708498}, "southwest": {"lat": 51.5062863197085, "lng": -0.122955730291502}}}, "name": "Embankment Station", "place_id": "ChIJF1AqF8kEdkgR_3mWAH1e1bE", "types": ["transit_station", "point_of_interest", "establishment"], "rating": 4, "user_ratings_total": 4}, "ChIJu8efpeEFdkgRa9NphbHwjM4": {"geometry": {"location": {"lat": 51.508757, "lng": -0.120847}, "viewport": {"northeast": {"lat": 51.5101059802915, "lng": -0.119498019708498}, "southwest": {"lat": 51.5074080197085, "lng": -0.122195980291502}}}, "name": "Lord Cheylesmore Memorial fountain", "place_id": "ChIJu8efpeEFdkgRa9NphbHwjM4", "types": ["point_of_interest", "establishment"]}, "ChIJPxSLc8kEdkgRLQWVzpyUss0": {"geometry": {"location": {"lat": 51.5086158, "lng": -0.1207394}, "viewport": {"northeast": {"lat": 51.5099496302915, "lng": -0.119355769708498}, "southwest": {"lat": 51.5072516697085, "lng": -0.122053730291502}}}, "name": "Belgian Monument to the British Nation", "place_id": "ChIJPxSLc8kEdkgRLQWVzpyUss0", "types": ["point_of_interest", "establishment"]}, "ChIJNzoDp0MFdkgR7OfM0fItCCA": {"geometry": {"location": {"lat": 51.5089301, "lng": -0.1210511}, "viewport": {"northeast": {"lat": 51.5103678302915, "lng": -0.119770119708498}, "southwest": {"lat": 51.5076698697085, "lng": -0.122468080291502}}}, "name": "London Memorial Garden", "place_id": "ChIJNzoDp0MFdkgR7OfM0fItCCA", "types": ["park", "point_of_interest", "establishment"]}, "ChIJ6fEPcckEdkgRyF628FPNgDk": {"geometry": {"location": {"lat": 51.50882469999999, "lng": -0.120866}, "viewport": {"northeast": {"lat": 51.51017368029149, "lng": -0.1195170197084979}, "southwest": {"lat": 51.50747571970849, "lng": -0.122214980291502}}}, "name": "Major-General Lord Cheylesmore Monument", "place_id": "ChIJ6fEPcckEdkgRyF628FPNgDk", "types": ["point_of_interest", "establishment"], "rating": 4.5, "user_ratings_total": 4}, "ChIJ8_ogRrIEdkgRzgSS_piZD4s": {"geometry": {"location": {"lat": 51.50800590000001, "lng": -0.1214692}, "viewport": {"northeast": {"lat": 51.5093257802915, "lng": -0.120034719708498}, "southwest": {"lat": 51.50662781970851, "lng": -0.122732680291502}}}, "name": "Bustronome London", "place_id": "ChIJ8_ogRrIEdkgRzgSS_piZD4s", "types": ["restaurant", "travel_agency", "food", "point_of_interest", "establishment"], "rating": 4.7, "user_ratings_total": 77}, "ChIJc7YLdMkEdkgRUZNzCLrKeRk": {"geometry": {"location": {"lat": 51.50863690000001, "lng": -0.1207104}, "viewport": {"northeast": {"lat": 51.5099723302915, "lng": -0.119330269708498}, "southwest": {"lat": 51.5072743697085, "lng": -0.122028230291502}}}, "name": "Monument of Belgium's Gratitude", "place_id": "ChIJc7YLdMkEdkgRUZNzCLrKeRk", "types": ["point_of_interest", "establishment"], "rating": 4, "user_ratings_total": 12}, "ChIJNy0PFMkEdkgRbCGkDl2ZF4E": {"geometry": {"location": {"lat": 51.5081386, "lng": -0.1215135}, "viewport": {"northeast": {"lat": 51.5094443268647, "lng": -0.1201300142273943}, "southwest": {"lat": 51.5067463662817, "lng": -0.1228279748103983}}}, "name": "Parking lot", "place_id": "ChIJNy0PFMkEdkgRbCGkDl2ZF4E", "types": ["parking", "premise", "point_of_interest", "establishment"]}, "ChIJiZmfGckEdkgRknTNBpovz0U": {"geometry": {"location": {"lat": 51.50751288733472, "lng": -0.1215240314753641}, "viewport": {"northeast": {"lat": 51.50886328029151, "lng": -0.120181669708498}, "southwest": {"lat": 51.50616531970851, "lng": -0.122879630291502}}}, "name": "Victoria Embankment", "place_id": "ChIJiZmfGckEdkgRknTNBpovz0U", "types": ["route"]}, "ChIJ_XD7HMkEdkgRr8HNeQV9Yug": {"geometry": {"location": {"lat": 51.5072456, "lng": -0.1211885}, "viewport": {"northeast": {"lat": 51.5085945802915, "lng": -0.119839519708498}, "southwest": {"lat": 51.5058966197085, "lng": -0.122537480291502}}}, "name": "Bateaux London", "place_id": "ChIJ_XD7HMkEdkgRr8HNeQV9Yug", "types": ["tourist_attraction", "travel_agency", "restaurant", "food", "point_of_interest", "establishment"], "rating": 4.1, "user_ratings_total": 351}, "ChIJ85vnMskEdkgRizGhXNN3k6o": {"geometry": {"location": {"lat": 51.5072554, "lng": -0.1221937}, "viewport": {"northeast": {"lat": 51.5086629802915, "lng": -0.121117019708498}, "southwest": {"lat": 51.5059650197085, "lng": -0.123814980291502}}}, "name": "Embankment Station", "place_id": "ChIJ85vnMskEdkgRizGhXNN3k6o", "types": ["subway_station", "transit_station", "point_of_interest", "establishment"], "rating": 4.3, "user_ratings_total": 192}, "ChIJk96zgwSh2EcRR28hYlw6D2A": {"geometry": {"location": {"lat": 51.50696740000001, "lng": -0.1214624}, "viewport": {"northeast": {"lat": 51.50839498029151, "lng": -0.120308769708498}, "southwest": {"lat": 51.50569701970851, "lng": -0.123006730291502}}}, "name": "Thames RIB Experience", "place_id": "ChIJk96zgwSh2EcRR28hYlw6D2A", "types": ["travel_agency", "point_of_interest", "establishment"], "rating": 4.6, "user_ratings_total": 118}, "ChIJy97DHMkEdkgR9o18w1nM0n4": {"geometry": {"location": {"lat": 51.507286, "lng": -0.121161}, "viewport": {"northeast": {"lat": 51.5087036802915, "lng": -0.120019869708498}, "southwest": {"lat": 51.5060057197085, "lng": -0.122717830291502}}}, "name": "Embankment Pier", "place_id": "ChIJy97DHMkEdkgR9o18w1nM0n4", "types": ["transit_station", "point_of_interest", "establishment"], "rating": 4.4, "user_ratings_total": 163}, "ChIJ4ZaKJskEdkgR7iMxn1CDPjs": {"geometry": {"location": {"lat": 51.5072263, "lng": -0.1221642}, "viewport": {"northeast": {"lat": 51.5086381802915, "lng": -0.121078069708498}, "southwest": {"lat": 51.5059402197085, "lng": -0.123776030291502}}}, "name": "Embankment News", "place_id": "ChIJ4ZaKJskEdkgR7iMxn1CDPjs", "types": ["point_of_interest", "store", "establishment"], "rating": 1, "user_ratings_total": 1}, "ChIJ83XRIMkEdkgRdSHt_f8cFys": {"geometry": {"location": {"lat": 51.50724779999999, "lng": -0.1223348}, "viewport": {"northeast": {"lat": 51.50864958029149, "lng": -0.121162919708498}, "southwest": {"lat": 51.5059516197085, "lng": -0.123860880291502}}}, "name": "Kiehl's Embankment", "place_id": "ChIJ83XRIMkEdkgRdSHt_f8cFys", "types": ["point_of_interest", "store", "establishment"], "rating": 4.9, "user_ratings_total": 10}, "ChIJ4ZaKJskEdkgRf1It4OAsvhE": {"geometry": {"location": {"lat": 51.5072894, "lng": -0.1221934}, "viewport": {"northeast": {"lat": 51.50867793029149, "lng": -0.121087569708498}, "southwest": {"lat": 51.5059799697085, "lng": -0.123785530291502}}}, "name": "ATM", "place_id": "ChIJ4ZaKJskEdkgRf1It4OAsvhE", "types": ["atm", "finance", "point_of_interest", "establishment"], "rating": 5, "user_ratings_total": 3}, "ChIJtX_GbRIFdkgRpQrUd4Y6FZE": {"geometry": {"location": {"lat": 51.50733770000001, "lng": -0.121499}, "viewport": {"northeast": {"lat": 51.50870743029149, "lng": -0.120212369708498}, "southwest": {"lat": 51.50600946970849, "lng": -0.122910330291502}}}, "name": "The Pier Bar & Lounge", "place_id": "ChIJtX_GbRIFdkgRpQrUd4Y6FZE", "types": ["bar", "night_club", "point_of_interest", "establishment"], "rating": 3, "user_ratings_total": 1}, "ChIJR-Pk4JUFdkgRH_ZBdU-DAQo": {"geometry": {"location": {"lat": 51.5075791, "lng": -0.1215503}, "viewport": {"northeast": {"lat": 51.5089269302915, "lng": -0.120197519708498}, "southwest": {"lat": 51.5062289697085, "lng": -0.122895480291502}}}, "name": "New Year Fireworks", "place_id": "ChIJR-Pk4JUFdkgRH_ZBdU-DAQo", "types": ["museum", "point_of_interest", "establishment"]}, "ChIJ_4zcsd4FdkgRgjZHNhF-ZUk": {"geometry": {"location": {"lat": 51.5075818, "lng": -0.1217173}, "viewport": {"northeast": {"lat": 51.5089161302915, "lng": -0.120321519708498}, "southwest": {"lat": 51.5062181697085, "lng": -0.123019480291502}}}, "name": "CityLoos Public Toilet", "place_id": "ChIJ_4zcsd4FdkgRgjZHNhF-ZUk", "types": ["point_of_interest", "establishment"]}, "ChIJD4VUk6YFdkgRg0q89YiHF4s": {"geometry": {"location": {"lat": 51.5075818, "lng": -0.1218355}, "viewport": {"northeast": {"lat": 51.5089013802915, "lng": -0.120392519708498}, "southwest": {"lat": 51.50620341970851, "lng": -0.123090480291502}}}, "name": "Pinky Productions", "place_id": "ChIJD4VUk6YFdkgRg0q89YiHF4s", "types": ["point_of_interest", "establishment"]}, "ChIJdf_WZsAFdkgRIAVBbERoezM": {"geometry": {"location": {"lat": 51.50759169999999, "lng": -0.1219187}, "viewport": {"northeast": {"lat": 51.50889988029149, "lng": -0.120439319708498}, "southwest": {"lat": 51.5062019197085, "lng": -0.123137280291502}}}, "name": "Changing Places toilet", "place_id": "ChIJdf_WZsAFdkgRIAVBbERoezM", "types": ["point_of_interest", "establishment"], "rating": 2.5, "user_ratings_total": 2}, "ChIJ8x0f-E4DdkgRES7iLdfr-Pc": {"geometry": {"location": {"lat": 51.50728889999999, "lng": -0.1211659}, "viewport": {"northeast": {"lat": 51.50869883029149, "lng": -0.120032269708498}, "southwest": {"lat": 51.50600086970849, "lng": -0.122730230291502}}}, "name": "Thames River Sightseeing Embankment Pier Ticket Office", "place_id": "ChIJ8x0f-E4DdkgRES7iLdfr-Pc", "types": ["travel_agency", "point_of_interest", "establishment"], "rating": 4.3, "user_ratings_total": 6}, "ChIJpyHMI4AFdkgRp5NDBtp1CsY": {"geometry": {"location": {"lat": 51.507708, "lng": -0.121843}, "viewport": {"northeast": {"lat": 51.5090139302915, "lng": -0.120356369708498}, "southwest": {"lat": 51.5063159697085, "lng": -0.123054330291502}}}, "name": "Outdoor exercise zone", "place_id": "ChIJpyHMI4AFdkgRp5NDBtp1CsY", "types": ["park", "point_of_interest", "establishment"]}, "ChIJvRRcZjYFdkgRN91L20Z_aHs": {"geometry": {"location": {"lat": 51.507303, "lng": -0.122049}, "viewport": {"northeast": {"lat": 51.5086519802915, "lng": -0.120700019708498}, "southwest": {"lat": 51.5059540197085, "lng": -0.123397980291502}}}, "name": "Hungerford House Bar & Kitchen", "place_id": "ChIJvRRcZjYFdkgRN91L20Z_aHs", "types": ["bar", "cafe", "restaurant", "food", "point_of_interest", "establishment"], "rating": 4.3, "user_ratings_total": 106}, "ChIJDQmNcx4FdkgRV9WC73NHtdc": {"geometry": {"location": {"lat": 51.5070801, "lng": -0.1213401}, "viewport": {"northeast": {"lat": 51.5084290802915, "lng": -0.119991119708498}, "southwest": {"lat": 51.5057311197085, "lng": -0.122689080291502}}}, "name": "Uber Boat by Thames Clippers - Embankment Pier", "place_id": "ChIJDQmNcx4FdkgRV9WC73NHtdc", "types": ["point_of_interest", "establishment"], "rating": 4.6, "user_ratings_total": 21}, "ChIJBdC8NU4FdkgRUJYCUZC3F-0": {"geometry": {"location": {"lat": 51.50777519999999, "lng": -0.1219832}, "viewport": {"northeast": {"lat": 51.50905683029149, "lng": -0.120418919708498}, "southwest": {"lat": 51.50635886970849, "lng": -0.123116880291502}}}, "name": "Victoria Embankment Gardens Oudoor Gym", "place_id": "ChIJBdC8NU4FdkgRUJYCUZC3F-0", "types": ["gym", "health", "point_of_interest", "establishment"]}, "ChIJJYgcxRwFdkgRxflaLKaS_bk": {"geometry": {"location": {"lat": 51.5072229, "lng": -0.1221359}, "viewport": {"northeast": {"lat": 51.5085430802915, "lng": -0.120685719708498}, "southwest": {"lat": 51.5058451197085, "lng": -0.123383680291502}}}, "name": "Circa Embankment", "place_id": "ChIJJYgcxRwFdkgRxflaLKaS_bk", "types": ["night_club", "bar", "point_of_interest", "establishment"], "rating": 3.7, "user_ratings_total": 55}, "ChIJVR7TJskEdkgRdIfZIyCiKNk": {"geometry": {"location": {"lat": 51.50725449999999, "lng": -0.1221935}, "viewport": {"northeast": {"lat": 51.5086034802915, "lng": -0.120844519708498}, "southwest": {"lat": 51.5059055197085, "lng": -0.123542480291502}}}, "name": "Embankment Pier", "place_id": "ChIJVR7TJskEdkgRdIfZIyCiKNk", "types": ["transit_station", "point_of_interest", "establishment"], "rating": 3.2, "user_ratings_total": 5}, "ChIJOTQqJ8kEdkgRH_Bxvbd2al4": {"geometry": {"location": {"lat": 51.507352, "lng": -0.122246}, "viewport": {"northeast": {"lat": 51.5087009802915, "lng": -0.120897019708498}, "southwest": {"lat": 51.5060030197085, "lng": -0.123594980291502}}}, "name": "Oliver Bonas", "place_id": "ChIJOTQqJ8kEdkgRH_Bxvbd2al4", "types": ["clothing_store", "jewelry_store", "home_goods_store", "point_of_interest", "store", "establishment"], "rating": 4.7, "user_ratings_total": 12}, "ChIJediqG90FdkgRy_OvcQKGwzU": {"geometry": {"location": {"lat": 51.50762719999999, "lng": -0.1222348}, "viewport": {"northeast": {"lat": 51.50889368029149, "lng": -0.1211322697084979}, "southwest": {"lat": 51.50619571970849, "lng": -0.123830230291502}}}, "name": "Kippo's", "place_id": "ChIJediqG90FdkgRy_OvcQKGwzU", "types": ["food", "point_of_interest", "store", "establishment"]}, "ChIJbQgLPckEdkgRQCr62M2OtIg": {"geometry": {"location": {"lat": 51.5078685, "lng": -0.1219252}, "viewport": {"northeast": {"lat": 51.50914798029151, "lng": -0.120354019708498}, "southwest": {"lat": 51.50645001970851, "lng": -0.123051980291502}}}, "name": "Supernova", "place_id": "ChIJbQgLPckEdkgRQCr62M2OtIg", "types": ["night_club", "point_of_interest", "establishment"], "rating": 4, "user_ratings_total": 1}, "ChIJF6idSV8FdkgRA62HHF4_BC4": {"geometry": {"location": {"lat": 51.5078502, "lng": -0.121142}, "viewport": {"northeast": {"lat": 51.50919918029151, "lng": -0.119793019708498}, "southwest": {"lat": 51.50650121970851, "lng": -0.1224909802915021}}}, "name": "Solo Motorcycles Only", "place_id": "ChIJF6idSV8FdkgRA62HHF4_BC4", "types": ["parking", "point_of_interest", "establishment"]}, "ChIJEYr5JskEdkgR4I2S4UGJduU": {"geometry": {"location": {"lat": 51.5071932, "lng": -0.1223214}, "viewport": {"northeast": {"lat": 51.50859753029149, "lng": -0.121171569708498}, "southwest": {"lat": 51.5058995697085, "lng": -0.123869530291502}}}, "name": "Pink Pansy Flowers Covent Garden", "place_id": "ChIJEYr5JskEdkgR4I2S4UGJduU", "types": ["florist", "point_of_interest", "store", "establishment"], "rating": 4.8, "user_ratings_total": 24}, "ChIJby0XJ8kEdkgRPP5YM6OyrHM": {"geometry": {"location": {"lat": 51.50717520000001, "lng": -0.122301}, "viewport": {"northeast": {"lat": 51.50853868029149, "lng": -0.120734319708498}, "southwest": {"lat": 51.5058407197085, "lng": -0.123432280291502}}}, "name": "J & R", "place_id": "ChIJby0XJ8kEdkgRPP5YM6OyrHM", "types": ["food", "point_of_interest", "store", "establishment"]}, "ChIJmzbe2sgEdkgR2hyRz1zhxGw": {"geometry": {"location": {"lat": 51.50650020000174, "lng": -0.1223305500177326}, "viewport": {"northeast": {"lat": 51.50784918029149, "lng": -0.120981569708498}, "southwest": {"lat": 51.50515121970849, "lng": -0.123679530291502}}}, "name": "Victoria Embankment", "place_id": "ChIJmzbe2sgEdkgR2hyRz1zhxGw", "types": ["route"]}, "ChIJ2Qfl5bUEdkgRyZhpfAoiZ0w": {"geometry": {"location": {"lat": 51.5064582, "lng": -0.1220718}, "viewport": {"northeast": {"lat": 51.5078322302915, "lng": -0.120850169708498}, "southwest": {"lat": 51.5051342697085, "lng": -0.123548130291502}}}, "name": "RS Hispaniola", "place_id": "ChIJ2Qfl5bUEdkgRyZhpfAoiZ0w", "types": ["bar", "restaurant", "food", "point_of_interest", "establishment"], "rating": 4.1, "user_ratings_total": 908}, "ChIJneFc28gEdkgRmgfKVrQLM0s": {"geometry": {"location": {"lat": 51.50647430000001, "lng": -0.1222226}, "viewport": {"northeast": {"lat": 51.50782328029151, "lng": -0.120873619708498}, "southwest": {"lat": 51.50512531970851, "lng": -0.123571580291502}}}, "name": "Sir Joseph Bazalgette Memorial", "place_id": "ChIJneFc28gEdkgRmgfKVrQLM0s", "types": ["point_of_interest", "establishment"], "rating": 3.7, "user_ratings_total": 13}, "ChIJQwzM1W8FdkgRA4nGfX9gqLU": {"geometry": {"location": {"lat": 51.5050277, "lng": -0.1222475}, "viewport": {"northeast": {"lat": 51.50641368029149, "lng": -0.121295769708498}, "southwest": {"lat": 51.5037157197085, "lng": -0.123993730291502}}}, "name": "Rampa para embarcaciones MyC", "place_id": "ChIJQwzM1W8FdkgRA4nGfX9gqLU", "types": ["point_of_interest", "establishment"]}, "ChIJAQAAUMYEdkgRC0vvIxaAKe4": {"geometry": {"location": {"lat": 51.50246250000001, "lng": -0.121064}, "viewport": {"northeast": {"lat": 51.5038114802915, "lng": -0.119715019708498}, "southwest": {"lat": 51.5011135197085, "lng": -0.122412980291502}}}, "name": "CC Grupo", "place_id": "ChIJAQAAUMYEdkgRC0vvIxaAKe4", "types": ["general_contractor", "point_of_interest", "establishment"]}, "ChIJSZFwqc4EdkgRaduNxg9xSp4": {"geometry": {"location": {"lat": 51.50952192470893, "lng": -0.1237334479400759}, "viewport": {"northeast": {"lat": 51.5108681302915, "lng": -0.122380869708498}, "southwest": {"lat": 51.5081701697085, "lng": -0.125078830291502}}}, "name": "429-425 Strand", "place_id": "ChIJSZFwqc4EdkgRaduNxg9xSp4", "types": ["route"]}, "ChIJdbUSy1cDdkgRMxhBCU1wrlw": {"geometry": {"location": {"lat": 51.5098817, "lng": -0.1237265}, "viewport": {"northeast": {"lat": 51.5112860802915, "lng": -0.122405269708498}, "southwest": {"lat": 51.5085881197085, "lng": -0.125103230291502}}}, "name": "The Whisky Exchange - Covent Garden Shop", "place_id": "ChIJdbUSy1cDdkgRMxhBCU1wrlw", "types": ["liquor_store", "food", "point_of_interest", "store", "establishment"], "rating": 4.7, "user_ratings_total": 617}, "ChIJE6nTVskEdkgRb8S8OkRY_J0": {"geometry": {"location": {"lat": 51.5093885, "lng": -0.1227388}, "viewport": {"northeast": {"lat": 51.51070313029151, "lng": -0.121333719708498}, "southwest": {"lat": 51.50800516970851, "lng": -0.124031680291502}}}, "name": "The RSA (Royal Society of Arts, Manufactures and Commerce)", "place_id": "ChIJE6nTVskEdkgRb8S8OkRY_J0", "types": ["point_of_interest", "establishment"], "rating": 4.5, "user_ratings_total": 187}, "ChIJ774OZskEdkgRS97njpnw2as": {"geometry": {"location": {"lat": 51.50942909999999, "lng": -0.123425}, "viewport": {"northeast": {"lat": 51.5108359302915, "lng": -0.122149969708498}, "southwest": {"lat": 51.5081379697085, "lng": -0.124847930291502}}}, "name": "Pizza Hut Restaurants", "place_id": "ChIJ774OZskEdkgRS97njpnw2as", "types": ["meal_takeaway", "restaurant", "food", "point_of_interest", "establishment"], "rating": 4, "user_ratings_total": 2351}, "ChIJT1sd_MsEdkgRbRAA3JItLec": {"geometry": {"location": {"lat": 51.5100524, "lng": -0.1228806}, "viewport": {"northeast": {"lat": 51.5113601302915, "lng": -0.121479019708498}, "southwest": {"lat": 51.5086621697085, "lng": -0.124176980291502}}}, "name": "Adelphi Theatre", "place_id": "ChIJT1sd_MsEdkgRbRAA3JItLec", "types": ["point_of_interest", "establishment"], "rating": 4.6, "user_ratings_total": 3684}, "ChIJVSAmr84EdkgRvKniTbuz6v0": {"geometry": {"location": {"lat": 51.5092563, "lng": -0.1236687}, "viewport": {"northeast": {"lat": 51.51066808029151, "lng": -0.122399319708498}, "southwest": {"lat": 51.50797011970851, "lng": -0.125097280291502}}}, "name": "Halifax", "place_id": "ChIJVSAmr84EdkgRvKniTbuz6v0", "types": ["bank", "atm", "finance", "point_of_interest", "establishment"], "rating": 2.4, "user_ratings_total": 10}, "ChIJ347Drc4EdkgRTjjRPSD3YDI": {"geometry": {"location": {"lat": 51.5091388, "lng": -0.1235426}, "viewport": {"northeast": {"lat": 51.51039233029149, "lng": -0.122182669708498}, "southwest": {"lat": 51.5076943697085, "lng": -0.124880630291502}}}, "name": "Retro Bar", "place_id": "ChIJ347Drc4EdkgRTjjRPSD3YDI", "types": ["night_club", "bar", "point_of_interest", "establishment"], "rating": 4.4, "user_ratings_total": 343}, "ChIJXYyhVckEdkgRFsZ0Gu75SNw": {"geometry": {"location": {"lat": 51.50968719999999, "lng": -0.1227929}, "viewport": {"northeast": {"lat": 51.5110973802915, "lng": -0.121515119708498}, "southwest": {"lat": 51.5083994197085, "lng": -0.124213080291502}}}, "name": "Bella Italia - The Strand", "place_id": "ChIJXYyhVckEdkgRFsZ0Gu75SNw", "types": ["night_club", "bar", "restaurant", "food", "point_of_interest", "establishment"], "rating": 3.9, "user_ratings_total": 1068}, "ChIJBdNuz8sEdkgRrdI1dV_6gHs": {"geometry": {"location": {"lat": 51.51002099999999, "lng": -0.1229842}, "viewport": {"northeast": {"lat": 51.51132233029149, "lng": -0.121580669708498}, "southwest": {"lat": 51.5086243697085, "lng": -0.124278630291502}}}, "name": "Nationwide Building Society", "place_id": "ChIJBdNuz8sEdkgRrdI1dV_6gHs", "types": ["bank", "finance", "point_of_interest", "establishment"], "rating": 3.4, "user_ratings_total": 11}, "ChIJX4rk4ssEdkgRupF1p7Avutw": {"geometry": {"location": {"lat": 51.5097159, "lng": -0.1226593}, "viewport": {"northeast": {"lat": 51.5111205802915, "lng": -0.121180419708498}, "southwest": {"lat": 51.5084226197085, "lng": -0.123878380291502}}}, "name": "Arrowpoint Advisory LLP", "place_id": "ChIJX4rk4ssEdkgRupF1p7Avutw", "types": ["finance", "point_of_interest", "establishment"]}, "ChIJweUSAswEdkgR8ScmVOlnkVQ": {"geometry": {"location": {"lat": 51.5097275, "lng": -0.1237135}, "viewport": {"northeast": {"lat": 51.51111693029149, "lng": -0.122266119708498}, "southwest": {"lat": 51.50841896970849, "lng": -0.124964080291502}}}, "name": "Luxury Candles London", "place_id": "ChIJweUSAswEdkgR8ScmVOlnkVQ", "types": ["home_goods_store", "point_of_interest", "store", "establishment"], "rating": 5, "user_ratings_total": 1}, "ChIJo9uuqVIDdkgRIFFrPdMqLok": {"geometry": {"location": {"lat": 51.5092559, "lng": -0.1230914}, "viewport": {"northeast": {"lat": 51.5105569302915, "lng": -0.121684369708498}, "southwest": {"lat": 51.5078589697085, "lng": -0.124382330291502}}}, "name": "Rice Search Partners", "place_id": "ChIJo9uuqVIDdkgRIFFrPdMqLok", "types": ["point_of_interest", "establishment"]}, "ChIJP6do_8sEdkgRx2wznK1YBFc": {"geometry": {"location": {"lat": 51.5099127, "lng": -0.1233239}, "viewport": {"northeast": {"lat": 51.5112182802915, "lng": -0.122080569708498}, "southwest": {"lat": 51.5085203197085, "lng": -0.124778530291502}}}, "name": "SPMK Ltd", "place_id": "ChIJP6do_8sEdkgRx2wznK1YBFc", "types": ["electronics_store", "point_of_interest", "store", "establishment"]}, "ChIJYbE5i0UbdkgR4JidL0j0LQU": {"geometry": {"location": {"lat": 51.50972799999999, "lng": -0.123714}, "viewport": {"northeast": {"lat": 51.5111174302915, "lng": -0.122266619708498}, "southwest": {"lat": 51.5084194697085, "lng": -0.124964580291502}}}, "name": "Confluent Europe Ltd", "place_id": "ChIJYbE5i0UbdkgR4JidL0j0LQU", "types": ["point_of_interest", "establishment"], "rating": 4.1, "user_ratings_total": 7}, "ChIJj3w0BswEdkgRvqKfu9paxEg": {"geometry": {"location": {"lat": 51.50990609999999, "lng": -0.1234836}, "viewport": {"northeast": {"lat": 51.51123553029149, "lng": -0.122176369708498}, "southwest": {"lat": 51.5085375697085, "lng": -0.124874330291502}}}, "name": "Internet Vision", "place_id": "ChIJj3w0BswEdkgRvqKfu9paxEg", "types": ["point_of_interest", "establishment"]}, "ChIJ36ZB_8sEdkgR2Ix0oa-yt9k": {"geometry": {"location": {"lat": 51.5099429, "lng": -0.1232247}, "viewport": {"northeast": {"lat": 51.5112296802915, "lng": -0.122027069708498}, "southwest": {"lat": 51.5085317197085, "lng": -0.124725030291502}}}, "name": "BrandMe", "place_id": "ChIJ36ZB_8sEdkgR2Ix0oa-yt9k", "types": ["general_contractor", "point_of_interest", "establishment"]}, "ChIJh_dYqc4EdkgRiZsInx_0pGQ": {"geometry": {"location": {"lat": 51.5093111, "lng": -0.1235831}, "viewport": {"northeast": {"lat": 51.5107189802915, "lng": -0.122308719708498}, "southwest": {"lat": 51.5080210197085, "lng": -0.125006680291502}}}, "name": "Bootcamp Pilates", "place_id": "ChIJh_dYqc4EdkgRiZsInx_0pGQ", "types": ["gym", "health", "point_of_interest", "establishment"], "rating": 3.6, "user_ratings_total": 10}, "ChIJ7y9w_csEdkgRHwl76Kim98E": {"geometry": {"location": {"lat": 51.50973689999999, "lng": -0.1227036}, "viewport": {"northeast": {"lat": 51.5111411302915, "lng": -0.121428569708498}, "southwest": {"lat": 51.5084431697085, "lng": -0.124126530291502}}}, "name": "Argos The Strand", "place_id": "ChIJ7y9w_csEdkgRHwl76Kim98E", "types": ["department_store", "jewelry_store", "electronics_store", "furniture_store", "home_goods_store", "point_of_interest", "clothing_store", "store", "establishment"], "rating": 3.9, "user_ratings_total": 205}, "ChIJJfigU8kEdkgRITpBauQdwms": {"geometry": {"location": {"lat": 51.50926569999999, "lng": -0.1231056}, "viewport": {"northeast": {"lat": 51.5106857302915, "lng": -0.121846919708498}, "southwest": {"lat": 51.5079877697085, "lng": -0.1245448802915021}}}, "name": "Responsible Media Forum", "place_id": "ChIJJfigU8kEdkgRITpBauQdwms", "types": ["point_of_interest", "establishment"]}, "ChIJpxggV8kEdkgRRFg2CicGOrg": {"geometry": {"location": {"lat": 51.50943960000001, "lng": -0.122742}, "viewport": {"northeast": {"lat": 51.5107313802915, "lng": -0.121323169708498}, "southwest": {"lat": 51.5080334197085, "lng": -0.124021130291502}}}, "name": "2020 Public Services Trust", "place_id": "ChIJpxggV8kEdkgRRFg2CicGOrg", "types": ["point_of_interest", "establishment"]}, "ChIJpxggV8kEdkgR9L3rX4010xQ": {"geometry": {"location": {"lat": 51.50943960000001, "lng": -0.122742}, "viewport": {"northeast": {"lat": 51.5107313802915, "lng": -0.121323169708498}, "southwest": {"lat": 51.5080334197085, "lng": -0.124021130291502}}}, "name": "MENA Investment Exchange", "place_id": "ChIJpxggV8kEdkgR9L3rX4010xQ", "types": ["finance", "point_of_interest", "establishment"]}, "ChIJq6qmU8kEdkgRLFWP7E0lG2Y": {"geometry": {"location": {"lat": 51.5092559, "lng": -0.1230914}, "viewport": {"northeast": {"lat": 51.5106810802915, "lng": -0.121839319708498}, "southwest": {"lat": 51.5079831197085, "lng": -0.124537280291502}}}, "name": "Institute of Corporate Responsibility and Sustainability", "place_id": "ChIJq6qmU8kEdkgRLFWP7E0lG2Y", "types": ["point_of_interest", "establishment"]}, "ChIJweUSAswEdkgRzlyOqeCIBvc": {"geometry": {"location": {"lat": 51.5099122, "lng": -0.1237832}, "viewport": {"northeast": {"lat": 51.5112835802915, "lng": -0.122379769708498}, "southwest": {"lat": 51.50858561970851, "lng": -0.125077730291502}}}, "name": "The Investor Relations Society", "place_id": "ChIJweUSAswEdkgRzlyOqeCIBvc", "types": ["point_of_interest", "establishment"]}, "ChIJD7W-_ssEdkgRrhDqA_WCxTQ": {"geometry": {"location": {"lat": 51.5100107, "lng": -0.1229608}, "viewport": {"northeast": {"lat": 51.51131888029149, "lng": -0.121565119708498}, "southwest": {"lat": 51.50862091970849, "lng": -0.124263080291502}}}, "name": "ATM Nationwide", "place_id": "ChIJD7W-_ssEdkgRrhDqA_WCxTQ", "types": ["atm", "finance", "point_of_interest", "establishment"], "rating": 3.7, "user_ratings_total": 3}, "ChIJ63FtHcwEdkgRivP-ztgpQvU": {"geometry": {"location": {"lat": 51.50964399999999, "lng": -0.1241345}, "viewport": {"northeast": {"lat": 51.5108946302915, "lng": -0.122661219708498}, "southwest": {"lat": 51.5081966697085, "lng": -0.1253591802915021}}}, "name": "Embassy of Zimbabwe.", "place_id": "ChIJ63FtHcwEdkgRivP-ztgpQvU", "types": ["embassy", "point_of_interest", "establishment"], "rating": 3.6, "user_ratings_total": 63}, "ChIJhb2tBswEdkgRGFuOce1-8mo": {"geometry": {"location": {"lat": 51.5100286, "lng": -0.1236288}, "viewport": {"northeast": {"lat": 51.5113601802915, "lng": -0.122322119708498}, "southwest": {"lat": 51.5086622197085, "lng": -0.125020080291502}}}, "name": "GAVIN THOMAS", "place_id": "ChIJhb2tBswEdkgRGFuOce1-8mo", "types": ["school", "point_of_interest", "establishment"]}, "ChIJIcGCrs4EdkgROZ_AGmf_z-s": {"geometry": {"location": {"lat": 51.5092347, "lng": -0.1237113}, "viewport": {"northeast": {"lat": 51.5106467302915, "lng": -0.122442169708498}, "southwest": {"lat": 51.5079487697085, "lng": -0.125140130291502}}}, "name": "Match Com International Ltd", "place_id": "ChIJIcGCrs4EdkgROZ_AGmf_z-s", "types": ["point_of_interest", "establishment"], "rating": 1.7, "user_ratings_total": 11}, "ChIJxeiDe9EEdkgRnplSJb_BY6M": {"geometry": {"location": {"lat": 51.5092347, "lng": -0.1237113}, "viewport": {"northeast": {"lat": 51.5106467302915, "lng": -0.122442169708498}, "southwest": {"lat": 51.5079487697085, "lng": -0.125140130291502}}}, "name": "Hanwa Co", "place_id": "ChIJxeiDe9EEdkgRnplSJb_BY6M", "types": ["point_of_interest", "establishment"], "rating": 3, "user_ratings_total": 2}, "ChIJ9YxtjcsEdkgRL7p_Y7ml8n8": {"geometry": {"location": {"lat": 51.50976499999999, "lng": -0.122525}, "viewport": {"northeast": {"lat": 51.51114228029149, "lng": -0.121110069708498}, "southwest": {"lat": 51.5084443197085, "lng": -0.123808030291502}}}, "name": "Fivium", "place_id": "ChIJ9YxtjcsEdkgRL7p_Y7ml8n8", "types": ["point_of_interest", "establishment"], "rating": 5, "user_ratings_total": 5}, "ChIJ25TzL5cDdkgRWk_82y5aeDg": {"geometry": {"location": {"lat": 51.51005139999999, "lng": -0.1236685}, "viewport": {"northeast": {"lat": 51.5114003802915, "lng": -0.122319519708498}, "southwest": {"lat": 51.5087024197085, "lng": -0.125017480291502}}}, "name": "Boss Creative Entertainment Ltd", "place_id": "ChIJ25TzL5cDdkgRWk_82y5aeDg", "types": ["point_of_interest", "establishment"], "rating": 5, "user_ratings_total": 1}, "ChIJAeekVckEdkgRwLVBbZMHDJg": {"geometry": {"location": {"lat": 51.509836, "lng": -0.122562}, "viewport": {"northeast": {"lat": 51.5112314802915, "lng": -0.121267119708498}, "southwest": {"lat": 51.5085335197085, "lng": -0.123965080291502}}}, "name": "Caff\u00e8 Nero", "place_id": "ChIJAeekVckEdkgRwLVBbZMHDJg", "types": ["cafe", "food", "point_of_interest", "store", "establishment"], "rating": 4.3, "user_ratings_total": 147}, "ChIJnSQDBMwEdkgRvP6JBLqwwZs": {"geometry": {"location": {"lat": 51.51005199999999, "lng": -0.123683}, "viewport": {"northeast": {"lat": 51.5113919302915, "lng": -0.122355969708498}, "southwest": {"lat": 51.5086939697085, "lng": -0.125053930291502}}}, "name": "Shepperd-fox", "place_id": "ChIJnSQDBMwEdkgRvP6JBLqwwZs", "types": ["point_of_interest", "establishment"], "rating": 5, "user_ratings_total": 2}, "ChIJi0qv-MsEdkgR4SBJfp3uuuw": {"geometry": {"location": {"lat": 51.5099337, "lng": -0.123138}, "viewport": {"northeast": {"lat": 51.5112431802915, "lng": -0.121736819708498}, "southwest": {"lat": 51.50854521970851, "lng": -0.124434780291502}}}, "name": "The Port House", "place_id": "ChIJi0qv-MsEdkgR4SBJfp3uuuw", "types": ["bar", "restaurant", "food", "point_of_interest", "establishment"], "rating": 4.6, "user_ratings_total": 797}, "ChIJsV68ts4EdkgRqCZOM9h1Hl0": {"geometry": {"location": {"lat": 51.50978019999999, "lng": -0.1236107}, "viewport": {"northeast": {"lat": 51.5111469302915, "lng": -0.122218569708498}, "southwest": {"lat": 51.5084489697085, "lng": -0.124916530291502}}}, "name": "MRPP", "place_id": "ChIJsV68ts4EdkgRqCZOM9h1Hl0", "types": ["real_estate_agency", "point_of_interest", "establishment"], "rating": 2.5, "user_ratings_total": 2}, "ChIJJwwPYdUEdkgRwNzVezbxB1o": {"geometry": {"location": {"lat": 51.5092563, "lng": -0.1236687}, "viewport": {"northeast": {"lat": 51.51066808029151, "lng": -0.122399319708498}, "southwest": {"lat": 51.50797011970851, "lng": -0.125097280291502}}}, "name": "London Theatre Direct", "place_id": "ChIJJwwPYdUEdkgRwNzVezbxB1o", "types": ["point_of_interest", "store", "establishment"], "rating": 3.6, "user_ratings_total": 211}, "ChIJ0TxjVckEdkgRXo1MjO-klSM": {"geometry": {"location": {"lat": 51.5096188, "lng": -0.1232353}, "viewport": {"northeast": {"lat": 51.5109844302915, "lng": -0.121906419708498}, "southwest": {"lat": 51.5082864697085, "lng": -0.124604380291502}}}, "name": "Bedford Street (Stop J)", "place_id": "ChIJ0TxjVckEdkgRXo1MjO-klSM", "types": ["bus_station", "transit_station", "point_of_interest", "establishment"], "rating": 5, "user_ratings_total": 2}, "ChIJUe2qWh0FdkgRdfG5le5d7Qg": {"geometry": {"location": {"lat": 51.50953010000001, "lng": -0.1232646}, "viewport": {"northeast": {"lat": 51.51091863029151, "lng": -0.121965719708498}, "southwest": {"lat": 51.50822066970851, "lng": -0.124663680291502}}}, "name": "BENAISSA", "place_id": "ChIJUe2qWh0FdkgRdfG5le5d7Qg", "types": ["restaurant", "food", "point_of_interest", "establishment"]}, "ChIJF_cPAMwEdkgRsH0_ZWqi-MI": {"geometry": {"location": {"lat": 51.5097288, "lng": -0.1233427}, "viewport": {"northeast": {"lat": 51.5110908802915, "lng": -0.122009619708498}, "southwest": {"lat": 51.5083929197085, "lng": -0.124707580291502}}}, "name": "Pitaya", "place_id": "ChIJF_cPAMwEdkgRsH0_ZWqi-MI", "types": ["point_of_interest", "establishment"]}, "ChIJGebDQ9EEdkgRRlJYzyEokAw": {"geometry": {"location": {"lat": 51.509511, "lng": -0.123279}, "viewport": {"northeast": {"lat": 51.51082933029149, "lng": -0.121891069708498}, "southwest": {"lat": 51.50813136970849, "lng": -0.124589030291502}}}, "name": "Sanctuary Retreats", "place_id": "ChIJGebDQ9EEdkgRRlJYzyEokAw", "types": ["travel_agency", "point_of_interest", "establishment"], "rating": 5, "user_ratings_total": 1}, "ChIJLdvPAcwEdkgR7aWDjOZxT5c": {"geometry": {"location": {"lat": 51.5097345, "lng": -0.123548}, "viewport": {"northeast": {"lat": 51.51110058029149, "lng": -0.122162669708498}, "southwest": {"lat": 51.50840261970849, "lng": -0.124860630291502}}}, "name": "Civil Service Supply Association Ltd", "place_id": "ChIJLdvPAcwEdkgR7aWDjOZxT5c", "types": ["point_of_interest", "establishment"]}, "ChIJUUmZVMkEdkgRzUZYL1nfZV0": {"geometry": {"location": {"lat": 51.5094, "lng": -0.123302}, "viewport": {"northeast": {"lat": 51.51077368029151, "lng": -0.121984419708498}, "southwest": {"lat": 51.50807571970851, "lng": -0.124682380291502}}}, "name": "Bootcamp Pilates The Strand", "place_id": "ChIJUUmZVMkEdkgRzUZYL1nfZV0", "types": ["gym", "health", "point_of_interest", "establishment"]}, "ChIJZ_kK_8sEdkgRSdYM3QrNjlI": {"geometry": {"location": {"lat": 51.50985259999999, "lng": -0.1233119}, "viewport": {"northeast": {"lat": 51.5111713302915, "lng": -0.122045319708498}, "southwest": {"lat": 51.5084733697085, "lng": -0.124743280291502}}}, "name": "Pitaya Thai Street Food", "place_id": "ChIJZ_kK_8sEdkgRSdYM3QrNjlI", "types": ["restaurant", "food", "point_of_interest", "establishment"]}, "ChIJq4dm_ssEdkgRvhtXu8nKX28": {"geometry": {"location": {"lat": 51.5098717, "lng": -0.1232672}, "viewport": {"northeast": {"lat": 51.5111717302915, "lng": -0.122022219708498}, "southwest": {"lat": 51.5084737697085, "lng": -0.124720180291502}}}, "name": "Pitaya Thai Street Food", "place_id": "ChIJq4dm_ssEdkgRvhtXu8nKX28", "types": ["restaurant", "food", "point_of_interest", "establishment"]}, "ChIJzXGlBcwEdkgRJWYw2-TKXHw": {"geometry": {"location": {"lat": 51.5096721, "lng": -0.1236673}, "viewport": {"northeast": {"lat": 51.51106833029149, "lng": -0.122217869708498}, "southwest": {"lat": 51.50837036970849, "lng": -0.124915830291502}}}, "name": "Rention Holdings Limited", "place_id": "ChIJzXGlBcwEdkgRJWYw2-TKXHw", "types": ["point_of_interest", "establishment"]}, "ChIJWdfzAcwEdkgRbStkRYL5efQ": {"geometry": {"location": {"lat": 51.50974919999999, "lng": -0.123636}, "viewport": {"northeast": {"lat": 51.5110418302915, "lng": -0.122217019708498}, "southwest": {"lat": 51.5083438697085, "lng": -0.124914980291502}}}, "name": "Watch", "place_id": "ChIJWdfzAcwEdkgRbStkRYL5efQ", "types": ["point_of_interest", "store", "establishment"]}, "ChIJBcME_8sEdkgRTOQk-Z9ltyA": {"geometry": {"location": {"lat": 51.5099048, "lng": -0.1231559}, "viewport": {"northeast": {"lat": 51.5111821802915, "lng": -0.121964919708498}, "southwest": {"lat": 51.5084842197085, "lng": -0.124662880291502}}}, "name": "Sesamo", "place_id": "ChIJBcME_8sEdkgRTOQk-Z9ltyA", "types": ["restaurant", "food", "point_of_interest", "establishment"]}, "ChIJ8XEtV8kEdkgRRDWVJweqGsY": {"geometry": {"location": {"lat": 51.50965780000001, "lng": -0.1228127}, "viewport": {"northeast": {"lat": 51.5108698302915, "lng": -0.121296519708498}, "southwest": {"lat": 51.5081718697085, "lng": -0.123994480291502}}}, "name": "RSA House", "place_id": "ChIJ8XEtV8kEdkgRRDWVJweqGsY", "types": ["cafe", "food", "point_of_interest", "establishment"], "rating": 4.7, "user_ratings_total": 128}, "ChIJn-OL_ssEdkgRKlCcaX-umjo": {"geometry": {"location": {"lat": 51.50986870000001, "lng": -0.1230033}, "viewport": {"northeast": {"lat": 51.51124303029151, "lng": -0.121684369708498}, "southwest": {"lat": 51.50854506970851, "lng": -0.124382330291502}}}, "name": "London Fashion Week Festival", "place_id": "ChIJn-OL_ssEdkgRKlCcaX-umjo", "types": ["point_of_interest", "establishment"]}, "ChIJhS4gTroFdkgR94O6rYUzPLo": {"geometry": {"location": {"lat": 51.50969620000001, "lng": -0.1237502}, "viewport": {"northeast": {"lat": 51.5109882302915, "lng": -0.122330469708498}, "southwest": {"lat": 51.5082902697085, "lng": -0.125028430291502}}}, "name": "Boots", "place_id": "ChIJhS4gTroFdkgR94O6rYUzPLo", "types": ["point_of_interest", "store", "establishment"], "rating": 4, "user_ratings_total": 1}, "ChIJHdBqnWAFdkgRqyYgZAPOeCI": {"geometry": {"location": {"lat": 51.5098726, "lng": -0.1229947}, "viewport": {"northeast": {"lat": 51.5111962302915, "lng": -0.121615669708498}, "southwest": {"lat": 51.5084982697085, "lng": -0.124313630291502}}}, "name": "Meeting room Charing Cross", "place_id": "ChIJHdBqnWAFdkgRqyYgZAPOeCI", "types": ["point_of_interest", "establishment"]}, "ChIJ5wgh19UFdkgRLsT6H0Rvi-I": {"geometry": {"location": {"lat": 51.5098728, "lng": -0.1229944}, "viewport": {"northeast": {"lat": 51.5111962802915, "lng": -0.121616069708498}, "southwest": {"lat": 51.5084983197085, "lng": -0.124314030291502}}}, "name": "Roofing services Charing Cross", "place_id": "ChIJ5wgh19UFdkgRLsT6H0Rvi-I", "types": ["roofing_contractor", "point_of_interest", "establishment"]}, "ChIJaxZPxMsEdkgR309GxqCKWJU": {"geometry": {"location": {"lat": 51.5098728, "lng": -0.1229943}, "viewport": {"northeast": {"lat": 51.51119643029151, "lng": -0.121615269708498}, "southwest": {"lat": 51.50849846970851, "lng": -0.124313230291502}}}, "name": "Funky Pigeon", "place_id": "ChIJaxZPxMsEdkgR309GxqCKWJU", "types": ["point_of_interest", "establishment"]}, "ChIJ36ZB_8sEdkgRL0QDMFhFZ5g": {"geometry": {"location": {"lat": 51.5099429, "lng": -0.1232247}, "viewport": {"northeast": {"lat": 51.5112296802915, "lng": -0.122027069708498}, "southwest": {"lat": 51.5085317197085, "lng": -0.124725030291502}}}, "name": "Egg\u2019cellent", "place_id": "ChIJ36ZB_8sEdkgRL0QDMFhFZ5g", "types": ["point_of_interest", "establishment"], "rating": 5, "user_ratings_total": 1}, "ChIJufOAAcwEdkgR5o7lUDnntL4": {"geometry": {"location": {"lat": 51.5098387, "lng": -0.1236613}, "viewport": {"northeast": {"lat": 51.5112025302915, "lng": -0.122276269708498}, "southwest": {"lat": 51.5085045697085, "lng": -0.124974230291502}}}, "name": "Summer Safari", "place_id": "ChIJufOAAcwEdkgR5o7lUDnntL4", "types": ["bar", "point_of_interest", "establishment"]}, "ChIJ79cBDAoFdkgR00V_0BAzrlU": {"geometry": {"location": {"lat": 51.5098387, "lng": -0.1236613}, "viewport": {"northeast": {"lat": 51.51118768029149, "lng": -0.122312319708498}, "southwest": {"lat": 51.50848971970849, "lng": -0.125010280291502}}}, "name": "Mr Fogg's Society of Exploration", "place_id": "ChIJ79cBDAoFdkgR00V_0BAzrlU", "types": ["bar", "point_of_interest", "establishment"], "rating": 4.6, "user_ratings_total": 875}, "ChIJGQPZBeEFdkgRHoSwMbQQy8g": {"geometry": {"location": {"lat": 51.5099203, "lng": -0.1234849}, "viewport": {"northeast": {"lat": 51.5112282302915, "lng": -0.122157069708498}, "southwest": {"lat": 51.5085302697085, "lng": -0.124855030291502}}}, "name": "The Resident Covent Garden", "place_id": "ChIJGQPZBeEFdkgRHoSwMbQQy8g", "types": ["lodging", "point_of_interest", "establishment"], "rating": 4.8, "user_ratings_total": 99}, "ChIJEzBJQggFdkgR4EdloEe2Wuk": {"geometry": {"location": {"lat": 51.50992429999999, "lng": -0.1234833}, "viewport": {"northeast": {"lat": 51.51124593029149, "lng": -0.122183069708498}, "southwest": {"lat": 51.50854796970849, "lng": -0.124881030291502}}}, "name": "Earl\u2019s Court", "place_id": "ChIJEzBJQggFdkgR4EdloEe2Wuk", "types": ["lodging", "point_of_interest", "establishment"]}, "ChIJc6E7ZhoFdkgRcSQEpisJaO4": {"geometry": {"location": {"lat": 51.5096381, "lng": -0.1238069}, "viewport": {"northeast": {"lat": 51.5109397802915, "lng": -0.122399119708498}, "southwest": {"lat": 51.50824181970851, "lng": -0.125097080291502}}}, "name": "Carson's Massage", "place_id": "ChIJc6E7ZhoFdkgRcSQEpisJaO4", "types": ["point_of_interest", "establishment"], "rating": 5, "user_ratings_total": 9}, "ChIJdc5_AcwEdkgR63sfbsoTzvA": {"geometry": {"location": {"lat": 51.50985970000001, "lng": -0.1236648}, "viewport": {"northeast": {"lat": 51.5112181302915, "lng": -0.122292869708498}, "southwest": {"lat": 51.5085201697085, "lng": -0.124990830291502}}}, "name": "One Bedford", "place_id": "ChIJdc5_AcwEdkgR63sfbsoTzvA", "types": ["point_of_interest", "establishment"]}, "ChIJTX5isc4EdkgRbXZG0I62D0c": {"geometry": {"location": {"lat": 51.50882798459477, "lng": -0.123651829798774}, "viewport": {"northeast": {"lat": 51.5101737802915, "lng": -0.122297869708498}, "southwest": {"lat": 51.5074758197085, "lng": -0.124995830291502}}}, "name": "26-18 John Adam St", "place_id": "ChIJTX5isc4EdkgRbXZG0I62D0c", "types": ["route"]}, "ChIJTad8TMkEdkgRXIYNj9Ixzvg": {"geometry": {"location": {"lat": 51.5087388, "lng": -0.1230893}, "viewport": {"northeast": {"lat": 51.51006448029149, "lng": -0.121774319708498}, "southwest": {"lat": 51.50736651970849, "lng": -0.124472280291502}}}, "name": "Arcore Premium Apartments: Covent Garden", "place_id": "ChIJTad8TMkEdkgRXIYNj9Ixzvg", "types": ["lodging", "point_of_interest", "establishment"], "rating": 4.3, "user_ratings_total": 6}, "ChIJJ93iyM4EdkgR8aZjAqPuoaw": {"geometry": {"location": {"lat": 51.5081587, "lng": -0.1237922}, "viewport": {"northeast": {"lat": 51.5094911302915, "lng": -0.122467319708498}, "southwest": {"lat": 51.5067931697085, "lng": -0.125165280291502}}}, "name": "The Princess Of Wales", "place_id": "ChIJJ93iyM4EdkgR8aZjAqPuoaw", "types": ["bar", "restaurant", "food", "point_of_interest", "establishment"], "rating": 4, "user_ratings_total": 816}, "ChIJMTADt84EdkgRBURYaqWI-uk": {"geometry": {"location": {"lat": 51.50839089999999, "lng": -0.1229335}, "viewport": {"northeast": {"lat": 51.5096713802915, "lng": -0.121684519708498}, "southwest": {"lat": 51.5069734197085, "lng": -0.124382480291502}}}, "name": "Seabury Consulting", "place_id": "ChIJMTADt84EdkgRBURYaqWI-uk", "types": ["point_of_interest", "establishment"], "rating": 5, "user_ratings_total": 3}, "ChIJjT-KrN4EdkgRxhmERnCpCXo": {"geometry": {"location": {"lat": 51.50860249999999, "lng": -0.1227683}, "viewport": {"northeast": {"lat": 51.5099500802915, "lng": -0.121421369708498}, "southwest": {"lat": 51.5072521197085, "lng": -0.124119330291502}}}, "name": "BGF", "place_id": "ChIJjT-KrN4EdkgRxhmERnCpCXo", "types": ["finance", "point_of_interest", "establishment"]}, "ChIJI7Vass4EdkgRHZ-kzaHPeto": {"geometry": {"location": {"lat": 51.50883959999999, "lng": -0.1239617}, "viewport": {"northeast": {"lat": 51.5101307302915, "lng": -0.122562869708498}, "southwest": {"lat": 51.5074327697085, "lng": -0.125260830291502}}}, "name": "Theodore Bullfrog", "place_id": "ChIJI7Vass4EdkgRHZ-kzaHPeto", "types": ["bar", "point_of_interest", "establishment"], "rating": 3.9, "user_ratings_total": 722}, "ChIJwWHAWzIbdkgRcph0nVhPtKI": {"geometry": {"location": {"lat": 51.50824490000001, "lng": -0.1233681}, "viewport": {"northeast": {"lat": 51.5096326802915, "lng": -0.121962469708498}, "southwest": {"lat": 51.5069347197085, "lng": -0.124660430291502}}}, "name": "OISE London", "place_id": "ChIJwWHAWzIbdkgRcph0nVhPtKI", "types": ["point_of_interest", "establishment"], "rating": 4.8, "user_ratings_total": 8}, "ChIJvW13uc4EdkgRBXu_hfU9lDQ": {"geometry": {"location": {"lat": 51.50866, "lng": -0.124066}, "viewport": {"northeast": {"lat": 51.5099859302915, "lng": -0.122681069708498}, "southwest": {"lat": 51.5072879697085, "lng": -0.125379030291502}}}, "name": "Proud Central", "place_id": "ChIJvW13uc4EdkgRBXu_hfU9lDQ", "types": ["art_gallery", "point_of_interest", "establishment"], "rating": 4.2, "user_ratings_total": 75}, "ChIJqYk52FQbdkgRV5P13mRWpSQ": {"geometry": {"location": {"lat": 51.508103, "lng": -0.1232642}, "viewport": {"northeast": {"lat": 51.5095135302915, "lng": -0.121825319708498}, "southwest": {"lat": 51.5068155697085, "lng": -0.124523280291502}}}, "name": "Capital City Media Ltd", "place_id": "ChIJqYk52FQbdkgRV5P13mRWpSQ", "types": ["finance", "point_of_interest", "establishment"]}, "ChIJk8yvNMkEdkgRBkeM-Jh_R2s": {"geometry": {"location": {"lat": 51.5083322, "lng": -0.123548}, "viewport": {"northeast": {"lat": 51.50972393029149, "lng": -0.122136569708498}, "southwest": {"lat": 51.50702596970849, "lng": -0.124834530291502}}}, "name": "Marwyn Partners", "place_id": "ChIJk8yvNMkEdkgRBkeM-Jh_R2s", "types": ["point_of_interest", "establishment"]}, "ChIJq0s_ts4EdkgRl0KBSs-AA_Q": {"geometry": {"location": {"lat": 51.5084751, "lng": -0.1237019}, "viewport": {"northeast": {"lat": 51.5098515302915, "lng": -0.122312819708498}, "southwest": {"lat": 51.5071535697085, "lng": -0.125010780291502}}}, "name": "Charles Fussell & Co LLP", "place_id": "ChIJq0s_ts4EdkgRl0KBSs-AA_Q", "types": ["lawyer", "point_of_interest", "establishment"]}, "ChIJ3UeEX8kEdkgRfKoZ6Fz6qlA": {"geometry": {"location": {"lat": 51.50880379999999, "lng": -0.1234568}, "viewport": {"northeast": {"lat": 51.5101902802915, "lng": -0.122162469708498}, "southwest": {"lat": 51.5074923197085, "lng": -0.124860430291502}}}, "name": "Clark Howes", "place_id": "ChIJ3UeEX8kEdkgRfKoZ6Fz6qlA", "types": ["accounting", "finance", "point_of_interest", "establishment"]}, "ChIJewc1NckEdkgRbWwpyvRzF9M": {"geometry": {"location": {"lat": 51.50839089999999, "lng": -0.1229335}, "viewport": {"northeast": {"lat": 51.5096713802915, "lng": -0.121684519708498}, "southwest": {"lat": 51.5069734197085, "lng": -0.124382480291502}}}, "name": "Ecofin Ltd", "place_id": "ChIJewc1NckEdkgRbWwpyvRzF9M", "types": ["finance", "point_of_interest", "establishment"]}, "ChIJ22PntM4EdkgRIpfviFlRSEQ": {"geometry": {"location": {"lat": 51.50856409999999, "lng": -0.1233878}, "viewport": {"northeast": {"lat": 51.50986753029149, "lng": -0.122105319708498}, "southwest": {"lat": 51.50716956970849, "lng": -0.124803280291502}}}, "name": "Paricint", "place_id": "ChIJ22PntM4EdkgRIpfviFlRSEQ", "types": ["point_of_interest", "establishment"]}, "ChIJsVq4ys4EdkgR2ltEMB927xY": {"geometry": {"location": {"lat": 51.5082047, "lng": -0.1232558}, "viewport": {"northeast": {"lat": 51.5095860802915, "lng": -0.121859469708498}, "southwest": {"lat": 51.5068881197085, "lng": -0.124557430291502}}}, "name": "O M C Investments Ltd", "place_id": "ChIJsVq4ys4EdkgR2ltEMB927xY", "types": ["finance", "point_of_interest", "establishment"], "rating": 1, "user_ratings_total": 1}, "ChIJER9dtM4EdkgRHvQaCDBZqdg": {"geometry": {"location": {"lat": 51.5086096, "lng": -0.1235186}, "viewport": {"northeast": {"lat": 51.5099208302915, "lng": -0.122224769708498}, "southwest": {"lat": 51.5072228697085, "lng": -0.124922730291502}}}, "name": "BCA Marketplace", "place_id": "ChIJER9dtM4EdkgRHvQaCDBZqdg", "types": ["point_of_interest", "store", "establishment"], "rating": 1, "user_ratings_total": 1}, "ChIJI-pcS8kEdkgRTZ2_vpD8hvo": {"geometry": {"location": {"lat": 51.5087383, "lng": -0.1232824}, "viewport": {"northeast": {"lat": 51.5101173302915, "lng": -0.121889569708498}, "southwest": {"lat": 51.5074193697085, "lng": -0.124587530291502}}}, "name": "Studio Galleries (UK)", "place_id": "ChIJI-pcS8kEdkgRTZ2_vpD8hvo", "types": ["point_of_interest", "establishment"]}, "ChIJd_Nkys4EdkgRrZb71DESv1w": {"geometry": {"location": {"lat": 51.50832279999999, "lng": -0.123507}, "viewport": {"northeast": {"lat": 51.5097107802915, "lng": -0.122101119708498}, "southwest": {"lat": 51.5070128197085, "lng": -0.124799080291502}}}, "name": "Bitco International Limlted", "place_id": "ChIJd_Nkys4EdkgRrZb71DESv1w", "types": ["finance", "point_of_interest", "establishment"]}, "ChIJaZIBSskEdkgRYf_RdtFVsdU": {"geometry": {"location": {"lat": 51.508388, "lng": -0.1229392}, "viewport": {"northeast": {"lat": 51.50967018029149, "lng": -0.121687769708498}, "southwest": {"lat": 51.50697221970849, "lng": -0.124385730291502}}}, "name": "Derisk (UK) Ltd", "place_id": "ChIJaZIBSskEdkgRYf_RdtFVsdU", "types": ["point_of_interest", "establishment"], "rating": 5, "user_ratings_total": 3}, "ChIJdZBNh9YEdkgRdPu0PRiJf7k": {"geometry": {"location": {"lat": 51.508388, "lng": -0.1229392}, "viewport": {"northeast": {"lat": 51.50967018029149, "lng": -0.121687769708498}, "southwest": {"lat": 51.50697221970849, "lng": -0.124385730291502}}}, "name": "Seilern Investment Management Ltd", "place_id": "ChIJdZBNh9YEdkgRdPu0PRiJf7k", "types": ["finance", "point_of_interest", "establishment"]}, "ChIJaZIBSskEdkgRIIjVx8TG9aw": {"geometry": {"location": {"lat": 51.50839089999999, "lng": -0.1229335}, "viewport": {"northeast": {"lat": 51.5096713802915, "lng": -0.121684519708498}, "southwest": {"lat": 51.5069734197085, "lng": -0.124382480291502}}}, "name": "Decontaminate UK", "place_id": "ChIJaZIBSskEdkgRIIjVx8TG9aw", "types": ["general_contractor", "point_of_interest", "establishment"]}, "ChIJZ3AASskEdkgR30vq5KyOMXI": {"geometry": {"location": {"lat": 51.5083753, "lng": -0.122935}, "viewport": {"northeast": {"lat": 51.5096602802915, "lng": -0.121679469708498}, "southwest": {"lat": 51.50696231970851, "lng": -0.124377430291502}}}, "name": "DE Group", "place_id": "ChIJZ3AASskEdkgR30vq5KyOMXI", "types": ["general_contractor", "point_of_interest", "establishment"]}, "ChIJwdixts4EdkgRUdpQjoLbwww": {"geometry": {"location": {"lat": 51.5086931, "lng": -0.1236864}, "viewport": {"northeast": {"lat": 51.5100074802915, "lng": -0.122387969708498}, "southwest": {"lat": 51.5073095197085, "lng": -0.125085930291502}}}, "name": "British Editorial Society of Bone & Joint Surgery Ltd", "place_id": "ChIJwdixts4EdkgRUdpQjoLbwww", "types": ["point_of_interest", "establishment"], "rating": 5, "user_ratings_total": 1}, "ChIJR6xbsc4EdkgRg-mJVAtKVqA": {"geometry": {"location": {"lat": 51.508737, "lng": -0.1235826}, "viewport": {"northeast": {"lat": 51.51012008029149, "lng": -0.122287019708498}, "southwest": {"lat": 51.50742211970849, "lng": -0.124984980291502}}}, "name": "Touchpaper Television", "place_id": "ChIJR6xbsc4EdkgRg-mJVAtKVqA", "types": ["point_of_interest", "establishment"], "rating": 5, "user_ratings_total": 2}, "ChIJsfbW9EsDdkgRfsAm9BPUzb8": {"geometry": {"location": {"lat": 51.50890769999999, "lng": -0.1232112}, "viewport": {"northeast": {"lat": 51.51023083029149, "lng": -0.121902819708498}, "southwest": {"lat": 51.50753286970849, "lng": -0.124600780291502}}}, "name": "ReSolve", "place_id": "ChIJsfbW9EsDdkgRfsAm9BPUzb8", "types": ["point_of_interest", "establishment"], "rating": 4.2, "user_ratings_total": 5}, "ChIJa9PpMq8EdkgRSgHBdaThuv0": {"geometry": {"location": {"lat": 51.508103, "lng": -0.1232642}, "viewport": {"northeast": {"lat": 51.5095135302915, "lng": -0.121825319708498}, "southwest": {"lat": 51.5068155697085, "lng": -0.124523280291502}}}, "name": "MRM London", "place_id": "ChIJa9PpMq8EdkgRSgHBdaThuv0", "types": ["point_of_interest", "establishment"], "rating": 4.8, "user_ratings_total": 6}, "ChIJhdPFS8kEdkgRVxGaJ4un-i8": {"geometry": {"location": {"lat": 51.5085994, "lng": -0.1226292}, "viewport": {"northeast": {"lat": 51.50991408029151, "lng": -0.121326219708498}, "southwest": {"lat": 51.50721611970851, "lng": -0.124024180291502}}}, "name": "ToCanvas Ltd.", "place_id": "ChIJhdPFS8kEdkgRVxGaJ4un-i8", "types": ["point_of_interest", "establishment"], "rating": 4.9, "user_ratings_total": 7}, "ChIJ772RSMkEdkgRjiW60mklx2g": {"geometry": {"location": {"lat": 51.5085855, "lng": -0.1226233}, "viewport": {"northeast": {"lat": 51.50990393029149, "lng": -0.121317069708498}, "southwest": {"lat": 51.50720596970849, "lng": -0.124015030291502}}}, "name": "Online IFA", "place_id": "ChIJ772RSMkEdkgRjiW60mklx2g", "types": ["finance", "point_of_interest", "establishment"]}, "ChIJdzixNMkEdkgRfCfe5jwAM1Q": {"geometry": {"location": {"lat": 51.508103, "lng": -0.1232642}, "viewport": {"northeast": {"lat": 51.5095135302915, "lng": -0.121825319708498}, "southwest": {"lat": 51.5068155697085, "lng": -0.124523280291502}}}, "name": "New Office", "place_id": "ChIJdzixNMkEdkgRfCfe5jwAM1Q", "types": ["point_of_interest", "establishment"]}, "ChIJdzixNMkEdkgRRD3GUzgAPzY": {"geometry": {"location": {"lat": 51.508103, "lng": -0.1232642}, "viewport": {"northeast": {"lat": 51.5095135302915, "lng": -0.121825319708498}, "southwest": {"lat": 51.5068155697085, "lng": -0.124523280291502}}}, "name": "Facewatch", "place_id": "ChIJdzixNMkEdkgRRD3GUzgAPzY", "types": ["point_of_interest", "establishment"], "rating": 5, "user_ratings_total": 2}, "ChIJXTn0yM4EdkgRSaV_zGoczWw": {"geometry": {"location": {"lat": 51.50824009999999, "lng": -0.1238025}, "viewport": {"northeast": {"lat": 51.5095461802915, "lng": -0.122509519708498}, "southwest": {"lat": 51.5068482197085, "lng": -0.125207480291502}}}, "name": "Pret A Manger", "place_id": "ChIJXTn0yM4EdkgRSaV_zGoczWw", "types": ["cafe", "restaurant", "food", "point_of_interest", "store", "establishment"], "rating": 4.1, "user_ratings_total": 103}, "ChIJa-Q3yM4EdkgRbadR-7dswC0": {"geometry": {"location": {"lat": 51.5082409, "lng": -0.1238886}, "viewport": {"northeast": {"lat": 51.5095616802915, "lng": -0.1225798697084979}, "southwest": {"lat": 51.5068637197085, "lng": -0.125277830291502}}}, "name": "Metf Bunker Services", "place_id": "ChIJa-Q3yM4EdkgRbadR-7dswC0", "types": ["point_of_interest", "establishment"]}, "ChIJ___cyM4EdkgRUr7kXsjIfxw": {"geometry": {"location": {"lat": 51.5081746, "lng": -0.1237969}, "viewport": {"northeast": {"lat": 51.50949973029149, "lng": -0.122481919708498}, "southwest": {"lat": 51.5068017697085, "lng": -0.125179880291502}}}, "name": "Nicholson's", "place_id": "ChIJ___cyM4EdkgRUr7kXsjIfxw", "types": ["bar", "point_of_interest", "establishment"], "rating": 4.1, "user_ratings_total": 170}, "ChIJk3EdNMkEdkgRWCUX6VDX1-I": {"geometry": {"location": {"lat": 51.5080939, "lng": -0.1229296}, "viewport": {"northeast": {"lat": 51.5094916802915, "lng": -0.121661469708498}, "southwest": {"lat": 51.5067937197085, "lng": -0.124359430291502}}}, "name": "Companies 365", "place_id": "ChIJk3EdNMkEdkgRWCUX6VDX1-I", "types": ["point_of_interest", "establishment"]}, "ChIJk8yvNMkEdkgRZtftkFLnoUI": {"geometry": {"location": {"lat": 51.5083196, "lng": -0.1234097}, "viewport": {"northeast": {"lat": 51.5096933802915, "lng": -0.122024519708498}, "southwest": {"lat": 51.5069954197085, "lng": -0.1247224802915021}}}, "name": "Regent London", "place_id": "ChIJk8yvNMkEdkgRZtftkFLnoUI", "types": ["point_of_interest", "establishment"], "rating": 4.5, "user_ratings_total": 12}, "ChIJySjzy84EdkgRDENeeEa0BtI": {"geometry": {"location": {"lat": 51.50804919999999, "lng": -0.1236099}, "viewport": {"northeast": {"lat": 51.5093863302915, "lng": -0.122277819708498}, "southwest": {"lat": 51.5066883697085, "lng": -0.124975780291502}}}, "name": "Simit Sarayi Villiers Street", "place_id": "ChIJySjzy84EdkgRDENeeEa0BtI", "types": ["bakery", "food", "point_of_interest", "store", "establishment"], "rating": 3.9, "user_ratings_total": 80}, "ChIJa3XnjM0EdkgRRXg19IaMiHA": {"geometry": {"location": {"lat": 51.5084095, "lng": -0.1235981}, "viewport": {"northeast": {"lat": 51.50978783029149, "lng": -0.122206269708498}, "southwest": {"lat": 51.5070898697085, "lng": -0.124904230291502}}}, "name": "Better Capital LLP", "place_id": "ChIJa3XnjM0EdkgRRXg19IaMiHA", "types": ["finance", "point_of_interest", "establishment"]}, "ChIJXbnxNckEdkgRmDrv7yNkpdc": {"geometry": {"location": {"lat": 51.50839089999999, "lng": -0.1229335}, "viewport": {"northeast": {"lat": 51.5096713802915, "lng": -0.121684519708498}, "southwest": {"lat": 51.5069734197085, "lng": -0.124382480291502}}}, "name": "Marubeni Oil & Gas", "place_id": "ChIJXbnxNckEdkgRmDrv7yNkpdc", "types": ["point_of_interest", "establishment"]}, "ChIJZf2Jlc4EdkgRLC67Axf5PJI": {"geometry": {"location": {"lat": 51.5083056, "lng": -0.1240693}, "viewport": {"northeast": {"lat": 51.5096413302915, "lng": -0.122733619708498}, "southwest": {"lat": 51.5069433697085, "lng": -0.125431580291502}}}, "name": "Hairville", "place_id": "ChIJZf2Jlc4EdkgRLC67Axf5PJI", "types": ["hair_care", "point_of_interest", "establishment"]}, "ChIJ3ZeiNckEdkgRUHT0L1cJYS0": {"geometry": {"location": {"lat": 51.5083006, "lng": -0.1230515}, "viewport": {"northeast": {"lat": 51.5096320802915, "lng": -0.1217487697084979}, "southwest": {"lat": 51.5069341197085, "lng": -0.124446730291502}}}, "name": "RedKite Financial Markets Ltd.", "place_id": "ChIJ3ZeiNckEdkgRUHT0L1cJYS0", "types": ["finance", "point_of_interest", "establishment"]}, "ChIJG23ox84EdkgREIaB5NtdE3w": {"geometry": {"location": {"lat": 51.50830559999999, "lng": -0.1240694}, "viewport": {"northeast": {"lat": 51.50969913029149, "lng": -0.122812769708498}, "southwest": {"lat": 51.5070011697085, "lng": -0.125510730291502}}}, "name": "Kingdom Of Sweets", "place_id": "ChIJG23ox84EdkgREIaB5NtdE3w", "types": ["food", "point_of_interest", "store", "establishment"], "rating": 3.9, "user_ratings_total": 405}, "ChIJZf2Jlc4EdkgRLwpmKR1p5G0": {"geometry": {"location": {"lat": 51.5082548, "lng": -0.1239157}, "viewport": {"northeast": {"lat": 51.50957588029149, "lng": -0.122606519708498}, "southwest": {"lat": 51.5068779197085, "lng": -0.125304480291502}}}, "name": "L'ulivo Charing Cross", "place_id": "ChIJZf2Jlc4EdkgRLwpmKR1p5G0", "types": ["restaurant", "food", "point_of_interest", "establishment"], "rating": 4, "user_ratings_total": 675}, "ChIJMTADt84EdkgRBvjT0pZXA-c": {"geometry": {"location": {"lat": 51.508637, "lng": -0.1237161}, "viewport": {"northeast": {"lat": 51.5099799802915, "lng": -0.122375869708498}, "southwest": {"lat": 51.50728201970851, "lng": -0.125073830291502}}}, "name": "Marubeni North Sea Ltd", "place_id": "ChIJMTADt84EdkgRBvjT0pZXA-c", "types": ["point_of_interest", "establishment"]}, "ChIJaeAfKMkEdkgRIy7QhQO8ARg": {"geometry": {"location": {"lat": 51.5086682, "lng": -0.1228015}, "viewport": {"northeast": {"lat": 51.50999198029151, "lng": -0.121489369708498}, "southwest": {"lat": 51.50729401970851, "lng": -0.124187330291502}}}, "name": "The London Dog Walkers", "place_id": "ChIJaeAfKMkEdkgRIy7QhQO8ARg", "types": ["point_of_interest", "establishment"], "rating": 4, "user_ratings_total": 1}, "ChIJAX-e_9QEdkgRDM1da7oTk3k": {"geometry": {"location": {"lat": 51.50839089999999, "lng": -0.1229335}, "viewport": {"northeast": {"lat": 51.5096713802915, "lng": -0.121684519708498}, "southwest": {"lat": 51.5069734197085, "lng": -0.124382480291502}}}, "name": "Deconstruct UK Ltd", "place_id": "ChIJAX-e_9QEdkgRDM1da7oTk3k", "types": ["general_contractor", "point_of_interest", "establishment"], "rating": 3.2, "user_ratings_total": 9}, "ChIJ4ZnOSFQFdkgRZve3e11wXL8": {"geometry": {"location": {"lat": 51.50862970000001, "lng": -0.1230771}, "viewport": {"northeast": {"lat": 51.5100066802915, "lng": -0.121687269708498}, "southwest": {"lat": 51.5073087197085, "lng": -0.124385230291502}}}, "name": "A Happier Lifestyle", "place_id": "ChIJ4ZnOSFQFdkgRZve3e11wXL8", "types": ["health", "point_of_interest", "establishment"], "rating": 5, "user_ratings_total": 7}, "ChIJER9dtM4EdkgR8-3zQ2aOiZ0": {"geometry": {"location": {"lat": 51.5086096, "lng": -0.1235186}, "viewport": {"northeast": {"lat": 51.5099208302915, "lng": -0.122224769708498}, "southwest": {"lat": 51.5072228697085, "lng": -0.124922730291502}}}, "name": "Zegona Communications plc", "place_id": "ChIJER9dtM4EdkgR8-3zQ2aOiZ0", "types": ["point_of_interest", "establishment"]}, "ChIJz0IDiUwbdkgRQnVbRTlg-LM": {"geometry": {"location": {"lat": 51.508388, "lng": -0.12298}, "viewport": {"northeast": {"lat": 51.5096764802915, "lng": -0.121719369708498}, "southwest": {"lat": 51.5069785197085, "lng": -0.124417330291502}}}, "name": "Interconnector (UK) Limited", "place_id": "ChIJz0IDiUwbdkgRQnVbRTlg-LM", "types": ["point_of_interest", "establishment"], "rating": 5, "user_ratings_total": 1}, "ChIJWV52TMkEdkgRIDnNN2twHqM": {"geometry": {"location": {"lat": 51.50871009999999, "lng": -0.1230385}, "viewport": {"northeast": {"lat": 51.5100357802915, "lng": -0.121723519708498}, "southwest": {"lat": 51.5073378197085, "lng": -0.124421480291502}}}, "name": "Slam Trading Limited", "place_id": "ChIJWV52TMkEdkgRIDnNN2twHqM", "types": ["point_of_interest", "establishment"]}, "ChIJWV52TMkEdkgRTQGwTBRez9k": {"geometry": {"location": {"lat": 51.50871329999999, "lng": -0.1230442}, "viewport": {"northeast": {"lat": 51.51003898029149, "lng": -0.121729219708498}, "southwest": {"lat": 51.5073410197085, "lng": -0.124427180291502}}}, "name": "Tml Realisations Limited", "place_id": "ChIJWV52TMkEdkgRTQGwTBRez9k", "types": ["point_of_interest", "establishment"]}, "ChIJWV52TMkEdkgR6ZYsxs3BoiY": {"geometry": {"location": {"lat": 51.50871329999999, "lng": -0.1230442}, "viewport": {"northeast": {"lat": 51.51003898029149, "lng": -0.121729219708498}, "southwest": {"lat": 51.5073410197085, "lng": -0.124427180291502}}}, "name": "Venice Tailoring Limited", "place_id": "ChIJWV52TMkEdkgR6ZYsxs3BoiY", "types": ["clothing_store", "point_of_interest", "store", "establishment"]}, "ChIJWV52TMkEdkgRis1GCK3_f-U": {"geometry": {"location": {"lat": 51.50871329999999, "lng": -0.1230442}, "viewport": {"northeast": {"lat": 51.51003898029149, "lng": -0.121729219708498}, "southwest": {"lat": 51.5073410197085, "lng": -0.124427180291502}}}, "name": "Aim Hire Global Limited", "place_id": "ChIJWV52TMkEdkgRis1GCK3_f-U", "types": ["point_of_interest", "establishment"]}, "ChIJWV52TMkEdkgRXB16GuSF3PE": {"geometry": {"location": {"lat": 51.50871329999999, "lng": -0.1230442}, "viewport": {"northeast": {"lat": 51.51003898029149, "lng": -0.121729219708498}, "southwest": {"lat": 51.5073410197085, "lng": -0.124427180291502}}}, "name": "Badger Holdco Limited", "place_id": "ChIJWV52TMkEdkgRXB16GuSF3PE", "types": ["point_of_interest", "establishment"]}, "ChIJCQsBSskEdkgR9Eo7vz1dqL0": {"geometry": {"location": {"lat": 51.508388, "lng": -0.1229392}, "viewport": {"northeast": {"lat": 51.50967018029149, "lng": -0.121687769708498}, "southwest": {"lat": 51.50697221970849, "lng": -0.124385730291502}}}, "name": "Chatham Financial", "place_id": "ChIJCQsBSskEdkgR9Eo7vz1dqL0", "types": ["finance", "point_of_interest", "establishment"], "rating": 5, "user_ratings_total": 1}, "ChIJCQsBSskEdkgR7h6PsaV_HVM": {"geometry": {"location": {"lat": 51.508388, "lng": -0.1229392}, "viewport": {"northeast": {"lat": 51.50967018029149, "lng": -0.121687769708498}, "southwest": {"lat": 51.50697221970849, "lng": -0.124385730291502}}}, "name": "Greencoat Uk Wind Plc", "place_id": "ChIJCQsBSskEdkgR7h6PsaV_HVM", "types": ["point_of_interest", "establishment"]}, "ChIJmU4kq8wEdkgRKhhhfk9dkNk": {"geometry": {"location": {"lat": 51.50839819999999, "lng": -0.1236193}, "viewport": {"northeast": {"lat": 51.5097824802915, "lng": -0.122217419708498}, "southwest": {"lat": 51.5070845197085, "lng": -0.124915380291502}}}, "name": "Wizard Cyber", "place_id": "ChIJmU4kq8wEdkgRKhhhfk9dkNk", "types": ["point_of_interest", "establishment"], "rating": 5, "user_ratings_total": 3}, "ChIJ_xp-kaIFdkgRjH_gV-BHR58": {"geometry": {"location": {"lat": 51.508558, "lng": -0.1228691}, "viewport": {"northeast": {"lat": 51.50991448029151, "lng": -0.121509069708498}, "southwest": {"lat": 51.50721651970851, "lng": -0.124207030291502}}}, "name": "Appt", "place_id": "ChIJ_xp-kaIFdkgRjH_gV-BHR58", "types": ["lodging", "point_of_interest", "establishment"]}, "ChIJFeD7tc4EdkgREwI02TdnLbM": {"geometry": {"location": {"lat": 51.50839329999999, "lng": -0.1236333}, "viewport": {"northeast": {"lat": 51.50978153029149, "lng": -0.122227019708498}, "southwest": {"lat": 51.50708356970849, "lng": -0.124924980291502}}}, "name": "Perscitus LLP", "place_id": "ChIJFeD7tc4EdkgREwI02TdnLbM", "types": ["finance", "point_of_interest", "establishment"]}, "ChIJAQBsys4EdkgR2qNUzsTZ3MU": {"geometry": {"location": {"lat": 51.50831100000001, "lng": -0.1235465}, "viewport": {"northeast": {"lat": 51.5097083302915, "lng": -0.122126969708498}, "southwest": {"lat": 51.5070103697085, "lng": -0.124824930291502}}}, "name": "Safe Harbour Holdings plc", "place_id": "ChIJAQBsys4EdkgR2qNUzsTZ3MU", "types": ["point_of_interest", "establishment"]}, "ChIJsfqjLckEdkgR73uVECYZnRY": {"geometry": {"location": {"lat": 51.5076096001529, "lng": -0.1229589495517099}, "viewport": {"northeast": {"lat": 51.5089585802915, "lng": -0.121609969708498}, "southwest": {"lat": 51.5062606197085, "lng": -0.124307930291502}}}, "name": "53 Villiers St", "place_id": "ChIJsfqjLckEdkgR73uVECYZnRY", "types": ["route"]}, "ChIJSWvAzM4EdkgRaZcCMhRbk0Q": {"geometry": {"location": {"lat": 51.50794399999999, "lng": -0.123314}, "viewport": {"northeast": {"lat": 51.50925653029149, "lng": -0.122010169708498}, "southwest": {"lat": 51.5065585697085, "lng": -0.124708130291502}}}, "name": "Gordon's Wine Bar", "place_id": "ChIJSWvAzM4EdkgRaZcCMhRbk0Q", "types": ["bar", "food", "point_of_interest", "establishment"], "rating": 4.6, "user_ratings_total": 3888}, "ChIJjW0uFDwbdkgRoILmz55a85I": {"geometry": {"location": {"lat": 51.5076066, "lng": -0.123097}, "viewport": {"northeast": {"lat": 51.50898043029149, "lng": -0.121726319708498}, "southwest": {"lat": 51.50628246970849, "lng": -0.124424280291502}}}, "name": "Wasabi Sushi & Bento", "place_id": "ChIJjW0uFDwbdkgRoILmz55a85I", "types": ["meal_takeaway", "restaurant", "food", "point_of_interest", "establishment"], "rating": 4, "user_ratings_total": 145}, "ChIJcb8wyc4EdkgRIqrR_SGdVLc": {"geometry": {"location": {"lat": 51.50745, "lng": -0.122863}, "viewport": {"northeast": {"lat": 51.50883323029149, "lng": -0.121483619708498}, "southwest": {"lat": 51.50613526970849, "lng": -0.124181580291502}}}, "name": "Starbucks", "place_id": "ChIJcb8wyc4EdkgRIqrR_SGdVLc", "types": ["cafe", "restaurant", "food", "point_of_interest", "store", "establishment"], "rating": 3.9, "user_ratings_total": 478}, "ChIJYWApKckEdkgR_7pALDSsyiM": {"geometry": {"location": {"lat": 51.5072339, "lng": -0.1229075}, "viewport": {"northeast": {"lat": 51.5086299802915, "lng": -0.121464069708498}, "southwest": {"lat": 51.5059320197085, "lng": -0.124162030291502}}}, "name": "Subway", "place_id": "ChIJYWApKckEdkgR_7pALDSsyiM", "types": ["meal_takeaway", "restaurant", "food", "point_of_interest", "establishment"], "rating": 3.7, "user_ratings_total": 360}, "ChIJZf2Jlc4EdkgRPLwdn9LZgwY": {"geometry": {"location": {"lat": 51.5078648, "lng": -0.1232058}, "viewport": {"northeast": {"lat": 51.5091867302915, "lng": -0.121901369708498}, "southwest": {"lat": 51.5064887697085, "lng": -0.124599330291502}}}, "name": "Treats Sandwich Bar", "place_id": "ChIJZf2Jlc4EdkgRPLwdn9LZgwY", "types": ["meal_takeaway", "restaurant", "food", "point_of_interest", "establishment"], "rating": 4.3, "user_ratings_total": 3}, "ChIJgVkHzc4EdkgROuol9sZwPMc": {"geometry": {"location": {"lat": 51.5078648, "lng": -0.1232058}, "viewport": {"northeast": {"lat": 51.5091867302915, "lng": -0.121901369708498}, "southwest": {"lat": 51.5064887697085, "lng": -0.124599330291502}}}, "name": "One Embankment Place", "place_id": "ChIJgVkHzc4EdkgROuol9sZwPMc", "types": ["point_of_interest", "establishment"], "rating": 4, "user_ratings_total": 2}, "ChIJF4xJ1s4EdkgRY42ofH5AK64": {"geometry": {"location": {"lat": 51.507147, "lng": -0.123815}, "viewport": {"northeast": {"lat": 51.5084330802915, "lng": -0.122550769708498}, "southwest": {"lat": 51.5057351197085, "lng": -0.125248730291502}}}, "name": "John Ellerman Foundation", "place_id": "ChIJF4xJ1s4EdkgRY42ofH5AK64", "types": ["point_of_interest", "establishment"], "rating": 5, "user_ratings_total": 1}, "ChIJFdii2s4EdkgR280ZUH4ZHgo": {"geometry": {"location": {"lat": 51.50764290000001, "lng": -0.1240685}, "viewport": {"northeast": {"lat": 51.5089035802915, "lng": -0.122848469708498}, "southwest": {"lat": 51.50620561970851, "lng": -0.125546430291502}}}, "name": "PWC London - Embankment", "place_id": "ChIJFdii2s4EdkgR280ZUH4ZHgo", "types": ["accounting", "finance", "point_of_interest", "establishment"], "rating": 4.3, "user_ratings_total": 40}, "ChIJs3jT2s4EdkgRQ0Gn319lUwk": {"geometry": {"location": {"lat": 51.50764290000001, "lng": -0.1240685}, "viewport": {"northeast": {"lat": 51.5089035802915, "lng": -0.122848469708498}, "southwest": {"lat": 51.50620561970851, "lng": -0.125546430291502}}}, "name": "PricewaterhouseCoopers LLP", "place_id": "ChIJs3jT2s4EdkgRQ0Gn319lUwk", "types": ["point_of_interest", "establishment"], "rating": 5, "user_ratings_total": 1}, "ChIJAzbHms4EdkgR8JEkqOsjD_I": {"geometry": {"location": {"lat": 51.5072222, "lng": -0.1227778}, "viewport": {"northeast": {"lat": 51.50862413029149, "lng": -0.121421619708498}, "southwest": {"lat": 51.50592616970849, "lng": -0.124119580291502}}}, "name": "Costa Coffee", "place_id": "ChIJAzbHms4EdkgR8JEkqOsjD_I", "types": ["cafe", "food", "point_of_interest", "store", "establishment"], "rating": 4, "user_ratings_total": 297}, "ChIJeR7GISsFdkgRA0VvHaXqdtQ": {"geometry": {"location": {"lat": 51.5075755, "lng": -0.123077}, "viewport": {"northeast": {"lat": 51.50895208029149, "lng": -0.121687569708498}, "southwest": {"lat": 51.50625411970849, "lng": -0.124385530291502}}}, "name": "Roma Numismatics", "place_id": "ChIJeR7GISsFdkgRA0VvHaXqdtQ", "types": ["point_of_interest", "establishment"], "rating": 5, "user_ratings_total": 4}, "ChIJ8QMtLMkEdkgR8WxX9Nby3iQ": {"geometry": {"location": {"lat": 51.5075724, "lng": -0.1230471}, "viewport": {"northeast": {"lat": 51.5089028302915, "lng": -0.121596419708498}, "southwest": {"lat": 51.5062048697085, "lng": -0.124294380291502}}}, "name": "Gifts of London", "place_id": "ChIJ8QMtLMkEdkgR8WxX9Nby3iQ", "types": ["point_of_interest", "store", "establishment"], "rating": 2.4, "user_ratings_total": 9}, "ChIJNZ52LMkEdkgRnkVOGdVpaR4": {"geometry": {"location": {"lat": 51.5075489, "lng": -0.1229805}, "viewport": {"northeast": {"lat": 51.5088905302915, "lng": -0.121581319708498}, "southwest": {"lat": 51.5061925697085, "lng": -0.124279280291502}}}, "name": "Hempsons House", "place_id": "ChIJNZ52LMkEdkgRnkVOGdVpaR4", "types": ["point_of_interest", "establishment"]}, "ChIJmQxiNCEFdkgRQ3Ic85sRFdU": {"geometry": {"location": {"lat": 51.5073614, "lng": -0.1228836}, "viewport": {"northeast": {"lat": 51.5087527302915, "lng": -0.121447719708498}, "southwest": {"lat": 51.50605476970851, "lng": -0.124145680291502}}}, "name": "Charing Cross Collectors Market", "place_id": "ChIJmQxiNCEFdkgRQ3Ic85sRFdU", "types": ["point_of_interest", "establishment"], "rating": 3.8, "user_ratings_total": 8}, "ChIJg3ebd_QFdkgR7Oal2hX87D0": {"geometry": {"location": {"lat": 51.50730089999999, "lng": -0.1228153}, "viewport": {"northeast": {"lat": 51.5086634802915, "lng": -0.121421619708498}, "southwest": {"lat": 51.5059655197085, "lng": -0.124119580291502}}}, "name": "Hungerford Embankment Bridge Shops", "place_id": "ChIJg3ebd_QFdkgR7Oal2hX87D0", "types": ["store", "point_of_interest", "establishment"]}, "ChIJ08w8ilYFdkgRoljuB3dde-k": {"geometry": {"location": {"lat": 51.50724830000001, "lng": -0.1228378}, "viewport": {"northeast": {"lat": 51.50863718029151, "lng": -0.121429219708498}, "southwest": {"lat": 51.50593921970851, "lng": -0.124127180291502}}}, "name": "Regent Dry Cleaners", "place_id": "ChIJ08w8ilYFdkgRoljuB3dde-k", "types": ["clothing_store", "point_of_interest", "store", "establishment"], "rating": 4, "user_ratings_total": 4}, "ChIJXWziVjEFdkgRvlS2SXZL19Q": {"geometry": {"location": {"lat": 51.5077574, "lng": -0.1229483}, "viewport": {"northeast": {"lat": 51.5091063802915, "lng": -0.121599319708498}, "southwest": {"lat": 51.5064084197085, "lng": -0.124297280291502}}}, "name": "Cravings Express", "place_id": "ChIJXWziVjEFdkgRvlS2SXZL19Q", "types": ["convenience_store", "food", "point_of_interest", "store", "establishment"]}, "ChIJ8x6-a5MFdkgR1QIw1_ALn48": {"geometry": {"location": {"lat": 51.5078191, "lng": -0.1233081}, "viewport": {"northeast": {"lat": 51.5091680802915, "lng": -0.121959119708498}, "southwest": {"lat": 51.5064701197085, "lng": -0.124657080291502}}},