{"E00023974": {"ChIJMdK6DOYEdkgRW7UkpAfrJy8": {"geometry": {"location": {"lat": 51.48907215661022, "lng": -0.130541884746435}, "viewport": {"northeast": {"lat": 51.49042453029149, "lng": -0.129188419708498}, "southwest": {"lat": 51.48772656970849, "lng": -0.131886380291502}}}, "name": "Bessborough Gardens", "place_id": "ChIJMdK6DOYEdkgRW7UkpAfrJy8", "types": ["route"]}, "ChIJJWm3DOYEdkgROvkA65GsJMU": {"geometry": {"location": {"lat": 51.4890545, "lng": -0.1305105}, "viewport": {"northeast": {"lat": 51.49042753029151, "lng": -0.129128919708498}, "southwest": {"lat": 51.48772956970851, "lng": -0.131826880291502}}}, "name": "TableAir", "place_id": "ChIJJWm3DOYEdkgROvkA65GsJMU", "types": ["point_of_interest", "establishment"]}, "ChIJi3lDdeYEdkgRL_nRYsGBhK4": {"geometry": {"location": {"lat": 51.48882219999999, "lng": -0.1307352}, "viewport": {"northeast": {"lat": 51.4902733802915, "lng": -0.129247419708498}, "southwest": {"lat": 51.4875754197085, "lng": -0.131945380291502}}}, "name": "Bessborough Gardens", "place_id": "ChIJi3lDdeYEdkgRL_nRYsGBhK4", "types": ["park", "point_of_interest", "establishment"], "rating": 4.3, "user_ratings_total": 102}, "ChIJ8e4uiI4FdkgRcRdijgZ4CxQ": {"geometry": {"location": {"lat": 51.4886424, "lng": -0.1308757}, "viewport": {"northeast": {"lat": 51.4898635302915, "lng": -0.129679169708498}, "southwest": {"lat": 51.4871655697085, "lng": -0.132377130291502}}}, "name": "Flourish Mindfully London", "place_id": "ChIJ8e4uiI4FdkgRcRdijgZ4CxQ", "types": ["school", "health", "point_of_interest", "establishment"], "rating": 5, "user_ratings_total": 4}, "ChIJv7fh2uUEdkgR_XtxpD_PAvU": {"geometry": {"location": {"lat": 51.4885344, "lng": -0.131147}, "viewport": {"northeast": {"lat": 51.48983078029151, "lng": -0.1298607197084979}, "southwest": {"lat": 51.48713281970851, "lng": -0.132558680291502}}}, "name": "The Roof Company", "place_id": "ChIJv7fh2uUEdkgR_XtxpD_PAvU", "types": ["roofing_contractor", "point_of_interest", "establishment"]}, "ChIJ9QgedIwFdkgRLglV0q5m4WY": {"geometry": {"location": {"lat": 51.488995, "lng": -0.1316226}, "viewport": {"northeast": {"lat": 51.4903660302915, "lng": -0.130320369708498}, "southwest": {"lat": 51.4876680697085, "lng": -0.133018330291502}}}, "name": "IT Support London - Inflection Point", "place_id": "ChIJ9QgedIwFdkgRLglV0q5m4WY", "types": ["point_of_interest", "establishment"]}, "ChIJydRpa-oFdkgRiAkhk6mhsqk": {"geometry": {"location": {"lat": 51.48896250000001, "lng": -0.1302467}, "viewport": {"northeast": {"lat": 51.4903113302915, "lng": -0.128897969708498}, "southwest": {"lat": 51.48761336970851, "lng": -0.131595930291502}}}, "name": "Traffic camra", "place_id": "ChIJydRpa-oFdkgRiAkhk6mhsqk", "types": ["point_of_interest", "establishment"]}, "ChIJu6m12_MFdkgR01Yd2E2Sj3U": {"geometry": {"location": {"lat": 51.4884326, "lng": -0.1312796}, "viewport": {"northeast": {"lat": 51.4898068802915, "lng": -0.129900569708498}, "southwest": {"lat": 51.4871089197085, "lng": -0.132598530291502}}}, "name": "Ashgrove House", "place_id": "ChIJu6m12_MFdkgR01Yd2E2Sj3U", "types": ["lodging", "point_of_interest", "establishment"], "rating": 4.5, "user_ratings_total": 2}, "ChIJMdxbfOYEdkgRm3wYzKP6zTQ": {"geometry": {"location": {"lat": 51.4891085, "lng": -0.1317005}, "viewport": {"northeast": {"lat": 51.49042427729989, "lng": -0.130374472620775}, "southwest": {"lat": 51.48772631671689, "lng": -0.133072433203779}}}, "name": "Parking lot", "place_id": "ChIJMdxbfOYEdkgRm3wYzKP6zTQ", "types": ["parking", "premise", "point_of_interest", "establishment"]}, "ChIJN1g_wOUEdkgRRdSCxHPIkFw": {"geometry": {"location": {"lat": 51.48732827202244, "lng": -0.1307204816735813}, "viewport": {"northeast": {"lat": 51.4886771302915, "lng": -0.1293709697084979}, "southwest": {"lat": 51.4859791697085, "lng": -0.132068930291502}}}, "name": "Grosvenor Road", "place_id": "ChIJN1g_wOUEdkgRRdSCxHPIkFw", "types": ["route"]}, "ChIJdVPK0F8FdkgRXbgbIC0e-VQ": {"geometry": {"location": {"lat": 51.487913, "lng": -0.130978}, "viewport": {"northeast": {"lat": 51.4892712302915, "lng": -0.129649069708498}, "southwest": {"lat": 51.4865732697085, "lng": -0.132347030291502}}}, "name": "Jill Okare", "place_id": "ChIJdVPK0F8FdkgRXbgbIC0e-VQ", "types": ["school", "point_of_interest", "establishment"]}, "ChIJkyhlz-UEdkgRvGIBQPBGUoU": {"geometry": {"location": {"lat": 51.48779309999999, "lng": -0.1313165}, "viewport": {"northeast": {"lat": 51.4891580302915, "lng": -0.130001819708498}, "southwest": {"lat": 51.4864600697085, "lng": -0.132699780291502}}}, "name": "Martial Arts Charitable Trust", "place_id": "ChIJkyhlz-UEdkgRvGIBQPBGUoU", "types": ["point_of_interest", "establishment"]}, "ChIJNZw10OUEdkgREQie0-SyziI": {"geometry": {"location": {"lat": 51.48807849999999, "lng": -0.1314543}, "viewport": {"northeast": {"lat": 51.4893744302915, "lng": -0.129987819708498}, "southwest": {"lat": 51.4866764697085, "lng": -0.132685780291502}}}, "name": "Grove Investment Management Limited", "place_id": "ChIJNZw10OUEdkgREQie0-SyziI", "types": ["finance", "point_of_interest", "establishment"]}, "ChIJNZw10OUEdkgREnZK7_AZ5-Q": {"geometry": {"location": {"lat": 51.48807849999999, "lng": -0.1314543}, "viewport": {"northeast": {"lat": 51.4893744302915, "lng": -0.129987819708498}, "southwest": {"lat": 51.4866764697085, "lng": -0.132685780291502}}}, "name": "Storm Petroleum Limited", "place_id": "ChIJNZw10OUEdkgREnZK7_AZ5-Q", "types": ["point_of_interest", "establishment"]}, "ChIJNQ-QGxgFdkgRFLBJdF6Qumo": {"geometry": {"location": {"lat": 51.4875461, "lng": -0.1317125}, "viewport": {"northeast": {"lat": 51.4888931802915, "lng": -0.130488819708498}, "southwest": {"lat": 51.4861952197085, "lng": -0.133186780291502}}}, "name": "A to Z Gadgets UK", "place_id": "ChIJNQ-QGxgFdkgRFLBJdF6Qumo", "types": ["point_of_interest", "store", "establishment"], "rating": 5, "user_ratings_total": 1}, "ChIJ-xn4r-UEdkgRVNf9izQh9LQ": {"geometry": {"location": {"lat": 51.48668197843391, "lng": -0.1311882024477358}, "viewport": {"northeast": {"lat": 51.48803713029149, "lng": -0.129851519708498}, "southwest": {"lat": 51.48533916970849, "lng": -0.132549480291502}}}, "name": "79 Grosvenor Rd", "place_id": "ChIJ-xn4r-UEdkgRVNf9izQh9LQ", "types": ["route"]}, "ChIJk3ZLruUEdkgRizv6E6-WPfU": {"geometry": {"location": {"lat": 51.4865908, "lng": -0.1315063}, "viewport": {"northeast": {"lat": 51.4879397802915, "lng": -0.130157319708498}, "southwest": {"lat": 51.4852418197085, "lng": -0.132855280291502}}}, "name": "The Grosvenor pub", "place_id": "ChIJk3ZLruUEdkgRizv6E6-WPfU", "types": ["bar", "point_of_interest", "establishment"], "rating": 4.3, "user_ratings_total": 398}, "ChIJXZAabeMEdkgRkH22Xr7ORFc": {"geometry": {"location": {"lat": 51.48696959999999, "lng": -0.1305755}, "viewport": {"northeast": {"lat": 51.4883385302915, "lng": -0.129316869708498}, "southwest": {"lat": 51.4856405697085, "lng": -0.132014830291502}}}, "name": "S M C UK Ltd", "place_id": "ChIJXZAabeMEdkgRkH22Xr7ORFc", "types": ["point_of_interest", "establishment"]}, "ChIJb5wZuZoFdkgRAWqcDgTHhN4": {"geometry": {"location": {"lat": 51.4865897, "lng": -0.1315339}, "viewport": {"northeast": {"lat": 51.4879036802915, "lng": -0.130138069708498}, "southwest": {"lat": 51.4852057197085, "lng": -0.132836030291502}}}, "name": "iPlumber London", "place_id": "ChIJb5wZuZoFdkgRAWqcDgTHhN4", "types": ["plumber", "point_of_interest", "establishment"]}, "ChIJiQkZueUEdkgR7G5nvtP8uXM": {"geometry": {"location": {"lat": 51.4871496, "lng": -0.1310185}, "viewport": {"northeast": {"lat": 51.4885130802915, "lng": -0.129734219708498}, "southwest": {"lat": 51.4858151197085, "lng": -0.132432180291502}}}, "name": "Lilyford Homes Ltd", "place_id": "ChIJiQkZueUEdkgR7G5nvtP8uXM", "types": ["point_of_interest", "establishment"]}, "ChIJFaFTgeYEdkgRBSR5SfER_-Y": {"geometry": {"location": {"lat": 51.48896613540231, "lng": -0.1323533793636492}, "viewport": {"northeast": {"lat": 51.4903183302915, "lng": -0.131007069708498}, "southwest": {"lat": 51.4876203697085, "lng": -0.133705030291502}}}, "name": "Drummond Gate", "place_id": "ChIJFaFTgeYEdkgRBSR5SfER_-Y", "types": ["route"]}, "ChIJUdbTKeQEdkgRU_Fdjr1_6ag": {"geometry": {"location": {"lat": 51.488568, "lng": -0.132723}, "viewport": {"northeast": {"lat": 51.4898824302915, "lng": -0.131433919708498}, "southwest": {"lat": 51.4871844697085, "lng": -0.134131880291502}}}, "name": "Pimlico Counsellors & Psychotherapists at Therapport", "place_id": "ChIJUdbTKeQEdkgRU_Fdjr1_6ag", "types": ["health", "point_of_interest", "establishment"]}, "ChIJ__3VLeQEdkgR1tAR8VtNhE8": {"geometry": {"location": {"lat": 51.48857880000001, "lng": -0.1326511}, "viewport": {"northeast": {"lat": 51.4899215302915, "lng": -0.131249569708498}, "southwest": {"lat": 51.4872235697085, "lng": -0.133947530291502}}}, "name": "Christian Koebbel Counselling & Psychotherapy", "place_id": "ChIJ__3VLeQEdkgR1tAR8VtNhE8", "types": ["doctor", "health", "point_of_interest", "establishment"], "rating": 5, "user_ratings_total": 1}, "ChIJMxLLqbQEdkgRAlPHZZXm0uA": {"geometry": {"location": {"lat": 51.4885682, "lng": -0.1327227}, "viewport": {"northeast": {"lat": 51.4899171802915, "lng": -0.131373719708498}, "southwest": {"lat": 51.4872192197085, "lng": -0.134071680291502}}}, "name": "Tim LeBon (M.A Oxon Accredited psychotherapist) Psychotherapy & Counselling", "place_id": "ChIJMxLLqbQEdkgRAlPHZZXm0uA", "types": ["health", "point_of_interest", "establishment"]}, "ChIJoRzd6tsFdkgRaI8JiHDRhZs": {"geometry": {"location": {"lat": 51.4885295, "lng": -0.1326778}, "viewport": {"northeast": {"lat": 51.4898704302915, "lng": -0.131272469708498}, "southwest": {"lat": 51.4871724697085, "lng": -0.133970430291502}}}, "name": "Cecilia Hazlerigg - Psychotherapeutic Consultancy", "place_id": "ChIJoRzd6tsFdkgRaI8JiHDRhZs", "types": ["health", "point_of_interest", "establishment"]}, "ChIJVyOtKeQEdkgR3DJLwGhTAnI": {"geometry": {"location": {"lat": 51.4886727, "lng": -0.1326789}, "viewport": {"northeast": {"lat": 51.49001103029151, "lng": -0.131248469708498}, "southwest": {"lat": 51.48731306970851, "lng": -0.133946430291502}}}, "name": "Transcendental Meditation London, Pimlico - The Meditation Trust", "place_id": "ChIJVyOtKeQEdkgR3DJLwGhTAnI", "types": ["health", "point_of_interest", "establishment"], "rating": 4.9, "user_ratings_total": 19}, "ChIJwRdzKOQEdkgRN4meIKPSRmk": {"geometry": {"location": {"lat": 51.4885683, "lng": -0.1327226}, "viewport": {"northeast": {"lat": 51.4898826302915, "lng": -0.131433769708498}, "southwest": {"lat": 51.4871846697085, "lng": -0.134131730291502}}}, "name": "Ula", "place_id": "ChIJwRdzKOQEdkgRN4meIKPSRmk", "types": ["health", "point_of_interest", "establishment"]}, "ChIJwRdzKOQEdkgRujr3youDPZM": {"geometry": {"location": {"lat": 51.4885683, "lng": -0.1327226}, "viewport": {"northeast": {"lat": 51.4898826302915, "lng": -0.131433769708498}, "southwest": {"lat": 51.4871846697085, "lng": -0.134131730291502}}}, "name": "Peter Teigen Psychotherapy", "place_id": "ChIJwRdzKOQEdkgRujr3youDPZM", "types": ["health", "point_of_interest", "establishment"]}, "ChIJwRdzKOQEdkgRa1_WGDL9R14": {"geometry": {"location": {"lat": 51.4885683, "lng": -0.1327226}, "viewport": {"northeast": {"lat": 51.4898826302915, "lng": -0.131433769708498}, "southwest": {"lat": 51.4871846697085, "lng": -0.134131730291502}}}, "name": "NB Counselling", "place_id": "ChIJwRdzKOQEdkgRa1_WGDL9R14", "types": ["health", "point_of_interest", "establishment"]}, "ChIJwRdzKOQEdkgRqOJNKxlBm4s": {"geometry": {"location": {"lat": 51.4885683, "lng": -0.1327226}, "viewport": {"northeast": {"lat": 51.4898826302915, "lng": -0.131433769708498}, "southwest": {"lat": 51.4871846697085, "lng": -0.134131730291502}}}, "name": "Meirion Todd", "place_id": "ChIJwRdzKOQEdkgRqOJNKxlBm4s", "types": ["health", "point_of_interest", "establishment"]}, "ChIJHxeDKuQEdkgRkjaPg8jArAM": {"geometry": {"location": {"lat": 51.4886547, "lng": -0.1323582}, "viewport": {"northeast": {"lat": 51.49001353029149, "lng": -0.131084219708498}, "southwest": {"lat": 51.48731556970849, "lng": -0.133782180291502}}}, "name": "Westminster Cathedral R C Primary School", "place_id": "ChIJHxeDKuQEdkgRkjaPg8jArAM", "types": ["primary_school", "school", "point_of_interest", "establishment"], "rating": 5, "user_ratings_total": 2}, "ChIJ6TYjfeYEdkgRAkpEtue1hCo": {"geometry": {"location": {"lat": 51.4892638, "lng": -0.1322961}, "viewport": {"northeast": {"lat": 51.4905538802915, "lng": -0.130832269708498}, "southwest": {"lat": 51.4878559197085, "lng": -0.133530230291502}}}, "name": "etc.venues Victoria", "place_id": "ChIJ6TYjfeYEdkgRAkpEtue1hCo", "types": ["point_of_interest", "establishment"], "rating": 4.4, "user_ratings_total": 19}, "ChIJh93RCHQFdkgRYZSGWDx6UGk": {"geometry": {"location": {"lat": 51.48869769999999, "lng": -0.1326434}, "viewport": {"northeast": {"lat": 51.4900377302915, "lng": -0.131225919708498}, "southwest": {"lat": 51.4873397697085, "lng": -0.133923880291502}}}, "name": "Robota", "place_id": "ChIJh93RCHQFdkgRYZSGWDx6UGk", "types": ["general_contractor", "point_of_interest", "establishment"]}, "ChIJVyOtKeQEdkgRpoa2jRROGio": {"geometry": {"location": {"lat": 51.488603, "lng": -0.1327007}, "viewport": {"northeast": {"lat": 51.4899410302915, "lng": -0.131271669708498}, "southwest": {"lat": 51.48724306970851, "lng": -0.1339696302915021}}}, "name": "Gestalt Counselling & Psychotherapy Practice", "place_id": "ChIJVyOtKeQEdkgRpoa2jRROGio", "types": ["health", "point_of_interest", "establishment"]}, "ChIJgVjWnuYEdkgRXOrc4ErGt_I": {"geometry": {"location": {"lat": 51.4889562, "lng": -0.1332142}, "viewport": {"northeast": {"lat": 51.4903318802915, "lng": -0.131869819708498}, "southwest": {"lat": 51.4876339197085, "lng": -0.134567780291502}}}, "name": "Pimlico (Stop J)", "place_id": "ChIJgVjWnuYEdkgRXOrc4ErGt_I", "types": ["transit_station", "point_of_interest", "establishment"], "rating": 5, "user_ratings_total": 1}, "ChIJtxdzKOQEdkgRZIzU9hc6COk": {"geometry": {"location": {"lat": 51.4885682, "lng": -0.1327227}, "viewport": {"northeast": {"lat": 51.4898825802915, "lng": -0.131433819708498}, "southwest": {"lat": 51.4871846197085, "lng": -0.134131780291502}}}, "name": "Susy Hogarth", "place_id": "ChIJtxdzKOQEdkgRZIzU9hc6COk", "types": ["health", "point_of_interest", "establishment"]}, "ChIJtxdzKOQEdkgRJkp1v7BliRE": {"geometry": {"location": {"lat": 51.4885682, "lng": -0.1327227}, "viewport": {"northeast": {"lat": 51.4898825802915, "lng": -0.131433819708498}, "southwest": {"lat": 51.4871846197085, "lng": -0.134131780291502}}}, "name": "HELEN THOMAS", "place_id": "ChIJtxdzKOQEdkgRJkp1v7BliRE", "types": ["health", "point_of_interest", "establishment"]}, "ChIJtxdzKOQEdkgRqMySI7Itjks": {"geometry": {"location": {"lat": 51.4885682, "lng": -0.1327227}, "viewport": {"northeast": {"lat": 51.4898825802915, "lng": -0.131433819708498}, "southwest": {"lat": 51.4871846197085, "lng": -0.134131780291502}}}, "name": "Therapport Limited", "place_id": "ChIJtxdzKOQEdkgRqMySI7Itjks", "types": ["health", "point_of_interest", "establishment"]}, "ChIJc7J17aAbdkgRz33AckHvt4w": {"geometry": {"location": {"lat": 51.488568, "lng": -0.132723}, "viewport": {"northeast": {"lat": 51.4898824302915, "lng": -0.131433919708498}, "southwest": {"lat": 51.4871844697085, "lng": -0.134131880291502}}}, "name": "Anna Gyorfi", "place_id": "ChIJc7J17aAbdkgRz33AckHvt4w", "types": ["health", "point_of_interest", "establishment"], "rating": 5, "user_ratings_total": 6}, "ChIJvZPeJToFdkgRuLt-pIsZMF4": {"geometry": {"location": {"lat": 51.4892201, "lng": -0.1329987}, "viewport": {"northeast": {"lat": 51.49056908029149, "lng": -0.131649719708498}, "southwest": {"lat": 51.48787111970849, "lng": -0.134347680291502}}}, "name": "eduardo paolozzi vent", "place_id": "ChIJvZPeJToFdkgRuLt-pIsZMF4", "types": ["tourist_attraction", "point_of_interest", "establishment"]}, "ChIJI5j_mOYEdkgRp92svZuct5Y": {"geometry": {"location": {"lat": 51.489143, "lng": -0.133316}, "viewport": {"northeast": {"lat": 51.4904336802915, "lng": -0.131984569708498}, "southwest": {"lat": 51.4877357197085, "lng": -0.134682530291502}}}, "name": "Pimlico (Stop H)", "place_id": "ChIJI5j_mOYEdkgRp92svZuct5Y", "types": ["transit_station", "point_of_interest", "establishment"]}, "ChIJJ57pJeQEdkgRCFMz2y-5bb8": {"geometry": {"location": {"lat": 51.48827033234161, "lng": -0.1329520390108484}, "viewport": {"northeast": {"lat": 51.4896190302915, "lng": -0.131483669708498}, "southwest": {"lat": 51.4869210697085, "lng": -0.134181630291502}}}, "name": "48-64 Bessborough Pl", "place_id": "ChIJJ57pJeQEdkgRCFMz2y-5bb8", "types": ["route"]}, "ChIJ1WF5MOQEdkgRh3AKtZqN09E": {"geometry": {"location": {"lat": 51.48782380000001, "lng": -0.1327454}, "viewport": {"northeast": {"lat": 51.48922803029151, "lng": -0.131336169708498}, "southwest": {"lat": 51.48653006970851, "lng": -0.134034130291502}}}, "name": "Tuttle House", "place_id": "ChIJ1WF5MOQEdkgRh3AKtZqN09E", "types": ["transit_station", "point_of_interest", "establishment"]}, "ChIJz1zHGCQFdkgRCwpUkkr6aUo": {"geometry": {"location": {"lat": 51.4875084, "lng": -0.132918}, "viewport": {"northeast": {"lat": 51.4890266302915, "lng": -0.1313337197084979}, "southwest": {"lat": 51.4863286697085, "lng": -0.134031680291502}}}, "name": "AA Instructor Gentian Xhilaj", "place_id": "ChIJz1zHGCQFdkgRCwpUkkr6aUo", "types": ["point_of_interest", "establishment"], "rating": 5, "user_ratings_total": 8}, "ChIJ7wKsJeQEdkgRgNtUshyfK0o": {"geometry": {"location": {"lat": 51.4882245, "lng": -0.1330045}, "viewport": {"northeast": {"lat": 51.48953462399833, "lng": -0.1315640806648591}, "southwest": {"lat": 51.48683666341534, "lng": -0.1342620412478631}}}, "name": "Parking lot", "place_id": "ChIJ7wKsJeQEdkgRgNtUshyfK0o", "types": ["parking", "premise", "point_of_interest", "establishment"]}, "ChIJb1OkN-QEdkgRz6GTrfsHV6U": {"geometry": {"location": {"lat": 51.487486, "lng": -0.1326338}, "viewport": {"northeast": {"lat": 51.48887572553526, "lng": -0.1312737904605817}, "southwest": {"lat": 51.48617776495226, "lng": -0.1339717510435857}}}, "name": "Parking lot", "place_id": "ChIJb1OkN-QEdkgRz6GTrfsHV6U", "types": ["parking", "premise", "point_of_interest", "establishment"]}, "ChIJxc-jQ-QEdkgRzX76TW4xuDY": {"geometry": {"location": {"lat": 51.48687998325323, "lng": -0.1332269382111397}, "viewport": {"northeast": {"lat": 51.4882297302915, "lng": -0.131871219708498}, "southwest": {"lat": 51.4855317697085, "lng": -0.134569180291502}}}, "name": "4-24 Aylesford St", "place_id": "ChIJxc-jQ-QEdkgRzX76TW4xuDY", "types": ["route"]}, "ChIJ3y-rOeQEdkgRV_Y7JVvR710": {"geometry": {"location": {"lat": 51.4865885, "lng": -0.1326808}, "viewport": {"northeast": {"lat": 51.4879044302915, "lng": -0.131524069708498}, "southwest": {"lat": 51.48520646970851, "lng": -0.134222030291502}}}, "name": "Quality Flora", "place_id": "ChIJ3y-rOeQEdkgRV_Y7JVvR710", "types": ["florist", "point_of_interest", "store", "establishment"], "rating": 5, "user_ratings_total": 1}, "ChIJMVNIUOQEdkgR_y2zifNdUh8": {"geometry": {"location": {"lat": 51.48659500000001, "lng": -0.1325953}, "viewport": {"northeast": {"lat": 51.4879038302915, "lng": -0.1314796197084979}, "southwest": {"lat": 51.48520586970851, "lng": -0.134177580291502}}}, "name": "Bodfach Trust", "place_id": "ChIJMVNIUOQEdkgR_y2zifNdUh8", "types": ["point_of_interest", "establishment"]}, "ChIJf9W5UuQEdkgRM93E89iVOew": {"geometry": {"location": {"lat": 51.48662299999999, "lng": -0.1323613}, "viewport": {"northeast": {"lat": 51.48804798029149, "lng": -0.131020919708498}, "southwest": {"lat": 51.48535001970849, "lng": -0.133718880291502}}}, "name": "Tachbrook Nursery School", "place_id": "ChIJf9W5UuQEdkgRM93E89iVOew", "types": ["school", "point_of_interest", "establishment"], "rating": 4.6, "user_ratings_total": 7}, "ChIJtQ6oXOQEdkgR0CAn0v80EzM": {"geometry": {"location": {"lat": 51.4866453, "lng": -0.1331158}, "viewport": {"northeast": {"lat": 51.4879855802915, "lng": -0.131817419708498}, "southwest": {"lat": 51.4852876197085, "lng": -0.134515380291502}}}, "name": "Aylesford St Motorcycle Parking Bay", "place_id": "ChIJtQ6oXOQEdkgR0CAn0v80EzM", "types": ["parking", "point_of_interest", "establishment"], "rating": 1, "user_ratings_total": 1}, "ChIJtQ8YIjoFdkgRw5aYuFw95ro": {"geometry": {"location": {"lat": 51.4870348, "lng": -0.1331102}, "viewport": {"northeast": {"lat": 51.4883686302915, "lng": -0.131847719708498}, "southwest": {"lat": 51.4856706697085, "lng": -0.134545680291502}}}, "name": "3 Generation Scaffolding", "place_id": "ChIJtQ8YIjoFdkgRw5aYuFw95ro", "types": ["point_of_interest", "establishment"]}, "ChIJSzLF9eQEdkgRip-AD33DOmA": {"geometry": {"location": {"lat": 51.48597140010448, "lng": -0.1331531500996918}, "viewport": {"northeast": {"lat": 51.48732038029151, "lng": -0.131804169708498}, "southwest": {"lat": 51.48462241970851, "lng": -0.134502130291502}}}, "name": "137 Grosvenor Rd", "place_id": "ChIJSzLF9eQEdkgRip-AD33DOmA", "types": ["route"]}, "ChIJAQAw_-QEdkgROKxzKMBMzG4": {"geometry": {"location": {"lat": 51.48590600000001, "lng": -0.132328}, "viewport": {"northeast": {"lat": 51.4873505302915, "lng": -0.131042519708498}, "southwest": {"lat": 51.4846525697085, "lng": -0.133740480291502}}}, "name": "14 Fm Limited", "place_id": "ChIJAQAw_-QEdkgROKxzKMBMzG4", "types": ["point_of_interest", "establishment"]}, "ChIJAQAw_-QEdkgRirNkkyLoT10": {"geometry": {"location": {"lat": 51.48590600000001, "lng": -0.132328}, "viewport": {"northeast": {"lat": 51.4873505302915, "lng": -0.131042519708498}, "southwest": {"lat": 51.4846525697085, "lng": -0.133740480291502}}}, "name": "15 Fm Limited", "place_id": "ChIJAQAw_-QEdkgRirNkkyLoT10", "types": ["point_of_interest", "establishment"]}, "ChIJv34hX-QEdkgRpIVb9g9uoyc": {"geometry": {"location": {"lat": 51.4856685, "lng": -0.1334493}, "viewport": {"northeast": {"lat": 51.48713263029149, "lng": -0.132153169708498}, "southwest": {"lat": 51.48443466970849, "lng": -0.134851130291502}}}, "name": "William Huskisson Memorial", "place_id": "ChIJv34hX-QEdkgRpIVb9g9uoyc", "types": ["point_of_interest", "establishment"], "rating": 4.7, "user_ratings_total": 11}, "ChIJQ_JoVuQEdkgRuH5DTfWkc2Y": {"geometry": {"location": {"lat": 51.48614620000001, "lng": -0.1324529}, "viewport": {"northeast": {"lat": 51.4874951802915, "lng": -0.131103919708498}, "southwest": {"lat": 51.48479721970851, "lng": -0.133801880291502}}}, "name": "Ilford Man and Van", "place_id": "ChIJQ_JoVuQEdkgRuH5DTfWkc2Y", "types": ["moving_company", "point_of_interest", "establishment"]}, "ChIJ4RiPjOQEdkgRc4GQn7jnM9A": {"geometry": {"location": {"lat": 51.4856168, "lng": -0.1339331}, "viewport": {"northeast": {"lat": 51.48696301457204, "lng": -0.1326969358683757}, "southwest": {"lat": 51.48426505398904, "lng": -0.1353948964513798}}}, "name": "Pimlico Garden & Shrubbery", "place_id": "ChIJ4RiPjOQEdkgRc4GQn7jnM9A", "types": ["park", "premise", "point_of_interest", "establishment"]}, "ChIJo2HkqOYEdkgRmTQajtgkAH8": {"geometry": {"location": {"lat": 51.4888737001062, "lng": -0.1343823500963692}, "viewport": {"northeast": {"lat": 51.4902226802915, "lng": -0.133033369708498}, "southwest": {"lat": 51.4875247197085, "lng": -0.135731330291502}}}, "name": "6-2 Lupus St", "place_id": "ChIJo2HkqOYEdkgRmTQajtgkAH8", "types": ["route"]}, "ChIJ8eizruYEdkgR0vq6pKojIE0": {"geometry": {"location": {"lat": 51.48894500000001, "lng": -0.1346674}, "viewport": {"northeast": {"lat": 51.49024043029151, "lng": -0.133275119708498}, "southwest": {"lat": 51.48754246970851, "lng": -0.135973080291502}}}, "name": "William Hill", "place_id": "ChIJ8eizruYEdkgR0vq6pKojIE0", "types": ["point_of_interest", "establishment"], "rating": 2, "user_ratings_total": 5}, "ChIJ8eizruYEdkgRNbyYdPipML4": {"geometry": {"location": {"lat": 51.4889613, "lng": -0.1345077}, "viewport": {"northeast": {"lat": 51.4902637302915, "lng": -0.133111769708498}, "southwest": {"lat": 51.4875657697085, "lng": -0.135809730291502}}}, "name": "Wine Rack", "place_id": "ChIJ8eizruYEdkgRNbyYdPipML4", "types": ["liquor_store", "point_of_interest", "store", "establishment"], "rating": 4.2, "user_ratings_total": 25}, "ChIJ4bHIpeYEdkgRkGl7hUIrREM": {"geometry": {"location": {"lat": 51.4890169, "lng": -0.1343512}, "viewport": {"northeast": {"lat": 51.4903658802915, "lng": -0.133002219708498}, "southwest": {"lat": 51.4876679197085, "lng": -0.135700180291502}}}, "name": "Public Toilet", "place_id": "ChIJ4bHIpeYEdkgRkGl7hUIrREM", "types": ["point_of_interest", "establishment"], "rating": 3.1, "user_ratings_total": 38}, "ChIJ8VIYgN0EdkgR8o4agp8G0g8": {"geometry": {"location": {"lat": 51.4887775, "lng": -0.133994}, "viewport": {"northeast": {"lat": 51.4901121302915, "lng": -0.132723119708498}, "southwest": {"lat": 51.4874141697085, "lng": -0.135421080291502}}}, "name": "Westminster Bangladeshi Association", "place_id": "ChIJ8VIYgN0EdkgR8o4agp8G0g8", "types": ["point_of_interest", "establishment"]}, "ChIJm8Gkp-YEdkgRWCnwn8JUa-c": {"geometry": {"location": {"lat": 51.4887671, "lng": -0.1340584}, "viewport": {"northeast": {"lat": 51.4901080802915, "lng": -0.132753419708498}, "southwest": {"lat": 51.4874101197085, "lng": -0.135451380291502}}}, "name": "Acknowledging Youths C I C", "place_id": "ChIJm8Gkp-YEdkgRWCnwn8JUa-c", "types": ["point_of_interest", "establishment"]}, "ChIJ1WwLpOYEdkgRcJMyf_QppP8": {"geometry": {"location": {"lat": 51.4892297, "lng": -0.1339283}, "viewport": {"northeast": {"lat": 51.4905581302915, "lng": -0.132541619708498}, "southwest": {"lat": 51.4878601697085, "lng": -0.135239580291502}}}, "name": "Dexters Estate Agents Academy", "place_id": "ChIJ1WwLpOYEdkgRcJMyf_QppP8", "types": ["real_estate_agency", "finance", "general_contractor", "point_of_interest", "establishment"], "rating": 5, "user_ratings_total": 4}, "ChIJuWi7o-YEdkgRvh3Q4Byu2dU": {"geometry": {"location": {"lat": 51.4891, "lng": -0.13374}, "viewport": {"northeast": {"lat": 51.4904083802915, "lng": -0.132374969708498}, "southwest": {"lat": 51.4877104197085, "lng": -0.135072930291502}}}, "name": "Pimlico tube station", "place_id": "ChIJuWi7o-YEdkgRvh3Q4Byu2dU", "types": ["transit_station", "point_of_interest", "establishment"], "rating": 4.2, "user_ratings_total": 5}, "ChIJXybcqeYEdkgRfaDBGLed5wo": {"geometry": {"location": {"lat": 51.4887719, "lng": -0.1343203}, "viewport": {"northeast": {"lat": 51.4901382802915, "lng": -0.132899969708498}, "southwest": {"lat": 51.4874403197085, "lng": -0.135597930291502}}}, "name": "The Gallery Pub", "place_id": "ChIJXybcqeYEdkgRfaDBGLed5wo", "types": ["bar", "restaurant", "food", "point_of_interest", "establishment"], "rating": 3.9, "user_ratings_total": 495}, "ChIJSXS_qeYEdkgRYE-tGK8OAUI": {"geometry": {"location": {"lat": 51.4887358, "lng": -0.1344936}, "viewport": {"northeast": {"lat": 51.4901372302915, "lng": -0.133177019708498}, "southwest": {"lat": 51.4874392697085, "lng": -0.135874980291502}}}, "name": "Pimlico Village", "place_id": "ChIJSXS_qeYEdkgRYE-tGK8OAUI", "types": ["cafe", "food", "point_of_interest", "store", "establishment"], "rating": 3.5, "user_ratings_total": 121}, "ChIJ_WgsnOYEdkgRnBoQUmK3HCo": {"geometry": {"location": {"lat": 51.48885, "lng": -0.1337466}, "viewport": {"northeast": {"lat": 51.4902747302915, "lng": -0.132430969708498}, "southwest": {"lat": 51.4875767697085, "lng": -0.135128930291502}}}, "name": "Bessborough Nursery & Pre-School", "place_id": "ChIJ_WgsnOYEdkgRnBoQUmK3HCo", "types": ["school", "point_of_interest", "establishment"], "rating": 5, "user_ratings_total": 2}, "ChIJPZUsr-YEdkgRfDaL7zuhCcs": {"geometry": {"location": {"lat": 51.48898790000001, "lng": -0.1343799}, "viewport": {"northeast": {"lat": 51.4902841802915, "lng": -0.133007019708498}, "southwest": {"lat": 51.4875862197085, "lng": -0.135704980291502}}}, "name": "SK Sweets", "place_id": "ChIJPZUsr-YEdkgRfDaL7zuhCcs", "types": ["convenience_store", "food", "point_of_interest", "store", "establishment"], "rating": 4.5, "user_ratings_total": 13}, "ChIJkajiq-YEdkgRDfHkUYOl0pw": {"geometry": {"location": {"lat": 51.4889387, "lng": -0.1345926}, "viewport": {"northeast": {"lat": 51.4902432802915, "lng": -0.133206219708498}, "southwest": {"lat": 51.4875453197085, "lng": -0.135904180291502}}}, "name": "Laundrette", "place_id": "ChIJkajiq-YEdkgRDfHkUYOl0pw", "types": ["laundry", "point_of_interest", "establishment"], "rating": 2.2, "user_ratings_total": 25}, "ChIJ9-OzqeYEdkgR6AV-JZIDqjI": {"geometry": {"location": {"lat": 51.48874970000001, "lng": -0.1344305}, "viewport": {"northeast": {"lat": 51.4901435302915, "lng": -0.133145469708498}, "southwest": {"lat": 51.4874455697085, "lng": -0.135843430291502}}}, "name": "Food For Thought", "place_id": "ChIJ9-OzqeYEdkgR6AV-JZIDqjI", "types": ["restaurant", "food", "point_of_interest", "establishment"], "rating": 5, "user_ratings_total": 1}, "ChIJ8-izruYEdkgR625SCEE-ltw": {"geometry": {"location": {"lat": 51.48899979999999, "lng": -0.134528}, "viewport": {"northeast": {"lat": 51.49027853029149, "lng": -0.133147169708498}, "southwest": {"lat": 51.48758056970849, "lng": -0.135845130291502}}}, "name": "Twisted Stone Limited", "place_id": "ChIJ8-izruYEdkgR625SCEE-ltw", "types": ["point_of_interest", "establishment"]}, "ChIJ71Q3qOYEdkgR0BDmhzD0nUE": {"geometry": {"location": {"lat": 51.488716, "lng": -0.134362}, "viewport": {"northeast": {"lat": 51.4900986802915, "lng": -0.132908419708498}, "southwest": {"lat": 51.4874007197085, "lng": -0.135606380291502}}}, "name": "Stylish Apartments in Pimlico", "place_id": "ChIJ71Q3qOYEdkgR0BDmhzD0nUE", "types": ["lodging", "point_of_interest", "establishment"], "rating": 1, "user_ratings_total": 1}, "ChIJXybcqeYEdkgRalHgsEg13JY": {"geometry": {"location": {"lat": 51.4887245, "lng": -0.1345667}, "viewport": {"northeast": {"lat": 51.49012728029149, "lng": -0.133235019708498}, "southwest": {"lat": 51.4874293197085, "lng": -0.135932980291502}}}, "name": "Greetway Grocery Store", "place_id": "ChIJXybcqeYEdkgRalHgsEg13JY", "types": ["grocery_or_supermarket", "supermarket", "food", "point_of_interest", "store", "establishment"], "rating": 2.6, "user_ratings_total": 20}, "ChIJSUwJq-YEdkgRFTaDgXs2q0o": {"geometry": {"location": {"lat": 51.488905, "lng": -0.134762}, "viewport": {"northeast": {"lat": 51.4902115302915, "lng": -0.133474919708498}, "southwest": {"lat": 51.4875135697085, "lng": -0.136172880291502}}}, "name": "Blue Plaque: Major Walter Clopton Wingfield", "place_id": "ChIJSUwJq-YEdkgRFTaDgXs2q0o", "types": ["point_of_interest", "establishment"], "rating": 5, "user_ratings_total": 1}, "ChIJh4W3H-oFdkgRfnj5aY3EOBM": {"geometry": {"location": {"lat": 51.48869999999999, "lng": -0.1346}, "viewport": {"northeast": {"lat": 51.4901097802915, "lng": -0.133261419708498}, "southwest": {"lat": 51.4874118197085, "lng": -0.135959380291502}}}, "name": "UPS Access Point", "place_id": "ChIJh4W3H-oFdkgRfnj5aY3EOBM", "types": ["point_of_interest", "establishment"], "rating": 1, "user_ratings_total": 1}, "ChIJm8Gkp-YEdkgR4z9I7nRUegg": {"geometry": {"location": {"lat": 51.4887671, "lng": -0.1340584}, "viewport": {"northeast": {"lat": 51.4901080802915, "lng": -0.132753419708498}, "southwest": {"lat": 51.4874101197085, "lng": -0.135451380291502}}}, "name": "Umbrella From Woman to Woman", "place_id": "ChIJm8Gkp-YEdkgR4z9I7nRUegg", "types": ["health", "point_of_interest", "establishment"]}, "ChIJh4SBruYEdkgRNJRbOk8PbU0": {"geometry": {"location": {"lat": 51.4891277, "lng": -0.1345827}, "viewport": {"northeast": {"lat": 51.4905425302915, "lng": -0.133150769708498}, "southwest": {"lat": 51.4878445697085, "lng": -0.135848730291502}}}, "name": "Mobile Microfinance Ltd", "place_id": "ChIJh4SBruYEdkgRNJRbOk8PbU0", "types": ["point_of_interest", "establishment"]}, "ChIJM1iQp-YEdkgRHlAxHb7jeRo": {"geometry": {"location": {"lat": 51.488705, "lng": -0.134094}, "viewport": {"northeast": {"lat": 51.4900566802915, "lng": -0.132729069708498}, "southwest": {"lat": 51.4873587197085, "lng": -0.135427030291502}}}, "name": "Source London Charging Station", "place_id": "ChIJM1iQp-YEdkgRHlAxHb7jeRo", "types": ["point_of_interest", "establishment"]}, "ChIJtbVzp-YEdkgR5Jo9fwtayQM": {"geometry": {"location": {"lat": 51.4887775, "lng": -0.1339941}, "viewport": {"northeast": {"lat": 51.4901121302915, "lng": -0.132723169708498}, "southwest": {"lat": 51.4874141697085, "lng": -0.135421130291502}}}, "name": "AY Recruitment CIC", "place_id": "ChIJtbVzp-YEdkgR5Jo9fwtayQM", "types": ["point_of_interest", "establishment"], "rating": 2, "user_ratings_total": 1}, "ChIJq1SLhqgEdkgRv3tY4GZ5K-w": {"geometry": {"location": {"lat": 51.4885098, "lng": -0.1342685}, "viewport": {"northeast": {"lat": 51.4898415802915, "lng": -0.132874869708498}, "southwest": {"lat": 51.4871436197085, "lng": -0.135572830291502}}}, "name": "dpa lighting consultants London", "place_id": "ChIJq1SLhqgEdkgRv3tY4GZ5K-w", "types": ["point_of_interest", "establishment"], "rating": 4, "user_ratings_total": 2}, "ChIJFz3FiZUFdkgR_8XtSyuyUWs": {"geometry": {"location": {"lat": 51.4888562, "lng": -0.1338147}, "viewport": {"northeast": {"lat": 51.4902198802915, "lng": -0.132482069708498}, "southwest": {"lat": 51.4875219197085, "lng": -0.135180030291502}}}, "name": "The Bessborough Centre", "place_id": "ChIJFz3FiZUFdkgR_8XtSyuyUWs", "types": ["point_of_interest", "establishment"], "rating": 5, "user_ratings_total": 3}, "ChIJpTPbwd8FdkgR_9bBlSzkNxE": {"geometry": {"location": {"lat": 51.4884874, "lng": -0.1345891}, "viewport": {"northeast": {"lat": 51.48982108029149, "lng": -0.1333335197084979}, "southwest": {"lat": 51.4871231197085, "lng": -0.136031480291502}}}, "name": "Bonita Redman", "place_id": "ChIJpTPbwd8FdkgR_9bBlSzkNxE", "types": ["point_of_interest", "establishment"]}, "ChIJw8vEauQEdkgRiwctyjxeyyA": {"geometry": {"location": {"lat": 51.4884762, "lng": -0.1342943}, "viewport": {"northeast": {"lat": 51.4898141802915, "lng": -0.132894969708498}, "southwest": {"lat": 51.4871162197085, "lng": -0.135592930291502}}}, "name": "MEGAPLAN", "place_id": "ChIJw8vEauQEdkgRiwctyjxeyyA", "types": ["general_contractor", "point_of_interest", "establishment"], "rating": 5, "user_ratings_total": 1}, "ChIJfSd5AeQEdkgRFmpYsy1DZLo": {"geometry": {"location": {"lat": 51.4884792, "lng": -0.1346161}, "viewport": {"northeast": {"lat": 51.48981518029149, "lng": -0.1333462697084979}, "southwest": {"lat": 51.48711721970849, "lng": -0.136044230291502}}}, "name": "Inter-Sol", "place_id": "ChIJfSd5AeQEdkgRFmpYsy1DZLo", "types": ["point_of_interest", "establishment"]}, "ChIJu457VOEEdkgR87kTUYcrmfs": {"geometry": {"location": {"lat": 51.4890712, "lng": -0.1350773}, "viewport": {"northeast": {"lat": 51.49042018029149, "lng": -0.133728319708498}, "southwest": {"lat": 51.48772221970849, "lng": -0.136426280291502}}}, "name": "Apartments Inn London", "place_id": "ChIJu457VOEEdkgR87kTUYcrmfs", "types": ["lodging", "point_of_interest", "establishment"], "rating": 3.5, "user_ratings_total": 92}, "ChIJB94Jl2cFdkgRzbnlxEm7pFk": {"geometry": {"location": {"lat": 51.48925080000001, "lng": -0.1348274}, "viewport": {"northeast": {"lat": 51.49066378029151, "lng": -0.133391869708498}, "southwest": {"lat": 51.48796581970851, "lng": -0.136089830291502}}}, "name": "Pimlico Paving & Driveways", "place_id": "ChIJB94Jl2cFdkgRzbnlxEm7pFk", "types": ["general_contractor", "point_of_interest", "establishment"], "rating": 5, "user_ratings_total": 2}, "ChIJA_1WDVEEdkgRunlHgXcIWP4": {"geometry": {"location": {"lat": 51.4884268, "lng": -0.1343461}, "viewport": {"northeast": {"lat": 51.4897693802915, "lng": -0.132925069708498}, "southwest": {"lat": 51.4870714197085, "lng": -0.135623030291502}}}, "name": "Good Things Magazine", "place_id": "ChIJA_1WDVEEdkgRunlHgXcIWP4", "types": ["point_of_interest", "establishment"]}, "ChIJxYqXoeYEdkgR9P6YTz9Ad6o": {"geometry": {"location": {"lat": 51.4889065, "lng": -0.133627}, "viewport": {"northeast": {"lat": 51.4903191802915, "lng": -0.132179069708498}, "southwest": {"lat": 51.48762121970851, "lng": -0.134877030291502}}}, "name": "Maternity & Child Welfare Centre", "place_id": "ChIJxYqXoeYEdkgR9P6YTz9Ad6o", "types": ["clothing_store", "point_of_interest", "store", "establishment"], "rating": 5, "user_ratings_total": 1}, "ChIJ52cIVOEEdkgRdzyCOxOuN4Q": {"geometry": {"location": {"lat": 51.48897349999999, "lng": -0.135275}, "viewport": {"northeast": {"lat": 51.4903124302915, "lng": -0.133937269708498}, "southwest": {"lat": 51.4876144697085, "lng": -0.136635230291502}}}, "name": "St George's Square", "place_id": "ChIJ52cIVOEEdkgRdzyCOxOuN4Q", "types": ["transit_station", "point_of_interest", "establishment"]}, "ChIJRf7-U-EEdkgRFkweDH_HNl4": {"geometry": {"location": {"lat": 51.4891268, "lng": -0.1351889}, "viewport": {"northeast": {"lat": 51.4904211802915, "lng": -0.133906369708498}, "southwest": {"lat": 51.4877232197085, "lng": -0.136604330291502}}}, "name": "Apartamento Pimplico", "place_id": "ChIJRf7-U-EEdkgRFkweDH_HNl4", "types": ["lodging", "point_of_interest", "establishment"], "rating": 4, "user_ratings_total": 1}, "ChIJFwOvcuQEdkgRr6gqo-9gXdk": {"geometry": {"location": {"lat": 51.48798329336206, "lng": -0.134569153056305}, "viewport": {"northeast": {"lat": 51.48933323029149, "lng": -0.133214569708498}, "southwest": {"lat": 51.4866352697085, "lng": -0.135912530291502}}}, "name": "73-35 St.George's Square", "place_id": "ChIJFwOvcuQEdkgRr6gqo-9gXdk", "types": ["route"]}, "ChIJUe-4BeQEdkgRHzUdQKWVaEY": {"geometry": {"location": {"lat": 51.4880642, "lng": -0.1344588}, "viewport": {"northeast": {"lat": 51.48940143029149, "lng": -0.133177769708498}, "southwest": {"lat": 51.48670346970849, "lng": -0.135875730291502}}}, "name": "EagleCrown", "place_id": "ChIJUe-4BeQEdkgRHzUdQKWVaEY", "types": ["point_of_interest", "establishment"]}, "ChIJCZp98OMEdkgRd84SdRotpyM": {"geometry": {"location": {"lat": 51.4878344, "lng": -0.1345786}, "viewport": {"northeast": {"lat": 51.48918708029149, "lng": -0.133208069708498}, "southwest": {"lat": 51.48648911970849, "lng": -0.135906030291502}}}, "name": "Zipcar", "place_id": "ChIJCZp98OMEdkgRd84SdRotpyM", "types": ["car_rental", "point_of_interest", "establishment"]}, "ChIJY1CLB-QEdkgRupKRTDly-I4": {"geometry": {"location": {"lat": 51.4880406, "lng": -0.1344343}, "viewport": {"northeast": {"lat": 51.4893717302915, "lng": -0.133157569708498}, "southwest": {"lat": 51.4866737697085, "lng": -0.135855530291502}}}, "name": "ubitricity Charging Station", "place_id": "ChIJY1CLB-QEdkgRupKRTDly-I4", "types": ["point_of_interest", "establishment"]}, "ChIJGVAqbeQEdkgRi2_nAHS0u1Q": {"geometry": {"location": {"lat": 51.4874412, "lng": -0.1341605}, "viewport": {"northeast": {"lat": 51.48877683029149, "lng": -0.132887219708498}, "southwest": {"lat": 51.4860788697085, "lng": -0.135585180291502}}}, "name": "Woolf Therapy", "place_id": "ChIJGVAqbeQEdkgRi2_nAHS0u1Q", "types": ["health", "point_of_interest", "establishment"], "rating": 5, "user_ratings_total": 3}, "ChIJwUBFgk4FdkgRuUWf9_som_M": {"geometry": {"location": {"lat": 51.4882539, "lng": -0.1343019}, "viewport": {"northeast": {"lat": 51.48961693029149, "lng": -0.132873169708498}, "southwest": {"lat": 51.4869189697085, "lng": -0.135571130291502}}}, "name": "The Royal Aylesford Club", "place_id": "ChIJwUBFgk4FdkgRuUWf9_som_M", "types": ["food", "point_of_interest", "establishment"], "rating": 5, "user_ratings_total": 4}, "ChIJ5V_kieMEdkgRbzV0-YJR1w8": {"geometry": {"location": {"lat": 51.4867578967851, "lng": -0.1348838492310858}, "viewport": {"northeast": {"lat": 51.48810693029149, "lng": -0.133534569708498}, "southwest": {"lat": 51.48540896970849, "lng": -0.136232530291502}}}, "name": "94-64 St.George's Square", "place_id": "ChIJ5V_kieMEdkgRbzV0-YJR1w8", "types": ["route"]}, "ChIJvf1HheMEdkgRnikCSg7uPng": {"geometry": {"location": {"lat": 51.4866833, "lng": -0.1350045}, "viewport": {"northeast": {"lat": 51.4880448302915, "lng": -0.133583969708498}, "southwest": {"lat": 51.4853468697085, "lng": -0.136281930291502}}}, "name": "Hy Consulting", "place_id": "ChIJvf1HheMEdkgRnikCSg7uPng", "types": ["point_of_interest", "establishment"]}, "ChIJN6DxiyUFdkgR916qdJo1f-U": {"geometry": {"location": {"lat": 51.4865609, "lng": -0.1349237}, "viewport": {"northeast": {"lat": 51.48792038029151, "lng": -0.133514919708498}, "southwest": {"lat": 51.48522241970851, "lng": -0.136212880291502}}}, "name": "Roman's Turo Car-Sharing", "place_id": "ChIJN6DxiyUFdkgR916qdJo1f-U", "types": ["car_rental", "point_of_interest", "establishment"]}, "ChIJ1cM3Gc4FdkgRC8u3auIU3uE": {"geometry": {"location": {"lat": 51.4865609, "lng": -0.1349237}, "viewport": {"northeast": {"lat": 51.48792038029151, "lng": -0.133514919708498}, "southwest": {"lat": 51.48522241970851, "lng": -0.136212880291502}}}, "name": "Roman's Neighbourhood Car Rental", "place_id": "ChIJ1cM3Gc4FdkgRC8u3auIU3uE", "types": ["car_rental", "point_of_interest", "establishment"]}, "ChIJ_YwZB4IFdkgRNsuCP44kGEA": {"geometry": {"location": {"lat": 51.48688790000001, "lng": -0.1351785}, "viewport": {"northeast": {"lat": 51.4882560802915, "lng": -0.133720369708498}, "southwest": {"lat": 51.48555811970851, "lng": -0.136418330291502}}}, "name": "secretstudio", "place_id": "ChIJ_YwZB4IFdkgRNsuCP44kGEA", "types": ["point_of_interest", "establishment"]}, "ChIJ7f-_5kEFdkgRZntBl4ge4cI": {"geometry": {"location": {"lat": 51.48637300000001, "lng": -0.1349996}, "viewport": {"northeast": {"lat": 51.48774608029149, "lng": -0.133516119708498}, "southwest": {"lat": 51.4850481197085, "lng": -0.136214080291502}}}, "name": "Cloud Zones Ltd", "place_id": "ChIJ7f-_5kEFdkgRZntBl4ge4cI", "types": ["point_of_interest", "establishment"]}, "ChIJxVDSi-MEdkgRaWoSPtmQ1VY": {"geometry": {"location": {"lat": 51.4870317, "lng": -0.1351316}, "viewport": {"northeast": {"lat": 51.4883907302915, "lng": -0.133725419708498}, "southwest": {"lat": 51.4856927697085, "lng": -0.136423380291502}}}, "name": "Luxury Homes Turkey Ltd", "place_id": "ChIJxVDSi-MEdkgRaWoSPtmQ1VY", "types": ["point_of_interest", "establishment"]}, "ChIJ21DSi-MEdkgR-cIZgEd2pas": {"geometry": {"location": {"lat": 51.4870439, "lng": -0.1351465}, "viewport": {"northeast": {"lat": 51.48840373029149, "lng": -0.133735969708498}, "southwest": {"lat": 51.4857057697085, "lng": -0.1364339302915021}}}, "name": "The Sheldon Trust", "place_id": "ChIJ21DSi-MEdkgR-cIZgEd2pas", "types": ["point_of_interest", "establishment"]}, "ChIJ21DSi-MEdkgRmCy9cnPwTgk": {"geometry": {"location": {"lat": 51.4870439, "lng": -0.1351465}, "viewport": {"northeast": {"lat": 51.48840373029149, "lng": -0.133735969708498}, "southwest": {"lat": 51.4857057697085, "lng": -0.1364339302915021}}}, "name": "Ulting Overseas Trust", "place_id": "ChIJ21DSi-MEdkgRmCy9cnPwTgk", "types": ["point_of_interest", "establishment"]}, "ChIJ21DSi-MEdkgRKRO6uJzeioI": {"geometry": {"location": {"lat": 51.4870439, "lng": -0.1351465}, "viewport": {"northeast": {"lat": 51.48840373029149, "lng": -0.133735969708498}, "southwest": {"lat": 51.4857057697085, "lng": -0.1364339302915021}}}, "name": "The Field Family Charitable Trust", "place_id": "ChIJ21DSi-MEdkgRKRO6uJzeioI", "types": ["point_of_interest", "establishment"]}, "ChIJ21DSi-MEdkgREP9182rCceg": {"geometry": {"location": {"lat": 51.4870439, "lng": -0.1351465}, "viewport": {"northeast": {"lat": 51.48840373029149, "lng": -0.133735969708498}, "southwest": {"lat": 51.4857057697085, "lng": -0.1364339302915021}}}, "name": "Veneziana Fund", "place_id": "ChIJ21DSi-MEdkgREP9182rCceg", "types": ["point_of_interest", "establishment"]}, "ChIJ21DSi-MEdkgRwirR-Z3BHUg": {"geometry": {"location": {"lat": 51.4870439, "lng": -0.1351465}, "viewport": {"northeast": {"lat": 51.48840373029149, "lng": -0.133735969708498}, "southwest": {"lat": 51.4857057697085, "lng": -0.1364339302915021}}}, "name": "The Simpson Foundation", "place_id": "ChIJ21DSi-MEdkgRwirR-Z3BHUg", "types": ["point_of_interest", "establishment"]}, "ChIJ21DSi-MEdkgRm2RUn6DzPV8": {"geometry": {"location": {"lat": 51.4870439, "lng": -0.1351465}, "viewport": {"northeast": {"lat": 51.48840373029149, "lng": -0.133735969708498}, "southwest": {"lat": 51.4857057697085, "lng": -0.1364339302915021}}}, "name": "Holy Rood Trust", "place_id": "ChIJ21DSi-MEdkgRm2RUn6DzPV8", "types": ["point_of_interest", "establishment"]}, "ChIJ21DSi-MEdkgRKAO5Etp7VdI": {"geometry": {"location": {"lat": 51.4870439, "lng": -0.1351465}, "viewport": {"northeast": {"lat": 51.48840373029149, "lng": -0.133735969708498}, "southwest": {"lat": 51.4857057697085, "lng": -0.1364339302915021}}}, "name": "Jm-Ca (1931)", "place_id": "ChIJ21DSi-MEdkgRKAO5Etp7VdI", "types": ["point_of_interest", "establishment"]}, "ChIJQ1dzdOQEdkgRFf7sZZVLH34": {"geometry": {"location": {"lat": 51.4872585, "lng": -0.1347219}, "viewport": {"northeast": {"lat": 51.4885750802915, "lng": -0.133553069708498}, "southwest": {"lat": 51.4858771197085, "lng": -0.136251030291502}}}, "name": "St George's Square", "place_id": "ChIJQ1dzdOQEdkgRFf7sZZVLH34", "types": ["park", "point_of_interest", "establishment"], "rating": 4.4, "user_ratings_total": 284}, "ChIJRztdgeQEdkgRa1V3qQAa81s": {"geometry": {"location": {"lat": 51.48570320023603, "lng": -0.134654400227341}, "viewport": {"northeast": {"lat": 51.4870521802915, "lng": -0.133305419708498}, "southwest": {"lat": 51.4843542197085, "lng": -0.136003380291502}}}, "name": "Grosvenor Road", "place_id": "ChIJRztdgeQEdkgRa1V3qQAa81s", "types": ["route"]}, "ChIJ4ZhffeMEdkgRGzMZ9xk4-vE": {"geometry": {"location": {"lat": 51.4852664, "lng": -0.1347711}, "viewport": {"northeast": {"lat": 51.4866153802915, "lng": -0.133422119708498}, "southwest": {"lat": 51.4839174197085, "lng": -0.136120080291502}}}, "name": "Westminster Boating Base", "place_id": "ChIJ4ZhffeMEdkgRGzMZ9xk4-vE", "types": ["point_of_interest", "establishment"], "rating": 4.9, "user_ratings_total": 78}, "ChIJI3a0juQEdkgRKGLilR4dAjo": {"geometry": {"location": {"lat": 51.4855426, "lng": -0.1343666}, "viewport": {"northeast": {"lat": 51.4868915802915, "lng": -0.133017619708498}, "southwest": {"lat": 51.4841936197085, "lng": -0.135715580291502}}}, "name": "The Helmsman", "place_id": "ChIJI3a0juQEdkgRKGLilR4dAjo", "types": ["point_of_interest", "establishment"], "rating": 5, "user_ratings_total": 1}, "ChIJc-_jjuQEdkgRhk1bnqFjkr4": {"geometry": {"location": {"lat": 51.4855934, "lng": -0.1340055}, "viewport": {"northeast": {"lat": 51.4869423802915, "lng": -0.132656519708498}, "southwest": {"lat": 51.4842444197085, "lng": -0.135354480291502}}}, "name": "Pimlico Gardens", "place_id": "ChIJc-_jjuQEdkgRhk1bnqFjkr4", "types": ["tourist_attraction", "park", "point_of_interest", "establishment"], "rating": 4.4, "user_ratings_total": 54}, "ChIJF-ViHHUFdkgRSF6yOWDpQeA": {"geometry": {"location": {"lat": 51.4859387, "lng": -0.1347978}, "viewport": {"northeast": {"lat": 51.4873116802915, "lng": -0.133314919708498}, "southwest": {"lat": 51.4846137197085, "lng": -0.136012880291502}}}, "name": "The Metis Institute", "place_id": "ChIJF-ViHHUFdkgRSF6yOWDpQeA", "types": ["point_of_interest", "establishment"]}, "ChIJv1hngOQEdkgRjbIfWzz6u2o": {"geometry": {"location": {"lat": 51.4859445, "lng": -0.1347878}, "viewport": {"northeast": {"lat": 51.48731643029149, "lng": -0.133310769708498}, "southwest": {"lat": 51.48461846970849, "lng": -0.136008730291502}}}, "name": "The Levantine Foundation", "place_id": "ChIJv1hngOQEdkgRjbIfWzz6u2o", "types": ["point_of_interest", "establishment"]}, "ChIJDV1lcAoFdkgR9CtrnsoxWhw": {"geometry": {"location": {"lat": 51.4852909, "lng": -0.1347908}, "viewport": {"northeast": {"lat": 51.4868160302915, "lng": -0.133530119708498}, "southwest": {"lat": 51.4841180697085, "lng": -0.136228080291502}}}, "name": "Warships museum", "place_id": "ChIJDV1lcAoFdkgR9CtrnsoxWhw", "types": ["museum", "point_of_interest", "establishment"]}, "ChIJf88sc-MEdkgRvSireXpZDEM": {"geometry": {"location": {"lat": 51.48578329999999, "lng": -0.1351747}, "viewport": {"northeast": {"lat": 51.48715133029149, "lng": -0.133721719708498}, "southwest": {"lat": 51.4844533697085, "lng": -0.136419680291502}}}, "name": "Grenville House", "place_id": "ChIJf88sc-MEdkgRvSireXpZDEM", "types": ["point_of_interest", "establishment"]}, "ChIJ53UcfOMEdkgRz4MYQ-rVhcY": {"geometry": {"location": {"lat": 51.4856772, "lng": -0.1352486}, "viewport": {"northeast": {"lat": 51.48698738029149, "lng": -0.133881719708498}, "southwest": {"lat": 51.4842894197085, "lng": -0.136579680291502}}}, "name": "OC SPORTS & MANAGEMENT", "place_id": "ChIJ53UcfOMEdkgRz4MYQ-rVhcY", "types": ["point_of_interest", "establishment"]}, "ChIJiw8Ngr0FdkgRq_8v26QciFU": {"geometry": {"location": {"lat": 51.48613739999999, "lng": -0.1347421}, "viewport": {"northeast": {"lat": 51.4874981802915, "lng": -0.133327269708498}, "southwest": {"lat": 51.4848002197085, "lng": -0.136025230291502}}}, "name": "Petit Bonheurs", "place_id": "ChIJiw8Ngr0FdkgRq_8v26QciFU", "types": ["bakery", "food", "point_of_interest", "store", "establishment"]}, "ChIJsYz1UOEEdkgRIFRsASN6D40": {"geometry": {"location": {"lat": 51.48918549389345, "lng": -0.1356778990441371}, "viewport": {"northeast": {"lat": 51.49053558029149, "lng": -0.134327519708498}, "southwest": {"lat": 51.4878376197085, "lng": -0.137025480291502}}}, "name": "9-13 St.George's Square", "place_id": "ChIJsYz1UOEEdkgRIFRsASN6D40", "types": ["route"]}, "ChIJ_SOvV-EEdkgRT5oPd-vnr6E": {"geometry": {"location": {"lat": 51.48879230000001, "lng": -0.135545}, "viewport": {"northeast": {"lat": 51.49012013029151, "lng": -0.134321219708498}, "southwest": {"lat": 51.48742216970851, "lng": -0.137019180291502}}}, "name": "Private Park", "place_id": "ChIJ_SOvV-EEdkgRT5oPd-vnr6E", "types": ["park", "point_of_interest", "establishment"]}, "ChIJieq3VuEEdkgRJCcdvVvSxgo": {"geometry": {"location": {"lat": 51.48894500000001, "lng": -0.135413}, "viewport": {"northeast": {"lat": 51.49033068029151, "lng": -0.134019319708498}, "southwest": {"lat": 51.48763271970851, "lng": -0.136717280291502}}}, "name": "St George's Square (Stop F)", "place_id": "ChIJieq3VuEEdkgRJCcdvVvSxgo", "types": ["transit_station", "point_of_interest", "establishment"]}, "ChIJf5ffVeEEdkgRlenKQpvfoAE": {"geometry": {"location": {"lat": 51.4887362, "lng": -0.1354184}, "viewport": {"northeast": {"lat": 51.4900637802915, "lng": -0.134059319708498}, "southwest": {"lat": 51.4873658197085, "lng": -0.136757280291502}}}, "name": "Alf's Pit Stop", "place_id": "ChIJf5ffVeEEdkgRlenKQpvfoAE", "types": ["cafe", "food", "point_of_interest", "establishment"], "rating": 4.9, "user_ratings_total": 10}, "ChIJAQBAUOEEdkgRS-zAuiEnSyY": {"geometry": {"location": {"lat": 51.4892272, "lng": -0.135603}, "viewport": {"northeast": {"lat": 51.4905523802915, "lng": -0.134282969708498}, "southwest": {"lat": 51.4878544197085, "lng": -0.136980930291502}}}, "name": "Zackbd", "place_id": "ChIJAQBAUOEEdkgRS-zAuiEnSyY", "types": ["general_contractor", "point_of_interest", "establishment"]}, "ChIJEykkVuEEdkgRaSkjv9EB3lE": {"geometry": {"location": {"lat": 51.4887362, "lng": -0.1353999}, "viewport": {"northeast": {"lat": 51.49006688029149, "lng": -0.134042319708498}, "southwest": {"lat": 51.48736891970849, "lng": -0.136740280291502}}}, "name": "St. George's Square Cabmen's Shelter", "place_id": "ChIJEykkVuEEdkgRaSkjv9EB3lE", "types": ["cafe", "food", "point_of_interest", "establishment"], "rating": 4.5, "user_ratings_total": 11}, "ChIJ78LOkKAFdkgR1afjmciKbUE": {"geometry": {"location": {"lat": 51.4887489, "lng": -0.1353685}, "viewport": {"northeast": {"lat": 51.49007348029151, "lng": -0.134007469708498}, "southwest": {"lat": 51.48737551970851, "lng": -0.136705430291502}}}, "name": "Youghy Agellid", "place_id": "ChIJ78LOkKAFdkgR1afjmciKbUE", "types": ["point_of_interest", "establishment"]}, "ChIJh_Bj-uMEdkgR75Kk3COqkuc": {"geometry": {"location": {"lat": 51.48805408241061, "lng": -0.1354793342300604}, "viewport": {"northeast": {"lat": 51.48940333029149, "lng": -0.134128819708498}, "southwest": {"lat": 51.4867053697085, "lng": -0.136826780291502}}}, "name": "48-30 St.George's Square", "place_id": "ChIJh_Bj-uMEdkgR75Kk3COqkuc", "types": ["route"]}, "ChIJ7_xU--MEdkgRUQV7EybDQg0": {"geometry": {"location": {"lat": 51.488226, "lng": -0.135635}, "viewport": {"northeast": {"lat": 51.48957918029149, "lng": -0.134262119708498}, "southwest": {"lat": 51.48688121970849, "lng": -0.136960080291502}}}, "name": "Santander Cycles", "place_id": "ChIJ7_xU--MEdkgRUQV7EybDQg0", "types": ["point_of_interest", "establishment"], "rating": 5, "user_ratings_total": 2}, "ChIJ3RWwhuMEdkgRi0WrUifk0CU": {"geometry": {"location": {"lat": 51.48662411523227, "lng": -0.1354439088670334}, "viewport": {"northeast": {"lat": 51.4879833802915, "lng": -0.134053819708498}, "southwest": {"lat": 51.4852854197085, "lng": -0.136751780291502}}}, "name": "278-404 Dolphin Square East Side", "place_id": "ChIJ3RWwhuMEdkgRi0WrUifk0CU", "types": ["route"]}, "ChIJ0RacwOMEdkgRFLownbCR6BI": {"geometry": {"location": {"lat": 51.48660529999999, "lng": -0.1355797}, "viewport": {"northeast": {"lat": 51.4880420302915, "lng": -0.134165019708498}, "southwest": {"lat": 51.4853440697085, "lng": -0.136862980291502}}}, "name": "Designers Forum Ltd", "place_id": "ChIJ0RacwOMEdkgRFLownbCR6BI", "types": ["point_of_interest", "establishment"], "rating": 3, "user_ratings_total": 2}, "ChIJ12GxmuMEdkgRyL8RoNmg3Bc": {"geometry": {"location": {"lat": 51.48704300000001, "lng": -0.1357533}, "viewport": {"northeast": {"lat": 51.48839803029151, "lng": -0.134341519708498}, "southwest": {"lat": 51.48570006970851, "lng": -0.137039480291502}}}, "name": "Genever & Partners Ltd.", "place_id": "ChIJ12GxmuMEdkgRyL8RoNmg3Bc", "types": ["point_of_interest", "establishment"]}, "ChIJf5c2heMEdkgRjycwv5WXsEo": {"geometry": {"location": {"lat": 51.4865853, "lng": -0.1356561}, "viewport": {"northeast": {"lat": 51.4880320302915, "lng": -0.134200569708498}, "southwest": {"lat": 51.48533406970851, "lng": -0.136898530291502}}}, "name": "Personal Time Saver Ltd", "place_id": "ChIJf5c2heMEdkgRjycwv5WXsEo", "types": ["point_of_interest", "establishment"]}, "ChIJvf1HheMEdkgRzfvNtAejoSY": {"geometry": {"location": {"lat": 51.4866018, "lng": -0.1356358}, "viewport": {"northeast": {"lat": 51.4880402802915, "lng": -0.134193119708498}, "southwest": {"lat": 51.4853423197085, "lng": -0.136891080291502}}}, "name": "USA/UK Financial Concierge Ltd.", "place_id": "ChIJvf1HheMEdkgRzfvNtAejoSY", "types": ["finance", "point_of_interest", "establishment"]}, "ChIJAdaLxfYFdkgRYrBC6KmNN7k": {"geometry": {"location": {"lat": 51.4866018, "lng": -0.1356358}, "viewport": {"northeast": {"lat": 51.4880402802915, "lng": -0.134193119708498}, "southwest": {"lat": 51.4853423197085, "lng": -0.136891080291502}}}, "name": "Arkerton", "place_id": "ChIJAdaLxfYFdkgRYrBC6KmNN7k", "types": ["point_of_interest", "establishment"], "rating": 5, "user_ratings_total": 3}, "ChIJ05Q_heMEdkgReBfOg1CFM38": {"geometry": {"location": {"lat": 51.4865957, "lng": -0.135596}, "viewport": {"northeast": {"lat": 51.4880372302915, "lng": -0.134170519708498}, "southwest": {"lat": 51.4853392697085, "lng": -0.136868480291502}}}, "name": "South East Diagnostic", "place_id": "ChIJ05Q_heMEdkgReBfOg1CFM38", "types": ["health", "point_of_interest", "establishment"]}, "ChIJPWfAKagFdkgRLYkWph1HzaI": {"geometry": {"location": {"lat": 51.4852599, "lng": -0.1357258}, "viewport": {"northeast": {"lat": 51.4867239302915, "lng": -0.134427369708498}, "southwest": {"lat": 51.4840259697085, "lng": -0.137125330291502}}}, "name": "Grosvenor Road - Riverside Tennis Court", "place_id": "ChIJPWfAKagFdkgRLYkWph1HzaI", "types": ["point_of_interest", "establishment"]}, "ChIJfcPnDOYEdkgRn1xwSeFbFMY": {"geometry": {"location": {"lat": 51.48919674299185, "lng": -0.1305473794646396}, "viewport": {"northeast": {"lat": 51.49054393029149, "lng": -0.129200369708498}, "southwest": {"lat": 51.48784596970849, "lng": -0.131898330291502}}}, "name": "1 A202", "place_id": "ChIJfcPnDOYEdkgRn1xwSeFbFMY", "types": ["route"]}, "ChIJ-zFO6uUEdkgRnwAkCp7HbZU": {"geometry": {"location": {"lat": 51.48756137682624, "lng": -0.1304485419620456}, "viewport": {"northeast": {"lat": 51.4889061802915, "lng": -0.129082469708498}, "southwest": {"lat": 51.4862082197085, "lng": -0.131780430291502}}}, "name": "Grosvenor Road", "place_id": "ChIJ-zFO6uUEdkgRnwAkCp7HbZU", "types": ["route"]}, "ChIJNX-SieYEdkgRWVDUCpiwXJ0": {"geometry": {"location": {"lat": 51.4893292, "lng": -0.132215}, "viewport": {"northeast": {"lat": 51.4906364302915, "lng": -0.130737119708498}, "southwest": {"lat": 51.4879384697085, "lng": -0.133435080291502}}}, "name": "Office for National Statistics", "place_id": "ChIJNX-SieYEdkgRWVDUCpiwXJ0", "types": ["point_of_interest", "establishment"], "rating": 3, "user_ratings_total": 4}, "ChIJq6pahqwcdkgRxTrpRsrxKSU": {"geometry": {"location": {"lat": 51.4893418, "lng": -0.131534}, "viewport": {"northeast": {"lat": 51.4907368302915, "lng": -0.130211869708498}, "southwest": {"lat": 51.4880388697085, "lng": -0.132909830291502}}}, "name": "WhoSampled", "place_id": "ChIJq6pahqwcdkgRxTrpRsrxKSU", "types": ["point_of_interest", "establishment"]}, "ChIJyQW6heYEdkgRHLY7QX4A3zU": {"geometry": {"location": {"lat": 51.489339, "lng": -0.1322028}, "viewport": {"northeast": {"lat": 51.4906467302915, "lng": -0.130726469708498}, "southwest": {"lat": 51.4879487697085, "lng": -0.133424430291502}}}, "name": "UK Statistics Authority", "place_id": "ChIJyQW6heYEdkgRHLY7QX4A3zU", "types": ["point_of_interest", "establishment"], "rating": 5, "user_ratings_total": 1}, "ChIJw-jOZOYEdkgRmxlHC4JzJjU": {"geometry": {"location": {"lat": 51.4893417, "lng": -0.1315341}, "viewport": {"northeast": {"lat": 51.4907367302915, "lng": -0.130211969708498}, "southwest": {"lat": 51.4880387697085, "lng": -0.1329099302915021}}}, "name": "AOM", "place_id": "ChIJw-jOZOYEdkgRmxlHC4JzJjU", "types": ["point_of_interest", "establishment"]}, "ChIJw-jOZOYEdkgRQtM9pxeefgk": {"geometry": {"location": {"lat": 51.4893417, "lng": -0.1315341}, "viewport": {"northeast": {"lat": 51.4907367302915, "lng": -0.130211969708498}, "southwest": {"lat": 51.4880387697085, "lng": -0.1329099302915021}}}, "name": "AOM", "place_id": "ChIJw-jOZOYEdkgRQtM9pxeefgk", "types": ["point_of_interest", "establishment"]}, "ChIJmfBWZsUFdkgR1DIn7kRietE": {"geometry": {"location": {"lat": 51.4893417, "lng": -0.1315341}, "viewport": {"northeast": {"lat": 51.4907367302915, "lng": -0.130211969708498}, "southwest": {"lat": 51.4880387697085, "lng": -0.1329099302915021}}}, "name": "Aesthetic Practitioner Academy", "place_id": "ChIJmfBWZsUFdkgR1DIn7kRietE", "types": ["point_of_interest", "establishment"], "rating": 5, "user_ratings_total": 11}, "ChIJ-37XFwQFdkgRyPz9F_69zTc": {"geometry": {"location": {"lat": 51.48940199999999, "lng": -0.1324303}, "viewport": {"northeast": {"lat": 51.49067403029149, "lng": -0.130843769708498}, "southwest": {"lat": 51.4879760697085, "lng": -0.133541730291502}}}, "name": "Google Ltd.Copyright.Date:2019-01/01", "place_id": "ChIJ-37XFwQFdkgRyPz9F_69zTc", "types": ["point_of_interest", "establishment"]}, "ChIJwVCXLuQEdkgRvYNgFvMNgtE": {"geometry": {"location": {"lat": 51.48824700009979, "lng": -0.1324628996660092}, "viewport": {"northeast": {"lat": 51.4895959802915, "lng": -0.131113919708498}, "southwest": {"lat": 51.4868980197085, "lng": -0.133811880291502}}}, "name": "Bessborough Place", "place_id": "ChIJwVCXLuQEdkgRvYNgFvMNgtE", "types": ["route"]}, "ChIJaTJoteUEdkgRPvZw94S2BAg": {"geometry": {"location": {"lat": 51.48725753467219, "lng": -0.1320498914185063}, "viewport": {"northeast": {"lat": 51.4887128302915, "lng": -0.130441319708498}, "southwest": {"lat": 51.4860148697085, "lng": -0.1331392802915021}}}, "name": "Bessborough Place", "place_id": "ChIJaTJoteUEdkgRPvZw94S2BAg", "types": ["route"]}, "ChIJ9Q5INeQEdkgRdXCJV4nQMbk": {"geometry": {"location": {"lat": 51.4874216, "lng": -0.1320576}, "viewport": {"northeast": {"lat": 51.4887725802915, "lng": -0.1307187697084979}, "southwest": {"lat": 51.4860746197085, "lng": -0.133416730291502}}}, "name": "Balvaird Pl Playground", "place_id": "ChIJ9Q5INeQEdkgRdXCJV4nQMbk", "types": ["park", "point_of_interest", "establishment"], "rating": 4.7, "user_ratings_total": 7}, "ChIJJQpOq-UEdkgRU_XqgMhXgjw": {"geometry": {"location": {"lat": 51.48629253129604, "lng": -0.1319657004238084}, "viewport": {"northeast": {"lat": 51.4876618802915, "lng": -0.130636169708498}, "southwest": {"lat": 51.4849639197085, "lng": -0.133334130291502}}}, "name": "Grosvenor Road", "place_id": "ChIJJQpOq-UEdkgRU_XqgMhXgjw", "types": ["route"]}, "ChIJAwDpquUEdkgRB8O73Myboiw": {"geometry": {"location": {"lat": 51.4861331, "lng": -0.1318967}, "viewport": {"northeast": {"lat": 51.48748208029149, "lng": -0.130547719708498}, "southwest": {"lat": 51.4847841197085, "lng": -0.133245680291502}}}, "name": "Eagle Wharf", "place_id": "ChIJAwDpquUEdkgRB8O73Myboiw", "types": ["point_of_interest", "establishment"], "rating": 5, "user_ratings_total": 2}, "ChIJT-z1m-YEdkgRiCTkJhaKJFk": {"geometry": {"location": {"lat": 51.48903738841266, "lng": -0.1335109827101322}, "viewport": {"northeast": {"lat": 51.4903798302915, "lng": -0.132161819708498}, "southwest": {"lat": 51.4876818697085, "lng": -0.134859780291502}}}, "name": "2 Bessborough St", "place_id": "ChIJT-z1m-YEdkgRiCTkJhaKJFk", "types": ["route"]}, "ChIJuWi7o-YEdkgRuUKA7QR2BYU": {"geometry": {"location": {"lat": 51.48923689999999, "lng": -0.1333998}, "viewport": {"northeast": {"lat": 51.4904364302915, "lng": -0.132300869708498}, "southwest": {"lat": 51.4877384697085, "lng": -0.134998830291502}}}, "name": "Pimlico", "place_id": "ChIJuWi7o-YEdkgRuUKA7QR2BYU", "types": ["subway_station", "transit_station", "point_of_interest", "establishment"], "rating": 4.3, "user_ratings_total": 95}, "ChIJQeLl0OEEdkgRozTsF-XNzLo": {"geometry": {"location": {"lat": 51.4892459, "lng": -0.1336093}, "viewport": {"northeast": {"lat": 51.49061623029149, "lng": -0.132346019708498}, "southwest": {"lat": 51.48791826970849, "lng": -0.135043980291502}}}, "name": "Pimlico station", "place_id": "ChIJQeLl0OEEdkgRozTsF-XNzLo", "types": ["point_of_interest", "establishment"], "rating": 4.1, "user_ratings_total": 224}, "ChIJn-6P2p4FdkgRJU49WTCCpgc": {"geometry": {"location": {"lat": 51.4892125, "lng": -0.1335359}, "viewport": {"northeast": {"lat": 51.4906012302915, "lng": -0.132313519708498}, "southwest": {"lat": 51.4879032697085, "lng": -0.135011480291502}}}, "name": "Taxi Pimlico Station", "place_id": "ChIJn-6P2p4FdkgRJU49WTCCpgc", "types": ["point_of_interest", "establishment"]}, "ChIJ1VYCyI8FdkgRBM3ri7ZU2Yc": {"geometry": {"location": {"lat": 51.48923689999999, "lng": -0.1333998}, "viewport": {"northeast": {"lat": 51.4905122802915, "lng": -0.132200419708498}, "southwest": {"lat": 51.48781431970851, "lng": -0.134898380291502}}}, "name": "Popin", "place_id": "ChIJ1VYCyI8FdkgRBM3ri7ZU2Yc", "types": ["convenience_store", "grocery_or_supermarket", "liquor_store", "food", "point_of_interest", "store", "establishment"], "rating": 4.8, "user_ratings_total": 65}, "ChIJQzxNF-QEdkgRZsMJEb1DWMI": {"geometry": {"location": {"lat": 51.48793142719275, "lng": -0.1339036978332304}, "viewport": {"northeast": {"lat": 51.4892988302915, "lng": -0.1324987697084979}, "southwest": {"lat": 51.4866008697085, "lng": -0.135196730291502}}}, "name": "39-5 Aylesford St", "place_id": "ChIJQzxNF-QEdkgRZsMJEb1DWMI", "types": ["route"]}, "ChIJzSuIZeQEdkgRKw3pCy-ywos": {"geometry": {"location": {"lat": 51.48690667083626, "lng": -0.1340802147206429}, "viewport": {"northeast": {"lat": 51.48825603029149, "lng": -0.132729119708498}, "southwest": {"lat": 51.4855580697085, "lng": -0.135427080291502}}}, "name": "79-109 St.George's Square", "place_id": "ChIJzSuIZeQEdkgRKw3pCy-ywos", "types": ["route"]}, "ChIJrcXV9OQEdkgRauy1Lg3P0EM": {"geometry": {"location": {"lat": 51.48591605009313, "lng": -0.1334579000855255}, "viewport": {"northeast": {"lat": 51.4872650302915, "lng": -0.132108919708498}, "southwest": {"lat": 51.4845670697085, "lng": -0.134806880291502}}}, "name": "Grosvenor Road", "place_id": "ChIJrcXV9OQEdkgRauy1Lg3P0EM", "types": ["route"]}, "ChIJp8B_iuQEdkgR9-FqEFDXV08": {"geometry": {"location": {"lat": 51.48602140000001, "lng": -0.1336653}, "viewport": {"northeast": {"lat": 51.48737868029149, "lng": -0.132269569708498}, "southwest": {"lat": 51.48468071970849, "lng": -0.134967530291502}}}, "name": "Stentor Finance Ltd", "place_id": "ChIJp8B_iuQEdkgR9-FqEFDXV08", "types": ["point_of_interest", "establishment"]}, "ChIJ-y4pYeQEdkgRBdWl1dDonFo": {"geometry": {"location": {"lat": 51.486327, "lng": -0.133682}, "viewport": {"northeast": {"lat": 51.4876652802915, "lng": -0.132391419708498}, "southwest": {"lat": 51.4849673197085, "lng": -0.1350893802915021}}}, "name": "Turenne Consulting Ltd", "place_id": "ChIJ-y4pYeQEdkgRBdWl1dDonFo", "types": ["point_of_interest", "establishment"]}, "ChIJLRi0ZuQEdkgRPBZpKSVn-K8": {"geometry": {"location": {"lat": 51.486374, "lng": -0.133771}, "viewport": {"northeast": {"lat": 51.4877216802915, "lng": -0.132428919708498}, "southwest": {"lat": 51.4850237197085, "lng": -0.135126880291502}}}, "name": "ubitricity Charging Station", "place_id": "ChIJLRi0ZuQEdkgRPBZpKSVn-K8", "types": ["point_of_interest", "establishment"]}, "ChIJ15RdReEEdkgRHeHAGEMumJ8": {"geometry": {"location": {"lat": 51.4893868, "lng": -0.1357244}, "viewport": {"northeast": {"lat": 51.4906783302915, "lng": -0.134441969708498}, "southwest": {"lat": 51.4879803697085, "lng": -0.137139930291502}}}, "name": "Judith Dawson", "place_id": "ChIJ15RdReEEdkgRHeHAGEMumJ8", "types": ["point_of_interest", "establishment"]}, "ChIJme1xTeEEdkgRDhkywbA-Vio": {"geometry": {"location": {"lat": 51.48936860000001, "lng": -0.1351036}, "viewport": {"northeast": {"lat": 51.4907888302915, "lng": -0.133656069708498}, "southwest": {"lat": 51.4880908697085, "lng": -0.1363540302915021}}}, "name": "BASE IT", "place_id": "ChIJme1xTeEEdkgRDhkywbA-Vio", "types": ["point_of_interest", "establishment"]}, "ChIJ2f1uTeEEdkgRByJJq49LDms": {"geometry": {"location": {"lat": 51.4893617, "lng": -0.1350857}, "viewport": {"northeast": {"lat": 51.49078183029149, "lng": -0.133640469708498}, "southwest": {"lat": 51.48808386970849, "lng": -0.136338430291502}}}, "name": "CDP M&E Limited", "place_id": "ChIJ2f1uTeEEdkgRByJJq49LDms", "types": ["point_of_interest", "establishment"]}, "ChIJme1xTeEEdkgRuv1Vge-jvEo": {"geometry": {"location": {"lat": 51.4893617, "lng": -0.1350857}, "viewport": {"northeast": {"lat": 51.49078183029149, "lng": -0.133640469708498}, "southwest": {"lat": 51.48808386970849, "lng": -0.136338430291502}}}, "name": "Nursery Amenity Limited", "place_id": "ChIJme1xTeEEdkgRuv1Vge-jvEo", "types": ["point_of_interest", "establishment"]}, "ChIJme1xTeEEdkgRwv7vTulyTlc": {"geometry": {"location": {"lat": 51.4893617, "lng": -0.1350857}, "viewport": {"northeast": {"lat": 51.49078183029149, "lng": -0.133640469708498}, "southwest": {"lat": 51.48808386970849, "lng": -0.136338430291502}}}, "name": "Hendersons Building Services Limited", "place_id": "ChIJme1xTeEEdkgRwv7vTulyTlc", "types": ["point_of_interest", "establishment"]}, "ChIJme1xTeEEdkgRI3r2iVa1wU0": {"geometry": {"location": {"lat": 51.4893617, "lng": -0.1350857}, "viewport": {"northeast": {"lat": 51.49078183029149, "lng": -0.133640469708498}, "southwest": {"lat": 51.48808386970849, "lng": -0.136338430291502}}}, "name": "Kwb London Limited", "place_id": "ChIJme1xTeEEdkgRI3r2iVa1wU0", "types": ["point_of_interest", "establishment"]}, "ChIJme1xTeEEdkgRm_8FrxsjNk8": {"geometry": {"location": {"lat": 51.4893617, "lng": -0.1350857}, "viewport": {"northeast": {"lat": 51.49078183029149, "lng": -0.133640469708498}, "southwest": {"lat": 51.48808386970849, "lng": -0.136338430291502}}}, "name": "Pmi Cabinets Llp", "place_id": "ChIJme1xTeEEdkgRm_8FrxsjNk8", "types": ["point_of_interest", "establishment"]}, "ChIJme1xTeEEdkgRVIE0yMaARt0": {"geometry": {"location": {"lat": 51.4893617, "lng": -0.1350857}, "viewport": {"northeast": {"lat": 51.49078183029149, "lng": -0.133640469708498}, "southwest": {"lat": 51.48808386970849, "lng": -0.136338430291502}}}, "name": "Broomfield Surveyors Limited", "place_id": "ChIJme1xTeEEdkgRVIE0yMaARt0", "types": ["point_of_interest", "establishment"]}, "ChIJme1xTeEEdkgRtFqMYoKIml8": {"geometry": {"location": {"lat": 51.4893617, "lng": -0.1350857}, "viewport": {"northeast": {"lat": 51.49078183029149, "lng": -0.133640469708498}, "southwest": {"lat": 51.48808386970849, "lng": -0.136338430291502}}}, "name": "Hamilton Glass Products Limited", "place_id": "ChIJme1xTeEEdkgRtFqMYoKIml8", "types": ["point_of_interest", "establishment"]}, "ChIJme1xTeEEdkgR3NyeqKuLpFg": {"geometry": {"location": {"lat": 51.4893617, "lng": -0.1350857}, "viewport": {"northeast": {"lat": 51.49078183029149, "lng": -0.133640469708498}, "southwest": {"lat": 51.48808386970849, "lng": -0.136338430291502}}}, "name": "Nemea Limited", "place_id": "ChIJme1xTeEEdkgR3NyeqKuLpFg", "types": ["point_of_interest", "establishment"]}, "ChIJme1xTeEEdkgR2Js4PcZ4WJU": {"geometry": {"location": {"lat": 51.4893617, "lng": -0.1350857}, "viewport": {"northeast": {"lat": 51.49078183029149, "lng": -0.133640469708498}, "southwest": {"lat": 51.48808386970849, "lng": -0.136338430291502}}}, "name": "Vote No Limited", "place_id": "ChIJme1xTeEEdkgR2Js4PcZ4WJU", "types": ["point_of_interest", "establishment"]}, "ChIJme1xTeEEdkgRSpSK7q5U3aM": {"geometry": {"location": {"lat": 51.4893617, "lng": -0.1350857}, "viewport": {"northeast": {"lat": 51.49078183029149, "lng": -0.133640469708498}, "southwest": {"lat": 51.48808386970849, "lng": -0.136338430291502}}}, "name": "Studio Mica Limited", "place_id": "ChIJme1xTeEEdkgRSpSK7q5U3aM", "types": ["point_of_interest", "establishment"]}, "ChIJme1xTeEEdkgRxcZ0dGXYnGk": {"geometry": {"location": {"lat": 51.4893617, "lng": -0.1350857}, "viewport": {"northeast": {"lat": 51.49078183029149, "lng": -0.133640469708498}, "southwest": {"lat": 51.48808386970849, "lng": -0.136338430291502}}}, "name": "Even Keel Partners Llp", "place_id": "ChIJme1xTeEEdkgRxcZ0dGXYnGk", "types": ["point_of_interest", "establishment"]}, "ChIJ7YR-wUEFdkgRocBYEy1WIuY": {"geometry": {"location": {"lat": 51.489381, "lng": -0.1350507}, "viewport": {"northeast": {"lat": 51.4907901302915, "lng": -0.133620369708498}, "southwest": {"lat": 51.4880921697085, "lng": -0.136318330291502}}}, "name": "Online Marketing Agency Pimlico", "place_id": "ChIJ7YR-wUEFdkgRocBYEy1WIuY", "types": ["point_of_interest", "establishment"]}, "ChIJo_ak4uMEdkgRUqJtsmphtqg": {"geometry": {"location": {"lat": 51.4894183, "lng": -0.1357205}, "viewport": {"northeast": {"lat": 51.4906988802915, "lng": -0.134450719708498}, "southwest": {"lat": 51.4880009197085, "lng": -0.137148680291502}}}, "name": "Londons Loft Specialists \ud83c\udfc6", "place_id": "ChIJo_ak4uMEdkgRUqJtsmphtqg", "types": ["general_contractor", "point_of_interest", "establishment"]}, "ChIJAQBnReEEdkgRe_3QMBMB1vY": {"geometry": {"location": {"lat": 51.4894015, "lng": -0.1357301}, "viewport": {"northeast": {"lat": 51.4906890302915, "lng": -0.1344522697084979}, "southwest": {"lat": 51.4879910697085, "lng": -0.137150230291502}}}, "name": "Abset Services Limited", "place_id": "ChIJAQBnReEEdkgRe_3QMBMB1vY", "types": ["point_of_interest", "establishment"]}, "ChIJAQBnReEEdkgRXwCVeFkyEjI": {"geometry": {"location": {"lat": 51.4894015, "lng": -0.1357301}, "viewport": {"northeast": {"lat": 51.4906890302915, "lng": -0.1344522697084979}, "southwest": {"lat": 51.4879910697085, "lng": -0.137150230291502}}}, "name": "Wg Servicing Limited", "place_id": "ChIJAQBnReEEdkgRXwCVeFkyEjI", "types": ["point_of_interest", "establishment"]}, "ChIJoSdeMSQFdkgRdFVM5-woFHk": {"geometry": {"location": {"lat": 51.48940520000001, "lng": -0.1357504}, "viewport": {"northeast": {"lat": 51.4906945302915, "lng": -0.134470519708498}, "southwest": {"lat": 51.48799656970851, "lng": -0.137168480291502}}}, "name": "Happy brix", "place_id": "ChIJoSdeMSQFdkgRdFVM5-woFHk", "types": ["general_contractor", "point_of_interest", "establishment"]}, "ChIJrcp4U-EEdkgR8WGn3c-TJes": {"geometry": {"location": {"lat": 51.4891272, "lng": -0.1353794}, "viewport": {"northeast": {"lat": 51.49044913029149, "lng": -0.1340605197084979}, "southwest": {"lat": 51.4877511697085, "lng": -0.1367584802915019}}}, "name": "St George's Square (Stop G)", "place_id": "ChIJrcp4U-EEdkgR8WGn3c-TJes", "types": ["bus_station", "transit_station", "point_of_interest", "establishment"], "rating": 5, "user_ratings_total": 1}, "ChIJGQ7aU-EEdkgRPsIMHM4MRS0": {"geometry": {"location": {"lat": 51.48910199999999, "lng": -0.1353}, "viewport": {"northeast": {"lat": 51.49041943029149, "lng": -0.133984519708498}, "southwest": {"lat": 51.48772146970849, "lng": -0.136682480291502}}}, "name": "ubitricity Charging Station", "place_id": "ChIJGQ7aU-EEdkgRPsIMHM4MRS0", "types": ["point_of_interest", "establishment"]}, "ChIJRSIpVuEEdkgRxB8Ko1E5IVE": {"geometry": {"location": {"lat": 51.48867348813438, "lng": -0.1354455594763423}, "viewport": {"northeast": {"lat": 51.4900238802915, "lng": -0.134097219708498}, "southwest": {"lat": 51.4873259197085, "lng": -0.136795180291502}}}, "name": "8-4 Lupus St", "place_id": "ChIJRSIpVuEEdkgRxB8Ko1E5IVE", "types": ["route"]}, "ChIJlV1PFD8FdkgRlajd4C7TK6Q": {"geometry": {"location": {"lat": 51.48848779999999, "lng": -0.135236}, "viewport": {"northeast": {"lat": 51.4898367802915, "lng": -0.133887019708498}, "southwest": {"lat": 51.4871388197085, "lng": -0.136584980291502}}}, "name": "St Saviour's, Pimlico", "place_id": "ChIJlV1PFD8FdkgRlajd4C7TK6Q", "types": ["tourist_attraction", "church", "place_of_worship", "point_of_interest", "establishment"], "rating": 4.6, "user_ratings_total": 54}, "ChIJlQGT_OMEdkgRr1ZXl3M3RGs": {"geometry": {"location": {"lat": 51.4883184, "lng": -0.1352115}, "viewport": {"northeast": {"lat": 51.4896360802915, "lng": -0.134041819708498}, "southwest": {"lat": 51.4869381197085, "lng": -0.136739780291502}}}, "name": "Young England Kindergarten", "place_id": "ChIJlQGT_OMEdkgRr1ZXl3M3RGs", "types": ["school", "point_of_interest", "establishment"], "rating": 5, "user_ratings_total": 7}, "ChIJ6yK6_OMEdkgRks8ob7yV6LU": {"geometry": {"location": {"lat": 51.4883835, "lng": -0.1356387}, "viewport": {"northeast": {"lat": 51.48974188029149, "lng": -0.134235869708498}, "southwest": {"lat": 51.4870439197085, "lng": -0.136933830291502}}}, "name": "CustomerClix Ltd", "place_id": "ChIJ6yK6_OMEdkgRks8ob7yV6LU", "types": ["point_of_interest", "establishment"]}, "ChIJ5V_kieMEdkgRg8b3tJHn8A8": {"geometry": {"location": {"lat": 51.48740521027101, "lng": -0.1351803755332673}, "viewport": {"northeast": {"lat": 51.4887540302915, "lng": -0.133832269708498}, "southwest": {"lat": 51.4860560697085, "lng": -0.136530230291502}}}, "name": "66-74 St.George's Square", "place_id": "ChIJ5V_kieMEdkgRg8b3tJHn8A8", "types": ["route"]}, "ChIJq5OLbfMEdkgRiP9iwSjoKu0": {"geometry": {"location": {"lat": 51.4874417, "lng": -0.1355256}, "viewport": {"northeast": {"lat": 51.4888188802915, "lng": -0.134025569708498}, "southwest": {"lat": 51.4861209197085, "lng": -0.136723530291502}}}, "name": "London Mobile Disco", "place_id": "ChIJq5OLbfMEdkgRiP9iwSjoKu0", "types": ["point_of_interest", "establishment"], "rating": 4, "user_ratings_total": 1}, "ChIJxVDSi-MEdkgRR4id6RVNHqY": {"geometry": {"location": {"lat": 51.4871619, "lng": -0.1353422}, "viewport": {"northeast": {"lat": 51.48853368029149, "lng": -0.133866419708498}, "southwest": {"lat": 51.48583571970849, "lng": -0.136564380291502}}}, "name": "Spanish Gospel Mission", "place_id": "ChIJxVDSi-MEdkgRR4id6RVNHqY", "types": ["point_of_interest", "establishment"]}, "ChIJg50p-MwEdkgRieuCP1Py5C0": {"geometry": {"location": {"lat": 51.4873901, "lng": -0.135223}, "viewport": {"northeast": {"lat": 51.48873853029149, "lng": -0.133876819708498}, "southwest": {"lat": 51.48604056970849, "lng": -0.136574780291502}}}, "name": "Lucky 8 PR", "place_id": "ChIJg50p-MwEdkgRieuCP1Py5C0", "types": ["point_of_interest", "establishment"], "rating": 1, "user_ratings_total": 1}, "ChIJp9Nm8-MEdkgRPr-L64QCvlM": {"geometry": {"location": {"lat": 51.48745180000001, "lng": -0.1354882000000001}, "viewport": {"northeast": {"lat": 51.4888253302915, "lng": -0.134007569708498}, "southwest": {"lat": 51.48612736970851, "lng": -0.136705530291502}}}, "name": "Fides Fortis Limited", "place_id": "ChIJp9Nm8-MEdkgRPr-L64QCvlM", "types": ["point_of_interest", "establishment"]}, "ChIJYYtLi-MEdkgR5mOZLhp7Fck": {"geometry": {"location": {"lat": 51.4873349, "lng": -0.1354239}, "viewport": {"northeast": {"lat": 51.4887068302915, "lng": -0.1339474697084979}, "southwest": {"lat": 51.4860088697085, "lng": -0.136645430291502}}}, "name": "Legal Proposals", "place_id": "ChIJYYtLi-MEdkgR5mOZLhp7Fck", "types": ["point_of_interest", "establishment"]}, "ChIJQaMjTuEEdkgRb9Pd8eevCxk": {"geometry": {"location": {"lat": 51.48731249999999, "lng": -0.1351373}, "viewport": {"northeast": {"lat": 51.48865273029149, "lng": -0.133836919708498}, "southwest": {"lat": 51.48595476970849, "lng": -0.136534880291502}}}, "name": "flats4U London", "place_id": "ChIJQaMjTuEEdkgRb9Pd8eevCxk", "types": ["point_of_interest", "establishment"]}, "ChIJPZfQg7UFdkgRvb_bbJLsyQw": {"geometry": {"location": {"lat": 51.4874417, "lng": -0.1355255}, "viewport": {"northeast": {"lat": 51.4888188802915, "lng": -0.134025519708498}, "southwest": {"lat": 51.4861209197085, "lng": -0.136723480291502}}}, "name": "Green Plaque: Francis Crick", "place_id": "ChIJPZfQg7UFdkgRvb_bbJLsyQw", "types": ["point_of_interest", "establishment"]}, "ChIJYTz19OMEdkgRV_sF2HtddRE": {"geometry": {"location": {"lat": 51.4874966, "lng": -0.1352228}, "viewport": {"northeast": {"lat": 51.4888368302915, "lng": -0.133922419708498}, "southwest": {"lat": 51.4861388697085, "lng": -0.136620380291502}}}, "name": "Pimlico Chess Club", "place_id": "ChIJYTz19OMEdkgRV_sF2HtddRE", "types": ["point_of_interest", "establishment"], "rating": 5, "user_ratings_total": 1}, "ChIJLTdQieMEdkgRIJwSxlcJPwM": {"geometry": {"location": {"lat": 51.48697379999999, "lng": -0.1352799}, "viewport": {"northeast": {"lat": 51.4883470802915, "lng": -0.133792869708498}, "southwest": {"lat": 51.4856491197085, "lng": -0.1364908302915021}}}, "name": "Pimlico Man and Van", "place_id": "ChIJLTdQieMEdkgRIJwSxlcJPwM", "types": ["moving_company", "point_of_interest", "establishment"]}, "ChIJral5e-MEdkgRSaFBHPBY93g": {"geometry": {"location": {"lat": 51.48557521431262, "lng": -0.135349063886243}, "viewport": {"northeast": {"lat": 51.4869250802915, "lng": -0.134000519708498}, "southwest": {"lat": 51.4842271197085, "lng": -0.136698480291502}}}, "name": "136-135 Grosvenor Rd", "place_id": "ChIJral5e-MEdkgRSaFBHPBY93g", "types": ["route"]}, "ChIJLb8il-MEdkgRCe1PxRoDZj0": {"geometry": {"location": {"lat": 51.486144, "lng": -0.1352627}, "viewport": {"northeast": {"lat": 51.4874921802915, "lng": -0.133908069708498}, "southwest": {"lat": 51.4847942197085, "lng": -0.136606030291502}}}, "name": "TCS Groundworks", "place_id": "ChIJLb8il-MEdkgRCe1PxRoDZj0", "types": ["point_of_interest", "establishment"]}, "ChIJp-KRnrAFdkgRdYGDk7VvOkA": {"geometry": {"location": {"lat": 51.486265, "lng": -0.1353369}, "viewport": {"northeast": {"lat": 51.48761408029149, "lng": -0.1339872197084979}, "southwest": {"lat": 51.4849161197085, "lng": -0.136685180291502}}}, "name": "Cliden Construction (London) Ltd.", "place_id": "ChIJp-KRnrAFdkgRdYGDk7VvOkA", "types": ["general_contractor", "point_of_interest", "establishment"]}, "ChIJibYUoOgFdkgRjfyi2DU2Aac": {"geometry": {"location": {"lat": 51.4860531, "lng": -0.1353537}, "viewport": {"northeast": {"lat": 51.4874534802915, "lng": -0.133931419708498}, "southwest": {"lat": 51.4847555197085, "lng": -0.136629380291502}}}, "name": "videography Pimlico", "place_id": "ChIJibYUoOgFdkgRjfyi2DU2Aac", "types": ["point_of_interest", "establishment"]}, "ChIJz5YFguMEdkgRvDXmMuuFevY": {"geometry": {"location": {"lat": 51.4860531, "lng": -0.1353537}, "viewport": {"northeast": {"lat": 51.4874534802915, "lng": -0.133931419708498}, "southwest": {"lat": 51.4847555197085, "lng": -0.136629380291502}}}, "name": "Frobisher House", "place_id": "ChIJz5YFguMEdkgRvDXmMuuFevY", "types": ["point_of_interest", "establishment"], "rating": 4, "user_ratings_total": 1}, "ChIJ1ZEKhOMEdkgRibXusCoITNU": {"geometry": {"location": {"lat": 51.4862733, "lng": -0.1355277}, "viewport": {"northeast": {"lat": 51.4878815302915, "lng": -0.134218569708498}, "southwest": {"lat": 51.4851835697085, "lng": -0.136916530291502}}}, "name": "Collingwood House", "place_id": "ChIJ1ZEKhOMEdkgRibXusCoITNU", "types": ["point_of_interest", "establishment"], "rating": 3, "user_ratings_total": 2}, "ChIJZwSkBLUFdkgRudqy2qMPkdc": {"geometry": {"location": {"lat": 51.4863203, "lng": -0.1354412}, "viewport": {"northeast": {"lat": 51.48789953029149, "lng": -0.1341010697084979}, "southwest": {"lat": 51.48520156970849, "lng": -0.136799030291502}}}, "name": "Haynes\u2019 London Stay", "place_id": "ChIJZwSkBLUFdkgRudqy2qMPkdc", "types": ["night_club", "point_of_interest", "establishment"]}, "ChIJEbBJeeMEdkgROQUQtsfznCg": {"geometry": {"location": {"lat": 51.4857352, "lng": -0.1353522}, "viewport": {"northeast": {"lat": 51.4871201302915, "lng": -0.133807119708498}, "southwest": {"lat": 51.4844221697085, "lng": -0.136505080291502}}}, "name": "Drake House", "place_id": "ChIJEbBJeeMEdkgROQUQtsfznCg", "types": ["point_of_interest", "establishment"]}}}