{"E00024042": {"ChIJqQas3eEEdkgRWfQ8mFXE1xo": {"geometry": {"location": {"lat": 51.49014754401273, "lng": -0.1402949128852788}, "viewport": {"northeast": {"lat": 51.4914765302915, "lng": -0.1387167}, "southwest": {"lat": 51.48877856970851, "lng": -0.1418291}}}, "name": "2-36 Gloucester St", "place_id": "ChIJqQas3eEEdkgRWfQ8mFXE1xo", "types": ["route"]}, "ChIJ5Xvr2-EEdkgRE5DOef1icg4": {"geometry": {"location": {"lat": 51.4903475, "lng": -0.1403839}, "viewport": {"northeast": {"lat": 51.49164708029149, "lng": -0.138929369708498}, "southwest": {"lat": 51.48894911970849, "lng": -0.141627330291502}}}, "name": "London Pimlico", "place_id": "ChIJ5Xvr2-EEdkgRE5DOef1icg4", "types": ["real_estate_agency", "point_of_interest", "establishment"]}, "ChIJXx7-ojYbdkgR6ITQjxEhqJc": {"geometry": {"location": {"lat": 51.4902914, "lng": -0.1403578}, "viewport": {"northeast": {"lat": 51.4916049302915, "lng": -0.138933269708498}, "southwest": {"lat": 51.48890696970851, "lng": -0.141631230291502}}}, "name": "Portman Chambers", "place_id": "ChIJXx7-ojYbdkgR6ITQjxEhqJc", "types": ["point_of_interest", "establishment"], "rating": 1, "user_ratings_total": 1}, "ChIJT3Y23-EEdkgRM-EJ3LM6WEU": {"geometry": {"location": {"lat": 51.4903711, "lng": -0.1406466}, "viewport": {"northeast": {"lat": 51.4917886302915, "lng": -0.139446369708498}, "southwest": {"lat": 51.4890906697085, "lng": -0.142144330291502}}}, "name": "Aldine Honey Ltd", "place_id": "ChIJT3Y23-EEdkgRM-EJ3LM6WEU", "types": ["real_estate_agency", "point_of_interest", "establishment"]}, "ChIJNWNj3OEEdkgRJjqOxOs-_8M": {"geometry": {"location": {"lat": 51.4902334, "lng": -0.1403209}, "viewport": {"northeast": {"lat": 51.4915629802915, "lng": -0.138930569708498}, "southwest": {"lat": 51.4888650197085, "lng": -0.141628530291502}}}, "name": "Just Off", "place_id": "ChIJNWNj3OEEdkgRJjqOxOs-_8M", "types": ["point_of_interest", "establishment"]}, "ChIJWeBmyeEEdkgRATeYvStm3dI": {"geometry": {"location": {"lat": 51.4909205, "lng": -0.1396394}, "viewport": {"northeast": {"lat": 51.4923138302915, "lng": -0.138236719708498}, "southwest": {"lat": 51.4896158697085, "lng": -0.140934680291502}}}, "name": "ZweRo Ltd", "place_id": "ChIJWeBmyeEEdkgRATeYvStm3dI", "types": ["point_of_interest", "establishment"]}, "ChIJ3yy928IEdkgRs9Twns6fca8": {"geometry": {"location": {"lat": 51.4901542, "lng": -0.1404256}, "viewport": {"northeast": {"lat": 51.49148248029149, "lng": -0.139032269708498}, "southwest": {"lat": 51.4887845197085, "lng": -0.141730230291502}}}, "name": "St. George Valuations", "place_id": "ChIJ3yy928IEdkgRs9Twns6fca8", "types": ["point_of_interest", "establishment"]}, "ChIJDScXJx4FdkgR-h5dsuKdhuQ": {"geometry": {"location": {"lat": 51.4903397, "lng": -0.1408768}, "viewport": {"northeast": {"lat": 51.49172848029149, "lng": -0.139614269708498}, "southwest": {"lat": 51.4890305197085, "lng": -0.142312230291502}}}, "name": "Stancliffe & Glover", "place_id": "ChIJDScXJx4FdkgR-h5dsuKdhuQ", "types": ["point_of_interest", "establishment"]}, "ChIJtcQ83OEEdkgRowPuWjTdeZQ": {"geometry": {"location": {"lat": 51.4902375, "lng": -0.1404401}, "viewport": {"northeast": {"lat": 51.4915485302915, "lng": -0.1390101197084979}, "southwest": {"lat": 51.4888505697085, "lng": -0.141708080291502}}}, "name": "Powder Puffs", "place_id": "ChIJtcQ83OEEdkgRowPuWjTdeZQ", "types": ["point_of_interest", "establishment"]}, "ChIJq7zowOEEdkgRd1RPg11Kc9Y": {"geometry": {"location": {"lat": 51.4902181, "lng": -0.1395677}, "viewport": {"northeast": {"lat": 51.4915161302915, "lng": -0.138136669708498}, "southwest": {"lat": 51.48881816970851, "lng": -0.140834630291502}}}, "name": "Area16 Marketing", "place_id": "ChIJq7zowOEEdkgRd1RPg11Kc9Y", "types": ["point_of_interest", "establishment"]}, "ChIJ-3vr2-EEdkgRzYrKUTRM4LA": {"geometry": {"location": {"lat": 51.4905002, "lng": -0.1402276}, "viewport": {"northeast": {"lat": 51.49179548029149, "lng": -0.138764019708498}, "southwest": {"lat": 51.48909751970849, "lng": -0.141461980291502}}}, "name": "Kairos Consulting Solutions Ltd", "place_id": "ChIJ-3vr2-EEdkgRzYrKUTRM4LA", "types": ["point_of_interest", "establishment"]}, "ChIJM25H4MsFdkgRdgUYVXoywgE": {"geometry": {"location": {"lat": 51.4905, "lng": -0.1401}, "viewport": {"northeast": {"lat": 51.49181443029149, "lng": -0.138677269708498}, "southwest": {"lat": 51.48911646970849, "lng": -0.141375230291502}}}, "name": "BINANCE-TRADERS HEADQUARTERS", "place_id": "ChIJM25H4MsFdkgRdgUYVXoywgE", "types": ["point_of_interest", "establishment"], "rating": 3, "user_ratings_total": 4}, "ChIJHzo0wXYFdkgRKcdawjjBJaM": {"geometry": {"location": {"lat": 51.4905565, "lng": -0.1400081}, "viewport": {"northeast": {"lat": 51.4918744302915, "lng": -0.138592869708498}, "southwest": {"lat": 51.4891764697085, "lng": -0.141290830291502}}}, "name": "Emergency Mobile Tyre Fitting Pimlico", "place_id": "ChIJHzo0wXYFdkgRKcdawjjBJaM", "types": ["car_repair", "point_of_interest", "store", "establishment"]}, "ChIJCZ7PH2MFdkgRfl9-0LIfhjc": {"geometry": {"location": {"lat": 51.4906409, "lng": -0.1399464}, "viewport": {"northeast": {"lat": 51.4919528302915, "lng": -0.138518369708498}, "southwest": {"lat": 51.4892548697085, "lng": -0.141216330291502}}}, "name": "EnvisionX Group Limited", "place_id": "ChIJCZ7PH2MFdkgRfl9-0LIfhjc", "types": ["point_of_interest", "establishment"]}, "ChIJawU1AiMFdkgRo5fFCCbrZOs": {"geometry": {"location": {"lat": 51.49074479999999, "lng": -0.1403635}, "viewport": {"northeast": {"lat": 51.4921379802915, "lng": -0.139107269708498}, "southwest": {"lat": 51.4894400197085, "lng": -0.141805230291502}}}, "name": "Jorge & Silva Upholstery", "place_id": "ChIJawU1AiMFdkgRo5fFCCbrZOs", "types": ["furniture_store", "home_goods_store", "point_of_interest", "store", "establishment"]}, "ChIJ_UhD2-EEdkgRGKNspnekg9k": {"geometry": {"location": {"lat": 51.49033829999999, "lng": -0.1401946}, "viewport": {"northeast": {"lat": 51.49166783029149, "lng": -0.138804069708498}, "southwest": {"lat": 51.48896986970849, "lng": -0.141502030291502}}}, "name": "Signage London", "place_id": "ChIJ_UhD2-EEdkgRGKNspnekg9k", "types": ["point_of_interest", "store", "establishment"]}, "ChIJ34XwvQEFdkgRrqvQHJEIoSk": {"geometry": {"location": {"lat": 51.4903326, "lng": -0.1403121}, "viewport": {"northeast": {"lat": 51.4916455302915, "lng": -0.138886219708498}, "southwest": {"lat": 51.48894756970851, "lng": -0.141584180291502}}}, "name": "Vaysor Tech Ltd", "place_id": "ChIJ34XwvQEFdkgRrqvQHJEIoSk", "types": ["finance", "point_of_interest", "establishment"]}, "ChIJgf1rOfwFdkgRa3n2897Dxc0": {"geometry": {"location": {"lat": 51.49031799999999, "lng": -0.1402538}, "viewport": {"northeast": {"lat": 51.4916423302915, "lng": -0.138852169708498}, "southwest": {"lat": 51.48894436970851, "lng": -0.141550130291502}}}, "name": "AFM Upholsterers", "place_id": "ChIJgf1rOfwFdkgRa3n2897Dxc0", "types": ["furniture_store", "home_goods_store", "point_of_interest", "store", "establishment"]}, "ChIJX4RmnfgFdkgRcZ-CkFsum1A": {"geometry": {"location": {"lat": 51.49031799999999, "lng": -0.1402538}, "viewport": {"northeast": {"lat": 51.4916423302915, "lng": -0.138852219708498}, "southwest": {"lat": 51.48894436970851, "lng": -0.141550180291502}}}, "name": "Namai", "place_id": "ChIJX4RmnfgFdkgRcZ-CkFsum1A", "types": ["lodging", "point_of_interest", "establishment"]}, "ChIJVynM2eEEdkgRUz0qeR5ECuk": {"geometry": {"location": {"lat": 51.49056439999999, "lng": -0.1406382}, "viewport": {"northeast": {"lat": 51.4919495802915, "lng": -0.139365219708498}, "southwest": {"lat": 51.4892516197085, "lng": -0.142063180291502}}}, "name": "ELENA PEUGEOT LTD.", "place_id": "ChIJVynM2eEEdkgRUz0qeR5ECuk", "types": ["general_contractor", "point_of_interest", "establishment"]}, "ChIJh5CF2-EEdkgRrpdESZALZg8": {"geometry": {"location": {"lat": 51.4903171, "lng": -0.1403336}, "viewport": {"northeast": {"lat": 51.4916296302915, "lng": -0.138906919708498}, "southwest": {"lat": 51.48893166970851, "lng": -0.141604880291502}}}, "name": "Mornington Hotel London Victoria", "place_id": "ChIJh5CF2-EEdkgRrpdESZALZg8", "types": ["lodging", "point_of_interest", "establishment"], "rating": 4, "user_ratings_total": 153}, "ChIJn6SFxOEEdkgRooB554pHqfY": {"geometry": {"location": {"lat": 51.49032109999999, "lng": -0.1399497}, "viewport": {"northeast": {"lat": 51.4916903302915, "lng": -0.138643969708498}, "southwest": {"lat": 51.4889923697085, "lng": -0.141341930291502}}}, "name": "OYO Gloucester St. Studios", "place_id": "ChIJn6SFxOEEdkgRooB554pHqfY", "types": ["lodging", "point_of_interest", "establishment"], "rating": 3.7, "user_ratings_total": 15}, "ChIJ-QnmjDAFdkgRG_tBruGRV5g": {"geometry": {"location": {"lat": 51.4902733, "lng": -0.1401387}, "viewport": {"northeast": {"lat": 51.4916418802915, "lng": -0.138831519708498}, "southwest": {"lat": 51.4889439197085, "lng": -0.1415294802915021}}}, "name": "Crptogold Investment", "place_id": "ChIJ-QnmjDAFdkgRG_tBruGRV5g", "types": ["finance", "point_of_interest", "establishment"], "rating": 5, "user_ratings_total": 2}, "ChIJgfqJ2-EEdkgRfJyhVnrvUFo": {"geometry": {"location": {"lat": 51.4902915, "lng": -0.1403578}, "viewport": {"northeast": {"lat": 51.4916050302915, "lng": -0.138933219708498}, "southwest": {"lat": 51.4889070697085, "lng": -0.141631180291502}}}, "name": "METIS Conferences Ltd", "place_id": "ChIJgfqJ2-EEdkgRfJyhVnrvUFo", "types": ["point_of_interest", "establishment"]}, "ChIJ_-f9ojYbdkgRGrGf5brzBdU": {"geometry": {"location": {"lat": 51.4902914, "lng": -0.1403578}, "viewport": {"northeast": {"lat": 51.4916049302915, "lng": -0.138933269708498}, "southwest": {"lat": 51.48890696970851, "lng": -0.141631230291502}}}, "name": "VCQ Media Ltd", "place_id": "ChIJ_-f9ojYbdkgRGrGf5brzBdU", "types": ["point_of_interest", "establishment"]}, "ChIJNWNj3OEEdkgRh33E3T64d-o": {"geometry": {"location": {"lat": 51.4902717, "lng": -0.1403739}, "viewport": {"northeast": {"lat": 51.49158643029151, "lng": -0.138951869708498}, "southwest": {"lat": 51.48888846970851, "lng": -0.141649830291502}}}, "name": "ONE FOREX ZONE LIMITED", "place_id": "ChIJNWNj3OEEdkgRh33E3T64d-o", "types": ["shopping_mall", "point_of_interest", "establishment"]}, "ChIJNWNj3OEEdkgRsuzP1YOnNLo": {"geometry": {"location": {"lat": 51.49024030000001, "lng": -0.1403128}, "viewport": {"northeast": {"lat": 51.49156983029151, "lng": -0.138922369708498}, "southwest": {"lat": 51.48887186970851, "lng": -0.141620330291502}}}, "name": "The BDG Group", "place_id": "ChIJNWNj3OEEdkgRsuzP1YOnNLo", "types": ["finance", "point_of_interest", "establishment"]}, "ChIJVRmCyOEEdkgRzH9zd-qkbKc": {"geometry": {"location": {"lat": 51.4906222, "lng": -0.1395826}, "viewport": {"northeast": {"lat": 51.4919919302915, "lng": -0.138278219708498}, "southwest": {"lat": 51.4892939697085, "lng": -0.140976180291502}}}, "name": "Golden Quill Literary Agency", "place_id": "ChIJVRmCyOEEdkgRzH9zd-qkbKc", "types": ["book_store", "point_of_interest", "store", "establishment"]}, "ChIJeaJmTwUFdkgRahNBtdBwMxQ": {"geometry": {"location": {"lat": 51.4902334, "lng": -0.1403209}, "viewport": {"northeast": {"lat": 51.4915629802915, "lng": -0.138930519708498}, "southwest": {"lat": 51.4888650197085, "lng": -0.141628480291502}}}, "name": "Bolinkgbroke Advisory", "place_id": "ChIJeaJmTwUFdkgRahNBtdBwMxQ", "types": ["point_of_interest", "establishment"]}, "ChIJNWNj3OEEdkgREl-J7BmhE7Q": {"geometry": {"location": {"lat": 51.4902334, "lng": -0.1403209}, "viewport": {"northeast": {"lat": 51.4915629802915, "lng": -0.138930569708498}, "southwest": {"lat": 51.4888650197085, "lng": -0.141628530291502}}}, "name": "Secure Inside Area", "place_id": "ChIJNWNj3OEEdkgREl-J7BmhE7Q", "types": ["point_of_interest", "establishment"]}, "ChIJZzh3GB8FdkgRs0KE--ZpB5w": {"geometry": {"location": {"lat": 51.4904319, "lng": -0.1407261}, "viewport": {"northeast": {"lat": 51.49182683029149, "lng": -0.139476869708498}, "southwest": {"lat": 51.48912886970849, "lng": -0.142174830291502}}}, "name": "Mountain Leap", "place_id": "ChIJZzh3GB8FdkgRs0KE--ZpB5w", "types": ["point_of_interest", "establishment"]}, "ChIJh_oP3OEEdkgRfkdc0NZUA34": {"geometry": {"location": {"lat": 51.4902503, "lng": -0.1404265}, "viewport": {"northeast": {"lat": 51.4915609802915, "lng": -0.138995919708498}, "southwest": {"lat": 51.4888630197085, "lng": -0.141693880291502}}}, "name": "4 Zeros", "place_id": "ChIJh_oP3OEEdkgRfkdc0NZUA34", "types": ["point_of_interest", "establishment"]}, "ChIJsR152OEEdkgRMY7eYjReVq0": {"geometry": {"location": {"lat": 51.4904322, "lng": -0.1407281}, "viewport": {"northeast": {"lat": 51.4918267802915, "lng": -0.139478069708498}, "southwest": {"lat": 51.4891288197085, "lng": -0.142176030291502}}}, "name": "Sky Events", "place_id": "ChIJsR152OEEdkgRMY7eYjReVq0", "types": ["point_of_interest", "establishment"]}, "ChIJr7GExPoFdkgRLTJ6B_ZAWPE": {"geometry": {"location": {"lat": 51.49037939999999, "lng": -0.1407608}, "viewport": {"northeast": {"lat": 51.4917784302915, "lng": -0.139520519708498}, "southwest": {"lat": 51.4890804697085, "lng": -0.142218480291502}}}, "name": "Wema pharmaceutical", "place_id": "ChIJr7GExPoFdkgRLTJ6B_ZAWPE", "types": ["health", "point_of_interest", "establishment"]}, "ChIJzWjLJx4FdkgRRoVbQyzjk2s": {"geometry": {"location": {"lat": 51.4905109, "lng": -0.1408725}, "viewport": {"northeast": {"lat": 51.4918686302915, "lng": -0.139540919708498}, "southwest": {"lat": 51.4891706697085, "lng": -0.1422388802915021}}}, "name": "ubitricity Charging Station", "place_id": "ChIJzWjLJx4FdkgRRoVbQyzjk2s", "types": ["point_of_interest", "establishment"]}, "ChIJA9Ix3OEEdkgR62YFDsHCjO4": {"geometry": {"location": {"lat": 51.4901542, "lng": -0.1404255}, "viewport": {"northeast": {"lat": 51.49148248029149, "lng": -0.139032169708498}, "southwest": {"lat": 51.4887845197085, "lng": -0.141730130291502}}}, "name": "Christian Art Today", "place_id": "ChIJA9Ix3OEEdkgR62YFDsHCjO4", "types": ["point_of_interest", "establishment"]}, "ChIJHdIx3OEEdkgRWaNmKOStZvc": {"geometry": {"location": {"lat": 51.4901542, "lng": -0.1404256}, "viewport": {"northeast": {"lat": 51.49148248029149, "lng": -0.139032269708498}, "southwest": {"lat": 51.4887845197085, "lng": -0.141730230291502}}}, "name": "Valuemystuff", "place_id": "ChIJHdIx3OEEdkgRWaNmKOStZvc", "types": ["point_of_interest", "establishment"]}, "ChIJ27lBJx4FdkgRLH-KNuhN-XY": {"geometry": {"location": {"lat": 51.4903644, "lng": -0.1409198}, "viewport": {"northeast": {"lat": 51.4917420302915, "lng": -0.139630569708498}, "southwest": {"lat": 51.4890440697085, "lng": -0.142328530291502}}}, "name": "Tfc Investment Management Llp", "place_id": "ChIJ27lBJx4FdkgRLH-KNuhN-XY", "types": ["finance", "point_of_interest", "establishment"]}, "ChIJiav1uOEEdkgRJ7nhgSdCFaU": {"geometry": {"location": {"lat": 51.4904642, "lng": -0.1393651}, "viewport": {"northeast": {"lat": 51.4918188802915, "lng": -0.137982469708498}, "southwest": {"lat": 51.4891209197085, "lng": -0.140680430291502}}}, "name": "ubitricity Charging Station", "place_id": "ChIJiav1uOEEdkgRJ7nhgSdCFaU", "types": ["point_of_interest", "establishment"]}, "ChIJa6e84uEEdkgRFnYsAc8FF5Q": {"geometry": {"location": {"lat": 51.48937124988093, "lng": -0.1407568161003326}, "viewport": {"northeast": {"lat": 51.49072578029151, "lng": -0.139400819708498}, "southwest": {"lat": 51.48802781970851, "lng": -0.142098780291502}}}, "name": "83-67 St George's Dr", "place_id": "ChIJa6e84uEEdkgRFnYsAc8FF5Q", "types": ["route"]}, "ChIJfSZu_eEEdkgR5W_YVZEjJss": {"geometry": {"location": {"lat": 51.4891813, "lng": -0.1407756}, "viewport": {"northeast": {"lat": 51.49059543029149, "lng": -0.139349119708498}, "southwest": {"lat": 51.4878974697085, "lng": -0.142047080291502}}}, "name": "Stylish Apartment in Victoria", "place_id": "ChIJfSZu_eEEdkgR5W_YVZEjJss", "types": ["lodging", "point_of_interest", "establishment"], "rating": 1.5, "user_ratings_total": 8}, "ChIJG5kT4-EEdkgRWy-ZGDFHu6U": {"geometry": {"location": {"lat": 51.4894185, "lng": -0.1404148}, "viewport": {"northeast": {"lat": 51.4907013802915, "lng": -0.139142719708498}, "southwest": {"lat": 51.48800341970851, "lng": -0.141840680291502}}}, "name": "Real Estate Consultancy Ltd", "place_id": "ChIJG5kT4-EEdkgRWy-ZGDFHu6U", "types": ["real_estate_agency", "point_of_interest", "establishment"]}, "ChIJVSvrHNYEdkgRY06czfoHQHg": {"geometry": {"location": {"lat": 51.4892676, "lng": -0.1407704}, "viewport": {"northeast": {"lat": 51.4906530802915, "lng": -0.139377969708498}, "southwest": {"lat": 51.4879551197085, "lng": -0.142075930291502}}}, "name": "William Thuillier Fine Art", "place_id": "ChIJVSvrHNYEdkgRY06czfoHQHg", "types": ["art_gallery", "point_of_interest", "establishment"], "rating": 5, "user_ratings_total": 4}, "ChIJVxek_eEEdkgRFOiB0aWbYuE": {"geometry": {"location": {"lat": 51.48904710000001, "lng": -0.1404571}, "viewport": {"northeast": {"lat": 51.4904563802915, "lng": -0.139035119708498}, "southwest": {"lat": 51.4877584197085, "lng": -0.141733080291502}}}, "name": "Japan Neko UK office", "place_id": "ChIJVxek_eEEdkgRFOiB0aWbYuE", "types": ["point_of_interest", "establishment"]}, "ChIJtcZy4-EEdkgRNaEgv7IxOz8": {"geometry": {"location": {"lat": 51.4894504, "lng": -0.1404861}, "viewport": {"northeast": {"lat": 51.49073338029149, "lng": -0.139213919708498}, "southwest": {"lat": 51.4880354197085, "lng": -0.141911880291502}}}, "name": "Cleaners Pimlico", "place_id": "ChIJtcZy4-EEdkgRNaEgv7IxOz8", "types": ["point_of_interest", "establishment"]}, "ChIJZ1QO4eEEdkgRtlwpxP9HG9U": {"geometry": {"location": {"lat": 51.48974390000001, "lng": -0.1406202}, "viewport": {"northeast": {"lat": 51.49111688029151, "lng": -0.139322669708498}, "southwest": {"lat": 51.48841891970851, "lng": -0.142020630291502}}}, "name": "Webster House", "place_id": "ChIJZ1QO4eEEdkgRtlwpxP9HG9U", "types": ["point_of_interest", "establishment"]}, "ChIJVVWA5-EEdkgRBu-KGlYTK5M": {"geometry": {"location": {"lat": 51.4899504, "lng": -0.140278}, "viewport": {"northeast": {"lat": 51.49133738029149, "lng": -0.139010469708498}, "southwest": {"lat": 51.48863941970849, "lng": -0.141708430291502}}}, "name": "Antler Capital Partners Llp", "place_id": "ChIJVVWA5-EEdkgRBu-KGlYTK5M", "types": ["point_of_interest", "establishment"]}, "ChIJz0Gf--EEdkgRpDnacxbC2WY": {"geometry": {"location": {"lat": 51.48912389999999, "lng": -0.140382}, "viewport": {"northeast": {"lat": 51.4904958302915, "lng": -0.138999919708498}, "southwest": {"lat": 51.4877978697085, "lng": -0.141697880291502}}}, "name": "ubitricity Charging Station", "place_id": "ChIJz0Gf--EEdkgRpDnacxbC2WY", "types": ["point_of_interest", "establishment"]}, "ChIJe6B93eEEdkgR0swz4y1vkgA": {"geometry": {"location": {"lat": 51.4899663, "lng": -0.1402552}, "viewport": {"northeast": {"lat": 51.49135383029149, "lng": -0.1389888197084979}, "southwest": {"lat": 51.4886558697085, "lng": -0.141686780291502}}}, "name": "Zenith Partners Limited", "place_id": "ChIJe6B93eEEdkgR0swz4y1vkgA", "types": ["point_of_interest", "establishment"]}, "ChIJXxfPWiUEdkgRFiWc9rYOECs": {"geometry": {"location": {"lat": 51.4899663, "lng": -0.1402552}, "viewport": {"northeast": {"lat": 51.4913537802915, "lng": -0.138988769708498}, "southwest": {"lat": 51.4886558197085, "lng": -0.141686730291502}}}, "name": "TOTTENHAM & CO", "place_id": "ChIJXxfPWiUEdkgRFiWc9rYOECs", "types": ["point_of_interest", "establishment"]}, "ChIJxQHPRmgFdkgRgAn2MUwX4uE": {"geometry": {"location": {"lat": 51.4898292, "lng": -0.139642}, "viewport": {"northeast": {"lat": 51.4911947802915, "lng": -0.138331869708498}, "southwest": {"lat": 51.4884968197085, "lng": -0.141029830291502}}}, "name": "S", "place_id": "ChIJxQHPRmgFdkgRgAn2MUwX4uE", "types": ["finance", "point_of_interest", "establishment"]}, "ChIJ4RMX7eEEdkgRXmK_Nf7kZsQ": {"geometry": {"location": {"lat": 51.4894216, "lng": -0.1394758}, "viewport": {"northeast": {"lat": 51.4907573302915, "lng": -0.138095119708498}, "southwest": {"lat": 51.4880593697085, "lng": -0.140793080291502}}}, "name": "Milestone Installation Ltd", "place_id": "ChIJ4RMX7eEEdkgRXmK_Nf7kZsQ", "types": ["point_of_interest", "establishment"]}, "ChIJW6wQGgcFdkgROAKLmqjYg80": {"geometry": {"location": {"lat": 51.4892676, "lng": -0.1407704}, "viewport": {"northeast": {"lat": 51.4906530802915, "lng": -0.139377969708498}, "southwest": {"lat": 51.4879551197085, "lng": -0.142075930291502}}}, "name": "St. Farra\u2019s Drive", "place_id": "ChIJW6wQGgcFdkgROAKLmqjYg80", "types": ["night_club", "point_of_interest", "establishment"]}, "ChIJ200L1akFdkgR5ir3Mvi-74c": {"geometry": {"location": {"lat": 51.48980840000001, "lng": -0.1408498}, "viewport": {"northeast": {"lat": 51.49113543029151, "lng": -0.139453819708498}, "southwest": {"lat": 51.48843746970851, "lng": -0.142151780291502}}}, "name": "My Crypto Profits", "place_id": "ChIJ200L1akFdkgR5ir3Mvi-74c", "types": ["finance", "point_of_interest", "establishment"]}, "ChIJg4M6-uEEdkgRnKNP79Rl88M": {"geometry": {"location": {"lat": 51.4890249, "lng": -0.1402376}, "viewport": {"northeast": {"lat": 51.49040838029151, "lng": -0.138846819708498}, "southwest": {"lat": 51.48771041970851, "lng": -0.141544780291502}}}, "name": "Pimlico Advisory Ltd", "place_id": "ChIJg4M6-uEEdkgRnKNP79Rl88M", "types": ["point_of_interest", "establishment"]}, "ChIJvd0SBJAFdkgRmScL5_vhZ7E": {"geometry": {"location": {"lat": 51.4889986, "lng": -0.1401221}, "viewport": {"northeast": {"lat": 51.4903731802915, "lng": -0.138742119708498}, "southwest": {"lat": 51.4876752197085, "lng": -0.141440080291502}}}, "name": "Green Cab Shelter", "place_id": "ChIJvd0SBJAFdkgRmScL5_vhZ7E", "types": ["point_of_interest", "establishment"]}, "ChIJjaSE9eEEdkgR-b2VthQEfJE": {"geometry": {"location": {"lat": 51.4885476, "lng": -0.1393448}, "viewport": {"northeast": {"lat": 51.48994883029149, "lng": -0.137933319708498}, "southwest": {"lat": 51.4872508697085, "lng": -0.140631280291502}}}, "name": "OYO St George Hotel", "place_id": "ChIJjaSE9eEEdkgR-b2VthQEfJE", "types": ["lodging", "point_of_interest", "establishment"], "rating": 3.5, "user_ratings_total": 361}, "ChIJs5WCHOIEdkgRm-KugGe-FpM": {"geometry": {"location": {"lat": 51.4882857, "lng": -0.1400281}, "viewport": {"northeast": {"lat": 51.48966448029149, "lng": -0.138642619708498}, "southwest": {"lat": 51.4869665197085, "lng": -0.141340580291502}}}, "name": "Ruth Finch", "place_id": "ChIJs5WCHOIEdkgRm-KugGe-FpM", "types": ["lawyer", "finance", "point_of_interest", "establishment"]}, "ChIJY7ZKex4FdkgRzrILzDQtyZQ": {"geometry": {"location": {"lat": 51.4880575, "lng": -0.1403691}, "viewport": {"northeast": {"lat": 51.48937128029151, "lng": -0.139076169708498}, "southwest": {"lat": 51.48667331970851, "lng": -0.141774130291502}}}, "name": "Vanbrugh Public Relations LLP", "place_id": "ChIJY7ZKex4FdkgRzrILzDQtyZQ", "types": ["point_of_interest", "establishment"]}, "ChIJf6mcBeIEdkgRPnQSWkHzUUM": {"geometry": {"location": {"lat": 51.4880326, "lng": -0.140302}, "viewport": {"northeast": {"lat": 51.48931708029149, "lng": -0.138932269708498}, "southwest": {"lat": 51.48661911970849, "lng": -0.141630230291502}}}, "name": "WS Studios Hair Professionals", "place_id": "ChIJf6mcBeIEdkgRPnQSWkHzUUM", "types": ["beauty_salon", "hair_care", "point_of_interest", "establishment"], "rating": 4.6, "user_ratings_total": 163}, "ChIJDcvIHOIEdkgRRfxykuiBHPg": {"geometry": {"location": {"lat": 51.48844109999999, "lng": -0.1400683}, "viewport": {"northeast": {"lat": 51.4897757802915, "lng": -0.138733269708498}, "southwest": {"lat": 51.4870778197085, "lng": -0.141431230291502}}}, "name": "ubitricity Charging Station", "place_id": "ChIJDcvIHOIEdkgRRfxykuiBHPg", "types": ["point_of_interest", "establishment"]}, "ChIJd0-SA-IEdkgRnbDWFAbikps": {"geometry": {"location": {"lat": 51.4883675, "lng": -0.1403582}, "viewport": {"northeast": {"lat": 51.4897717302915, "lng": -0.138947569708498}, "southwest": {"lat": 51.4870737697085, "lng": -0.141645530291502}}}, "name": "Embev Ltd", "place_id": "ChIJd0-SA-IEdkgRnbDWFAbikps", "types": ["point_of_interest", "establishment"]}, "ChIJy4NtAeIEdkgRw56ScUsosCY": {"geometry": {"location": {"lat": 51.4884399, "lng": -0.1405451}, "viewport": {"northeast": {"lat": 51.4897945802915, "lng": -0.139210069708498}, "southwest": {"lat": 51.4870966197085, "lng": -0.141908030291502}}}, "name": "Zipcar", "place_id": "ChIJy4NtAeIEdkgRw56ScUsosCY", "types": ["car_rental", "point_of_interest", "establishment"], "rating": 4, "user_ratings_total": 2}, "ChIJVVVpBeIEdkgRR5DYB4xUvgI": {"geometry": {"location": {"lat": 51.48806689999999, "lng": -0.1401697}, "viewport": {"northeast": {"lat": 51.48934283029149, "lng": -0.138797219708498}, "southwest": {"lat": 51.48664486970849, "lng": -0.141495180291502}}}, "name": "C G L Change Grow Live", "place_id": "ChIJVVVpBeIEdkgRR5DYB4xUvgI", "types": ["health", "point_of_interest", "establishment"]}, "ChIJn912COIEdkgRFcRDqZVEvgI": {"geometry": {"location": {"lat": 51.48802779999999, "lng": -0.1402965}, "viewport": {"northeast": {"lat": 51.48931493029149, "lng": -0.138927619708498}, "southwest": {"lat": 51.4866169697085, "lng": -0.141625580291502}}}, "name": "Manuela's Cake", "place_id": "ChIJn912COIEdkgRFcRDqZVEvgI", "types": ["bakery", "food", "point_of_interest", "store", "establishment"], "rating": 5, "user_ratings_total": 6}, "ChIJA919zqsFdkgRvawtjLfNWkA": {"geometry": {"location": {"lat": 51.4886262, "lng": -0.1393943}, "viewport": {"northeast": {"lat": 51.49000953029149, "lng": -0.138004219708498}, "southwest": {"lat": 51.4873115697085, "lng": -0.140702180291502}}}, "name": "Childminder for early year", "place_id": "ChIJA919zqsFdkgRvawtjLfNWkA", "types": ["point_of_interest", "establishment"]}, "ChIJmaMf-uEEdkgRiq5B0L_1SlQ": {"geometry": {"location": {"lat": 51.488984, "lng": -0.1401859}, "viewport": {"northeast": {"lat": 51.49037278029149, "lng": -0.138788719708498}, "southwest": {"lat": 51.4876748197085, "lng": -0.141486680291502}}}, "name": "Martin Mrzena", "place_id": "ChIJmaMf-uEEdkgRiq5B0L_1SlQ", "types": ["health", "point_of_interest", "establishment"]}, "ChIJ_SxtRCIFdkgR1vZjCIkDUxA": {"geometry": {"location": {"lat": 51.48896, "lng": -0.13989}, "viewport": {"northeast": {"lat": 51.4902887802915, "lng": -0.138568019708498}, "southwest": {"lat": 51.4875908197085, "lng": -0.141265980291502}}}, "name": "ARF Private Investigator Pimlico", "place_id": "ChIJ_SxtRCIFdkgR1vZjCIkDUxA", "types": ["point_of_interest", "establishment"]}, "ChIJW3eg6xoFdkgRqBAdDuXYz5I": {"geometry": {"location": {"lat": 51.4879258, "lng": -0.1400826}, "viewport": {"northeast": {"lat": 51.4892747802915, "lng": -0.138733619708498}, "southwest": {"lat": 51.4865768197085, "lng": -0.141431580291502}}}, "name": "urlifeurbusiness.com", "place_id": "ChIJW3eg6xoFdkgRqBAdDuXYz5I", "types": ["health", "point_of_interest", "establishment"]}, "ChIJwVSiD-IEdkgRbCDy5o3urko": {"geometry": {"location": {"lat": 51.48790415012821, "lng": -0.1402562500824549}, "viewport": {"northeast": {"lat": 51.4892531302915, "lng": -0.138907269708498}, "southwest": {"lat": 51.4865551697085, "lng": -0.141605230291502}}}, "name": "79-85 Lupus St", "place_id": "ChIJwVSiD-IEdkgRbCDy5o3urko", "types": ["route"]}, "ChIJV6SfCeIEdkgRbxkZY0FKx1A": {"geometry": {"location": {"lat": 51.4877366, "lng": -0.140655}, "viewport": {"northeast": {"lat": 51.48914163029151, "lng": -0.1392987197084979}, "southwest": {"lat": 51.48644366970851, "lng": -0.141996680291502}}}, "name": "Tesco ATM", "place_id": "ChIJV6SfCeIEdkgRbxkZY0FKx1A", "types": ["atm", "finance", "point_of_interest", "establishment"], "rating": 5, "user_ratings_total": 1}, "ChIJk1dxOeIEdkgRGm0KFSCiOh8": {"geometry": {"location": {"lat": 51.4875225, "lng": -0.1396902}, "viewport": {"northeast": {"lat": 51.48887148029149, "lng": -0.138341219708498}, "southwest": {"lat": 51.4861735197085, "lng": -0.141039180291502}}}, "name": "Churchill Gardens Primary Academy", "place_id": "ChIJk1dxOeIEdkgRGm0KFSCiOh8", "types": ["primary_school", "school", "point_of_interest", "establishment"], "rating": 5, "user_ratings_total": 14}, "ChIJ_xXvCeIEdkgRQG2SNT5jDZ0": {"geometry": {"location": {"lat": 51.4877176, "lng": -0.1407761}, "viewport": {"northeast": {"lat": 51.4891238802915, "lng": -0.1393597197084979}, "southwest": {"lat": 51.48642591970851, "lng": -0.142057680291502}}}, "name": "ATM", "place_id": "ChIJ_xXvCeIEdkgRQG2SNT5jDZ0", "types": ["atm", "finance", "point_of_interest", "establishment"], "rating": 4, "user_ratings_total": 2}, "ChIJ13iW7R0FdkgRf1SZNwruDjY": {"geometry": {"location": {"lat": 51.487735, "lng": -0.1406493}, "viewport": {"northeast": {"lat": 51.4891450802915, "lng": -0.139287119708498}, "southwest": {"lat": 51.4864471197085, "lng": -0.141985080291502}}}, "name": "Tesco Express", "place_id": "ChIJ13iW7R0FdkgRf1SZNwruDjY", "types": ["supermarket", "convenience_store", "grocery_or_supermarket", "food", "point_of_interest", "store", "establishment"], "rating": 2.5, "user_ratings_total": 136}, "ChIJU_v8KAIFdkgRYtqhd9BUZvs": {"geometry": {"location": {"lat": 51.487795, "lng": -0.140247}, "viewport": {"northeast": {"lat": 51.48919328029149, "lng": -0.138986619708498}, "southwest": {"lat": 51.48649531970849, "lng": -0.141684580291502}}}, "name": "pStruble Mdoor Fkoiasghasf", "place_id": "ChIJU_v8KAIFdkgRYtqhd9BUZvs", "types": ["point_of_interest", "establishment"], "rating": 5, "user_ratings_total": 1}, "ChIJxRfzqsIFdkgRsQkKBaqGwak": {"geometry": {"location": {"lat": 51.4877951, "lng": -0.1402474}, "viewport": {"northeast": {"lat": 51.48919323029149, "lng": -0.138986819708498}, "southwest": {"lat": 51.48649526970849, "lng": -0.141684780291502}}}, "name": "Coral", "place_id": "ChIJxRfzqsIFdkgRsQkKBaqGwak", "types": ["point_of_interest", "establishment"], "rating": 2.4, "user_ratings_total": 9}, "ChIJh4oyDuIEdkgRoSpWBGwDcig": {"geometry": {"location": {"lat": 51.4878161, "lng": -0.1401461}, "viewport": {"northeast": {"lat": 51.48919973029149, "lng": -0.138936169708498}, "southwest": {"lat": 51.48650176970849, "lng": -0.141634130291502}}}, "name": "Expert Cleaners", "place_id": "ChIJh4oyDuIEdkgRoSpWBGwDcig", "types": ["laundry", "point_of_interest", "establishment"]}, "ChIJ0w9CaIcFdkgRimoNNCD0j1M": {"geometry": {"location": {"lat": 51.4877824, "lng": -0.1404431}, "viewport": {"northeast": {"lat": 51.4891799302915, "lng": -0.139090119708498}, "southwest": {"lat": 51.4864819697085, "lng": -0.141788080291502}}}, "name": "Alhayat Grocery", "place_id": "ChIJ0w9CaIcFdkgRimoNNCD0j1M", "types": ["grocery_or_supermarket", "supermarket", "food", "point_of_interest", "store", "establishment"], "rating": 4.1, "user_ratings_total": 40}, "ChIJVVWZCeIEdkgRpgcDR3MbRDg": {"geometry": {"location": {"lat": 51.487723, "lng": -0.1406685}, "viewport": {"northeast": {"lat": 51.4891336302915, "lng": -0.1393074697084979}, "southwest": {"lat": 51.4864356697085, "lng": -0.142005430291502}}}, "name": "Kentino Ltd", "place_id": "ChIJVVWZCeIEdkgRpgcDR3MbRDg", "types": ["general_contractor", "point_of_interest", "establishment"]}, "ChIJj2_01o8FdkgRkKK2y3xY3J4": {"geometry": {"location": {"lat": 51.4878438, "lng": -0.1399249}, "viewport": {"northeast": {"lat": 51.4891927802915, "lng": -0.138575919708498}, "southwest": {"lat": 51.4864948197085, "lng": -0.141273880291502}}}, "name": "\ub7f0\ub358 \uac10\uc131\ubbfc\ubc15", "place_id": "ChIJj2_01o8FdkgRkKK2y3xY3J4", "types": ["lodging", "point_of_interest", "establishment"]}, "ChIJN0LdMR4FdkgRh_3UFLl1JWM": {"geometry": {"location": {"lat": 51.49085860222992, "lng": -0.1416204095024343}, "viewport": {"northeast": {"lat": 51.49220758029149, "lng": -0.140172}, "southwest": {"lat": 51.48950961970849, "lng": -0.1430688}}}, "name": "21-1 Warwick Square", "place_id": "ChIJN0LdMR4FdkgRh_3UFLl1JWM", "types": ["route"]}, "ChIJP_1FzR8FdkgRMRp-35IRlrM": {"geometry": {"location": {"lat": 51.4909854, "lng": -0.1417593}, "viewport": {"northeast": {"lat": 51.4922906302915, "lng": -0.140317069708498}, "southwest": {"lat": 51.4895926697085, "lng": -0.143015030291502}}}, "name": "The Rank Foundation", "place_id": "ChIJP_1FzR8FdkgRMRp-35IRlrM", "types": ["point_of_interest", "establishment"], "rating": 5, "user_ratings_total": 3}, "ChIJBcpYNx4FdkgRYzi-OkRNEmY": {"geometry": {"location": {"lat": 51.4906206, "lng": -0.1420133}, "viewport": {"northeast": {"lat": 51.49195718029149, "lng": -0.140637919708498}, "southwest": {"lat": 51.48925921970849, "lng": -0.143335880291502}}}, "name": "S R U Ltd", "place_id": "ChIJBcpYNx4FdkgRYzi-OkRNEmY", "types": ["point_of_interest", "establishment"]}, "ChIJR4eySR4FdkgRgAoxrS7MKyw": {"geometry": {"location": {"lat": 51.4908534, "lng": -0.1425333}, "viewport": {"northeast": {"lat": 51.49222483029151, "lng": -0.141228519708498}, "southwest": {"lat": 51.48952686970851, "lng": -0.143926480291502}}}, "name": "Wired Back Limited", "place_id": "ChIJR4eySR4FdkgRgAoxrS7MKyw", "types": ["point_of_interest", "establishment"]}, "ChIJa0rnRh4FdkgRuz8XDil-QkM": {"geometry": {"location": {"lat": 51.49037329999999, "lng": -0.1425195}, "viewport": {"northeast": {"lat": 51.4916756302915, "lng": -0.141071169708498}, "southwest": {"lat": 51.4889776697085, "lng": -0.143769130291502}}}, "name": "Vienso Ltd", "place_id": "ChIJa0rnRh4FdkgRuz8XDil-QkM", "types": ["store", "point_of_interest", "establishment"]}, "ChIJtxO5LR4FdkgRyvKdDlzW6FM": {"geometry": {"location": {"lat": 51.491041, "lng": -0.141458}, "viewport": {"northeast": {"lat": 51.4923914302915, "lng": -0.140112219708498}, "southwest": {"lat": 51.4896934697085, "lng": -0.142810180291502}}}, "name": "ubitricity Charging Station", "place_id": "ChIJtxO5LR4FdkgRyvKdDlzW6FM", "types": ["point_of_interest", "establishment"]}, "ChIJP_1FzR8FdkgRAw2f3OZ8pbM": {"geometry": {"location": {"lat": 51.49112909999999, "lng": -0.141558}, "viewport": {"northeast": {"lat": 51.49243843029149, "lng": -0.1401245197084979}, "southwest": {"lat": 51.48974046970849, "lng": -0.142822480291502}}}, "name": "Halstead Designs International", "place_id": "ChIJP_1FzR8FdkgRAw2f3OZ8pbM", "types": ["general_contractor", "point_of_interest", "establishment"]}, "ChIJ2_-DGR4FdkgRmPkRoVXGSKo": {"geometry": {"location": {"lat": 51.48966115039333, "lng": -0.1413551490677102}, "viewport": {"northeast": {"lat": 51.4910101302915, "lng": -0.140006169708498}, "southwest": {"lat": 51.4883121697085, "lng": -0.142704130291502}}}, "name": "42-46 St George's Dr", "place_id": "ChIJ2_-DGR4FdkgRmPkRoVXGSKo", "types": ["route"]}, "ChIJXdtwGx4FdkgRX4z2v2yQR00": {"geometry": {"location": {"lat": 51.4894426, "lng": -0.14126}, "viewport": {"northeast": {"lat": 51.49084818029149, "lng": -0.139843969708498}, "southwest": {"lat": 51.48815021970849, "lng": -0.142541930291502}}}, "name": "Blue Plaque: Swami Vivekananda", "place_id": "ChIJXdtwGx4FdkgRX4z2v2yQR00", "types": ["point_of_interest", "establishment"], "rating": 4.1, "user_ratings_total": 19}, "ChIJn8JhEx4FdkgR3kuoepncp3I": {"geometry": {"location": {"lat": 51.48962699999999, "lng": -0.142199}, "viewport": {"northeast": {"lat": 51.49097598029149, "lng": -0.140850019708498}, "southwest": {"lat": 51.4882780197085, "lng": -0.143547980291502}}}, "name": "St Gabriel's, Pimlico", "place_id": "ChIJn8JhEx4FdkgR3kuoepncp3I", "types": ["church", "place_of_worship", "point_of_interest", "establishment"], "rating": 4.5, "user_ratings_total": 64}, "ChIJwWLNEB4FdkgROR_PVOurafw": {"geometry": {"location": {"lat": 51.4896231, "lng": -0.1417107}, "viewport": {"northeast": {"lat": 51.4909966802915, "lng": -0.140414219708498}, "southwest": {"lat": 51.4882987197085, "lng": -0.143112180291502}}}, "name": "Moral Fox Ltd", "place_id": "ChIJwWLNEB4FdkgROR_PVOurafw", "types": ["point_of_interest", "establishment"]}, "ChIJwWLNEB4FdkgRI6DyAXiY49o": {"geometry": {"location": {"lat": 51.4896231, "lng": -0.1417107}, "viewport": {"northeast": {"lat": 51.4909966802915, "lng": -0.140414219708498}, "southwest": {"lat": 51.4882987197085, "lng": -0.143112180291502}}}, "name": "Home of James Rannie Swinton", "place_id": "ChIJwWLNEB4FdkgRI6DyAXiY49o", "types": ["point_of_interest", "establishment"]}, "ChIJH8w1Dh4FdkgRb6rPlMgLb-Q": {"geometry": {"location": {"lat": 51.4892999, "lng": -0.1418692}, "viewport": {"northeast": {"lat": 51.4906330802915, "lng": -0.140538919708498}, "southwest": {"lat": 51.4879351197085, "lng": -0.143236880291502}}}, "name": "ubitricity Charging Station", "place_id": "ChIJH8w1Dh4FdkgRb6rPlMgLb-Q", "types": ["point_of_interest", "establishment"]}, "ChIJJzCTXBcFdkgRs4RMBvUhg_Q": {"geometry": {"location": {"lat": 51.48949349999999, "lng": -0.1423814}, "viewport": {"northeast": {"lat": 51.49086688029149, "lng": -0.141003969708498}, "southwest": {"lat": 51.4881689197085, "lng": -0.143701930291502}}}, "name": "Aubrey Beardsley Blue Plaque", "place_id": "ChIJJzCTXBcFdkgRs4RMBvUhg_Q", "types": ["tourist_attraction", "point_of_interest", "establishment"], "rating": 3, "user_ratings_total": 1}, "ChIJWad2Fh4FdkgR4MFqe8WbG2I": {"geometry": {"location": {"lat": 51.489856, "lng": -0.141923}, "viewport": {"northeast": {"lat": 51.4912260802915, "lng": -0.140547219708498}, "southwest": {"lat": 51.4885281197085, "lng": -0.143245180291502}}}, "name": "Santander Cycles", "place_id": "ChIJWad2Fh4FdkgR4MFqe8WbG2I", "types": ["point_of_interest", "establishment"]}, "ChIJWad2Fh4FdkgRUWaba2enY5E": {"geometry": {"location": {"lat": 51.489856, "lng": -0.141923}, "viewport": {"northeast": {"lat": 51.4912260802915, "lng": -0.140547219708498}, "southwest": {"lat": 51.4885281197085, "lng": -0.143245180291502}}}, "name": "Santander Cycles", "place_id": "ChIJWad2Fh4FdkgRUWaba2enY5E", "types": ["point_of_interest", "establishment"]}, "ChIJCdCXah4FdkgRnWC4t7l1n4U": {"geometry": {"location": {"lat": 51.4899093, "lng": -0.1424039}, "viewport": {"northeast": {"lat": 51.4912528302915, "lng": -0.141043369708498}, "southwest": {"lat": 51.4885548697085, "lng": -0.143741330291502}}}, "name": "Zipcar", "place_id": "ChIJCdCXah4FdkgRnWC4t7l1n4U", "types": ["car_rental", "point_of_interest", "establishment"]}, "ChIJK7rbax4FdkgRLqUmxPZLvS4": {"geometry": {"location": {"lat": 51.4897391, "lng": -0.1426456}, "viewport": {"northeast": {"lat": 51.49110698029149, "lng": -0.141337069708498}, "southwest": {"lat": 51.48840901970849, "lng": -0.144035030291502}}}, "name": "Grosvenor School Of Modern Art", "place_id": "ChIJK7rbax4FdkgRLqUmxPZLvS4", "types": ["point_of_interest", "establishment"]}, "ChIJo7rx_B0FdkgR2SmKy1s3D7Q": {"geometry": {"location": {"lat": 51.48842545080772, "lng": -0.1414261480322042}, "viewport": {"northeast": {"lat": 51.4897744302915, "lng": -0.140077169708498}, "southwest": {"lat": 51.4870764697085, "lng": -0.142775130291502}}}, "name": "131-139 Alderney St", "place_id": "ChIJo7rx_B0FdkgR2SmKy1s3D7Q", "types": ["route"]}, "ChIJ3--bBx4FdkgRG3nM081thIA": {"geometry": {"location": {"lat": 51.48870429999999, "lng": -0.1414109}, "viewport": {"northeast": {"lat": 51.4899624802915, "lng": -0.140172519708498}, "southwest": {"lat": 51.4872645197085, "lng": -0.142870480291502}}}, "name": "Invisible Midwives", "place_id": "ChIJ3--bBx4FdkgRG3nM081thIA", "types": ["health", "point_of_interest", "establishment"]}, "ChIJ-ZiY4R0FdkgRTMqPxmlRnUM": {"geometry": {"location": {"lat": 51.4885069, "lng": -0.1420247}, "viewport": {"northeast": {"lat": 51.4898937302915, "lng": -0.140757169708498}, "southwest": {"lat": 51.4871957697085, "lng": -0.143455130291502}}}, "name": "Harbour Energy", "place_id": "ChIJ-ZiY4R0FdkgRTMqPxmlRnUM", "types": ["point_of_interest", "establishment"]}, "ChIJIWwI4R0FdkgRjHj6HUtePIc": {"geometry": {"location": {"lat": 51.4884743, "lng": -0.1420687}, "viewport": {"northeast": {"lat": 51.4898603802915, "lng": -0.140799569708498}, "southwest": {"lat": 51.4871624197085, "lng": -0.143497530291502}}}, "name": "Pvdb Ltd", "place_id": "ChIJIWwI4R0FdkgRjHj6HUtePIc", "types": ["point_of_interest", "establishment"]}, "ChIJ8fDY5R0FdkgR19dQtOGYLRo": {"geometry": {"location": {"lat": 51.4881922, "lng": -0.1417685}, "viewport": {"northeast": {"lat": 51.4894835802915, "lng": -0.140489419708498}, "southwest": {"lat": 51.4867856197085, "lng": -0.143187380291502}}}, "name": "W D Lettings", "place_id": "ChIJ8fDY5R0FdkgR19dQtOGYLRo", "types": ["lodging", "point_of_interest", "establishment"]}, "ChIJnetN5B0FdkgRr_P_TTbVjk8": {"geometry": {"location": {"lat": 51.4881892, "lng": -0.1417741}, "viewport": {"northeast": {"lat": 51.4894823802915, "lng": -0.140492869708498}, "southwest": {"lat": 51.4867844197085, "lng": -0.143190830291502}}}, "name": "Central London Flat Westminster", "place_id": "ChIJnetN5B0FdkgRr_P_TTbVjk8", "types": ["lodging", "point_of_interest", "establishment"], "rating": 5, "user_ratings_total": 2}, "ChIJhVc5RjUFdkgRUY4jcliZ59w": {"geometry": {"location": {"lat": 51.4884275, "lng": -0.1414212}, "viewport": {"northeast": {"lat": 51.4897515802915, "lng": -0.140103219708498}, "southwest": {"lat": 51.4870536197085, "lng": -0.142801180291502}}}, "name": "\u6700\u611b\u963f\u5bb9", "place_id": "ChIJhVc5RjUFdkgRUY4jcliZ59w", "types": ["lodging", "point_of_interest", "establishment"]}, "ChIJ53L2GeEFdkgRgF5Un63oKRo": {"geometry": {"location": {"lat": 51.4881512, "lng": -0.1418704}, "viewport": {"northeast": {"lat": 51.4894708802915, "lng": -0.140556969708498}, "southwest": {"lat": 51.48677291970851, "lng": -0.143254930291502}}}, "name": "London Expert Gas Engineers", "place_id": "ChIJ53L2GeEFdkgRgF5Un63oKRo", "types": ["plumber", "general_contractor", "point_of_interest", "establishment"], "rating": 5, "user_ratings_total": 1}, "ChIJO4OG88cFdkgRoFPHgAkRCQY": {"geometry": {"location": {"lat": 51.4881663, "lng": -0.1420979}, "viewport": {"northeast": {"lat": 51.4894901802915, "lng": -0.140779419708498}, "southwest": {"lat": 51.48679221970851, "lng": -0.143477380291502}}}, "name": "Anna With Yoga - Private Yoga Teacher in SW1", "place_id": "ChIJO4OG88cFdkgRoFPHgAkRCQY", "types": ["school", "point_of_interest", "establishment"], "rating": 5, "user_ratings_total": 10}, "ChIJHSpQCB4FdkgRcqJmZzOw6h4": {"geometry": {"location": {"lat": 51.48876869999999, "lng": -0.1417169}, "viewport": {"northeast": {"lat": 51.49015393029149, "lng": -0.140444569708498}, "southwest": {"lat": 51.48745596970849, "lng": -0.143142530291502}}}, "name": "Nala Developments Limited", "place_id": "ChIJHSpQCB4FdkgRcqJmZzOw6h4", "types": ["point_of_interest", "establishment"]}, "ChIJAQC1Ch4FdkgRufw88rh5ITM": {"geometry": {"location": {"lat": 51.4887165, "lng": -0.1422919}, "viewport": {"northeast": {"lat": 51.49002598029149, "lng": -0.140857869708498}, "southwest": {"lat": 51.48732801970849, "lng": -0.143555830291502}}}, "name": "Viable Limited", "place_id": "ChIJAQC1Ch4FdkgRufw88rh5ITM", "types": ["point_of_interest", "establishment"]}, "ChIJi6Wh5R0FdkgRlAS3SVJhLuY": {"geometry": {"location": {"lat": 51.48807919999999, "lng": -0.1417636}, "viewport": {"northeast": {"lat": 51.4894085802915, "lng": -0.140438419708498}, "southwest": {"lat": 51.4867106197085, "lng": -0.143136380291502}}}, "name": "Matrix Group Limited", "place_id": "ChIJi6Wh5R0FdkgRlAS3SVJhLuY", "types": ["point_of_interest", "establishment"]}, "ChIJt5tY3x0FdkgRf9w8mF5R7J4": {"geometry": {"location": {"lat": 51.4885113, "lng": -0.1425372}, "viewport": {"northeast": {"lat": 51.4898202802915, "lng": -0.141104169708498}, "southwest": {"lat": 51.4871223197085, "lng": -0.143802130291502}}}, "name": "Stanley Fyffe Associates", "place_id": "ChIJt5tY3x0FdkgRf9w8mF5R7J4", "types": ["point_of_interest", "establishment"]}, "ChIJfwyOPvQFdkgR50UzZAHli4g": {"geometry": {"location": {"lat": 51.4880575, "lng": -0.141854}, "viewport": {"northeast": {"lat": 51.48937943029149, "lng": -0.140537869708498}, "southwest": {"lat": 51.4866814697085, "lng": -0.143235830291502}}}, "name": "B&D", "place_id": "ChIJfwyOPvQFdkgR50UzZAHli4g", "types": ["lodging", "point_of_interest", "establishment"]}, "ChIJ7Zh73R0FdkgR-dEkxC6vRdE": {"geometry": {"location": {"lat": 51.4881229, "lng": -0.1423286}, "viewport": {"northeast": {"lat": 51.4895201302915, "lng": -0.140920169708498}, "southwest": {"lat": 51.4868221697085, "lng": -0.143618130291502}}}, "name": "SIAlinks", "place_id": "ChIJ7Zh73R0FdkgR-dEkxC6vRdE", "types": ["finance", "point_of_interest", "establishment"]}, "ChIJjcmO5x0FdkgRvLmB3HzehCs": {"geometry": {"location": {"lat": 51.488096, "lng": -0.1422757}, "viewport": {"northeast": {"lat": 51.4894937802915, "lng": -0.140866669708498}, "southwest": {"lat": 51.4867958197085, "lng": -0.143564630291502}}}, "name": "Danielle Beauty", "place_id": "ChIJjcmO5x0FdkgRvLmB3HzehCs", "types": ["point_of_interest", "establishment"]}, "ChIJfRCg6B0FdkgR3qk-yr8cTNQ": {"geometry": {"location": {"lat": 51.48798499999999, "lng": -0.1420212}, "viewport": {"northeast": {"lat": 51.48938018029148, "lng": -0.140616169708498}, "southwest": {"lat": 51.48668221970848, "lng": -0.143314130291502}}}, "name": "Skyhook Adventure", "place_id": "ChIJfRCg6B0FdkgR3qk-yr8cTNQ", "types": ["travel_agency", "point_of_interest", "establishment"]}, "ChIJ47yP7h0FdkgRlHEDzcVorls": {"geometry": {"location": {"lat": 51.48767890001482, "lng": -0.1420177500091951}, "viewport": {"northeast": {"lat": 51.48902788029149, "lng": -0.140668769708498}, "southwest": {"lat": 51.4863299197085, "lng": -0.143366730291502}}}, "name": "82-80 Lupus St", "place_id": "ChIJ47yP7h0FdkgRlHEDzcVorls", "types": ["route"]}, "ChIJG1uYwR0FdkgRTzG5mLooctI": {"geometry": {"location": {"lat": 51.48754819999999, "lng": -0.1421609}, "viewport": {"northeast": {"lat": 51.4889482802915, "lng": -0.140944369708498}, "southwest": {"lat": 51.4862503197085, "lng": -0.143642330291502}}}, "name": "Post Office", "place_id": "ChIJG1uYwR0FdkgRTzG5mLooctI", "types": ["post_office", "atm", "finance", "point_of_interest", "establishment"], "rating": 3.8, "user_ratings_total": 28}, "ChIJ69m98R0FdkgRxJg6IE58sx0": {"geometry": {"location": {"lat": 51.487607, "lng": -0.141619}, "viewport": {"northeast": {"lat": 51.4890137802915, "lng": -0.140389469708498}, "southwest": {"lat": 51.4863158197085, "lng": -0.143087430291502}}}, "name": "Pimlico Eye Care", "place_id": "ChIJ69m98R0FdkgRxJg6IE58sx0", "types": ["health", "point_of_interest", "store", "establishment"], "rating": 4.6, "user_ratings_total": 9}, "ChIJu4ZF6h0FdkgRIUDkWw9sMqM": {"geometry": {"location": {"lat": 51.48754819999999, "lng": -0.1421609}, "viewport": {"northeast": {"lat": 51.4889482802915, "lng": -0.140944369708498}, "southwest": {"lat": 51.4862503197085, "lng": -0.143642330291502}}}, "name": "MoneyGram", "place_id": "ChIJu4ZF6h0FdkgRIUDkWw9sMqM", "types": ["finance", "point_of_interest", "establishment"]}, "ChIJ13iW7R0FdkgRO91nkP77GpI": {"geometry": {"location": {"lat": 51.4875571, "lng": -0.142045}, "viewport": {"northeast": {"lat": 51.4889631802915, "lng": -0.140620269708498}, "southwest": {"lat": 51.4862652197085, "lng": -0.143318230291502}}}, "name": "K F Stores", "place_id": "ChIJ13iW7R0FdkgRO91nkP77GpI", "types": ["convenience_store", "food", "point_of_interest", "store", "establishment"], "rating": 2.3, "user_ratings_total": 3}, "ChIJzXKvZxwFdkgRHSliQ-BvEug": {"geometry": {"location": {"lat": 51.4875795, "lng": -0.1418001}, "viewport": {"northeast": {"lat": 51.48899198029149, "lng": -0.140432669708498}, "southwest": {"lat": 51.4862940197085, "lng": -0.1431306302915021}}}, "name": "Pizza Hut Delivery", "place_id": "ChIJzXKvZxwFdkgRHSliQ-BvEug", "types": ["meal_delivery", "meal_takeaway", "restaurant", "food", "point_of_interest", "establishment"], "rating": 3.3, "user_ratings_total": 132}, "ChIJ7z3W6B0FdkgRnqJ9QJaFZyA": {"geometry": {"location": {"lat": 51.4878277, "lng": -0.1419605}, "viewport": {"northeast": {"lat": 51.4891082802915, "lng": -0.1405902697084979}, "southwest": {"lat": 51.4864103197085, "lng": -0.143288230291502}}}, "name": "Western Union", "place_id": "ChIJ7z3W6B0FdkgRnqJ9QJaFZyA", "types": ["finance", "point_of_interest", "establishment"], "rating": 2.2, "user_ratings_total": 5}, "ChIJWZ7a6B0FdkgRr4CkeiNETCY": {"geometry": {"location": {"lat": 51.4877968, "lng": -0.1422386}, "viewport": {"northeast": {"lat": 51.4890772802915, "lng": -0.1408586197084979}, "southwest": {"lat": 51.4863793197085, "lng": -0.143556580291502}}}, "name": "Hair Trendy", "place_id": "ChIJWZ7a6B0FdkgRr4CkeiNETCY", "types": ["beauty_salon", "point_of_interest", "establishment"], "rating": 4.5, "user_ratings_total": 29}, "ChIJWZ7a6B0FdkgR3SPbpFmYE3Y": {"geometry": {"location": {"lat": 51.4878448, "lng": -0.141771}, "viewport": {"northeast": {"lat": 51.4891281302915, "lng": -0.140401619708498}, "southwest": {"lat": 51.48643016970851, "lng": -0.143099580291502}}}, "name": "The McLeod Centre for Learning", "place_id": "ChIJWZ7a6B0FdkgR3SPbpFmYE3Y", "types": ["point_of_interest", "establishment"], "rating": 5, "user_ratings_total": 2}, "ChIJcVvj6B0FdkgREqtZbF1AZY4": {"geometry": {"location": {"lat": 51.4878309, "lng": -0.141951}, "viewport": {"northeast": {"lat": 51.48911048029149, "lng": -0.140580469708498}, "southwest": {"lat": 51.48641251970849, "lng": -0.143278430291502}}}, "name": "Pimlico Finance", "place_id": "ChIJcVvj6B0FdkgREqtZbF1AZY4", "types": ["finance", "point_of_interest", "establishment"], "rating": 5, "user_ratings_total": 1}, "ChIJ13iW7R0FdkgRZhLiHnE_L4o": {"geometry": {"location": {"lat": 51.4875947, "lng": -0.1419622}, "viewport": {"northeast": {"lat": 51.4889874802915, "lng": -0.1405746697084979}, "southwest": {"lat": 51.4862895197085, "lng": -0.143272630291502}}}, "name": "Freemans", "place_id": "ChIJ13iW7R0FdkgRZhLiHnE_L4o", "types": ["food", "point_of_interest", "store", "establishment"], "rating": 4, "user_ratings_total": 1}, "ChIJcVvj6B0FdkgRS4mZsLmq_vE": {"geometry": {"location": {"lat": 51.48784089999999, "lng": -0.1418678}, "viewport": {"northeast": {"lat": 51.4891205302915, "lng": -0.140497269708498}, "southwest": {"lat": 51.4864225697085, "lng": -0.143195230291502}}}, "name": "Pimlico Hardware Plumbing & Electrical Supplies & Key Cutting", "place_id": "ChIJcVvj6B0FdkgRS4mZsLmq_vE", "types": ["home_goods_store", "point_of_interest", "store", "establishment"], "rating": 4.5, "user_ratings_total": 43}, "ChIJ13iW7R0FdkgRxWL2oL62exc": {"geometry": {"location": {"lat": 51.4876057, "lng": -0.1416381}, "viewport": {"northeast": {"lat": 51.48901153029149, "lng": -0.140310719708498}, "southwest": {"lat": 51.4863135697085, "lng": -0.143008680291502}}}, "name": "Greggs", "place_id": "ChIJ13iW7R0FdkgRxWL2oL62exc", "types": ["bakery", "cafe", "restaurant", "food", "point_of_interest", "store", "establishment"], "rating": 3.9, "user_ratings_total": 77}, "ChIJiZkbO-IEdkgRPKB_5ApIewI": {"geometry": {"location": {"lat": 51.4876174, "lng": -0.1415368}, "viewport": {"northeast": {"lat": 51.4890216302915, "lng": -0.140348369708498}, "southwest": {"lat": 51.4863236697085, "lng": -0.143046330291502}}}, "name": "Graces Design Studio", "place_id": "ChIJiZkbO-IEdkgRPKB_5ApIewI", "types": ["furniture_store", "home_goods_store", "general_contractor", "point_of_interest", "store", "establishment"], "rating": 3.3, "user_ratings_total": 3}, "ChIJcVvj6B0FdkgRnr-3HCgwH0k": {"geometry": {"location": {"lat": 51.48778009999999, "lng": -0.1421163}, "viewport": {"northeast": {"lat": 51.48907523029149, "lng": -0.140745069708498}, "southwest": {"lat": 51.4863772697085, "lng": -0.143443030291502}}}, "name": "Friends Supermarket", "place_id": "ChIJcVvj6B0FdkgRnr-3HCgwH0k", "types": ["supermarket", "grocery_or_supermarket", "food", "point_of_interest", "store", "establishment"], "rating": 3.6, "user_ratings_total": 9}, "ChIJt7qA6R0FdkgRXTAG1j72EJ0": {"geometry": {"location": {"lat": 51.4876623, "lng": -0.1421341}, "viewport": {"northeast": {"lat": 51.48904343029149, "lng": -0.140795119708498}, "southwest": {"lat": 51.48634546970849, "lng": -0.143493080291502}}}, "name": "Winchester Street", "place_id": "ChIJt7qA6R0FdkgRXTAG1j72EJ0", "types": ["transit_station", "point_of_interest", "establishment"]}, "ChIJk-aN6x0FdkgRJepWZrVeJ40": {"geometry": {"location": {"lat": 51.4875589, "lng": -0.1419715}, "viewport": {"northeast": {"lat": 51.4889683802915, "lng": -0.1405844697084979}, "southwest": {"lat": 51.4862704197085, "lng": -0.143282430291502}}}, "name": "Pantaloons Fancy Dress", "place_id": "ChIJk-aN6x0FdkgRJepWZrVeJ40", "types": ["clothing_store", "point_of_interest", "store", "establishment"]}, "ChIJg_4DDtMFdkgRIK1m2JWYvz0": {"geometry": {"location": {"lat": 51.4875942, "lng": -0.141963}, "viewport": {"northeast": {"lat": 51.48898718029149, "lng": -0.140575119708498}, "southwest": {"lat": 51.48628921970849, "lng": -0.143273080291502}}}, "name": "Starmeat ( Grocery-Halal Butcher - Super Market)", "place_id": "ChIJg_4DDtMFdkgRIK1m2JWYvz0", "types": ["grocery_or_supermarket", "food", "point_of_interest", "store", "establishment"], "rating": 5, "user_ratings_total": 21}, "ChIJBySS7R0FdkgRwaQdE5bArXQ": {"geometry": {"location": {"lat": 51.48760620000001, "lng": -0.1418827}, "viewport": {"northeast": {"lat": 51.4889996302915, "lng": -0.1405217197084979}, "southwest": {"lat": 51.4863016697085, "lng": -0.143219680291502}}}, "name": "Norris Newsagent", "place_id": "ChIJBySS7R0FdkgRwaQdE5bArXQ", "types": ["point_of_interest", "store", "establishment"], "rating": 3.3, "user_ratings_total": 7}, "ChIJu4ZF6h0FdkgRFjeeDJLOSW4": {"geometry": {"location": {"lat": 51.48754819999999, "lng": -0.1421609}, "viewport": {"northeast": {"lat": 51.4889482802915, "lng": -0.140944369708498}, "southwest": {"lat": 51.4862503197085, "lng": -0.143642330291502}}}, "name": "Lupus Street Post Office", "place_id": "ChIJu4ZF6h0FdkgRFjeeDJLOSW4", "types": ["post_office", "finance", "point_of_interest", "establishment"]}, "ChIJMxRZodQFdkgRyieaa54hrYo": {"geometry": {"location": {"lat": 51.48754819999999, "lng": -0.1421609}, "viewport": {"northeast": {"lat": 51.4889482802915, "lng": -0.140944369708498}, "southwest": {"lat": 51.4862503197085, "lng": -0.143642330291502}}}, "name": "Post Office Travel Money", "place_id": "ChIJMxRZodQFdkgRyieaa54hrYo", "types": ["finance", "point_of_interest", "establishment"]}, "ChIJTchv7h0FdkgRiVQYoS3AVMo": {"geometry": {"location": {"lat": 51.48754819999999, "lng": -0.1421609}, "viewport": {"northeast": {"lat": 51.4889482802915, "lng": -0.140944369708498}, "southwest": {"lat": 51.4862503197085, "lng": -0.143642330291502}}}, "name": "ATM", "place_id": "ChIJTchv7h0FdkgRiVQYoS3AVMo", "types": ["atm", "finance", "point_of_interest", "establishment"], "rating": 3, "user_ratings_total": 1}, "ChIJoa1hDuIEdkgRwsnrgtK6X4A": {"geometry": {"location": {"lat": 51.4878137, "lng": -0.1420348}, "viewport": {"northeast": {"lat": 51.48909673029149, "lng": -0.1406653697084979}, "southwest": {"lat": 51.4863987697085, "lng": -0.143363330291502}}}, "name": "Consolidated Roofing (Pimlico)", "place_id": "ChIJoa1hDuIEdkgRwsnrgtK6X4A", "types": ["roofing_contractor", "point_of_interest", "establishment"], "rating": 5, "user_ratings_total": 1}, "ChIJ9bg36h0FdkgRJxpz1ewRTO8": {"geometry": {"location": {"lat": 51.48761349999999, "lng": -0.1422437}, "viewport": {"northeast": {"lat": 51.4889683802915, "lng": -0.140896519708498}, "southwest": {"lat": 51.4862704197085, "lng": -0.143594480291502}}}, "name": "Winchester Street (Stop N)", "place_id": "ChIJ9bg36h0FdkgRJxpz1ewRTO8", "types": ["bus_station", "transit_station", "point_of_interest", "establishment"], "rating": 4.3, "user_ratings_total": 3}, "ChIJI3Qpt-QFdkgR_wTO779x5_E": {"geometry": {"location": {"lat": 51.4875012, "lng": -0.1423915}, "viewport": {"northeast": {"lat": 51.4889141302915, "lng": -0.141061469708498}, "southwest": {"lat": 51.4862161697085, "lng": -0.143759430291502}}}, "name": "Nail Bar Pimlico", "place_id": "ChIJI3Qpt-QFdkgR_wTO779x5_E", "types": ["beauty_salon", "point_of_interest", "establishment"], "rating": 5, "user_ratings_total": 4}, "ChIJYbEpWjEFdkgR_Y9wQJz6yIs": {"geometry": {"location": {"lat": 51.4875012, "lng": -0.1423915}, "viewport": {"northeast": {"lat": 51.4889141302915, "lng": -0.141061469708498}, "southwest": {"lat": 51.4862161697085, "lng": -0.143759430291502}}}, "name": "Lupus Pink Nail bar", "place_id": "ChIJYbEpWjEFdkgR_Y9wQJz6yIs", "types": ["beauty_salon", "point_of_interest", "establishment"]}, "ChIJacHE6R0FdkgRCwxHcRnRIec": {"geometry": {"location": {"lat": 51.4875012, "lng": -0.1423915}, "viewport": {"northeast": {"lat": 51.4889141302915, "lng": -0.141061469708498}, "southwest": {"lat": 51.4862161697085, "lng": -0.143759430291502}}}, "name": "F P J Shoe Repair & Key Cutting", "place_id": "ChIJacHE6R0FdkgRCwxHcRnRIec", "types": ["point_of_interest", "establishment"], "rating": 3.6, "user_ratings_total": 8}, "ChIJ3SD26R0FdkgR6rlwb38gxf4": {"geometry": {"location": {"lat": 51.4875012, "lng": -0.1423915}, "viewport": {"northeast": {"lat": 51.4889141302915, "lng": -0.141061469708498}, "southwest": {"lat": 51.4862161697085, "lng": -0.143759430291502}}}, "name": "PIMLICO_NAIL_BAR_127_LUPUS ST", "place_id": "ChIJ3SD26R0FdkgR6rlwb38gxf4", "types": ["locksmith", "beauty_salon", "point_of_interest", "establishment"], "rating": 4.5, "user_ratings_total": 80}, "ChIJEetx6R0FdkgRlulmoufPiLs": {"geometry": {"location": {"lat": 51.487717, "lng": -0.142074}, "viewport": {"northeast": {"lat": 51.4890475302915, "lng": -0.140691819708498}, "southwest": {"lat": 51.48634956970851, "lng": -0.143389780291502}}}, "name": "POD Point Charging Station", "place_id": "ChIJEetx6R0FdkgRlulmoufPiLs", "types": ["point_of_interest", "establishment"]}, "ChIJw3746R0FdkgRnCq9ICjd-7s": {"geometry": {"location": {"lat": 51.48766029999999, "lng": -0.1422624}, "viewport": {"northeast": {"lat": 51.48902973029151, "lng": -0.140919769708498}, "southwest": {"lat": 51.48633176970851, "lng": -0.143617730291502}}}, "name": "Motorcycle Parking Bay", "place_id": "ChIJw3746R0FdkgRnCq9ICjd-7s", "types": ["parking", "point_of_interest", "establishment"]}, "ChIJxSiV7h0FdkgRdKWWL6vCUYA": {"geometry": {"location": {"lat": 51.4877401, "lng": -0.1420257}, "viewport": {"northeast": {"lat": 51.4890600802915, "lng": -0.140667719708498}, "southwest": {"lat": 51.4863621197085, "lng": -0.143365680291502}}}, "name": "Winchester Street (Stop C)", "place_id": "ChIJxSiV7h0FdkgRdKWWL6vCUYA", "types": ["bus_station", "transit_station", "point_of_interest", "establishment"], "rating": 4.3, "user_ratings_total": 3}, "ChIJu_Fz7B0FdkgRQfPp2podYH0": {"geometry": {"location": {"lat": 51.48753970000001, "lng": -0.1424329}, "viewport": {"northeast": {"lat": 51.4889321302915, "lng": -0.141089519708498}, "southwest": {"lat": 51.4862341697085, "lng": -0.143787480291502}}}, "name": "Boss Heating Electrical Plumbing Supplies", "place_id": "ChIJu_Fz7B0FdkgRQfPp2podYH0", "types": ["electrician", "point_of_interest", "store", "establishment"], "rating": 4, "user_ratings_total": 8}, "ChIJzZiK8R0FdkgRpf_voP8DlRM": {"geometry": {"location": {"lat": 51.4876277, "lng": -0.1414429}, "viewport": {"northeast": {"lat": 51.4890270302915, "lng": -0.1403014197084979}, "southwest": {"lat": 51.4863290697085, "lng": -0.142999380291502}}}, "name": "Simmonds Chemist", "place_id": "ChIJzZiK8R0FdkgRpf_voP8DlRM", "types": ["pharmacy", "health", "point_of_interest", "store", "establishment"], "rating": 3.1, "user_ratings_total": 15}, "ChIJcVvj6B0FdkgRgC0jUCPeEp0": {"geometry": {"location": {"lat": 51.4877911, "lng": -0.1420396}, "viewport": {"northeast": {"lat": 51.4890861802915, "lng": -0.140661519708498}, "southwest": {"lat": 51.4863882197085, "lng": -0.143359480291502}}}, "name": "Lupus Dry Cleaners", "place_id": "ChIJcVvj6B0FdkgRgC0jUCPeEp0", "types": ["laundry", "point_of_interest", "establishment"], "rating": 4.9, "user_ratings_total": 63}, "ChIJRcxkqHQFdkgRqG1f69aB4Gc": {"geometry": {"location": {"lat": 51.4876715, "lng": -0.1413898}, "viewport": {"northeast": {"lat": 51.4890319802915, "lng": -0.140274869708498}, "southwest": {"lat": 51.4863340197085, "lng": -0.142972830291502}}}, "name": "Casa de Londres", "place_id": "ChIJRcxkqHQFdkgRqG1f69aB4Gc", "types": ["lodging", "point_of_interest", "establishment"]}, "ChIJ13iW7R0FdkgR0AAG4XCBLKY": {"geometry": {"location": {"lat": 51.48751619999999, "lng": -0.1426272}, "viewport": {"northeast": {"lat": 51.4889078302915, "lng": -0.141292219708498}, "southwest": {"lat": 51.4862098697085, "lng": -0.143990180291502}}}, "name": "Pimlico Toy Library", "place_id": "ChIJ13iW7R0FdkgR0AAG4XCBLKY", "types": ["point_of_interest", "establishment"], "rating": 4.4, "user_ratings_total": 7}, "ChIJC8yOr3UFdkgRDvUUtbGlCdY": {"geometry": {"location": {"lat": 51.48774, "lng": -0.1414205}, "viewport": {"northeast": {"lat": 51.48906993029151, "lng": -0.140064669708498}, "southwest": {"lat": 51.48637196970851, "lng": -0.142762630291502}}}, "name": "Warmflow", "place_id": "ChIJC8yOr3UFdkgRDvUUtbGlCdY", "types": ["plumber", "point_of_interest", "establishment"], "rating": 5, "user_ratings_total": 1}, "ChIJDS66Vx4FdkgROkxmNH2QZ1s": {"geometry": {"location": {"lat": 51.49073654042576, "lng": -0.1436299486896771}, "viewport": {"northeast": {"lat": 51.4920928302915, "lng": -0.142270869708498}, "southwest": {"lat": 51.48939486970851, "lng": -0.144968830291502}}}, "name": "20-38 St George's Dr", "place_id": "ChIJDS66Vx4FdkgROkxmNH2QZ1s", "types": ["route"]}, "ChIJswBRjc4EdkgRDD78Mnrt7B8": {"geometry": {"location": {"lat": 51.49053589999999, "lng": -0.1437503}, "viewport": {"northeast": {"lat": 51.4920753302915, "lng": -0.142565569708498}, "southwest": {"lat": 51.4893773697085, "lng": -0.145263530291502}}}, "name": "The 29 London ( FKA- Airways Hotel Victoria london)", "place_id": "ChIJswBRjc4EdkgRDD78Mnrt7B8", "types": ["lodging", "point_of_interest", "establishment"], "rating": 3.7, "user_ratings_total": 485}, "ChIJc6IoVx4FdkgR-302Jiv1ZxQ": {"geometry": {"location": {"lat": 51.4909648, "lng": -0.1437599}, "viewport": {"northeast": {"lat": 51.4922635302915, "lng": -0.142481369708498}, "southwest": {"lat": 51.4895655697085, "lng": -0.145179330291502}}}, "name": "OYO Townhouse New England Victoria", "place_id": "ChIJc6IoVx4FdkgR-302Jiv1ZxQ", "types": ["lodging", "point_of_interest", "establishment"], "rating": 2.9, "user_ratings_total": 175}, "ChIJG7dp-B4FdkgRdetG5aiJ49s": {"geometry": {"location": {"lat": 51.4906952, "lng": -0.1438746}, "viewport": {"northeast": {"lat": 51.4920798302915, "lng": -0.142443269708498}, "southwest": {"lat": 51.4893818697085, "lng": -0.145141230291502}}}, "name": "Georgian House Hotel", "place_id": "ChIJG7dp-B4FdkgRdetG5aiJ49s", "types": ["lodging", "point_of_interest", "establishment"], "rating": 4.4, "user_ratings_total": 941}, "ChIJc6IoVx4FdkgRunGGgxIP3_Y": {"geometry": {"location": {"lat": 51.4907698, "lng": -0.1433714}, "viewport": {"northeast": {"lat": 51.4920694802915, "lng": -0.142082419708498}, "southwest": {"lat": 51.4893715197085, "lng": -0.144780380291502}}}, "name": "The Portico Hotel London ( FKA- Hanover Hotel London)", "place_id": "ChIJc6IoVx4FdkgRunGGgxIP3_Y", "types": ["lodging", "point_of_interest", "establishment"], "rating": 3.2, "user_ratings_total": 491}, "ChIJ7UaU--EEdkgR5L9xA3vwW_0": {"geometry": {"location": {"lat": 51.49096219999999, "lng": -0.1437612}, "viewport": {"northeast": {"lat": 51.4922580302915, "lng": -0.142476619708498}, "southwest": {"lat": 51.4895600697085, "lng": -0.145174580291502}}}, "name": "E A L Productions", "place_id": "ChIJ7UaU--EEdkgR5L9xA3vwW_0", "types": ["point_of_interest", "establishment"]}, "ChIJGzV6WR4FdkgR0pEM7_P-CRo": {"geometry": {"location": {"lat": 51.49042430000001, "lng": -0.143449}, "viewport": {"northeast": {"lat": 51.4918447302915, "lng": -0.142013369708498}, "southwest": {"lat": 51.4891467697085, "lng": -0.144711330291502}}}, "name": "Qualified Cancer Care Ltd", "place_id": "ChIJGzV6WR4FdkgR0pEM7_P-CRo", "types": ["health", "point_of_interest", "establishment"]}, "ChIJGzV6WR4FdkgRKYQv4NFt1Ng": {"geometry": {"location": {"lat": 51.49042430000001, "lng": -0.143449}, "viewport": {"northeast": {"lat": 51.4918447302915, "lng": -0.142013369708498}, "southwest": {"lat": 51.4891467697085, "lng": -0.144711330291502}}}, "name": "Q C C Nursing Agency", "place_id": "ChIJGzV6WR4FdkgRKYQv4NFt1Ng", "types": ["health", "point_of_interest", "establishment"]}, "ChIJFT3UXh4FdkgRnHdZ-gJMCcE": {"geometry": {"location": {"lat": 51.4902675, "lng": -0.1435801}, "viewport": {"northeast": {"lat": 51.4915874802915, "lng": -0.142168869708498}, "southwest": {"lat": 51.4888895197085, "lng": -0.144866830291502}}}, "name": "AJs Mobile Tyres", "place_id": "ChIJFT3UXh4FdkgRnHdZ-gJMCcE", "types": ["car_repair", "point_of_interest", "store", "establishment"], "rating": 5, "user_ratings_total": 1}, "ChIJI9XXXh4FdkgRKSfiEtXgASk": {"geometry": {"location": {"lat": 51.49025400000001, "lng": -0.1435963}, "viewport": {"northeast": {"lat": 51.4915729802915, "lng": -0.142184519708498}, "southwest": {"lat": 51.48887501970851, "lng": -0.1448824802915021}}}, "name": "Motorsport Worldwide Limited", "place_id": "ChIJI9XXXh4FdkgRKSfiEtXgASk", "types": ["point_of_interest", "establishment"]}, "ChIJc245Xx4FdkgRz0r8IN4U2cM": {"geometry": {"location": {"lat": 51.49025400000001, "lng": -0.1435963}, "viewport": {"northeast": {"lat": 51.4915729802915, "lng": -0.142184519708498}, "southwest": {"lat": 51.48887501970851, "lng": -0.1448824802915021}}}, "name": "Ortho-trauma International LLP", "place_id": "ChIJc245Xx4FdkgRz0r8IN4U2cM", "types": ["health", "point_of_interest", "store", "establishment"]}, "ChIJVVXWXh4FdkgRfpF1Xsku0yY": {"geometry": {"location": {"lat": 51.4902543, "lng": -0.1435854}, "viewport": {"northeast": {"lat": 51.4915748802915, "lng": -0.142176919708498}, "southwest": {"lat": 51.4888769197085, "lng": -0.144874880291502}}}, "name": "Boars Head Properties", "place_id": "ChIJVVXWXh4FdkgRfpF1Xsku0yY", "types": ["real_estate_agency", "point_of_interest", "establishment"]}, "ChIJtQPB8B4FdkgRGjfaBEt9CR0": {"geometry": {"location": {"lat": 51.4905196, "lng": -0.1442278}, "viewport": {"northeast": {"lat": 51.4918213302915, "lng": -0.142937869708498}, "southwest": {"lat": 51.4891233697085, "lng": -0.145635830291502}}}, "name": "Robert Plane", "place_id": "ChIJtQPB8B4FdkgRGjfaBEt9CR0", "types": ["point_of_interest", "establishment"]}, "ChIJUQESUx4FdkgRHIzfxhnHL2s": {"geometry": {"location": {"lat": 51.491055, "lng": -0.1433599}, "viewport": {"northeast": {"lat": 51.4924679302915, "lng": -0.142059069708498}, "southwest": {"lat": 51.4897699697085, "lng": -0.144757030291502}}}, "name": "Mystery Customer Evaluations", "place_id": "ChIJUQESUx4FdkgRHIzfxhnHL2s", "types": ["point_of_interest", "establishment"]}, "ChIJ-XBfVB4FdkgRfRfa_9OMtGo": {"geometry": {"location": {"lat": 51.4911031, "lng": -0.143523}, "viewport": {"northeast": {"lat": 51.4924729802915, "lng": -0.142189719708498}, "southwest": {"lat": 51.4897750197085, "lng": -0.144887680291502}}}, "name": "Baden-Powell Associates Ltd", "place_id": "ChIJ-XBfVB4FdkgRfRfa_9OMtGo", "types": ["point_of_interest", "establishment"]}, "ChIJw6XYXh4FdkgRYu5XJor5ybY": {"geometry": {"location": {"lat": 51.49019849999999, "lng": -0.1436449}, "viewport": {"northeast": {"lat": 51.49154443029149, "lng": -0.142220769708498}, "southwest": {"lat": 51.4888464697085, "lng": -0.144918730291502}}}, "name": "George Hay & Co", "place_id": "ChIJw6XYXh4FdkgRYu5XJor5ybY", "types": ["accounting", "finance", "point_of_interest", "establishment"], "rating": 5, "user_ratings_total": 1}, "ChIJ5U3vrtgEdkgRxgXizLWlQ0I": {"geometry": {"location": {"lat": 51.49066449999999, "lng": -0.1439899}, "viewport": {"northeast": {"lat": 51.4920894302915, "lng": -0.142548869708498}, "southwest": {"lat": 51.4893914697085, "lng": -0.145246830291502}}}, "name": "Embassy of Albania", "place_id": "ChIJ5U3vrtgEdkgRxgXizLWlQ0I", "types": ["embassy", "point_of_interest", "establishment"], "rating": 3.3, "user_ratings_total": 163}, "ChIJn89m5R4FdkgRYe6VaNEAuLY": {"geometry": {"location": {"lat": 51.4905365, "lng": -0.1443208}, "viewport": {"northeast": {"lat": 51.49184698029149, "lng": -0.143019919708498}, "southwest": {"lat": 51.48914901970849, "lng": -0.145717880291502}}}, "name": "Classic Bindings Ltd", "place_id": "ChIJn89m5R4FdkgRYe6VaNEAuLY", "types": ["book_store", "home_goods_store", "point_of_interest", "store", "establishment"], "rating": 4.5, "user_ratings_total": 2}, "ChIJK71HVx4FdkgROnX7mqZyia0": {"geometry": {"location": {"lat": 51.49069000000001, "lng": -0.1434699}, "viewport": {"northeast": {"lat": 51.49204183029149, "lng": -0.142111719708498}, "southwest": {"lat": 51.48934386970849, "lng": -0.144809680291502}}}, "name": "ubitricity Charging Station", "place_id": "ChIJK71HVx4FdkgROnX7mqZyia0", "types": ["point_of_interest", "establishment"]}, "ChIJeaFLVh4FdkgRykBxMkT1Wgw": {"geometry": {"location": {"lat": 51.4907519, "lng": -0.1434967}, "viewport": {"northeast": {"lat": 51.4920758302915, "lng": -0.142177569708498}, "southwest": {"lat": 51.4893778697085, "lng": -0.144875530291502}}}, "name": "ubitricity Charging Station", "place_id": "ChIJeaFLVh4FdkgRykBxMkT1Wgw", "types": ["point_of_interest", "establishment"]}, "ChIJNe1BCNAZdkgRGnJug8XuE1Y": {"geometry": {"location": {"lat": 51.4906466, "lng": -0.1439202}, "viewport": {"northeast": {"lat": 51.49206678029149, "lng": -0.142484919708498}, "southwest": {"lat": 51.4893688197085, "lng": -0.145182880291502}}}, "name": "gREGORIES HOTEL", "place_id": "ChIJNe1BCNAZdkgRGnJug8XuE1Y", "types": ["lodging", "point_of_interest", "establishment"], "rating": 5, "user_ratings_total": 1}, "ChIJOZDH1-wFdkgRBfcFDGqti_M": {"geometry": {"location": {"lat": 51.4907957, "lng": -0.1433964}, "viewport": {"northeast": {"lat": 51.4920899802915, "lng": -0.142113769708498}, "southwest": {"lat": 51.4893920197085, "lng": -0.144811730291502}}}, "name": "Repono Storage UK Ltd", "place_id": "ChIJOZDH1-wFdkgRBfcFDGqti_M", "types": ["storage", "point_of_interest", "store", "establishment"], "rating": 4.8, "user_ratings_total": 19}, "ChIJxbbdUB4FdkgRi-h9MTpjCy0": {"geometry": {"location": {"lat": 51.4907512, "lng": -0.1433335}, "viewport": {"northeast": {"lat": 51.49205023029149, "lng": -0.142045069708498}, "southwest": {"lat": 51.48935226970849, "lng": -0.144743030291502}}}, "name": "Greysby Ltd", "place_id": "ChIJxbbdUB4FdkgRi-h9MTpjCy0", "types": ["lodging", "point_of_interest", "establishment"]}, "ChIJu6iK-B4FdkgRK2Tg6m7mx1k": {"geometry": {"location": {"lat": 51.4906842, "lng": -0.1440152}, "viewport": {"northeast": {"lat": 51.4921066302915, "lng": -0.142577169708498}, "southwest": {"lat": 51.4894086697085, "lng": -0.145275130291502}}}, "name": "Ambasada e Shqip\u00ebris\u00eb Lond\u00ebr", "place_id": "ChIJu6iK-B4FdkgRK2Tg6m7mx1k", "types": ["point_of_interest", "establishment"], "rating": 3.1, "user_ratings_total": 61}, "ChIJaefmJCgFdkgRUWLWar2G-vQ": {"geometry": {"location": {"lat": 51.49086980000001, "lng": -0.1439293}, "viewport": {"northeast": {"lat": 51.4922463802915, "lng": -0.142546719708498}, "southwest": {"lat": 51.4895484197085, "lng": -0.1452446802915021}}}, "name": "St George Drive", "place_id": "ChIJaefmJCgFdkgRUWLWar2G-vQ", "types": ["lodging", "point_of_interest", "establishment"]}, "ChIJw6XYXh4FdkgRCmRjYqofTVo": {"geometry": {"location": {"lat": 51.4902543, "lng": -0.1435854}, "viewport": {"northeast": {"lat": 51.4915748802915, "lng": -0.142176919708498}, "southwest": {"lat": 51.4888769197085, "lng": -0.144874880291502}}}, "name": "Edge Global", "place_id": "ChIJw6XYXh4FdkgRCmRjYqofTVo", "types": ["point_of_interest", "store", "establishment"]}, "ChIJP0ZUFk8FdkgRV22sU6nh2Hc": {"geometry": {"location": {"lat": 51.49034839999999, "lng": -0.1439007}, "viewport": {"northeast": {"lat": 51.4916536802915, "lng": -0.142605919708498}, "southwest": {"lat": 51.4889557197085, "lng": -0.145303880291502}}}, "name": "Mannys Electrical Safety Certificates", "place_id": "ChIJP0ZUFk8FdkgRV22sU6nh2Hc", "types": ["point_of_interest", "establishment"]}, "ChIJq6q58B4FdkgRVXuFu2BpbC8": {"geometry": {"location": {"lat": 51.4905409, "lng": -0.1442067}, "viewport": {"northeast": {"lat": 51.4918327802915, "lng": -0.1429290697084979}, "southwest": {"lat": 51.48913481970851, "lng": -0.145627030291502}}}, "name": "George Vass", "place_id": "ChIJq6q58B4FdkgRVXuFu2BpbC8", "types": ["point_of_interest", "establishment"]}, "ChIJVVXWXh4FdkgR71cwIRprGKM": {"geometry": {"location": {"lat": 51.4902543, "lng": -0.1435854}, "viewport": {"northeast": {"lat": 51.4915748802915, "lng": -0.142176919708498}, "southwest": {"lat": 51.4888769197085, "lng": -0.144874880291502}}}, "name": "EMMANUEL GOBILLOT LIMITED", "place_id": "ChIJVVXWXh4FdkgR71cwIRprGKM", "types": ["point_of_interest", "establishment"]}, "ChIJE6OWMoUFdkgRBEY59pY_ogc": {"geometry": {"location": {"lat": 51.4902543, "lng": -0.1435854}, "viewport": {"northeast": {"lat": 51.4915748802915, "lng": -0.142176919708498}, "southwest": {"lat": 51.4888769197085, "lng": -0.144874880291502}}}, "name": "SILK LENGTHS", "place_id": "ChIJE6OWMoUFdkgRBEY59pY_ogc", "types": ["hair_care", "point_of_interest", "establishment"], "rating": 5, "user_ratings_total": 15}, "ChIJVVXWXh4FdkgROKCsoCpePE0": {"geometry": {"location": {"lat": 51.4902543, "lng": -0.1435854}, "viewport": {"northeast": {"lat": 51.4915748802915, "lng": -0.142176919708498}, "southwest": {"lat": 51.4888769197085, "lng": -0.144874880291502}}}, "name": "Roka Construction Limited", "place_id": "ChIJVVXWXh4FdkgROKCsoCpePE0", "types": ["general_contractor", "point_of_interest", "establishment"], "rating": 5, "user_ratings_total": 1}, "ChIJVVXWXh4FdkgRBJXlfFF7Z_I": {"geometry": {"location": {"lat": 51.4902543, "lng": -0.1435854}, "viewport": {"northeast": {"lat": 51.4915748802915, "lng": -0.142176919708498}, "southwest": {"lat": 51.4888769197085, "lng": -0.144874880291502}}}, "name": "Ash Contracting Limited", "place_id": "ChIJVVXWXh4FdkgRBJXlfFF7Z_I", "types": ["point_of_interest", "establishment"]}, "ChIJVVXWXh4FdkgRPb5orQUtD8E": {"geometry": {"location": {"lat": 51.4902543, "lng": -0.1435854}, "viewport": {"northeast": {"lat": 51.4915748802915, "lng": -0.142176919708498}, "southwest": {"lat": 51.4888769197085, "lng": -0.144874880291502}}}, "name": "Universal Advanced Technology Limited", "place_id": "ChIJVVXWXh4FdkgRPb5orQUtD8E", "types": ["point_of_interest", "establishment"]}, "ChIJVVXWXh4FdkgR1ikmWI2jIKs": {"geometry": {"location": {"lat": 51.4902543, "lng": -0.1435854}, "viewport": {"northeast": {"lat": 51.4915748802915, "lng": -0.142176919708498}, "southwest": {"lat": 51.4888769197085, "lng": -0.144874880291502}}}, "name": "No Limits Hospitality Ltd", "place_id": "ChIJVVXWXh4FdkgR1ikmWI2jIKs", "types": ["point_of_interest", "establishment"]}, "ChIJVVXWXh4FdkgRtRGmGQq_RqA": {"geometry": {"location": {"lat": 51.4902543, "lng": -0.1435854}, "viewport": {"northeast": {"lat": 51.4915748802915, "lng": -0.142176919708498}, "southwest": {"lat": 51.4888769197085, "lng": -0.144874880291502}}}, "name": "Brand Hatch Ltd", "place_id": "ChIJVVXWXh4FdkgRtRGmGQq_RqA", "types": ["point_of_interest", "establishment"], "rating": 5, "user_ratings_total": 22}, "ChIJVVXWXh4FdkgR0aPUQs4_bdw": {"geometry": {"location": {"lat": 51.4902543, "lng": -0.1435854}, "viewport": {"northeast": {"lat": 51.4915748802915, "lng": -0.142176919708498}, "southwest": {"lat": 51.4888769197085, "lng": -0.144874880291502}}}, "name": "Mecserflex Manufacturing Company Limited", "place_id": "ChIJVVXWXh4FdkgR0aPUQs4_bdw", "types": ["point_of_interest", "establishment"]}, "ChIJVVXWXh4FdkgR1TuPFSVH8a0": {"geometry": {"location": {"lat": 51.4902543, "lng": -0.1435854}, "viewport": {"northeast": {"lat": 51.4915748802915, "lng": -0.142176919708498}, "southwest": {"lat": 51.4888769197085, "lng": -0.144874880291502}}}, "name": "Loudwater Systems Management Ltd", "place_id": "ChIJVVXWXh4FdkgR1TuPFSVH8a0", "types": ["point_of_interest", "establishment"]}, "ChIJVVXWXh4FdkgRjI_aHizaOvc": {"geometry": {"location": {"lat": 51.4902543, "lng": -0.1435854}, "viewport": {"northeast": {"lat": 51.4915748802915, "lng": -0.142176919708498}, "southwest": {"lat": 51.4888769197085, "lng": -0.144874880291502}}}, "name": "VIA Consulting Ltd - commercial event and content growth consulting", "place_id": "ChIJVVXWXh4FdkgRjI_aHizaOvc", "types": ["point_of_interest", "establishment"]}, "ChIJH0lRlTcFdkgRXUXkXfg21Kc": {"geometry": {"location": {"lat": 51.4910206, "lng": -0.1437387}, "viewport": {"northeast": {"lat": 51.4922956302915, "lng": -0.142479669708498}, "southwest": {"lat": 51.4895976697085, "lng": -0.145177630291502}}}, "name": "Warwick Way Serviced Apartment", "place_id": "ChIJH0lRlTcFdkgRXUXkXfg21Kc", "types": ["lodging", "point_of_interest", "establishment"]}, "ChIJIbhSUYIFdkgRXzUMB-12uuU": {"geometry": {"location": {"lat": 51.4902355, "lng": -0.1436641}, "viewport": {"northeast": {"lat": 51.4915477302915, "lng": -0.142238169708498}, "southwest": {"lat": 51.4888497697085, "lng": -0.144936130291502}}}, "name": "Colombo Hirst", "place_id": "ChIJIbhSUYIFdkgRXzUMB-12uuU", "types": ["point_of_interest", "establishment"], "rating": 5, "user_ratings_total": 1}, "ChIJ5QHl-x4FdkgRVTBZazbBugw": {"geometry": {"location": {"lat": 51.4908909, "lng": -0.1441857}, "viewport": {"northeast": {"lat": 51.49227378029151, "lng": -0.142781719708498}, "southwest": {"lat": 51.48957581970851, "lng": -0.145479680291502}}}, "name": "Aud Jebsen Hall", "place_id": "ChIJ5QHl-x4FdkgRVTBZazbBugw", "types": ["point_of_interest", "establishment"]}, "ChIJVVWs-x4FdkgRI9aKsNAMG2o": {"geometry": {"location": {"lat": 51.49078710000001, "lng": -0.1442999}, "viewport": {"northeast": {"lat": 51.4922025302915, "lng": -0.143001019708498}, "southwest": {"lat": 51.4895045697085, "lng": -0.145698980291502}}}, "name": "Royal Ballet School", "place_id": "ChIJVVWs-x4FdkgRI9aKsNAMG2o", "types": ["point_of_interest", "establishment"]}, "ChIJjXRzRR4FdkgRBS08Nkzywtc": {"geometry": {"location": {"lat": 51.4905415, "lng": -0.1428918}, "viewport": {"northeast": {"lat": 51.4918411802915, "lng": -0.141601969708498}, "southwest": {"lat": 51.4891432197085, "lng": -0.144299930291502}}}, "name": "Benjamin Milton Reflexology", "place_id": "ChIJjXRzRR4FdkgRBS08Nkzywtc", "types": ["health", "point_of_interest", "establishment"]}, "ChIJ1-lS4LsFdkgRPlpGLG6FagU": {"geometry": {"location": {"lat": 51.4901472, "lng": -0.1433689}, "viewport": {"northeast": {"lat": 51.49152033029149, "lng": -0.142071719708498}, "southwest": {"lat": 51.4888223697085, "lng": -0.144769680291502}}}, "name": "Laura Ashley Plaque", "place_id": "ChIJ1-lS4LsFdkgRPlpGLG6FagU", "types": ["tourist_attraction", "point_of_interest", "establishment"], "rating": 3, "user_ratings_total": 1}, "ChIJaU_gcYQFdkgRvIH9UkhuJc0": {"geometry": {"location": {"lat": 51.49026019999999, "lng": -0.1441882}, "viewport": {"northeast": {"lat": 51.4916367302915, "lng": -0.142804819708498}, "southwest": {"lat": 51.4889387697085, "lng": -0.145502780291502}}}, "name": "SAG MINING LIMITED", "place_id": "ChIJaU_gcYQFdkgRvIH9UkhuJc0", "types": ["point_of_interest", "establishment"], "rating": 1, "user_ratings_total": 6}, "ChIJCwblOGgFdkgR0ruR4yVX84w": {"geometry": {"location": {"lat": 51.4911298, "lng": -0.1433751}, "viewport": {"northeast": {"lat": 51.4925102302915, "lng": -0.1420498197084979}, "southwest": {"lat": 51.4898122697085, "lng": -0.144747780291502}}}, "name": "Samuel Smith", "place_id": "ChIJCwblOGgFdkgR0ruR4yVX84w", "types": ["point_of_interest", "establishment"]}, "ChIJPSRdYh4FdkgRIwatmBKh9KM": {"geometry": {"location": {"lat": 51.48950150033777, "lng": -0.1436750491679069}, "viewport": {"northeast": {"lat": 51.49085048029151, "lng": -0.142326069708498}, "southwest": {"lat": 51.48815251970851, "lng": -0.145024030291502}}}, "name": "90-80 Alderney St", "place_id": "ChIJPSRdYh4FdkgRIwatmBKh9KM", "types": ["route"]}, "ChIJf9HxiB4FdkgRbE-1BJQ-0lg": {"geometry": {"location": {"lat": 51.4894138, "lng": -0.1439119}, "viewport": {"northeast": {"lat": 51.4908259802915, "lng": -0.142485069708498}, "southwest": {"lat": 51.4881280197085, "lng": -0.145183030291502}}}, "name": "Jamie Mills Ltd", "place_id": "ChIJf9HxiB4FdkgRbE-1BJQ-0lg", "types": ["store", "point_of_interest", "establishment"]}, "ChIJY-2W7R4FdkgReCQrZwVdl5o": {"geometry": {"location": {"lat": 51.4898574, "lng": -0.1441019}, "viewport": {"northeast": {"lat": 51.4911576802915, "lng": -0.142811269708498}, "southwest": {"lat": 51.4884597197085, "lng": -0.145509230291502}}}, "name": "Victoria Manser Ltd", "place_id": "ChIJY-2W7R4FdkgReCQrZwVdl5o", "types": ["point_of_interest", "establishment"]}, "ChIJGRahZB4FdkgRPOQ9TUT02CI": {"geometry": {"location": {"lat": 51.4893669, "lng": -0.1433932}, "viewport": {"northeast": {"lat": 51.4907158802915, "lng": -0.142044219708498}, "southwest": {"lat": 51.4880179197085, "lng": -0.144742180291502}}}, "name": "Short Let Management Ltd", "place_id": "ChIJGRahZB4FdkgRPOQ9TUT02CI", "types": ["point_of_interest", "establishment"]}, "ChIJnSd2iR4FdkgRF12cc1Vu2Lk": {"geometry": {"location": {"lat": 51.4895733, "lng": -0.1439609}, "viewport": {"northeast": {"lat": 51.4909380302915, "lng": -0.142592519708498}, "southwest": {"lat": 51.4882400697085, "lng": -0.145290480291502}}}, "name": "Zipcar", "place_id": "ChIJnSd2iR4FdkgRF12cc1Vu2Lk", "types": ["car_rental", "point_of_interest", "establishment"]}, "ChIJrW9z-tgFdkgRysP5tgwVfjA": {"geometry": {"location": {"lat": 51.4895733, "lng": -0.1439609}, "viewport": {"northeast": {"lat": 51.49093798029149, "lng": -0.142592519708498}, "southwest": {"lat": 51.48824001970849, "lng": -0.145290480291502}}}, "name": "Zipcar", "place_id": "ChIJrW9z-tgFdkgRysP5tgwVfjA", "types": ["point_of_interest", "establishment"]}, "ChIJNWTHYy0FdkgRP2fTiOSB9R4": {"geometry": {"location": {"lat": 51.48928619999999, "lng": -0.143543}, "viewport": {"northeast": {"lat": 51.49059783029149, "lng": -0.142118919708498}, "southwest": {"lat": 51.48789986970849, "lng": -0.144816880291502}}}, "name": "Belly Dance Academy London", "place_id": "ChIJNWTHYy0FdkgRP2fTiOSB9R4", "types": ["point_of_interest", "establishment"]}, "ChIJAQDcZh4FdkgRP3H32v6HWRo": {"geometry": {"location": {"lat": 51.4897722, "lng": -0.1433418}, "viewport": {"northeast": {"lat": 51.49117553029149, "lng": -0.141926819708498}, "southwest": {"lat": 51.4884775697085, "lng": -0.144624780291502}}}, "name": "Riverside Mental Health Trust", "place_id": "ChIJAQDcZh4FdkgRP3H32v6HWRo", "types": ["health", "point_of_interest", "establishment"]}, "ChIJf8wSZh4FdkgR9-BWhsXbYV8": {"geometry": {"location": {"lat": 51.48967630000001, "lng": -0.143134}, "viewport": {"northeast": {"lat": 51.49107903029149, "lng": -0.141719769708498}, "southwest": {"lat": 51.4883810697085, "lng": -0.1444177302915021}}}, "name": "Dickens Brothers Limited", "place_id": "ChIJf8wSZh4FdkgR9-BWhsXbYV8", "types": ["point_of_interest", "establishment"]}, "ChIJy-ECZh4FdkgR97_1hU9CnCE": {"geometry": {"location": {"lat": 51.4896641, "lng": -0.143054}, "viewport": {"northeast": {"lat": 51.4910587302915, "lng": -0.141649619708498}, "southwest": {"lat": 51.4883607697085, "lng": -0.144347580291502}}}, "name": "Ski 2 Freedom Foundation", "place_id": "ChIJy-ECZh4FdkgR97_1hU9CnCE", "types": ["point_of_interest", "establishment"]}, "ChIJMSEFNAoFdkgRvIuWoMgdXaM": {"geometry": {"location": {"lat": 51.48987090000001, "lng": -0.1431886}, "viewport": {"northeast": {"lat": 51.4911947302915, "lng": -0.141870119708498}, "southwest": {"lat": 51.4884967697085, "lng": -0.1445680802915021}}}, "name": "Jomo Kenyatta Blue Plaque", "place_id": "ChIJMSEFNAoFdkgRvIuWoMgdXaM", "types": ["point_of_interest", "establishment"], "rating": 4, "user_ratings_total": 2}, "ChIJ8cUUBJEFdkgRcubx4Jk-Bu4": {"geometry": {"location": {"lat": 51.4897292, "lng": -0.1428875}, "viewport": {"northeast": {"lat": 51.4910781802915, "lng": -0.141538519708498}, "southwest": {"lat": 51.4883802197085, "lng": -0.144236480291502}}}, "name": "Mathematical Bridge", "place_id": "ChIJ8cUUBJEFdkgRcubx4Jk-Bu4", "types": ["point_of_interest", "establishment"]}, "ChIJI206z9sFdkgRMNeGISV1i4E": {"geometry": {"location": {"lat": 51.4897292, "lng": -0.1428875}, "viewport": {"northeast": {"lat": 51.4910781802915, "lng": -0.141538519708498}, "southwest": {"lat": 51.4883802197085, "lng": -0.144236480291502}}}, "name": "Smith may solicitors", "place_id": "ChIJI206z9sFdkgRMNeGISV1i4E", "types": ["point_of_interest", "establishment"]}, "ChIJp8FhVYYFdkgR1ddRWZsSMbU": {"geometry": {"location": {"lat": 51.4892645, "lng": -0.142903}, "viewport": {"northeast": {"lat": 51.49057258029151, "lng": -0.141604269708498}, "southwest": {"lat": 51.48787461970851, "lng": -0.144302230291502}}}, "name": "TR Corp", "place_id": "ChIJp8FhVYYFdkgR1ddRWZsSMbU", "types": ["point_of_interest", "establishment"]}, "ChIJTwYKeB4FdkgRE3VWsSmbpks": {"geometry": {"location": {"lat": 51.48864440105872, "lng": -0.1431088974170973}, "viewport": {"northeast": {"lat": 51.48999338029149, "lng": -0.141759919708498}, "southwest": {"lat": 51.4872954197085, "lng": -0.144457880291502}}}, "name": "43-23 Winchester St", "place_id": "ChIJTwYKeB4FdkgRE3VWsSmbpks", "types": ["route"]}, "ChIJYcGsKhwFdkgRQwiJKoA5gPo": {"geometry": {"location": {"lat": 51.48867509999999, "lng": -0.1439002}, "viewport": {"northeast": {"lat": 51.4900473802915, "lng": -0.142601319708498}, "southwest": {"lat": 51.4873494197085, "lng": -0.145299280291502}}}, "name": "Minibus Hire London", "place_id": "ChIJYcGsKhwFdkgRQwiJKoA5gPo", "types": ["point_of_interest", "establishment"], "rating": 5, "user_ratings_total": 5}, "ChIJmQ0RsLUadkgRaTOyv3KBynM": {"geometry": {"location": {"lat": 51.488428, "lng": -0.1436354}, "viewport": {"northeast": {"lat": 51.48974123029149, "lng": -0.1423297197084979}, "southwest": {"lat": 51.48704326970849, "lng": -0.145027680291502}}}, "name": "Carters Solicitors", "place_id": "ChIJmQ0RsLUadkgRaTOyv3KBynM", "types": ["point_of_interest", "establishment"], "rating": 5, "user_ratings_total": 3}, "ChIJa5jd0B0FdkgRYfA8Iji3nSU": {"geometry": {"location": {"lat": 51.4884726, "lng": -0.143332}, "viewport": {"northeast": {"lat": 51.4897262302915, "lng": -0.142098619708498}, "southwest": {"lat": 51.4870282697085, "lng": -0.144796580291502}}}, "name": "Pe\u00f1a Flamenca de Londres", "place_id": "ChIJa5jd0B0FdkgRYfA8Iji3nSU", "types": ["point_of_interest", "establishment"], "rating": 4.6, "user_ratings_total": 8}, "ChIJa5jd0B0FdkgR0eAIGCUZeFE": {"geometry": {"location": {"lat": 51.4882134, "lng": -0.143202}, "viewport": {"northeast": {"lat": 51.4895301302915, "lng": -0.141892169708498}, "southwest": {"lat": 51.48683216970851, "lng": -0.144590130291502}}}, "name": "New Ways", "place_id": "ChIJa5jd0B0FdkgR0eAIGCUZeFE", "types": ["point_of_interest", "establishment"]}, "ChIJa5jd0B0FdkgRFYYb8xx0kUE": {"geometry": {"location": {"lat": 51.4884099, "lng": -0.1432637}, "viewport": {"northeast": {"lat": 51.48967328029151, "lng": -0.142018519708498}, "southwest": {"lat": 51.48697531970851, "lng": -0.1447164802915021}}}, "name": "Perform Pimlico", "place_id": "ChIJa5jd0B0FdkgRFYYb8xx0kUE", "types": ["university", "point_of_interest", "establishment"]}, "ChIJLeteKxwFdkgRAY0RDyJFNJY": {"geometry": {"location": {"lat": 51.4882994, "lng": -0.1439006}, "viewport": {"northeast": {"lat": 51.4896933302915, "lng": -0.142497119708498}, "southwest": {"lat": 51.4869953697085, "lng": -0.145195080291502}}}, "name": "NATURE MEDICAL LTD-DOM", "place_id": "ChIJLeteKxwFdkgRAY0RDyJFNJY", "types": ["point_of_interest", "establishment"], "rating": 5, "user_ratings_total": 1}, "ChIJZ8GsKhwFdkgRgCzXInuP1kk": {"geometry": {"location": {"lat": 51.48866330000001, "lng": -0.1438412}, "viewport": {"northeast": {"lat": 51.49004653029151, "lng": -0.142565769708498}, "southwest": {"lat": 51.48734856970851, "lng": -0.145263730291502}}}, "name": "Sugar K Ltd", "place_id": "ChIJZ8GsKhwFdkgRgCzXInuP1kk", "types": ["point_of_interest", "establishment"]}, "ChIJ6518KhwFdkgR81y4cKU5ww0": {"geometry": {"location": {"lat": 51.4886082, "lng": -0.1439784}, "viewport": {"northeast": {"lat": 51.4899808302915, "lng": -0.142680169708498}, "southwest": {"lat": 51.4872828697085, "lng": -0.145378130291502}}}, "name": "Olimpicars", "place_id": "ChIJ6518KhwFdkgR81y4cKU5ww0", "types": ["point_of_interest", "establishment"], "rating": 4.3, "user_ratings_total": 4}, "ChIJ02ykgB4FdkgRE__UQ16lUTw": {"geometry": {"location": {"lat": 51.4889146, "lng": -0.1439468}, "viewport": {"northeast": {"lat": 51.49024138029149, "lng": -0.142535719708498}, "southwest": {"lat": 51.48754341970849, "lng": -0.145233680291502}}}, "name": "Jackson-Stops Pimlico & Westminster", "place_id": "ChIJ02ykgB4FdkgRE__UQ16lUTw", "types": ["real_estate_agency", "point_of_interest", "establishment"], "rating": 4.9, "user_ratings_total": 141}, "ChIJ65uxLhwFdkgRZRnebk-ZjD8": {"geometry": {"location": {"lat": 51.488367, "lng": -0.144385}, "viewport": {"northeast": {"lat": 51.4897118802915, "lng": -0.143027469708498}, "southwest": {"lat": 51.4870139197085, "lng": -0.145725430291502}}}, "name": "Cyclone Aerial", "place_id": "ChIJ65uxLhwFdkgRZRnebk-ZjD8", "types": ["point_of_interest", "establishment"]}, "ChIJO2HT1R0FdkgRItOxxB-WO_Y": {"geometry": {"location": {"lat": 51.4885242, "lng": -0.1433389}, "viewport": {"northeast": {"lat": 51.4897624302915, "lng": -0.142124219708498}, "southwest": {"lat": 51.4870644697085, "lng": -0.1448221802915021}}}, "name": "Holy Apostles Church", "place_id": "ChIJO2HT1R0FdkgRItOxxB-WO_Y", "types": ["church", "place_of_worship", "point_of_interest", "establishment"], "rating": 4.6, "user_ratings_total": 76}, "ChIJsWwfgR4FdkgRK1xsTcL721w": {"geometry": {"location": {"lat": 51.48890609999999, "lng": -0.1440568}, "viewport": {"northeast": {"lat": 51.4902135802915, "lng": -0.142618719708498}, "southwest": {"lat": 51.4875156197085, "lng": -0.145316680291502}}}, "name": "Horizon House Publications Ltd", "place_id": "ChIJsWwfgR4FdkgRK1xsTcL721w", "types": ["point_of_interest", "establishment"]}, "ChIJa5jd0B0FdkgRPSmeANDxcO0": {"geometry": {"location": {"lat": 51.4885099, "lng": -0.1438073}, "viewport": {"northeast": {"lat": 51.4898227802915, "lng": -0.142502069708498}, "southwest": {"lat": 51.4871248197085, "lng": -0.145200030291502}}}, "name": "Monkey Music Pimlico", "place_id": "ChIJa5jd0B0FdkgRPSmeANDxcO0", "types": ["point_of_interest", "establishment"]}, "ChIJq-tViB4FdkgR2Zw5_bTp22g": {"geometry": {"location": {"lat": 51.488569, "lng": -0.1438955}, "viewport": {"northeast": {"lat": 51.4899610302915, "lng": -0.142638969708498}, "southwest": {"lat": 51.4872630697085, "lng": -0.145336930291502}}}, "name": "InPimlico Properties", "place_id": "ChIJq-tViB4FdkgR2Zw5_bTp22g", "types": ["real_estate_agency", "point_of_interest", "establishment"], "rating": 5, "user_ratings_total": 1}, "ChIJAQCTKhwFdkgRDAUSy59JepQ": {"geometry": {"location": {"lat": 51.48857959999999, "lng": -0.1438927}, "viewport": {"northeast": {"lat": 51.4899701302915, "lng": -0.142632969708498}, "southwest": {"lat": 51.4872721697085, "lng": -0.145330930291502}}}, "name": "Zach Knightons", "place_id": "ChIJAQCTKhwFdkgRDAUSy59JepQ", "types": ["point_of_interest", "establishment"]}, "ChIJYTz2yZQFdkgR8JVdBEOoTjk": {"geometry": {"location": {"lat": 51.48857959999999, "lng": -0.1438927}, "viewport": {"northeast": {"lat": 51.4899701302915, "lng": -0.142632969708498}, "southwest": {"lat": 51.4872721697085, "lng": -0.145330930291502}}}, "name": "My Removal Man Ltd", "place_id": "ChIJYTz2yZQFdkgR8JVdBEOoTjk", "types": ["moving_company", "point_of_interest", "establishment"]}, "ChIJcZ-1P5QFdkgR-9CvKv7v9zM": {"geometry": {"location": {"lat": 51.48857959999999, "lng": -0.1438927}, "viewport": {"northeast": {"lat": 51.4899701302915, "lng": -0.142632969708498}, "southwest": {"lat": 51.4872721697085, "lng": -0.145330930291502}}}, "name": "HUBDEN", "place_id": "ChIJcZ-1P5QFdkgR-9CvKv7v9zM", "types": ["point_of_interest", "establishment"]}, "ChIJAQCTKhwFdkgRoA7YEpncEYs": {"geometry": {"location": {"lat": 51.48857959999999, "lng": -0.1438927}, "viewport": {"northeast": {"lat": 51.4899701302915, "lng": -0.142632969708498}, "southwest": {"lat": 51.4872721697085, "lng": -0.145330930291502}}}, "name": "Bestin Build Ltd", "place_id": "ChIJAQCTKhwFdkgRoA7YEpncEYs", "types": ["point_of_interest", "establishment"]}, "ChIJIVClPrcFdkgRiThHhVvVNMs": {"geometry": {"location": {"lat": 51.48858949999999, "lng": -0.143951}, "viewport": {"northeast": {"lat": 51.4899695802915, "lng": -0.142668769708498}, "southwest": {"lat": 51.4872716197085, "lng": -0.145366730291502}}}, "name": "Red Laser Scanning", "place_id": "ChIJIVClPrcFdkgRiThHhVvVNMs", "types": ["point_of_interest", "establishment"], "rating": 5, "user_ratings_total": 11}, "ChIJNVsV0JkFdkgRS2XF1Ohpvkc": {"geometry": {"location": {"lat": 51.48858949999999, "lng": -0.143951}, "viewport": {"northeast": {"lat": 51.4899695802915, "lng": -0.142668769708498}, "southwest": {"lat": 51.4872716197085, "lng": -0.145366730291502}}}, "name": "The Good Painter", "place_id": "ChIJNVsV0JkFdkgRS2XF1Ohpvkc", "types": ["painter", "point_of_interest", "establishment"], "rating": 4.7, "user_ratings_total": 14}, "ChIJh2WCKhwFdkgRSnn8XDURu1s": {"geometry": {"location": {"lat": 51.4886393, "lng": -0.1439243}, "viewport": {"northeast": {"lat": 51.4900144302915, "lng": -0.142631469708498}, "southwest": {"lat": 51.4873164697085, "lng": -0.145329430291502}}}, "name": "Opium Dry Cleaners", "place_id": "ChIJh2WCKhwFdkgRSnn8XDURu1s", "types": ["laundry", "point_of_interest", "establishment"], "rating": 4.9, "user_ratings_total": 54}, "ChIJlbA2KhwFdkgR8v4ga5Zhm5A": {"geometry": {"location": {"lat": 51.488321, "lng": -0.1439816}, "viewport": {"northeast": {"lat": 51.48972018029149, "lng": -0.142571769708498}, "southwest": {"lat": 51.48702221970849, "lng": -0.145269730291502}}}, "name": "London Vault & Basement Solutions", "place_id": "ChIJlbA2KhwFdkgR8v4ga5Zhm5A", "types": ["point_of_interest", "establishment"]}, "ChIJ1Z18KhwFdkgRd916LFSjcLo": {"geometry": {"location": {"lat": 51.488608, "lng": -0.143978}, "viewport": {"northeast": {"lat": 51.4899807302915, "lng": -0.1426799697084979}, "southwest": {"lat": 51.4872827697085, "lng": -0.145377930291502}}}, "name": "TEMZA \u2013 Interior Design and Build Studio", "place_id": "ChIJ1Z18KhwFdkgRd916LFSjcLo", "types": ["general_contractor", "point_of_interest", "establishment"], "rating": 5, "user_ratings_total": 14}, "ChIJ6518KhwFdkgRmka5H3yqbLE": {"geometry": {"location": {"lat": 51.4886082, "lng": -0.1439784}, "viewport": {"northeast": {"lat": 51.4899808302915, "lng": -0.142680169708498}, "southwest": {"lat": 51.4872828697085, "lng": -0.145378130291502}}}, "name": "Installog Ltd", "place_id": "ChIJ6518KhwFdkgRmka5H3yqbLE", "types": ["point_of_interest", "establishment"]}, "ChIJ90B0G-IFdkgRdVDcjiBBmHQ": {"geometry": {"location": {"lat": 51.48866270000001, "lng": -0.1439151}, "viewport": {"northeast": {"lat": 51.4900349802915, "lng": -0.142616219708498}, "southwest": {"lat": 51.48733701970851, "lng": -0.145314180291502}}}, "name": "Drugs and Me", "place_id": "ChIJ90B0G-IFdkgRdVDcjiBBmHQ", "types": ["point_of_interest", "establishment"], "rating": 5, "user_ratings_total": 1}, "ChIJHV-dKhwFdkgRjearCjAFTGA": {"geometry": {"location": {"lat": 51.4886513, "lng": -0.1439359}, "viewport": {"northeast": {"lat": 51.4900225302915, "lng": -0.142634719708498}, "southwest": {"lat": 51.4873245697085, "lng": -0.1453326802915021}}}, "name": "Sara", "place_id": "ChIJHV-dKhwFdkgRjearCjAFTGA", "types": ["laundry", "point_of_interest", "establishment"], "rating": 5, "user_ratings_total": 5}, "ChIJ_UzFeB4FdkgR8dZB5gl_Abs": {"geometry": {"location": {"lat": 51.48876600000001, "lng": -0.143356}, "viewport": {"northeast": {"lat": 51.4900883802915, "lng": -0.142039469708498}, "southwest": {"lat": 51.4873904197085, "lng": -0.144737430291502}}}, "name": "ubitricity Charging Station", "place_id": "ChIJ_UzFeB4FdkgR8dZB5gl_Abs", "types": ["point_of_interest", "establishment"]}, "ChIJ1SY7ij8FdkgR7t7Fr-UeHOM": {"geometry": {"location": {"lat": 51.4887615, "lng": -0.1430959}, "viewport": {"northeast": {"lat": 51.4900713802915, "lng": -0.141794569708498}, "southwest": {"lat": 51.4873734197085, "lng": -0.144492530291502}}}, "name": "paul connected massage", "place_id": "ChIJ1SY7ij8FdkgR7t7Fr-UeHOM", "types": ["point_of_interest", "establishment"], "rating": 5, "user_ratings_total": 46}, "ChIJ01Yogh4FdkgRVDrO_CjaYTw": {"geometry": {"location": {"lat": 51.488774, "lng": -0.1441503}, "viewport": {"northeast": {"lat": 51.4900912302915, "lng": -0.142733119708498}, "southwest": {"lat": 51.48739326970851, "lng": -0.145431080291502}}}, "name": "Globelynx Ltd", "place_id": "ChIJ01Yogh4FdkgRVDrO_CjaYTw", "types": ["point_of_interest", "establishment"]}, "ChIJLSAHSDwFdkgRD0u9lotHHBc": {"geometry": {"location": {"lat": 51.4886318, "lng": -0.1443171}, "viewport": {"northeast": {"lat": 51.4899807802915, "lng": -0.142968119708498}, "southwest": {"lat": 51.4872828197085, "lng": -0.1456660802915021}}}, "name": "ABC Rooters & Heating", "place_id": "ChIJLSAHSDwFdkgRD0u9lotHHBc", "types": ["plumber", "general_contractor", "point_of_interest", "establishment"]}, "ChIJfcOofh4FdkgRATQ6GLomHAc": {"geometry": {"location": {"lat": 51.4889056, "lng": -0.1433307}, "viewport": {"northeast": {"lat": 51.4902050302915, "lng": -0.142042169708498}, "southwest": {"lat": 51.4875070697085, "lng": -0.144740130291502}}}, "name": "Sussex St Children Centre", "place_id": "ChIJfcOofh4FdkgRATQ6GLomHAc", "types": ["point_of_interest", "establishment"]}, "ChIJYSu6gx4FdkgR1GOrulK-IRU": {"geometry": {"location": {"lat": 51.488889, "lng": -0.144001}, "viewport": {"northeast": {"lat": 51.4902078802915, "lng": -0.142587369708498}, "southwest": {"lat": 51.48750991970851, "lng": -0.145285330291502}}}, "name": "MoneyGram", "place_id": "ChIJYSu6gx4FdkgR1GOrulK-IRU", "types": ["finance", "point_of_interest", "establishment"]}, "ChIJtd7_QsQFdkgRoOz_zm7DKEs": {"geometry": {"location": {"lat": 51.4888304, "lng": -0.1441517}, "viewport": {"northeast": {"lat": 51.49013728029151, "lng": -0.142712369708498}, "southwest": {"lat": 51.48743931970851, "lng": -0.145410330291502}}}, "name": "Utsav-Khushiyon Ka Pal", "place_id": "ChIJtd7_QsQFdkgRoOz_zm7DKEs", "types": ["point_of_interest", "clothing_store", "store", "establishment"]}, "ChIJyeUk7hUFdkgRm-7dFwd-YvI": {"geometry": {"location": {"lat": 51.48882709999999, "lng": -0.1441635}, "viewport": {"northeast": {"lat": 51.4901328302915, "lng": -0.142721619708498}, "southwest": {"lat": 51.4874348697085, "lng": -0.145419580291502}}}, "name": "Prafullamohanti Art Collection", "place_id": "ChIJyeUk7hUFdkgRm-7dFwd-YvI", "types": ["point_of_interest", "establishment"]}, "ChIJZ6hLOegFdkgRQnLbTey3q8A": {"geometry": {"location": {"lat": 51.4879578, "lng": -0.143788}, "viewport": {"northeast": {"lat": 51.4892538302915, "lng": -0.142503819708498}, "southwest": {"lat": 51.4865558697085, "lng": -0.145201780291502}}}, "name": "Abdul Mageed Educational Trust", "place_id": "ChIJZ6hLOegFdkgRQnLbTey3q8A", "types": ["point_of_interest", "establishment"]}, "ChIJYSu6gx4FdkgRVFOCAdiFKjA": {"geometry": {"location": {"lat": 51.48887850000001, "lng": -0.1440834}, "viewport": {"northeast": {"lat": 51.4901869802915, "lng": -0.142647419708498}, "southwest": {"lat": 51.48748901970851, "lng": -0.145345380291502}}}, "name": "ATM", "place_id": "ChIJYSu6gx4FdkgRVFOCAdiFKjA", "types": ["atm", "finance", "point_of_interest", "establishment"]}, "ChIJeSWO2B0FdkgRuMN1qXkoodk": {"geometry": {"location": {"lat": 51.48859, "lng": -0.14281}, "viewport": {"northeast": {"lat": 51.4899114302915, "lng": -0.1414946697084979}, "southwest": {"lat": 51.4872134697085, "lng": -0.144192630291502}}}, "name": "Spacious Loft With Balcony in Central London", "place_id": "ChIJeSWO2B0FdkgRuMN1qXkoodk", "types": ["lodging", "point_of_interest", "establishment"], "rating": 3, "user_ratings_total": 3}, "ChIJgcIkjB8FdkgRtrdv1QbcJYQ": {"geometry": {"location": {"lat": 51.48890609999999, "lng": -0.1440568}, "viewport": {"northeast": {"lat": 51.4902135802915, "lng": -0.142618719708498}, "southwest": {"lat": 51.4875156197085, "lng": -0.145316680291502}}}, "name": "Artech House Books", "place_id": "ChIJgcIkjB8FdkgRtrdv1QbcJYQ", "types": ["point_of_interest", "establishment"]}, "ChIJq6ozdh4FdkgRe356He-3OdM": {"geometry": {"location": {"lat": 51.4886953, "lng": -0.1428427}, "viewport": {"northeast": {"lat": 51.48998823029149, "lng": -0.141562119708498}, "southwest": {"lat": 51.4872902697085, "lng": -0.144260080291502}}}, "name": "Perfect mines", "place_id": "ChIJq6ozdh4FdkgRe356He-3OdM", "types": ["finance", "point_of_interest", "establishment"]}, "ChIJlScdgR4FdkgRbrOIdMhLdQU": {"geometry": {"location": {"lat": 51.4889339, "lng": -0.1440074},