{"E00023937": {"ChIJn4CIqdYEdkgRg-5eT_3DCEw": {"geometry": {"location": {"lat": 51.50960977669785, "lng": -0.1352808878560861}, "viewport": {"northeast": {"lat": 51.51099678029149, "lng": -0.1340105197084979}, "southwest": {"lat": 51.50829881970849, "lng": -0.136708480291502}}}, "name": "3-21 Piccadilly", "place_id": "ChIJn4CIqdYEdkgRg-5eT_3DCEw", "types": ["route"]}, "ChIJgWJOodYEdkgR00iXTipVbl8": {"geometry": {"location": {"lat": 51.5095663, "lng": -0.1357922}, "viewport": {"northeast": {"lat": 51.5107957802915, "lng": -0.134627069708498}, "southwest": {"lat": 51.5080978197085, "lng": -0.137325030291502}}}, "name": "Le M\u00e9ridien Piccadilly (Now The Dilly Piccadilly)", "place_id": "ChIJgWJOodYEdkgR00iXTipVbl8", "types": ["lodging", "point_of_interest", "establishment"], "rating": 4.2, "user_ratings_total": 1405}, "ChIJKUd4UdEEdkgRnhF7RZCoBaY": {"geometry": {"location": {"lat": 51.5091204, "lng": -0.1348751}, "viewport": {"northeast": {"lat": 51.5104357802915, "lng": -0.133504569708498}, "southwest": {"lat": 51.5077378197085, "lng": -0.136202530291502}}}, "name": "Jermyn Street Theatre", "place_id": "ChIJKUd4UdEEdkgRnhF7RZCoBaY", "types": ["point_of_interest", "establishment"], "rating": 4.7, "user_ratings_total": 123}, "ChIJgThQndEEdkgR3xKQoorr9rU": {"geometry": {"location": {"lat": 51.5093216, "lng": -0.134871}, "viewport": {"northeast": {"lat": 51.5108105302915, "lng": -0.133399819708498}, "southwest": {"lat": 51.5081125697085, "lng": -0.136097780291502}}}, "name": "Pizza Hut Restaurants", "place_id": "ChIJgThQndEEdkgR3xKQoorr9rU", "types": ["meal_takeaway", "restaurant", "food", "point_of_interest", "establishment"], "rating": 3.8, "user_ratings_total": 2739}, "ChIJJ-FLTdEEdkgRC9_4UKyzgUc": {"geometry": {"location": {"lat": 51.50889679999999, "lng": -0.135106}, "viewport": {"northeast": {"lat": 51.5102683302915, "lng": -0.1337764697084979}, "southwest": {"lat": 51.5075703697085, "lng": -0.136474430291502}}}, "name": "Emmett", "place_id": "ChIJJ-FLTdEEdkgRC9_4UKyzgUc", "types": ["point_of_interest", "clothing_store", "store", "establishment"], "rating": 4.1, "user_ratings_total": 15}, "ChIJTztGq9YEdkgRXRLmtU4BTqs": {"geometry": {"location": {"lat": 51.5094687, "lng": -0.1350123}, "viewport": {"northeast": {"lat": 51.5108608302915, "lng": -0.133743369708498}, "southwest": {"lat": 51.50816286970851, "lng": -0.136441330291502}}}, "name": "Cicchetti", "place_id": "ChIJTztGq9YEdkgRXRLmtU4BTqs", "types": ["restaurant", "food", "point_of_interest", "establishment"], "rating": 4.4, "user_ratings_total": 2004}, "ChIJT-YOqdYEdkgRJ7b6OCip8mk": {"geometry": {"location": {"lat": 51.5093042, "lng": -0.1351952}, "viewport": {"northeast": {"lat": 51.5107490802915, "lng": -0.133927219708498}, "southwest": {"lat": 51.5080511197085, "lng": -0.136625180291502}}}, "name": "Skybase Inc", "place_id": "ChIJT-YOqdYEdkgRJ7b6OCip8mk", "types": ["electronics_store", "point_of_interest", "store", "establishment"], "rating": 4, "user_ratings_total": 1}, "ChIJFbvFrtYEdkgRJwNBmKEAjw0": {"geometry": {"location": {"lat": 51.5092981, "lng": -0.1353537}, "viewport": {"northeast": {"lat": 51.51072508029149, "lng": -0.134070619708498}, "southwest": {"lat": 51.50802711970849, "lng": -0.136768580291502}}}, "name": "Time 4 Change", "place_id": "ChIJFbvFrtYEdkgRJwNBmKEAjw0", "types": ["health", "point_of_interest", "establishment"]}, "ChIJW-R38dYEdkgRiNj0En36oNY": {"geometry": {"location": {"lat": 51.5091848, "lng": -0.135395}, "viewport": {"northeast": {"lat": 51.51061243029149, "lng": -0.134203569708498}, "southwest": {"lat": 51.5079144697085, "lng": -0.136901530291502}}}, "name": "Hayfin Capital Management", "place_id": "ChIJW-R38dYEdkgRiNj0En36oNY", "types": ["finance", "point_of_interest", "establishment"], "rating": 5, "user_ratings_total": 1}, "ChIJmSSCqdYEdkgRVpQ4Zr1tU7A": {"geometry": {"location": {"lat": 51.5092981, "lng": -0.1353537}, "viewport": {"northeast": {"lat": 51.51072508029149, "lng": -0.134070619708498}, "southwest": {"lat": 51.50802711970849, "lng": -0.136768580291502}}}, "name": "Visor Consultants (UK) Ltd", "place_id": "ChIJmSSCqdYEdkgRVpQ4Zr1tU7A", "types": ["point_of_interest", "establishment"]}, "ChIJmSSCqdYEdkgRteieAFz2OZM": {"geometry": {"location": {"lat": 51.5092981, "lng": -0.1353537}, "viewport": {"northeast": {"lat": 51.51072508029149, "lng": -0.134070619708498}, "southwest": {"lat": 51.50802711970849, "lng": -0.136768580291502}}}, "name": "Harling Menzies", "place_id": "ChIJmSSCqdYEdkgRteieAFz2OZM", "types": ["point_of_interest", "establishment"]}, "ChIJ27PHrtYEdkgR916p82ZPvI8": {"geometry": {"location": {"lat": 51.5093246, "lng": -0.1353561}, "viewport": {"northeast": {"lat": 51.5107408802915, "lng": -0.134063969708498}, "southwest": {"lat": 51.5080429197085, "lng": -0.136761930291502}}}, "name": "CGA Management", "place_id": "ChIJ27PHrtYEdkgR916p82ZPvI8", "types": ["finance", "point_of_interest", "establishment"]}, "ChIJT-YOqdYEdkgR_sR269vcmVg": {"geometry": {"location": {"lat": 51.5093243, "lng": -0.1355399}, "viewport": {"northeast": {"lat": 51.51058613029149, "lng": -0.134206119708498}, "southwest": {"lat": 51.5078881697085, "lng": -0.1369040802915021}}}, "name": "Festivelite", "place_id": "ChIJT-YOqdYEdkgR_sR269vcmVg", "types": ["home_goods_store", "point_of_interest", "store", "establishment"]}, "ChIJQdcgVdEEdkgR0-8e2UvPavg": {"geometry": {"location": {"lat": 51.5092636, "lng": -0.1347816}, "viewport": {"northeast": {"lat": 51.51054028029151, "lng": -0.133376069708498}, "southwest": {"lat": 51.50784231970851, "lng": -0.136074030291502}}}, "name": "London Waste Clearance", "place_id": "ChIJQdcgVdEEdkgR0-8e2UvPavg", "types": ["point_of_interest", "establishment"]}, "ChIJ4xR-qdYEdkgR3_AfNF76mzw": {"geometry": {"location": {"lat": 51.5092981, "lng": -0.1353538}, "viewport": {"northeast": {"lat": 51.5107250302915, "lng": -0.134070669708498}, "southwest": {"lat": 51.5080270697085, "lng": -0.136768630291502}}}, "name": "Foster Executive Search Ltd", "place_id": "ChIJ4xR-qdYEdkgR3_AfNF76mzw", "types": ["point_of_interest", "establishment"]}, "ChIJmSSCqdYEdkgRt-v5jIbw96U": {"geometry": {"location": {"lat": 51.5092981, "lng": -0.1353537}, "viewport": {"northeast": {"lat": 51.51072508029149, "lng": -0.134070619708498}, "southwest": {"lat": 51.50802711970849, "lng": -0.136768580291502}}}, "name": "Consensia Ltd", "place_id": "ChIJmSSCqdYEdkgRt-v5jIbw96U", "types": ["point_of_interest", "establishment"]}, "ChIJfzstANQEdkgRquNaRSxF2vU": {"geometry": {"location": {"lat": 51.509395, "lng": -0.1352004}, "viewport": {"northeast": {"lat": 51.5108036802915, "lng": -0.133901819708498}, "southwest": {"lat": 51.5081057197085, "lng": -0.136599780291502}}}, "name": "Barbour International Piccadilly", "place_id": "ChIJfzstANQEdkgRquNaRSxF2vU", "types": ["clothing_store", "point_of_interest", "store", "establishment"], "rating": 4.4, "user_ratings_total": 94}, "ChIJ06zOq9YEdkgRGN9eUskzGxw": {"geometry": {"location": {"lat": 51.5093525, "lng": -0.135389}, "viewport": {"northeast": {"lat": 51.5107529302915, "lng": -0.134085469708498}, "southwest": {"lat": 51.5080549697085, "lng": -0.1367834302915021}}}, "name": "Arc'teryx Piccadilly London Store", "place_id": "ChIJ06zOq9YEdkgRGN9eUskzGxw", "types": ["point_of_interest", "store", "establishment"], "rating": 4.5, "user_ratings_total": 195}, "ChIJFeWEItEEdkgRcrDophoOuWs": {"geometry": {"location": {"lat": 51.5094232, "lng": -0.1348253}, "viewport": {"northeast": {"lat": 51.5108211302915, "lng": -0.133357219708498}, "southwest": {"lat": 51.5081231697085, "lng": -0.136055180291502}}}, "name": "Sandgate Properties", "place_id": "ChIJFeWEItEEdkgRcrDophoOuWs", "types": ["real_estate_agency", "point_of_interest", "establishment"]}, "ChIJoUqEU9EEdkgRWT86uN_4eCM": {"geometry": {"location": {"lat": 51.50954639999999, "lng": -0.1349107}, "viewport": {"northeast": {"lat": 51.5109346802915, "lng": -0.133555769708498}, "southwest": {"lat": 51.5082367197085, "lng": -0.136253730291502}}}, "name": "N.Peal", "place_id": "ChIJoUqEU9EEdkgRWT86uN_4eCM", "types": ["clothing_store", "point_of_interest", "store", "establishment"], "rating": 4.5, "user_ratings_total": 8}, "ChIJcd7098wEdkgR89CQ8vPqAqg": {"geometry": {"location": {"lat": 51.509462, "lng": -0.1347952}, "viewport": {"northeast": {"lat": 51.5108510302915, "lng": -0.133366969708498}, "southwest": {"lat": 51.5081530697085, "lng": -0.136064930291502}}}, "name": "Efficio", "place_id": "ChIJcd7098wEdkgR89CQ8vPqAqg", "types": ["point_of_interest", "establishment"], "rating": 4.5, "user_ratings_total": 22}, "ChIJXRs9qdYEdkgRssR9rEg-B8A": {"geometry": {"location": {"lat": 51.50936229999999, "lng": -0.1355063}, "viewport": {"northeast": {"lat": 51.51058613029149, "lng": -0.134206119708498}, "southwest": {"lat": 51.5078881697085, "lng": -0.1369040802915021}}}, "name": "Michael Storrs Music Ltd.", "place_id": "ChIJXRs9qdYEdkgRssR9rEg-B8A", "types": ["point_of_interest", "establishment"]}, "ChIJsc_MrdYEdkgRKrxnVd5NmOY": {"geometry": {"location": {"lat": 51.5091788, "lng": -0.1353635}, "viewport": {"northeast": {"lat": 51.5103959302915, "lng": -0.134017919708498}, "southwest": {"lat": 51.5076979697085, "lng": -0.136715880291502}}}, "name": "1 Eagle Place", "place_id": "ChIJsc_MrdYEdkgRKrxnVd5NmOY", "types": ["lodging", "point_of_interest", "establishment"], "rating": 4.1, "user_ratings_total": 16}, "ChIJUbyUz8QEdkgRdh4GLysbeu0": {"geometry": {"location": {"lat": 51.50928829999999, "lng": -0.1355055}, "viewport": {"northeast": {"lat": 51.5106662302915, "lng": -0.134258819708498}, "southwest": {"lat": 51.5079682697085, "lng": -0.136956780291502}}}, "name": "Leonardo UK", "place_id": "ChIJUbyUz8QEdkgRdh4GLysbeu0", "types": ["point_of_interest", "establishment"], "rating": 5, "user_ratings_total": 3}, "ChIJDe9hKisFdkgRuEm3sxlUWUE": {"geometry": {"location": {"lat": 51.5091809, "lng": -0.1354}, "viewport": {"northeast": {"lat": 51.51061163029149, "lng": -0.134206069708498}, "southwest": {"lat": 51.5079136697085, "lng": -0.136904030291502}}}, "name": "Starwood Capital Europe Advisers Llp", "place_id": "ChIJDe9hKisFdkgRuEm3sxlUWUE", "types": ["bank", "finance", "point_of_interest", "establishment"], "rating": 5, "user_ratings_total": 1}, "ChIJUQ0-r9YEdkgR5jIClIQ-czA": {"geometry": {"location": {"lat": 51.50932699999999, "lng": -0.135564}, "viewport": {"northeast": {"lat": 51.51058613029149, "lng": -0.134206119708498}, "southwest": {"lat": 51.5078881697085, "lng": -0.1369040802915021}}}, "name": "Tiger of Sweden", "place_id": "ChIJUQ0-r9YEdkgR5jIClIQ-czA", "types": ["clothing_store", "point_of_interest", "store", "establishment"], "rating": 4.7, "user_ratings_total": 33}, "ChIJrQf2UtEEdkgRXwpFxbCEObQ": {"geometry": {"location": {"lat": 51.5091204, "lng": -0.1348751}, "viewport": {"northeast": {"lat": 51.5104427802915, "lng": -0.133490569708498}, "southwest": {"lat": 51.5077448197085, "lng": -0.136188530291502}}}, "name": "Chris Parkinson", "place_id": "ChIJrQf2UtEEdkgRXwpFxbCEObQ", "types": ["point_of_interest", "establishment"]}, "ChIJrRQigf4zcEERBDPcBXtZVfY": {"geometry": {"location": {"lat": 51.509145, "lng": -0.1354345}, "viewport": {"northeast": {"lat": 51.5103734302915, "lng": -0.134007669708498}, "southwest": {"lat": 51.5076754697085, "lng": -0.136705630291502}}}, "name": "Schulte Roth & Zabel LLP", "place_id": "ChIJrRQigf4zcEERBDPcBXtZVfY", "types": ["lawyer", "point_of_interest", "establishment"], "rating": 5, "user_ratings_total": 1}, "ChIJhWWsUtEEdkgRrx-IAgRWIco": {"geometry": {"location": {"lat": 51.5090716, "lng": -0.135148}, "viewport": {"northeast": {"lat": 51.5103724302915, "lng": -0.133716219708498}, "southwest": {"lat": 51.5076744697085, "lng": -0.136414180291502}}}, "name": "Joseph Cheaney & Sons", "place_id": "ChIJhWWsUtEEdkgRrx-IAgRWIco", "types": ["shoe_store", "point_of_interest", "store", "establishment"], "rating": 4.4, "user_ratings_total": 65}, "ChIJY6RvrdYEdkgRVn6cir3A1-k": {"geometry": {"location": {"lat": 51.50906450000001, "lng": -0.1351847}, "viewport": {"northeast": {"lat": 51.5103633302915, "lng": -0.133734569708498}, "southwest": {"lat": 51.50766536970851, "lng": -0.136432530291502}}}, "name": "Sunspel", "place_id": "ChIJY6RvrdYEdkgRVn6cir3A1-k", "types": ["point_of_interest", "clothing_store", "store", "establishment"], "rating": 4.6, "user_ratings_total": 17}, "ChIJ0d97qdYEdkgR47VEMGPa5d4": {"geometry": {"location": {"lat": 51.50915069999999, "lng": -0.1356767}, "viewport": {"northeast": {"lat": 51.5105912302915, "lng": -0.1344100197084979}, "southwest": {"lat": 51.5078932697085, "lng": -0.137107980291502}}}, "name": "NatWest ATM", "place_id": "ChIJ0d97qdYEdkgR47VEMGPa5d4", "types": ["atm", "finance", "point_of_interest", "establishment"], "rating": 2.3, "user_ratings_total": 3}, "ChIJwwsOU9EEdkgRCkktrIAk1Qs": {"geometry": {"location": {"lat": 51.50924000000001, "lng": -0.1345264}, "viewport": {"northeast": {"lat": 51.51053428029149, "lng": -0.133290819708498}, "southwest": {"lat": 51.5078363197085, "lng": -0.135988780291502}}}, "name": "LONSDALE", "place_id": "ChIJwwsOU9EEdkgRCkktrIAk1Qs", "types": ["clothing_store", "point_of_interest", "store", "establishment"], "rating": 4.1, "user_ratings_total": 71}, "ChIJMacvqNYEdkgRl7rrQLEXqbc": {"geometry": {"location": {"lat": 51.509642, "lng": -0.135649}, "viewport": {"northeast": {"lat": 51.5109800302915, "lng": -0.134031019708498}, "southwest": {"lat": 51.5082820697085, "lng": -0.136728980291502}}}, "name": "Boxing Futures - London", "place_id": "ChIJMacvqNYEdkgRl7rrQLEXqbc", "types": ["health", "point_of_interest", "establishment"], "rating": 5, "user_ratings_total": 1}, "ChIJqabyHuAEdkgRdpdLgW0T-o0": {"geometry": {"location": {"lat": 51.50894559999999, "lng": -0.1354472}, "viewport": {"northeast": {"lat": 51.51025568029149, "lng": -0.134065569708498}, "southwest": {"lat": 51.50755771970849, "lng": -0.136763530291502}}}, "name": "Artemis LLP", "place_id": "ChIJqabyHuAEdkgRdpdLgW0T-o0", "types": ["accounting", "finance", "point_of_interest", "establishment"]}, "ChIJjeFQptYEdkgRZNDWlWnU7oA": {"geometry": {"location": {"lat": 51.508995, "lng": -0.1352315}, "viewport": {"northeast": {"lat": 51.5103147302915, "lng": -0.133857319708498}, "southwest": {"lat": 51.5076167697085, "lng": -0.136555280291502}}}, "name": "Cordings Ltd", "place_id": "ChIJjeFQptYEdkgRZNDWlWnU7oA", "types": ["clothing_store", "point_of_interest", "store", "establishment"], "rating": 4.3, "user_ratings_total": 96}, "ChIJEVlmolUDdkgR3yga7vbcH90": {"geometry": {"location": {"lat": 51.50959030000001, "lng": -0.1357021}, "viewport": {"northeast": {"lat": 51.5108934802915, "lng": -0.134315069708498}, "southwest": {"lat": 51.5081955197085, "lng": -0.137013030291502}}}, "name": "London Wine Academy @ 5* Athenaeum Hotel, Mayfair", "place_id": "ChIJEVlmolUDdkgR3yga7vbcH90", "types": ["point_of_interest", "establishment"], "rating": 3.4, "user_ratings_total": 10}, "ChIJKxoXTdEEdkgR921EdlqESVc": {"geometry": {"location": {"lat": 51.50890219999999, "lng": -0.1349479}, "viewport": {"northeast": {"lat": 51.51029473029149, "lng": -0.133636519708498}, "southwest": {"lat": 51.50759676970849, "lng": -0.136334480291502}}}, "name": "Rowley's Restaurant", "place_id": "ChIJKxoXTdEEdkgR921EdlqESVc", "types": ["restaurant", "food", "point_of_interest", "establishment"], "rating": 4.2, "user_ratings_total": 403}, "ChIJrVYdXFADdkgRhOX-gSaEulQ": {"geometry": {"location": {"lat": 51.5089833, "lng": -0.1346397}, "viewport": {"northeast": {"lat": 51.5103837802915, "lng": -0.133338969708498}, "southwest": {"lat": 51.5076858197085, "lng": -0.136036930291502}}}, "name": "Coex Partners Limited", "place_id": "ChIJrVYdXFADdkgRhOX-gSaEulQ", "types": ["finance", "point_of_interest", "establishment"]}, "ChIJFRkaTdEEdkgRc2_WHspITDM": {"geometry": {"location": {"lat": 51.5088897, "lng": -0.1349387}, "viewport": {"northeast": {"lat": 51.51028828029149, "lng": -0.133632519708498}, "southwest": {"lat": 51.50759031970849, "lng": -0.136330480291502}}}, "name": "London Extensions House", "place_id": "ChIJFRkaTdEEdkgRc2_WHspITDM", "types": ["point_of_interest", "establishment"]}, "ChIJnaAfTdEEdkgRoq5__--_uwU": {"geometry": {"location": {"lat": 51.508863, "lng": -0.1349567}, "viewport": {"northeast": {"lat": 51.5102696302915, "lng": -0.133657469708498}, "southwest": {"lat": 51.5075716697085, "lng": -0.136355430291502}}}, "name": "Bright & Spacious 1BD Flat in Piccadilly Circus", "place_id": "ChIJnaAfTdEEdkgRoq5__--_uwU", "types": ["lodging", "point_of_interest", "establishment"], "rating": 5, "user_ratings_total": 2}, "ChIJO4aRsSoFdkgRpyK9bUlVFd4": {"geometry": {"location": {"lat": 51.5092065, "lng": -0.1356947}, "viewport": {"northeast": {"lat": 51.51062683029149, "lng": -0.134397019708498}, "southwest": {"lat": 51.50792886970849, "lng": -0.137094980291502}}}, "name": "NatWest Bank", "place_id": "ChIJO4aRsSoFdkgRpyK9bUlVFd4", "types": ["bank", "atm", "finance", "point_of_interest", "establishment"], "rating": 2.4, "user_ratings_total": 22}, "ChIJSQ2NjF8FdkgRYJHL8eJ6D28": {"geometry": {"location": {"lat": 51.50959810000001, "lng": -0.13565}, "viewport": {"northeast": {"lat": 51.5109752802915, "lng": -0.1340315197084979}, "southwest": {"lat": 51.5082773197085, "lng": -0.136729480291502}}}, "name": "Inspiration 2 Dance", "place_id": "ChIJSQ2NjF8FdkgRYJHL8eJ6D28", "types": ["point_of_interest", "establishment"], "rating": 4.9, "user_ratings_total": 30}, "ChIJs3cGUtEEdkgR_8PKIV5dpJk": {"geometry": {"location": {"lat": 51.5089833, "lng": -0.1346397}, "viewport": {"northeast": {"lat": 51.5103837802915, "lng": -0.133338969708498}, "southwest": {"lat": 51.5076858197085, "lng": -0.136036930291502}}}, "name": "Petrofac Services Ltd", "place_id": "ChIJs3cGUtEEdkgR_8PKIV5dpJk", "types": ["point_of_interest", "establishment"], "rating": 4.3, "user_ratings_total": 8}, "ChIJjfWMAtQEdkgRb9cHWOr5f78": {"geometry": {"location": {"lat": 51.5097144, "lng": -0.1355648}, "viewport": {"northeast": {"lat": 51.5109983802915, "lng": -0.133988919708498}, "southwest": {"lat": 51.5083004197085, "lng": -0.136686880291502}}}, "name": "FSS", "place_id": "ChIJjfWMAtQEdkgRb9cHWOr5f78", "types": ["point_of_interest", "establishment"]}, "ChIJuxCvqdYEdkgRZPrDrJjvjLo": {"geometry": {"location": {"lat": 51.50963580000001, "lng": -0.135669}, "viewport": {"northeast": {"lat": 51.5109098802915, "lng": -0.134319269708498}, "southwest": {"lat": 51.5082119197085, "lng": -0.137017230291502}}}, "name": "carpo \u2022 piccadilly", "place_id": "ChIJuxCvqdYEdkgRZPrDrJjvjLo", "types": ["cafe", "food", "health", "point_of_interest", "store", "establishment"], "rating": 4.6, "user_ratings_total": 848}, "ChIJT2Jsq9YEdkgRlxGw8QD0HoE": {"geometry": {"location": {"lat": 51.50941659999999, "lng": -0.1351766}, "viewport": {"northeast": {"lat": 51.5108196802915, "lng": -0.133873069708498}, "southwest": {"lat": 51.5081217197085, "lng": -0.136571030291502}}}, "name": "Favourbrook", "place_id": "ChIJT2Jsq9YEdkgRlxGw8QD0HoE", "types": ["point_of_interest", "establishment"]}, "ChIJSTSUubIEdkgREeQejEMwenc": {"geometry": {"location": {"lat": 51.5093246, "lng": -0.1353561}, "viewport": {"northeast": {"lat": 51.51066013029151, "lng": -0.134183469708498}, "southwest": {"lat": 51.50796216970851, "lng": -0.136881430291502}}}, "name": "Marsh Bill", "place_id": "ChIJSTSUubIEdkgREeQejEMwenc", "types": ["lawyer", "point_of_interest", "establishment"]}, "ChIJ44GO1iEFdkgRlNxLtL39lgo": {"geometry": {"location": {"lat": 51.50929979999999, "lng": -0.1353411}, "viewport": {"northeast": {"lat": 51.51072783029151, "lng": -0.134057619708498}, "southwest": {"lat": 51.50802986970851, "lng": -0.136755580291502}}}, "name": "Apeiro Ltd", "place_id": "ChIJ44GO1iEFdkgRlNxLtL39lgo", "types": ["point_of_interest", "establishment"]}, "ChIJGyMSrNYEdkgR1WbXL-g4moo": {"geometry": {"location": {"lat": 51.5092981, "lng": -0.1353536}, "viewport": {"northeast": {"lat": 51.51072518029149, "lng": -0.134069369708498}, "southwest": {"lat": 51.5080272197085, "lng": -0.136767330291502}}}, "name": "Lexafirm", "place_id": "ChIJGyMSrNYEdkgR1WbXL-g4moo", "types": ["point_of_interest", "establishment"]}, "ChIJBSMSrNYEdkgRMNBYfz02cUU": {"geometry": {"location": {"lat": 51.5092981, "lng": -0.1353537}, "viewport": {"northeast": {"lat": 51.51072508029149, "lng": -0.134070619708498}, "southwest": {"lat": 51.50802711970849, "lng": -0.136768580291502}}}, "name": "UK Investigations Ltd", "place_id": "ChIJBSMSrNYEdkgRMNBYfz02cUU", "types": ["point_of_interest", "establishment"]}, "ChIJ4xR-qdYEdkgRqCLqBdFLZNg": {"geometry": {"location": {"lat": 51.5092981, "lng": -0.1353537}, "viewport": {"northeast": {"lat": 51.51072508029149, "lng": -0.134070619708498}, "southwest": {"lat": 51.50802711970849, "lng": -0.136768580291502}}}, "name": "Big Sur Publishing", "place_id": "ChIJ4xR-qdYEdkgRqCLqBdFLZNg", "types": ["point_of_interest", "establishment"]}, "ChIJ4xR-qdYEdkgRa6YqBhaEols": {"geometry": {"location": {"lat": 51.5092981, "lng": -0.1353538}, "viewport": {"northeast": {"lat": 51.5107250302915, "lng": -0.134070669708498}, "southwest": {"lat": 51.5080270697085, "lng": -0.136768630291502}}}, "name": "Sterling Selection", "place_id": "ChIJ4xR-qdYEdkgRa6YqBhaEols", "types": ["point_of_interest", "establishment"]}, "ChIJ-_yDU9EEdkgRcTpHIjK5kd0": {"geometry": {"location": {"lat": 51.5093194, "lng": -0.1348692}, "viewport": {"northeast": {"lat": 51.5105633802915, "lng": -0.133421869708498}, "southwest": {"lat": 51.5078654197085, "lng": -0.136119830291502}}}, "name": "Cindy Lawford's Talks & Tours", "place_id": "ChIJ-_yDU9EEdkgRcTpHIjK5kd0", "types": ["travel_agency", "point_of_interest", "establishment"], "rating": 5, "user_ratings_total": 9}, "ChIJ-_yDU9EEdkgRPfqWJ5nCmLQ": {"geometry": {"location": {"lat": 51.50931929999999, "lng": -0.1348692}, "viewport": {"northeast": {"lat": 51.5105633302915, "lng": -0.133421869708498}, "southwest": {"lat": 51.5078653697085, "lng": -0.136119830291502}}}, "name": "German Street Theatre", "place_id": "ChIJ-_yDU9EEdkgRPfqWJ5nCmLQ", "types": ["point_of_interest", "establishment"], "rating": 3, "user_ratings_total": 2}, "ChIJ-_yDU9EEdkgR7JFPOx_dNe8": {"geometry": {"location": {"lat": 51.5093244, "lng": -0.1348531}, "viewport": {"northeast": {"lat": 51.5105686802915, "lng": -0.133406069708498}, "southwest": {"lat": 51.5078707197085, "lng": -0.136104030291502}}}, "name": "PAPA L's KITCHEN Pop-up Restaurant", "place_id": "ChIJ-_yDU9EEdkgR7JFPOx_dNe8", "types": ["restaurant", "food", "point_of_interest", "establishment"], "rating": 5, "user_ratings_total": 2}, "ChIJ-_yDU9EEdkgR47UJNgkblxc": {"geometry": {"location": {"lat": 51.5093244, "lng": -0.1348531}, "viewport": {"northeast": {"lat": 51.5105686802915, "lng": -0.133406069708498}, "southwest": {"lat": 51.5078707197085, "lng": -0.136104030291502}}}, "name": "Kids learning Club", "place_id": "ChIJ-_yDU9EEdkgR47UJNgkblxc", "types": ["point_of_interest", "establishment"]}, "ChIJRd8gVdEEdkgRN45qqhPTl94": {"geometry": {"location": {"lat": 51.5095198, "lng": -0.134985}, "viewport": {"northeast": {"lat": 51.5109262302915, "lng": -0.133584669708498}, "southwest": {"lat": 51.5082282697085, "lng": -0.136282630291502}}}, "name": "Werewolf Club", "place_id": "ChIJRd8gVdEEdkgRN45qqhPTl94", "types": ["night_club", "point_of_interest", "establishment"]}, "ChIJoUqEU9EEdkgRHlt6xHaVk70": {"geometry": {"location": {"lat": 51.5093419, "lng": -0.1348378}, "viewport": {"northeast": {"lat": 51.5107646302915, "lng": -0.133331219708498}, "southwest": {"lat": 51.5080666697085, "lng": -0.136029180291502}}}, "name": "R D I Reit Plc", "place_id": "ChIJoUqEU9EEdkgRHlt6xHaVk70", "types": ["point_of_interest", "establishment"], "rating": 5, "user_ratings_total": 1}, "ChIJRd8gVdEEdkgRZ5pRXH_ltfk": {"geometry": {"location": {"lat": 51.50951980000001, "lng": -0.1349314}, "viewport": {"northeast": {"lat": 51.51090068029151, "lng": -0.133660219708498}, "southwest": {"lat": 51.50820271970851, "lng": -0.136358180291502}}}, "name": "The London Reign", "place_id": "ChIJRd8gVdEEdkgRZ5pRXH_ltfk", "types": ["night_club", "point_of_interest", "establishment"], "rating": 3.3, "user_ratings_total": 160}, "ChIJDSx5LdEEdkgRt_Epi5zQk60": {"geometry": {"location": {"lat": 51.50780733280493, "lng": -0.1348751475337772}, "viewport": {"northeast": {"lat": 51.50909173029151, "lng": -0.133590869708498}, "southwest": {"lat": 51.50639376970851, "lng": -0.136288830291502}}}, "name": "Saint James's Square", "place_id": "ChIJDSx5LdEEdkgRt_Epi5zQk60", "types": ["route"]}, "ChIJGUWAydYEdkgRTXGLd3PoYC0": {"geometry": {"location": {"lat": 51.5082026, "lng": -0.1354276}, "viewport": {"northeast": {"lat": 51.50973398029149, "lng": -0.133826269708498}, "southwest": {"lat": 51.5070360197085, "lng": -0.136524230291502}}}, "name": "Splendid Luxurious Holiday Apartment", "place_id": "ChIJGUWAydYEdkgRTXGLd3PoYC0", "types": ["lodging", "point_of_interest", "establishment"]}, "ChIJm8OottYEdkgRhFfvcA4lzjg": {"geometry": {"location": {"lat": 51.5087997, "lng": -0.1353016}, "viewport": {"northeast": {"lat": 51.5101489302915, "lng": -0.134054169708498}, "southwest": {"lat": 51.5074509697085, "lng": -0.136752130291502}}}, "name": "Church's", "place_id": "ChIJm8OottYEdkgRhFfvcA4lzjg", "types": ["shoe_store", "point_of_interest", "store", "establishment"], "rating": 4.3, "user_ratings_total": 48}, "ChIJ1yM1zdYEdkgRPDzoDjwgZuk": {"geometry": {"location": {"lat": 51.5083137, "lng": -0.1344893}, "viewport": {"northeast": {"lat": 51.50943873029149, "lng": -0.133377869708498}, "southwest": {"lat": 51.50674076970849, "lng": -0.136075830291502}}}, "name": "The In & Out (Naval and Military Club)", "place_id": "ChIJ1yM1zdYEdkgRPDzoDjwgZuk", "types": ["point_of_interest", "establishment"], "rating": 4.7, "user_ratings_total": 244}, "ChIJDaaOL9cEdkgRkA7kn6iPMqQ": {"geometry": {"location": {"lat": 51.5083746, "lng": -0.1349352}, "viewport": {"northeast": {"lat": 51.5098174802915, "lng": -0.133578619708498}, "southwest": {"lat": 51.5071195197085, "lng": -0.136276580291502}}}, "name": "Waverton Investment Management Ltd", "place_id": "ChIJDaaOL9cEdkgRkA7kn6iPMqQ", "types": ["finance", "point_of_interest", "establishment"], "rating": 4.7, "user_ratings_total": 26}, "ChIJLQR-TNEEdkgRVGgIy0AV1KY": {"geometry": {"location": {"lat": 51.5086859, "lng": -0.1351817}, "viewport": {"northeast": {"lat": 51.51011168029149, "lng": -0.133976419708498}, "southwest": {"lat": 51.5074137197085, "lng": -0.136674380291502}}}, "name": "Three Crowns", "place_id": "ChIJLQR-TNEEdkgRVGgIy0AV1KY", "types": ["bar", "point_of_interest", "establishment"], "rating": 4, "user_ratings_total": 576}, "ChIJ1yM1zdYEdkgRjeWAetgxRV8": {"geometry": {"location": {"lat": 51.5080112, "lng": -0.134834}, "viewport": {"northeast": {"lat": 51.5092985302915, "lng": -0.133550219708498}, "southwest": {"lat": 51.5066005697085, "lng": -0.136248180291502}}}, "name": "Nordic Balance", "place_id": "ChIJ1yM1zdYEdkgRjeWAetgxRV8", "types": ["gym", "physiotherapist", "health", "point_of_interest", "establishment"], "rating": 4.9, "user_ratings_total": 109}, "ChIJF0TBJ9EEdkgRw344K49P10g": {"geometry": {"location": {"lat": 51.5080954, "lng": -0.1358605}, "viewport": {"northeast": {"lat": 51.50926528029151, "lng": -0.134342669708498}, "southwest": {"lat": 51.50656731970851, "lng": -0.137040630291502}}}, "name": "SGPB Hambros Bank Limited", "place_id": "ChIJF0TBJ9EEdkgRw344K49P10g", "types": ["point_of_interest", "establishment"], "rating": 4.5, "user_ratings_total": 11}, "ChIJZyCCmNYadkgRUiLNrmUbk3I": {"geometry": {"location": {"lat": 51.5083746, "lng": -0.1349352}, "viewport": {"northeast": {"lat": 51.5098172802915, "lng": -0.133587019708498}, "southwest": {"lat": 51.5071193197085, "lng": -0.136284980291502}}}, "name": "Timothy James & Partners Ltd", "place_id": "ChIJZyCCmNYadkgRUiLNrmUbk3I", "types": ["finance", "point_of_interest", "establishment"]}, "ChIJnTDCP9EEdkgR8JaNX57b56w": {"geometry": {"location": {"lat": 51.50863560000001, "lng": -0.1353335}, "viewport": {"northeast": {"lat": 51.5100820302915, "lng": -0.134066169708498}, "southwest": {"lat": 51.5073840697085, "lng": -0.1367641302915021}}}, "name": "STJ Advisors", "place_id": "ChIJnTDCP9EEdkgR8JaNX57b56w", "types": ["finance", "point_of_interest", "establishment"]}, "ChIJ6xvZmCkFdkgR31vjgytgL9s": {"geometry": {"location": {"lat": 51.5086254, "lng": -0.1353181}, "viewport": {"northeast": {"lat": 51.5100777802915, "lng": -0.134055769708498}, "southwest": {"lat": 51.5073798197085, "lng": -0.136753730291502}}}, "name": "Bluegem Capital Partners", "place_id": "ChIJ6xvZmCkFdkgR31vjgytgL9s", "types": ["finance", "point_of_interest", "establishment"], "rating": 5, "user_ratings_total": 1}, "ChIJzTycStEEdkgRQaD6bK2EJUU": {"geometry": {"location": {"lat": 51.5083747, "lng": -0.1349352}, "viewport": {"northeast": {"lat": 51.5098173302915, "lng": -0.133587019708498}, "southwest": {"lat": 51.5071193697085, "lng": -0.136284980291502}}}, "name": "Criterion Capital", "place_id": "ChIJzTycStEEdkgRQaD6bK2EJUU", "types": ["finance", "point_of_interest", "establishment"], "rating": 1.9, "user_ratings_total": 30}, "ChIJq6qqqtMEdkgRigEjGEOaPRU": {"geometry": {"location": {"lat": 51.5083747, "lng": -0.1349351}, "viewport": {"northeast": {"lat": 51.5098173302915, "lng": -0.133587019708498}, "southwest": {"lat": 51.5071193697085, "lng": -0.136284980291502}}}, "name": "London Trocadero", "place_id": "ChIJq6qqqtMEdkgRigEjGEOaPRU", "types": ["real_estate_agency", "point_of_interest", "establishment"], "rating": 4.1, "user_ratings_total": 19}, "ChIJETeezNYEdkgRWGMAG_ASqlA": {"geometry": {"location": {"lat": 51.5082026, "lng": -0.1354276}, "viewport": {"northeast": {"lat": 51.50973398029149, "lng": -0.133826269708498}, "southwest": {"lat": 51.5070360197085, "lng": -0.136524230291502}}}, "name": "Rio Tinto", "place_id": "ChIJETeezNYEdkgRWGMAG_ASqlA", "types": ["point_of_interest", "establishment"], "rating": 4.2, "user_ratings_total": 13}, "ChIJC6EiZNYEdkgRkW7tABzryRU": {"geometry": {"location": {"lat": 51.50807959999999, "lng": -0.1349687}, "viewport": {"northeast": {"lat": 51.5093299802915, "lng": -0.133625269708498}, "southwest": {"lat": 51.5066320197085, "lng": -0.136323230291502}}}, "name": "Melqart Asset Management", "place_id": "ChIJC6EiZNYEdkgRkW7tABzryRU", "types": ["finance", "point_of_interest", "establishment"], "rating": 1, "user_ratings_total": 1}, "ChIJF4PRudYEdkgRTbp75yw4v94": {"geometry": {"location": {"lat": 51.50813149999999, "lng": -0.1347991}, "viewport": {"northeast": {"lat": 51.50935098029149, "lng": -0.133543319708498}, "southwest": {"lat": 51.50665301970849, "lng": -0.136241280291502}}}, "name": "Stanhope Gate Architecture", "place_id": "ChIJF4PRudYEdkgRTbp75yw4v94", "types": ["point_of_interest", "establishment"], "rating": 5, "user_ratings_total": 3}, "ChIJxT3zM9EEdkgR-QJJP588ntQ": {"geometry": {"location": {"lat": 51.5080515, "lng": -0.1348484}, "viewport": {"northeast": {"lat": 51.5093109802915, "lng": -0.133567969708498}, "southwest": {"lat": 51.5066130197085, "lng": -0.1362659302915021}}}, "name": "Canning Club", "place_id": "ChIJxT3zM9EEdkgR-QJJP588ntQ", "types": ["point_of_interest", "establishment"], "rating": 4, "user_ratings_total": 2}, "ChIJI6mHM9EEdkgRLgADaboqpH4": {"geometry": {"location": {"lat": 51.5080232, "lng": -0.1348319}, "viewport": {"northeast": {"lat": 51.5092985302915, "lng": -0.133549169708498}, "southwest": {"lat": 51.5066005697085, "lng": -0.136247130291502}}}, "name": "The William Heptinstall Memorial Fund", "place_id": "ChIJI6mHM9EEdkgRLgADaboqpH4", "types": ["point_of_interest", "establishment"]}, "ChIJSR5qMtEEdkgRJzJdrlqm6n4": {"geometry": {"location": {"lat": 51.5080112, "lng": -0.1348445}, "viewport": {"northeast": {"lat": 51.5092985302915, "lng": -0.133555469708498}, "southwest": {"lat": 51.5066005697085, "lng": -0.136253430291502}}}, "name": "Soldier On!", "place_id": "ChIJSR5qMtEEdkgRJzJdrlqm6n4", "types": ["point_of_interest", "establishment"]}, "ChIJm1i6Sr4LdkgRZyUiHl_MrPQ": {"geometry": {"location": {"lat": 51.5080112, "lng": -0.1348445}, "viewport": {"northeast": {"lat": 51.5092985302915, "lng": -0.133555469708498}, "southwest": {"lat": 51.5066005697085, "lng": -0.136253430291502}}}, "name": "Den Norske Klub", "place_id": "ChIJm1i6Sr4LdkgRZyUiHl_MrPQ", "types": ["point_of_interest", "establishment"], "rating": 4.8, "user_ratings_total": 4}, "ChIJwVsItNYEdkgR73J04OtCS1s": {"geometry": {"location": {"lat": 51.5086794, "lng": -0.1353684}, "viewport": {"northeast": {"lat": 51.5101041302915, "lng": -0.134082919708498}, "southwest": {"lat": 51.5074061697085, "lng": -0.136780880291502}}}, "name": "BennBridge UK", "place_id": "ChIJwVsItNYEdkgR73J04OtCS1s", "types": ["finance", "point_of_interest", "establishment"]}, "ChIJbU63tNYEdkgRH0a2nSup8rA": {"geometry": {"location": {"lat": 51.50867289999999, "lng": -0.1348289}, "viewport": {"northeast": {"lat": 51.50999073029149, "lng": -0.133451819708498}, "southwest": {"lat": 51.50729276970849, "lng": -0.136149780291502}}}, "name": "Mactaggart Third Fund", "place_id": "ChIJbU63tNYEdkgRH0a2nSup8rA", "types": ["point_of_interest", "establishment"]}, "ChIJ6TCxtNYEdkgRUldTzv4x5q0": {"geometry": {"location": {"lat": 51.5087091, "lng": -0.1349397}, "viewport": {"northeast": {"lat": 51.5100361302915, "lng": -0.133656019708498}, "southwest": {"lat": 51.5073381697085, "lng": -0.136353980291502}}}, "name": "Grove End Housing", "place_id": "ChIJ6TCxtNYEdkgRUldTzv4x5q0", "types": ["point_of_interest", "establishment"]}, "ChIJLQR-TNEEdkgRXPkhUatNnJ8": {"geometry": {"location": {"lat": 51.50871349999999, "lng": -0.1349183}, "viewport": {"northeast": {"lat": 51.51003728029149, "lng": -0.133644419708498}, "southwest": {"lat": 51.50733931970849, "lng": -0.136342380291502}}}, "name": "Regnum International Limited", "place_id": "ChIJLQR-TNEEdkgRXPkhUatNnJ8", "types": ["point_of_interest", "establishment"]}, "ChIJL5k_IisFdkgRbBkILp-Z37g": {"geometry": {"location": {"lat": 51.5080717, "lng": -0.13573}, "viewport": {"northeast": {"lat": 51.5092681302915, "lng": -0.134237169708498}, "southwest": {"lat": 51.5065701697085, "lng": -0.136935130291502}}}, "name": "Curzon PR", "place_id": "ChIJL5k_IisFdkgRbBkILp-Z37g", "types": ["point_of_interest", "establishment"], "rating": 5, "user_ratings_total": 1}, "ChIJ3x16eykFdkgRIc57515TFos": {"geometry": {"location": {"lat": 51.5079292, "lng": -0.1346957}, "viewport": {"northeast": {"lat": 51.5092255302915, "lng": -0.133444719708498}, "southwest": {"lat": 51.5065275697085, "lng": -0.136142680291502}}}, "name": "Dundee Securities Europe LLP", "place_id": "ChIJ3x16eykFdkgRIc57515TFos", "types": ["finance", "point_of_interest", "establishment"], "rating": 5, "user_ratings_total": 1}, "ChIJQRaGS9EEdkgRzzm_JokE2_Q": {"geometry": {"location": {"lat": 51.50868699999999, "lng": -0.1347569}, "viewport": {"northeast": {"lat": 51.5100091302915, "lng": -0.1333847197084979}, "southwest": {"lat": 51.5073111697085, "lng": -0.136082680291502}}}, "name": "Attivo Financial Planning", "place_id": "ChIJQRaGS9EEdkgRzzm_JokE2_Q", "types": ["finance", "point_of_interest", "establishment"], "rating": 5, "user_ratings_total": 1}, "ChIJZepMxSkFdkgRs4CAe2NFULk": {"geometry": {"location": {"lat": 51.5079292, "lng": -0.1346957}, "viewport": {"northeast": {"lat": 51.5092255302915, "lng": -0.133444719708498}, "southwest": {"lat": 51.5065275697085, "lng": -0.136142680291502}}}, "name": "Advancy", "place_id": "ChIJZepMxSkFdkgRs4CAe2NFULk", "types": ["point_of_interest", "establishment"], "rating": 5, "user_ratings_total": 3}, "ChIJS_4sMtEEdkgRAkqfnvFev3I": {"geometry": {"location": {"lat": 51.5079119, "lng": -0.1346914}, "viewport": {"northeast": {"lat": 51.5092168802915, "lng": -0.133442569708498}, "southwest": {"lat": 51.5065189197085, "lng": -0.136140530291502}}}, "name": "Cyrus", "place_id": "ChIJS_4sMtEEdkgRAkqfnvFev3I", "types": ["finance", "point_of_interest", "establishment"]}, "ChIJt3JQlEIFdkgRdj6VX1KhzWE": {"geometry": {"location": {"lat": 51.5087336, "lng": -0.1348406}, "viewport": {"northeast": {"lat": 51.5100267802915, "lng": -0.133441319708498}, "southwest": {"lat": 51.5073288197085, "lng": -0.136139280291502}}}, "name": "ARGO ST GEORGE LLP", "place_id": "ChIJt3JQlEIFdkgRdj6VX1KhzWE", "types": ["point_of_interest", "establishment"]}, "ChIJS_4sMtEEdkgRGiDXM3UH0jU": {"geometry": {"location": {"lat": 51.5079119, "lng": -0.1346914}, "viewport": {"northeast": {"lat": 51.5092168802915, "lng": -0.133442569708498}, "southwest": {"lat": 51.5065189197085, "lng": -0.136140530291502}}}, "name": "Fim Ltd", "place_id": "ChIJS_4sMtEEdkgRGiDXM3UH0jU", "types": ["point_of_interest", "establishment"]}, "ChIJE17OM9EEdkgRML2WP58C4g8": {"geometry": {"location": {"lat": 51.50789349999999, "lng": -0.1347393}, "viewport": {"northeast": {"lat": 51.5092076802915, "lng": -0.133466519708498}, "southwest": {"lat": 51.5065097197085, "lng": -0.136164480291502}}}, "name": "Engadine Partners LLP", "place_id": "ChIJE17OM9EEdkgRML2WP58C4g8", "types": ["point_of_interest", "establishment"]}, "ChIJXzrYM9EEdkgRBbxx2O49KTw": {"geometry": {"location": {"lat": 51.5079119, "lng": -0.1346914}, "viewport": {"northeast": {"lat": 51.50920058029151, "lng": -0.133426269708498}, "southwest": {"lat": 51.50650261970851, "lng": -0.136124230291502}}}, "name": "3 St James's Square", "place_id": "ChIJXzrYM9EEdkgRBbxx2O49KTw", "types": ["gym", "health", "point_of_interest", "establishment"], "rating": 3.3, "user_ratings_total": 4}, "ChIJXzrYM9EEdkgR73zmwbTaEZ8": {"geometry": {"location": {"lat": 51.5079119, "lng": -0.1346914}, "viewport": {"northeast": {"lat": 51.5092168802915, "lng": -0.133442569708498}, "southwest": {"lat": 51.5065189197085, "lng": -0.136140530291502}}}, "name": "XY ERS UK Ltd", "place_id": "ChIJXzrYM9EEdkgR73zmwbTaEZ8", "types": ["finance", "point_of_interest", "establishment"]}, "ChIJnTOr_9UEdkgRPMNurk8hFDQ": {"geometry": {"location": {"lat": 51.50791199999999, "lng": -0.134691}, "viewport": {"northeast": {"lat": 51.50921693029149, "lng": -0.133442369708498}, "southwest": {"lat": 51.50651896970849, "lng": -0.136140330291502}}}, "name": "BearTooth Advisors", "place_id": "ChIJnTOr_9UEdkgRPMNurk8hFDQ", "types": ["finance", "point_of_interest", "establishment"]}, "ChIJl8ICxtYEdkgRM1cSQnD1xjo": {"geometry": {"location": {"lat": 51.50806669999999, "lng": -0.1357947}, "viewport": {"northeast": {"lat": 51.50925618029149, "lng": -0.134295369708498}, "southwest": {"lat": 51.5065582197085, "lng": -0.136993330291502}}}, "name": "RentalsCombined.net", "place_id": "ChIJl8ICxtYEdkgRM1cSQnD1xjo", "types": ["travel_agency", "point_of_interest", "establishment"]}, "ChIJl8ICxtYEdkgR0K62MNvcjgc": {"geometry": {"location": {"lat": 51.50806669999999, "lng": -0.1357947}, "viewport": {"northeast": {"lat": 51.50925618029149, "lng": -0.134295369708498}, "southwest": {"lat": 51.5065582197085, "lng": -0.136993330291502}}}, "name": "Northbeach Capital Partners", "place_id": "ChIJl8ICxtYEdkgR0K62MNvcjgc", "types": ["general_contractor", "point_of_interest", "establishment"]}, "ChIJje6VN9EEdkgR-LgmmGYqcfU": {"geometry": {"location": {"lat": 51.50806669999999, "lng": -0.1357947}, "viewport": {"northeast": {"lat": 51.50925618029149, "lng": -0.134295369708498}, "southwest": {"lat": 51.5065582197085, "lng": -0.136993330291502}}}, "name": "Point 72 UK Ltd", "place_id": "ChIJje6VN9EEdkgR-LgmmGYqcfU", "types": ["point_of_interest", "establishment"], "rating": 3.3, "user_ratings_total": 3}, "ChIJj7W8LyoFdkgRKx9Ia3wAO6s": {"geometry": {"location": {"lat": 51.50806669999999, "lng": -0.1357947}, "viewport": {"northeast": {"lat": 51.50925618029149, "lng": -0.134295369708498}, "southwest": {"lat": 51.5065582197085, "lng": -0.136993330291502}}}, "name": "Benubi", "place_id": "ChIJj7W8LyoFdkgRKx9Ia3wAO6s", "types": ["point_of_interest", "establishment"]}, "ChIJl8ICxtYEdkgRM0G_tulHS1w": {"geometry": {"location": {"lat": 51.50806669999999, "lng": -0.1357947}, "viewport": {"northeast": {"lat": 51.50937828029149, "lng": -0.134548669708498}, "southwest": {"lat": 51.50668031970849, "lng": -0.137246630291502}}}, "name": "ANP Dalal Ltd", "place_id": "ChIJl8ICxtYEdkgRM0G_tulHS1w", "types": ["point_of_interest", "establishment"]}, "ChIJl8ICxtYEdkgRNCYXz-_rFo8": {"geometry": {"location": {"lat": 51.50806669999999, "lng": -0.1357947}, "viewport": {"northeast": {"lat": 51.50925618029149, "lng": -0.134295369708498}, "southwest": {"lat": 51.5065582197085, "lng": -0.136993330291502}}}, "name": "Proqis", "place_id": "ChIJl8ICxtYEdkgRNCYXz-_rFo8", "types": ["point_of_interest", "establishment"]}, "ChIJl8ICxtYEdkgRmw85Hc01wFc": {"geometry": {"location": {"lat": 51.50806669999999, "lng": -0.1357947}, "viewport": {"northeast": {"lat": 51.50925618029149, "lng": -0.134295369708498}, "southwest": {"lat": 51.5065582197085, "lng": -0.136993330291502}}}, "name": "Auriga Partnership", "place_id": "ChIJl8ICxtYEdkgRmw85Hc01wFc", "types": ["point_of_interest", "establishment"]}, "ChIJl8ICxtYEdkgRYIVX9DWJdAw": {"geometry": {"location": {"lat": 51.50806669999999, "lng": -0.1357947}, "viewport": {"northeast": {"lat": 51.50925618029149, "lng": -0.134295369708498}, "southwest": {"lat": 51.5065582197085, "lng": -0.136993330291502}}}, "name": "Lifesource Capital", "place_id": "ChIJl8ICxtYEdkgRYIVX9DWJdAw", "types": ["point_of_interest", "establishment"]}, "ChIJl8ICxtYEdkgRRjT9i4T-fuc": {"geometry": {"location": {"lat": 51.50806669999999, "lng": -0.1357947}, "viewport": {"northeast": {"lat": 51.50925618029149, "lng": -0.134295369708498}, "southwest": {"lat": 51.5065582197085, "lng": -0.136993330291502}}}, "name": "Designated Events", "place_id": "ChIJl8ICxtYEdkgRRjT9i4T-fuc", "types": ["point_of_interest", "establishment"], "rating": 5, "user_ratings_total": 1}, "ChIJl8ICxtYEdkgR_HoTwDGi3Sc": {"geometry": {"location": {"lat": 51.50806669999999, "lng": -0.1357947}, "viewport": {"northeast": {"lat": 51.50925618029149, "lng": -0.134295369708498}, "southwest": {"lat": 51.5065582197085, "lng": -0.136993330291502}}}, "name": "Keyhaven LLP", "place_id": "ChIJl8ICxtYEdkgR_HoTwDGi3Sc", "types": ["finance", "point_of_interest", "establishment"]}, "ChIJk-6VN9EEdkgRmQgJvA5zXAw": {"geometry": {"location": {"lat": 51.508067, "lng": -0.135795}, "viewport": {"northeast": {"lat": 51.50925633029149, "lng": -0.134295519708498}, "southwest": {"lat": 51.50655836970849, "lng": -0.136993480291502}}}, "name": "PEN", "place_id": "ChIJk-6VN9EEdkgRmQgJvA5zXAw", "types": ["point_of_interest", "establishment"], "rating": 5, "user_ratings_total": 1}, "ChIJh1yWlRzndUgRcet8yyuWN8U": {"geometry": {"location": {"lat": 51.5080954, "lng": -0.1358605}, "viewport": {"northeast": {"lat": 51.50926528029151, "lng": -0.134342669708498}, "southwest": {"lat": 51.50656731970851, "lng": -0.137040630291502}}}, "name": "BCM Public Relations Ltd", "place_id": "ChIJh1yWlRzndUgRcet8yyuWN8U", "types": ["point_of_interest", "establishment"], "rating": 4.1, "user_ratings_total": 7}, "ChIJmR3Az9YEdkgR_WnjvVy913U": {"geometry": {"location": {"lat": 51.5080954, "lng": -0.1358605}, "viewport": {"northeast": {"lat": 51.50926528029151, "lng": -0.134342669708498}, "southwest": {"lat": 51.50656731970851, "lng": -0.137040630291502}}}, "name": "Fashion on Screen", "place_id": "ChIJmR3Az9YEdkgR_WnjvVy913U", "types": ["point_of_interest", "establishment"], "rating": 5, "user_ratings_total": 1}, "ChIJ1dwfstMEdkgR06-txQpFl6I": {"geometry": {"location": {"lat": 51.5080954, "lng": -0.1358605}, "viewport": {"northeast": {"lat": 51.50926528029151, "lng": -0.134342669708498}, "southwest": {"lat": 51.50656731970851, "lng": -0.137040630291502}}}, "name": "Rob Purkiss Associates", "place_id": "ChIJ1dwfstMEdkgR06-txQpFl6I", "types": ["real_estate_agency", "point_of_interest", "establishment"]}, "ChIJp9D4INEEdkgRScrzKkw1pAE": {"geometry": {"location": {"lat": 51.5080954, "lng": -0.1358605}, "viewport": {"northeast": {"lat": 51.50926528029151, "lng": -0.134342669708498}, "southwest": {"lat": 51.50656731970851, "lng": -0.137040630291502}}}, "name": "Societe Generale Kleinwort Hambros", "place_id": "ChIJp9D4INEEdkgRScrzKkw1pAE", "types": ["bank", "finance", "point_of_interest", "establishment"]}, "ChIJ_zc7ztYEdkgRPt4Wynv8rjY": {"geometry": {"location": {"lat": 51.5080954, "lng": -0.1358605}, "viewport": {"northeast": {"lat": 51.50926528029151, "lng": -0.134342669708498}, "southwest": {"lat": 51.50656731970851, "lng": -0.137040630291502}}}, "name": "Twin Summits Capital", "place_id": "ChIJ_zc7ztYEdkgRPt4Wynv8rjY", "types": ["finance", "point_of_interest", "establishment"]}, "ChIJaUBUv9YEdkgRYQTNWxHRxc4": {"geometry": {"location": {"lat": 51.5080954, "lng": -0.1358605}, "viewport": {"northeast": {"lat": 51.50926528029151, "lng": -0.134342669708498}, "southwest": {"lat": 51.50656731970851, "lng": -0.137040630291502}}}, "name": "Onex", "place_id": "ChIJaUBUv9YEdkgRYQTNWxHRxc4", "types": ["point_of_interest", "establishment"], "rating": 5, "user_ratings_total": 1}, "ChIJu-UMeNUEdkgRprENvNa2htU": {"geometry": {"location": {"lat": 51.5080954, "lng": -0.1358605}, "viewport": {"northeast": {"lat": 51.50926528029151, "lng": -0.134342669708498}, "southwest": {"lat": 51.50656731970851, "lng": -0.137040630291502}}}, "name": "D.R.A.W Recruitment Ltd", "place_id": "ChIJu-UMeNUEdkgRprENvNa2htU", "types": ["point_of_interest", "establishment"], "rating": 5, "user_ratings_total": 3}, "ChIJo2TaxNAEdkgRLdWhOTGlut8": {"geometry": {"location": {"lat": 51.5080954, "lng": -0.1358605}, "viewport": {"northeast": {"lat": 51.50926528029151, "lng": -0.134342669708498}, "southwest": {"lat": 51.50656731970851, "lng": -0.137040630291502}}}, "name": "Maks Consultancy Limited", "place_id": "ChIJo2TaxNAEdkgRLdWhOTGlut8", "types": ["point_of_interest", "establishment"]}, "ChIJmx3Az9YEdkgRJldTmxxQ8Sk": {"geometry": {"location": {"lat": 51.5080954, "lng": -0.1358605}, "viewport": {"northeast": {"lat": 51.50926528029151, "lng": -0.134342669708498}, "southwest": {"lat": 51.50656731970851, "lng": -0.137040630291502}}}, "name": "Dr Michael Drayton AFBPsS, FRSM CPsychol ClinPsychD BSc (Hons) CUEW", "place_id": "ChIJmx3Az9YEdkgRJldTmxxQ8Sk", "types": ["health", "point_of_interest", "establishment"]}, "ChIJRYSlD8AhdEgRXpox8pJS6AE": {"geometry": {"location": {"lat": 51.5078994, "lng": -0.1356323}, "viewport": {"northeast": {"lat": 51.50921023029149, "lng": -0.134388319708498}, "southwest": {"lat": 51.50651226970849, "lng": -0.137086280291502}}}, "name": "The Home Cloud", "place_id": "ChIJRYSlD8AhdEgRXpox8pJS6AE", "types": ["real_estate_agency", "point_of_interest", "establishment"], "rating": 4.8, "user_ratings_total": 48}, "ChIJJ-FLTdEEdkgRu2-kQmG4xA4": {"geometry": {"location": {"lat": 51.5088267, "lng": -0.1350644}, "viewport": {"northeast": {"lat": 51.5102334302915, "lng": -0.133765269708498}, "southwest": {"lat": 51.5075354697085, "lng": -0.136463230291502}}}, "name": "Independent Petroleum Group Of Kuwait Ltd", "place_id": "ChIJJ-FLTdEEdkgRu2-kQmG4xA4", "types": ["point_of_interest", "establishment"]}, "ChIJ3_Iss9YEdkgR6g0G5GdXX8w": {"geometry": {"location": {"lat": 51.5088267, "lng": -0.1350644}, "viewport": {"northeast": {"lat": 51.5102334302915, "lng": -0.133765269708498}, "southwest": {"lat": 51.5075354697085, "lng": -0.136463230291502}}}, "name": "Everett Capital Advisors", "place_id": "ChIJ3_Iss9YEdkgR6g0G5GdXX8w", "types": ["finance", "point_of_interest", "establishment"]}, "ChIJIxVSOFUDdkgRrRW5RzMFCfE": {"geometry": {"location": {"lat": 51.50823800000001, "lng": -0.134271}, "viewport": {"northeast": {"lat": 51.50939158029151, "lng": -0.133249369708498}, "southwest": {"lat": 51.50669361970851, "lng": -0.135947330291502}}}, "name": "ADVANCED CLOUD SOLUTIONS", "place_id": "ChIJIxVSOFUDdkgRrRW5RzMFCfE", "types": ["point_of_interest", "establishment"]}, "ChIJN0mRKNEEdkgRdZP8wJH6x8Y": {"geometry": {"location": {"lat": 51.50720295005496, "lng": -0.1343215996525119}, "viewport": {"northeast": {"lat": 51.5085519302915, "lng": -0.132972619708498}, "southwest": {"lat": 51.5058539697085, "lng": -0.135670580291502}}}, "name": "Saint James's Square", "place_id": "ChIJN0mRKNEEdkgRdZP8wJH6x8Y", "types": ["route"]}, "ChIJ55ueLdEEdkgR_yrmuJ6wkyE": {"geometry": {"location": {"lat": 51.50763999999999, "lng": -0.13485}, "viewport": {"northeast": {"lat": 51.5090087802915, "lng": -0.133449819708498}, "southwest": {"lat": 51.5063108197085, "lng": -0.136147780291502}}}, "name": "Piccadilly - St James's Sq", "place_id": "ChIJ55ueLdEEdkgR_yrmuJ6wkyE", "types": ["car_rental", "point_of_interest", "establishment"]}, "ChIJZ0JN1NYEdkgRWea0LbvaUyY": {"geometry": {"location": {"lat": 51.5072148, "lng": -0.1352807}, "viewport": {"northeast": {"lat": 51.5085637802915, "lng": -0.133931719708498}, "southwest": {"lat": 51.5058658197085, "lng": -0.136629680291502}}}, "name": "Equestrian statue of William III, London", "place_id": "ChIJZ0JN1NYEdkgRWea0LbvaUyY", "types": ["point_of_interest", "establishment"], "rating": 5, "user_ratings_total": 1}, "ChIJzbTI1dYEdkgRI0dhagZHoZM": {"geometry": {"location": {"lat": 51.5071731, "lng": -0.1353457}, "viewport": {"northeast": {"lat": 51.5086019802915, "lng": -0.13382245}, "southwest": {"lat": 51.5059040197085, "lng": -0.13677825}}}, "name": "St James's Square", "place_id": "ChIJzbTI1dYEdkgRI0dhagZHoZM", "types": ["tourist_attraction", "park", "point_of_interest", "establishment"], "rating": 4.5, "user_ratings_total": 1069}, "ChIJ3dNGqHMFdkgR4Vi0873TosM": {"geometry": {"location": {"lat": 51.5071732, "lng": -0.135355}, "viewport": {"northeast": {"lat": 51.5084234802915, "lng": -0.134347669708498}, "southwest": {"lat": 51.5057255197085, "lng": -0.137045630291502}}}, "name": "Conqueror Mind", "place_id": "ChIJ3dNGqHMFdkgR4Vi0873TosM", "types": ["health", "point_of_interest", "establishment"]}, "ChIJHcFXpAYFdkgRFIdqP5Bjs2I": {"geometry": {"location": {"lat": 51.5074113, "lng": -0.1352397}, "viewport": {"northeast": {"lat": 51.5089199302915, "lng": -0.134041219708498}, "southwest": {"lat": 51.5062219697085, "lng": -0.136739180291502}}}, "name": "Mother and Child Sculpture", "place_id": "ChIJHcFXpAYFdkgRFIdqP5Bjs2I", "types": ["point_of_interest", "establishment"]}, "ChIJkXWbLtEEdkgRZrXQJVVEnkU": {"geometry": {"location": {"lat": 51.507424, "lng": -0.134621}, "viewport": {"northeast": {"lat": 51.5087729802915, "lng": -0.133272019708498}, "southwest": {"lat": 51.5060750197085, "lng": -0.135969980291502}}}, "name": "Santander Cycles", "place_id": "ChIJkXWbLtEEdkgRZrXQJVVEnkU", "types": ["point_of_interest", "establishment"], "rating": 3.9, "user_ratings_total": 7}, "ChIJSfFhLtEEdkgRC8B6Lfm4_kU": {"geometry": {"location": {"lat": 51.5075428, "lng": -0.1346109}, "viewport": {"northeast": {"lat": 51.5088751802915, "lng": -0.133304919708498}, "southwest": {"lat": 51.5061772197085, "lng": -0.136002880291502}}}, "name": "HOB Contracting LLC", "place_id": "ChIJSfFhLtEEdkgRC8B6Lfm4_kU", "types": ["point_of_interest", "establishment"]}, "ChIJCebgLdEEdkgROVQRzVEBvwI": {"geometry": {"location": {"lat": 51.5076291, "lng": -0.1346977}, "viewport": {"northeast": {"lat": 51.50899483029151, "lng": -0.133305519708498}, "southwest": {"lat": 51.50629686970851, "lng": -0.136003480291502}}}, "name": "Zipcar", "place_id": "ChIJCebgLdEEdkgROVQRzVEBvwI", "types": ["car_rental", "point_of_interest", "establishment"]}, "ChIJx9bCsXcFdkgRJZtpIFbENxA": {"geometry": {"location": {"lat": 51.507707, "lng": -0.1350848}, "viewport": {"northeast": {"lat": 51.5090992302915, "lng": -0.133624069708498}, "southwest": {"lat": 51.5064012697085, "lng": -0.136322030291502}}}, "name": "Memorial to WPC Yvonne Fletcher", "place_id": "ChIJx9bCsXcFdkgRJZtpIFbENxA", "types": ["park", "point_of_interest", "establishment"], "rating": 5, "user_ratings_total": 1}, "ChIJz5aQ1tAEdkgR1l6QR_-nATA": {"geometry": {"location": {"lat": 51.5068269, "lng": -0.1346282}, "viewport": {"northeast": {"lat": 51.5081758802915, "lng": -0.133279219708498}, "southwest": {"lat": 51.5054779197085, "lng": -0.135977180291502}}}, "name": "JULIA NOAKES", "place_id": "ChIJz5aQ1tAEdkgR1l6QR_-nATA", "types": ["health", "point_of_interest", "establishment"]}, "ChIJz5aQ1tAEdkgRvDjxgt0Ga7w": {"geometry": {"location": {"lat": 51.5068269, "lng": -0.1346282}, "viewport": {"northeast": {"lat": 51.5081758802915, "lng": -0.133279219708498}, "southwest": {"lat": 51.5054779197085, "lng": -0.135977180291502}}}, "name": "Hugin & Munin Eckhelon Services", "place_id": "ChIJz5aQ1tAEdkgRvDjxgt0Ga7w", "types": ["point_of_interest", "establishment"]}, "ChIJz5aQ1tAEdkgRCHJfBI6KIkU": {"geometry": {"location": {"lat": 51.5068269, "lng": -0.1346282}, "viewport": {"northeast": {"lat": 51.5081758802915, "lng": -0.133279219708498}, "southwest": {"lat": 51.5054779197085, "lng": -0.135977180291502}}}, "name": "London Shading", "place_id": "ChIJz5aQ1tAEdkgRCHJfBI6KIkU", "types": ["home_goods_store", "general_contractor", "point_of_interest", "store", "establishment"]}, "ChIJz5aQ1tAEdkgR_hnUwoGDT0c": {"geometry": {"location": {"lat": 51.5068269, "lng": -0.1346282}, "viewport": {"northeast": {"lat": 51.5081758802915, "lng": -0.133279219708498}, "southwest": {"lat": 51.5054779197085, "lng": -0.135977180291502}}}, "name": "Executive Sales Recruitment", "place_id": "ChIJz5aQ1tAEdkgR_hnUwoGDT0c", "types": ["point_of_interest", "establishment"]}, "ChIJz5aQ1tAEdkgRS0iZ1m02URs": {"geometry": {"location": {"lat": 51.5068269, "lng": -0.1346282}, "viewport": {"northeast": {"lat": 51.5081758802915, "lng": -0.133279219708498}, "southwest": {"lat": 51.5054779197085, "lng": -0.135977180291502}}}, "name": "Executive Sales Recruitment", "place_id": "ChIJz5aQ1tAEdkgRS0iZ1m02URs", "types": ["point_of_interest", "establishment"]}, "ChIJz5aQ1tAEdkgRX7qTUIsYJSg": {"geometry": {"location": {"lat": 51.5068269, "lng": -0.1346282}, "viewport": {"northeast": {"lat": 51.5081758802915, "lng": -0.133279219708498}, "southwest": {"lat": 51.5054779197085, "lng": -0.135977180291502}}}, "name": "STEM Executive Placements", "place_id": "ChIJz5aQ1tAEdkgRX7qTUIsYJSg", "types": ["point_of_interest", "establishment"]}, "ChIJRw3cMdEEdkgRuAgw2jd-ovk": {"geometry": {"location": {"lat": 51.5076212, "lng": -0.1345872}, "viewport": {"northeast": {"lat": 51.50895828029149, "lng": -0.133268819708498}, "southwest": {"lat": 51.5062603197085, "lng": -0.135966780291502}}}, "name": "Chargemaster Charging Station", "place_id": "ChIJRw3cMdEEdkgRuAgw2jd-ovk", "types": ["point_of_interest", "establishment"], "rating": 5, "user_ratings_total": 2}, "ChIJEym0U3UFdkgRgpwBapS9FHE": {"geometry": {"location": {"lat": 51.50670720000001, "lng": -0.1349574}, "viewport": {"northeast": {"lat": 51.50803148029149, "lng": -0.133585969708498}, "southwest": {"lat": 51.50533351970849, "lng": -0.136283930291502}}}, "name": "Motorcycle Parking bay", "place_id": "ChIJEym0U3UFdkgRgpwBapS9FHE", "types": ["parking", "point_of_interest", "establishment"]}, "ChIJE4hiLdEEdkgRsJLbtoKaXtE": {"geometry": {"location": {"lat": 51.5077545, "lng": -0.1349006}, "viewport": {"northeast": {"lat": 51.50904929311614, "lng": -0.1338350053128149}, "southwest": {"lat": 51.50635133253314, "lng": -0.136532965895819}}}, "name": "Parking lot", "place_id": "ChIJE4hiLdEEdkgRsJLbtoKaXtE", "types": ["parking", "premise", "point_of_interest", "establishment"]}, "ChIJH674zdAEdkgRjrJ5XujpfUE": {"geometry": {"location": {"lat": 51.50643820198928, "lng": -0.1346886536871308}, "viewport": {"northeast": {"lat": 51.5077871802915, "lng": -0.13332055}, "southwest": {"lat": 51.5050892197085, "lng": -0.1360567499999999}}}, "name": "30-27 Pall Mall", "place_id": "ChIJH674zdAEdkgRjrJ5XujpfUE", "types": ["route"]}, "ChIJEan7NNcEdkgR9LBJ8hSd0NA": {"geometry": {"location": {"lat": 51.5061359, "lng": -0.1350391}, "viewport": {"northeast": {"lat": 51.50748488029151, "lng": -0.133690119708498}, "southwest": {"lat": 51.50478691970851, "lng": -0.136388080291502}}}, "name": "The Royal Automobile Club", "place_id": "ChIJEan7NNcEdkgR9LBJ8hSd0NA", "types": ["point_of_interest", "establishment"], "rating": 4.7, "user_ratings_total": 722}, "ChIJ6ZrMr9EEdkgRq-Et1L0VYn4": {"geometry": {"location": {"lat": 51.506108, "lng": -0.134709}, "viewport": {"northeast": {"lat": 51.50754913029149, "lng": -0.1334460197084979}, "southwest": {"lat": 51.5048511697085, "lng": -0.136143980291502}}}, "name": "RAC Foundation", "place_id": "ChIJ6ZrMr9EEdkgRq-Et1L0VYn4", "types": ["point_of_interest", "establishment"], "rating": 4.7, "user_ratings_total": 26}, "ChIJcZ8N4s4EdkgRE0lPZEVuFwM": {"geometry": {"location": {"lat": 51.5061163, "lng": -0.135969}, "viewport": {"northeast": {"lat": 51.50741328029149, "lng": -0.134571569708498}, "southwest": {"lat": 51.5047153197085, "lng": -0.137269530291502}}}, "name": "Royal Commonwealth Society", "place_id": "ChIJcZ8N4s4EdkgRE0lPZEVuFwM", "types": ["point_of_interest", "establishment"], "rating": 4, "user_ratings_total": 3}, "ChIJ4WLfFNcEdkgREkVbTjOyGxs": {"geometry": {"location": {"lat": 51.5063951, "lng": -0.1352442}, "viewport": {"northeast": {"lat": 51.5077440802915, "lng": -0.133895219708498}, "southwest": {"lat": 51.5050461197085, "lng": -0.1365931802915021}}}, "name": "Hutton Collins", "place_id": "ChIJ4WLfFNcEdkgREkVbTjOyGxs", "types": ["finance", "point_of_interest", "establishment"]}, "ChIJYyooLdcEdkgRmsGq4cUv_8g": {"geometry": {"location": {"lat": 51.506473, "lng": -0.135123}, "viewport": {"northeast": {"lat": 51.50789288029149, "lng": -0.133831369708498}, "southwest": {"lat": 51.5051949197085, "lng": -0.136529330291502}}}, "name": "Inchcape plc", "place_id": "ChIJYyooLdcEdkgRmsGq4cUv_8g", "types": ["point_of_interest", "establishment"], "rating": 3.3, "user_ratings_total": 8}, "ChIJkWZgzNAEdkgRsh2z1ra0UVE": {"geometry": {"location": {"lat": 51.5061388, "lng": -0.1348488}, "viewport": {"northeast": {"lat": 51.5075495302915, "lng": -0.133557469708498}, "southwest": {"lat": 51.5048515697085, "lng": -0.136255430291502}}}, "name": "Genfour Ltd", "place_id": "ChIJkWZgzNAEdkgRsh2z1ra0UVE", "types": ["point_of_interest", "establishment"]}, "ChIJB_ojXSsFdkgRrorGVyAOIyg": {"geometry": {"location": {"lat": 51.50614299999999, "lng": -0.134767}, "viewport": {"northeast": {"lat": 51.5075632302915, "lng": -0.133484519708498}, "southwest": {"lat": 51.5048652697085, "lng": -0.136182480291502}}}, "name": "Veteran Car Run", "place_id": "ChIJB_ojXSsFdkgRrorGVyAOIyg", "types": ["point_of_interest", "establishment"], "rating": 5, "user_ratings_total": 3}, "ChIJVR3ONtcEdkgRIRkx1dIJ7Bc": {"geometry": {"location": {"lat": 51.5060368, "lng": -0.1355469}, "viewport": {"northeast": {"lat": 51.5073710802915, "lng": -0.134184469708498}, "southwest": {"lat": 51.5046731197085, "lng": -0.136882430291502}}}, "name": "Clockhouse Capital Limited", "place_id": "ChIJVR3ONtcEdkgRIRkx1dIJ7Bc", "types": ["point_of_interest", "establishment"]}, "ChIJ7e0cR9cEdkgRQDvTTae0UCM": {"geometry": {"location": {"lat": 51.5061943, "lng": -0.1356022}, "viewport": {"northeast": {"lat": 51.5075116302915, "lng": -0.134223719708498}, "southwest": {"lat": 51.5048136697085, "lng": -0.136921680291502}}}, "name": "Fusion Corporate Partners Ltd", "place_id": "ChIJ7e0cR9cEdkgRQDvTTae0UCM", "types": ["point_of_interest", "establishment"]}, "ChIJVcnphdsEdkgR7VhejxLb59M": {"geometry": {"location": {"lat": 51.5058221, "lng": -0.1353538}, "viewport": {"northeast": {"lat": 51.50728443029151, "lng": -0.134108019708498}, "southwest": {"lat": 51.50458646970851, "lng": -0.136805980291502}}}, "name": "QinetiQ", "place_id": "ChIJVcnphdsEdkgR7VhejxLb59M", "types": ["point_of_interest", "establishment"], "rating": 4.7, "user_ratings_total": 6}, "ChIJ_bPRnSoFdkgRQ4MTFRZkzXg": {"geometry": {"location": {"lat": 51.506473, "lng": -0.135123}, "viewport": {"northeast": {"lat": 51.50789288029149, "lng": -0.133831369708498}, "southwest": {"lat": 51.5051949197085, "lng": -0.136529330291502}}}, "name": "CDC Hospitality", "place_id": "ChIJ_bPRnSoFdkgRQ4MTFRZkzXg", "types": ["point_of_interest", "establishment"], "rating": 5, "user_ratings_total": 1}, "ChIJn3k_LdcEdkgRNru7mi246SE": {"geometry": {"location": {"lat": 51.506473, "lng": -0.135123}, "viewport": {"northeast": {"lat": 51.50789288029149, "lng": -0.133831369708498}, "southwest": {"lat": 51.5051949197085, "lng": -0.136529330291502}}}, "name": "CETEnergy", "place_id": "ChIJn3k_LdcEdkgRNru7mi246SE", "types": ["point_of_interest", "establishment"]}, "ChIJn3k_LdcEdkgR5uIaWLizylc": {"geometry": {"location": {"lat": 51.506473, "lng": -0.135123}, "viewport": {"northeast": {"lat": 51.50789288029149, "lng": -0.133831369708498}, "southwest": {"lat": 51.5051949197085, "lng": -0.136529330291502}}}, "name": "INsignis Consulting Engineers", "place_id": "ChIJn3k_LdcEdkgR5uIaWLizylc", "types": ["point_of_interest", "establishment"]}, "ChIJn3k_LdcEdkgRTFiTO2IxXvo": {"geometry": {"location": {"lat": 51.506473, "lng": -0.135123}, "viewport": {"northeast": {"lat": 51.50789288029149, "lng": -0.133831369708498}, "southwest": {"lat": 51.5051949197085, "lng": -0.136529330291502}}}, "name": "Innovation Plus Ltd", "place_id": "ChIJn3k_LdcEdkgRTFiTO2IxXvo", "types": ["accounting", "finance", "point_of_interest", "establishment"]}, "ChIJn3k_LdcEdkgRm-_GgLi3VvI": {"geometry": {"location": {"lat": 51.506473, "lng": -0.135123}, "viewport": {"northeast": {"lat": 51.50789288029149, "lng": -0.133831369708498}, "southwest": {"lat": 51.5051949197085, "lng": -0.136529330291502}}}, "name": "Salient PCS", "place_id": "ChIJn3k_LdcEdkgRm-_GgLi3VvI", "types": ["point_of_interest", "establishment"]}, "ChIJfep1HCsFdkgROjoHC0v_5cc": {"geometry": {"location": {"lat": 51.506473, "lng": -0.135123}, "viewport": {"northeast": {"lat": 51.50789288029149, "lng": -0.133831369708498}, "southwest": {"lat": 51.5051949197085, "lng": -0.136529330291502}}}, "name": "UK Commercial Cleaning Solutions Ltd (London)", "place_id": "ChIJfep1HCsFdkgROjoHC0v_5cc", "types": ["point_of_interest", "establishment"], "rating": 4, "user_ratings_total": 11}, "ChIJn3k_LdcEdkgR_REcKs3nPZE": {"geometry": {"location": {"lat": 51.506473, "lng": -0.135123}, "viewport": {"northeast": {"lat": 51.50789288029149, "lng": -0.133831369708498}, "southwest": {"lat": 51.5051949197085, "lng": -0.136529330291502}}}, "name": "Tareen & Tareen", "place_id": "ChIJn3k_LdcEdkgR_REcKs3nPZE", "types": ["general_contractor", "point_of_interest", "establishment"]}, "ChIJn3k_LdcEdkgRKe0wBvtb51g": {"geometry": {"location": {"lat": 51.506473, "lng": -0.135123}, "viewport": {"northeast": {"lat": 51.50789288029149, "lng": -0.133831369708498}, "southwest": {"lat": 51.5051949197085, "lng": -0.136529330291502}}}, "name": "sinespace", "place_id": "ChIJn3k_LdcEdkgRKe0wBvtb51g", "types": ["point_of_interest", "establishment"]}, "ChIJlUuIHCsFdkgRWXYw2nqk620": {"geometry": {"location": {"lat": 51.506473, "lng": -0.135123}, "viewport": {"northeast": {"lat": 51.50789288029149, "lng": -0.133831369708498}, "southwest": {"lat": 51.5051949197085, "lng": -0.136529330291502}}}, "name": "Glacom UK L.t.d.", "place_id": "ChIJlUuIHCsFdkgRWXYw2nqk620", "types": ["point_of_interest", "establishment"]}, "ChIJYf0IPt0EdkgRLU0_UFPhUyU": {"geometry": {"location": {"lat": 51.5064784, "lng": -0.1350871}, "viewport": {"northeast": {"lat": 51.50790063029149, "lng": -0.133797369708498}, "southwest": {"lat": 51.5052026697085, "lng": -0.136495330291502}}}, "name": "Rubicon Capital", "place_id": "ChIJYf0IPt0EdkgRLU0_UFPhUyU", "types": ["finance", "point_of_interest", "establishment"]}, "ChIJgxrs2tAEdkgRAY-bPGq496Y": {"geometry": {"location": {"lat": 51.5064673, "lng": -0.1348998}, "viewport": {"northeast": {"lat": 51.50777693029149, "lng": -0.1335143197084979}, "southwest": {"lat": 51.50507896970849, "lng": -0.136212280291502}}}, "name": "Opalit Financial Systems", "place_id": "ChIJgxrs2tAEdkgRAY-bPGq496Y", "types": ["point_of_interest", "establishment"]}, "ChIJU39dqTBE30cRZKA31ATL740": {"geometry": {"location": {"lat": 51.5065432, "lng": -0.1350894}, "viewport": {"northeast": {"lat": 51.5079392802915, "lng": -0.133778519708498}, "southwest": {"lat": 51.5052413197085, "lng": -0.136476480291502}}}, "name": "Alternative Asset Management", "place_id": "ChIJU39dqTBE30cRZKA31ATL740", "types": ["finance", "point_of_interest", "establishment"]}, "ChIJ8e0cR9cEdkgRKIvlJiWD6SA": {"geometry": {"location": {"lat": 51.5065432, "lng": -0.1350893}, "viewport": {"northeast": {"lat": 51.5079392802915, "lng": -0.133778419708498}, "southwest": {"lat": 51.5052413197085, "lng": -0.136476380291502}}}, "name": "Metallon Corporation", "place_id": "ChIJ8e0cR9cEdkgRKIvlJiWD6SA", "types": ["point_of_interest", "establishment"]}, "ChIJfep1HCsFdkgREZz3DoYNawY": {"geometry": {"location": {"lat": 51.5065432, "lng": -0.1350893}, "viewport": {"northeast": {"lat": 51.5079392802915, "lng": -0.133778419708498}, "southwest": {"lat": 51.5052413197085, "lng": -0.136476380291502}}}, "name": "Cornerstone Corporate Finance", "place_id": "ChIJfep1HCsFdkgREZz3DoYNawY", "types": ["finance", "point_of_interest", "establishment"]}, "ChIJ7e0cR9cEdkgRL6cN8u8Rn58": {"geometry": {"location": {"lat": 51.5058692, "lng": -0.1358098}, "viewport": {"northeast": {"lat": 51.5072528302915, "lng": -0.1344923697084979}, "southwest": {"lat": 51.5045548697085, "lng": -0.137190330291502}}}, "name": "NFC Homes", "place_id": "ChIJ7e0cR9cEdkgRL6cN8u8Rn58", "types": ["general_contractor", "point_of_interest", "establishment"]}, "ChIJ9R7zAtYEdkgRjUP_WnWajsY": {"geometry": {"location": {"lat": 51.506473, "lng": -0.135123}, "viewport": {"northeast": {"lat": 51.50789288029149, "lng": -0.133831369708498}, "southwest": {"lat": 51.5051949197085, "lng": -0.136529330291502}}}, "name": "Oakhurst Property Developments", "place_id": "ChIJ9R7zAtYEdkgRjUP_WnWajsY", "types": ["general_contractor", "point_of_interest", "establishment"]}, "ChIJa4M9OtcEdkgRr81A-v0HXTI": {"geometry": {"location": {"lat": 51.5061163, "lng": -0.135969}, "viewport": {"northeast": {"lat": 51.50741328029149, "lng": -0.134571569708498}, "southwest": {"lat": 51.5047153197085, "lng": -0.137269530291502}}}, "name": "Humphrey Butler", "place_id": "ChIJa4M9OtcEdkgRr81A-v0HXTI", "types": ["jewelry_store", "point_of_interest", "store", "establishment"], "rating": 5, "user_ratings_total": 5}, "ChIJ65LMO9cEdkgR0UYWIhoaETY": {"geometry": {"location": {"lat": 51.5061163, "lng": -0.1359689}, "viewport": {"northeast": {"lat": 51.50741328029149, "lng": -0.134571469708498}, "southwest": {"lat": 51.5047153197085, "lng": -0.137269430291502}}}, "name": "Trajan Natural Stone - London Office", "place_id": "ChIJ65LMO9cEdkgR0UYWIhoaETY", "types": ["point_of_interest", "establishment"], "rating": 5, "user_ratings_total": 3}, "ChIJ65LMO9cEdkgR90H8__QthYE": {"geometry": {"location": {"lat": 51.5061163, "lng": -0.1359689}, "viewport": {"northeast": {"lat": 51.50741328029149, "lng": -0.134571469708498}, "southwest": {"lat": 51.5047153197085, "lng": -0.137269430291502}}}, "name": "City Planning", "place_id": "ChIJ65LMO9cEdkgR90H8__QthYE", "types": ["local_government_office", "point_of_interest", "establishment"]}, "ChIJyQ3GNtcEdkgRcSXFTvZrvHk": {"geometry": {"location": {"lat": 51.50581930000001, "lng": -0.1353597}, "viewport": {"northeast": {"lat": 51.50728193029151, "lng": -0.134114169708498}, "southwest": {"lat": 51.50458396970851, "lng": -0.136812130291502}}}, "name": "Icon Capital", "place_id": "ChIJyQ3GNtcEdkgRcSXFTvZrvHk", "types": ["finance", "point_of_interest", "establishment"], "rating": 5, "user_ratings_total": 1}, "ChIJu6B7R9cEdkgRjzoJiCKrpvg": {"geometry": {"location": {"lat": 51.5058754, "lng": -0.1357662}, "viewport": {"northeast": {"lat": 51.50726253029151, "lng": -0.134451969708498}, "southwest": {"lat": 51.50456456970851, "lng": -0.137149930291502}}}, "name": "Permira Advisers LLP", "place_id": "ChIJu6B7R9cEdkgRjzoJiCKrpvg", "types": ["finance", "point_of_interest", "establishment"], "rating": 5, "user_ratings_total": 1}, "ChIJvUDIjlFCekgRUK6AUWpxI_k": {"geometry": {"location": {"lat": 51.5061341, "lng": -0.1353185}, "viewport": {"northeast": {"lat": 51.50748308029151, "lng": -0.133969519708498}, "southwest": {"lat": 51.50478511970852, "lng": -0.1366674802915021}}}, "name": "Sphere Protection Services", "place_id": "ChIJvUDIjlFCekgRUK6AUWpxI_k", "types": ["point_of_interest", "establishment"]}, "ChIJVdRkzNAEdkgRbhAwpi8Q05s": {"geometry": {"location": {"lat": 51.50610249999999, "lng": -0.1348245}, "viewport": {"northeast": {"lat": 51.5075300802915, "lng": -0.1335488697084979}, "southwest": {"lat": 51.5048321197085, "lng": -0.136246830291502}}}, "name": "DAN DRUMMOND", "place_id": "ChIJVdRkzNAEdkgRbhAwpi8Q05s", "types": ["health", "point_of_interest", "establishment"]}, "ChIJpcF6zNAEdkgRCLAzsUVu7UQ": {"geometry": {"location": {"lat": 51.5060972, "lng": -0.1348189}, "viewport": {"northeast": {"lat": 51.5075275302915, "lng": -0.133545819708498}, "southwest": {"lat": 51.5048295697085, "lng": -0.136243780291502}}}, "name": "World Wine Consultants SA", "place_id": "ChIJpcF6zNAEdkgRCLAzsUVu7UQ", "types": ["point_of_interest", "establishment"]}, "ChIJ984psGQDdkgRcmF8LfCNu2M": {"geometry": {"location": {"lat": 51.50627129999999, "lng": -0.1349305}, "viewport": {"northeast": {"lat": 51.50764868029149, "lng": -0.133608019708498}, "southwest": {"lat": 51.50495071970849, "lng": -0.136305980291502}}}, "name": "SnoDesign", "place_id": "ChIJ984psGQDdkgRcmF8LfCNu2M", "types": ["point_of_interest", "establishment"]}, "ChIJ__8_zNAEdkgRFMckJgn4flk": {"geometry": {"location": {"lat": 51.50614299999999, "lng": -0.1347665}, "viewport": {"northeast": {"lat": 51.50756328029149, "lng": -0.133484069708498}, "southwest": {"lat": 51.50486531970849, "lng": -0.136182030291502}}}, "name": "Private Club", "place_id": "ChIJ__8_zNAEdkgRFMckJgn4flk", "types": ["point_of_interest", "establishment"]}, "ChIJ__8_zNAEdkgRmQ3o9wqCO9g": {"geometry": {"location": {"lat": 51.50614299999999, "lng": -0.1347665}, "viewport": {"northeast": {"lat": 51.50756328029149, "lng": -0.133484069708498}, "southwest": {"lat": 51.50486531970849, "lng": -0.136182030291502}}}, "name": "3Qetc", "place_id": "ChIJ__8_zNAEdkgRmQ3o9wqCO9g", "types": ["point_of_interest", "establishment"]}, "ChIJHy70LnAFdkgR8A7Z9f2aXZU": {"geometry": {"location": {"lat": 51.50614299999999, "lng": -0.1347665}, "viewport": {"northeast": {"lat": 51.50756328029149, "lng": -0.133484069708498}, "southwest": {"lat": 51.50486531970849, "lng": -0.136182030291502}}}, "name": "Post Office Travel Money", "place_id": "ChIJHy70LnAFdkgR8A7Z9f2aXZU", "types": ["finance", "point_of_interest", "establishment"]}, "ChIJ__8_zNAEdkgREhCa7PTlvrk": {"geometry": {"location": {"lat": 51.50614299999999, "lng": -0.1347665}, "viewport": {"northeast": {"lat": 51.50756328029149, "lng": -0.133484069708498}, "southwest": {"lat": 51.50486531970849, "lng": -0.136182030291502}}}, "name": "Travel Insurance Industry Committee", "place_id": "ChIJ__8_zNAEdkgREhCa7PTlvrk", "types": ["point_of_interest", "establishment"]}, "ChIJZaeM73gFdkgRLuoVdgV4i34": {"geometry": {"location": {"lat": 51.5063247, "lng": -0.1349734}, "viewport": {"northeast": {"lat": 51.5076548802915, "lng": -0.133606919708498}, "southwest": {"lat": 51.5049569197085, "lng": -0.136304880291502}}}, "name": "FitSpark", "place_id": "ChIJZaeM73gFdkgRLuoVdgV4i34", "types": ["health", "point_of_interest", "establishment"], "rating": 5, "user_ratings_total": 1}, "ChIJnaraxNAEdkgRAk7c56YvoqI": {"geometry": {"location": {"lat": 51.5063586, "lng": -0.1352052}, "viewport": {"northeast": {"lat": 51.5076678802915, "lng": -0.133819419708498}, "southwest": {"lat": 51.5049699197085, "lng": -0.136517380291502}}}, "name": "Europagrid Ltd.", "place_id": "ChIJnaraxNAEdkgRAk7c56YvoqI", "types": ["point_of_interest", "establishment"]}, "ChIJ--_VPdcEdkgR7srxqxc4Wq0": {"geometry": {"location": {"lat": 51.50596669999999, "lng": -0.1354843}, "viewport": {"northeast": {"lat": 51.5073568802915, "lng": -0.134172869708498}, "southwest": {"lat": 51.5046589197085, "lng": -0.136870830291502}}}, "name": "Working Free Ltd", "place_id": "ChIJ--_VPdcEdkgR7srxqxc4Wq0", "types": ["point_of_interest", "establishment"]}, "ChIJS8f6zdAEdkgRBsf3zPzZqKk": {"geometry": {"location": {"lat": 51.5063521, "lng": -0.1347155}, "viewport": {"northeast": {"lat": 51.50767388029151, "lng": -0.133341119708498}, "southwest": {"lat": 51.50497591970851, "lng": -0.136039080291502}}}, "name": "Energy Growth Partners Ltd", "place_id": "ChIJS8f6zdAEdkgRBsf3zPzZqKk", "types": ["point_of_interest", "establishment"]}, "ChIJxzyk6kcFdkgREcafU0mlJV4": {"geometry": {"location": {"lat": 51.50646990000001, "lng": -0.1351188}, "viewport": {"northeast": {"lat": 51.5078915302915, "lng": -0.133828619708498}, "southwest": {"lat": 51.5051935697085, "lng": -0.136526580291502}}}, "name": "G-STRAWS", "place_id": "ChIJxzyk6kcFdkgREcafU0mlJV4", "types": ["point_of_interest", "store", "establishment"]}, "ChIJR59ALdcEdkgRJnhr62IZ8yI": {"geometry": {"location": {"lat": 51.50647, "lng": -0.1351187}, "viewport": {"northeast": {"lat": 51.5078916302915, "lng": -0.133828469708498}, "southwest": {"lat": 51.5051936697085, "lng": -0.136526430291502}}}, "name": "Studio Artnuances Ltd", "place_id": "ChIJR59ALdcEdkgRJnhr62IZ8yI", "types": ["point_of_interest", "establishment"]}, "ChIJR59ALdcEdkgRP61lY_d-QyE": {"geometry": {"location": {"lat": 51.50647, "lng": -0.1351187}, "viewport": {"northeast": {"lat": 51.5078916302915, "lng": -0.133828469708498}, "southwest": {"lat": 51.5051936697085, "lng": -0.136526430291502}}}, "name": "Crowdinvesta", "place_id": "ChIJR59ALdcEdkgRP61lY_d-QyE", "types": ["point_of_interest", "establishment"]}, "ChIJn3k_LdcEdkgRffG0K2wg58g": {"geometry": {"location": {"lat": 51.506473, "lng": -0.135123}, "viewport": {"northeast": {"lat": 51.50789288029149, "lng": -0.133831369708498}, "southwest": {"lat": 51.5051949197085, "lng": -0.136529330291502}}}, "name": "Centrier", "place_id": "ChIJn3k_LdcEdkgRffG0K2wg58g", "types": ["point_of_interest", "establishment"]}, "ChIJvXA_LdcEdkgRvm1jMswzTdI": {"geometry": {"location": {"lat": 51.50647379999999, "lng": -0.1351224}, "viewport": {"northeast": {"lat": 51.50775098029149, "lng": -0.133706919708498}, "southwest": {"lat": 51.50505301970849, "lng": -0.136404880291502}}}, "name": "St James House PLC", "place_id": "ChIJvXA_LdcEdkgRvm1jMswzTdI", "types": ["point_of_interest", "establishment"]}, "ChIJX5kLR9cEdkgRPzrMD85DocI": {"geometry": {"location": {"lat": 51.5061544, "lng": -0.1357132}, "viewport": {"northeast": {"lat": 51.50747168029149, "lng": -0.1343346697084979}, "southwest": {"lat": 51.5047737197085, "lng": -0.137032630291502}}}, "name": "Memorex", "place_id": "ChIJX5kLR9cEdkgRPzrMD85DocI", "types": ["electronics_store", "point_of_interest", "store", "establishment"], "rating": 3, "user_ratings_total": 1}, "ChIJ-a5g0tAEdkgR_d_9XQ3qyAM": {"geometry": {"location": {"lat": 51.50646949999999, "lng": -0.134839}, "viewport": {"northeast": {"lat": 51.50778648029149, "lng": -0.133460369708498}, "southwest": {"lat": 51.50508851970849, "lng": -0.136158330291502}}}, "name": "BestDentalJobs", "place_id": "ChIJ-a5g0tAEdkgR_d_9XQ3qyAM", "types": ["point_of_interest", "establishment"]}, "ChIJHYolMNcEdkgR9iyjBfa7QVI": {"geometry": {"location": {"lat": 51.5063614, "lng": -0.1356406}, "viewport": {"northeast": {"lat": 51.5077246802915, "lng": -0.134249869708498}, "southwest": {"lat": 51.5050267197085, "lng": -0.136947830291502}}}, "name": "Penspring Oil", "place_id": "ChIJHYolMNcEdkgR9iyjBfa7QVI", "types": ["point_of_interest", "establishment"]}, "ChIJTVyOcioFdkgRHmuYQx85VC4": {"geometry": {"location": {"lat": 51.5065432, "lng": -0.1350893}, "viewport": {"northeast": {"lat": 51.50793918029149, "lng": -0.133778819708498}, "southwest": {"lat": 51.50524121970849, "lng": -0.136476780291502}}}, "name": "Edison Wealth Management", "place_id": "ChIJTVyOcioFdkgRHmuYQx85VC4", "types": ["finance", "point_of_interest", "establishment"], "rating": 5, "user_ratings_total": 1}, "ChIJRWzFxNAEdkgR-z8T2TSWG3s": {"geometry": {"location": {"lat": 51.5065207, "lng": -0.1349369}, "viewport": {"northeast": {"lat": 51.5078696802915, "lng": -0.133587919708498}, "southwest": {"lat": 51.5051717197085, "lng": -0.136285880291502}}}, "name": "Pall Mall", "place_id": "ChIJRWzFxNAEdkgR-z8T2TSWG3s", "types": ["point_of_interest", "establishment"], "rating": 4.5, "user_ratings_total": 2}, "ChIJGTLDqggFdkgR1P-zKCERbUw": {"geometry": {"location": {"lat": 51.5065432, "lng": -0.1350894}, "viewport": {"northeast": {"lat": 51.5079392802915, "lng": -0.133778519708498}, "southwest": {"lat": 51.5052413197085, "lng": -0.136476480291502}}}, "name": "Stout Park Ltd.", "place_id": "ChIJGTLDqggFdkgR1P-zKCERbUw", "types": ["finance", "point_of_interest", "establishment"]}, "ChIJy38oLdcEdkgR5Eikf5Gj5HI": {"geometry": {"location": {"lat": 51.5065432, "lng": -0.1350893}, "viewport": {"northeast": {"lat": 51.50793918029149, "lng": -0.133778819708498}, "southwest": {"lat": 51.50524121970849, "lng": -0.136476780291502}}}, "name": "Arab Citizens Advice Bureau", "place_id": "ChIJy38oLdcEdkgR5Eikf5Gj5HI", "types": ["point_of_interest", "establishment"]}, "ChIJLRhVelAFdkgRBN8YCHKU1Eg": {"geometry": {"location": {"lat": 51.5065432, "lng": -0.1350893}, "viewport": {"northeast": {"lat": 51.5079392802915, "lng": -0.133778419708498}, "southwest": {"lat": 51.5052413197085, "lng": -0.136476380291502}}}, "name": "FXD Markets Limited", "place_id": "ChIJLRhVelAFdkgRBN8YCHKU1Eg", "types": ["finance", "point_of_interest", "establishment"]}, "ChIJy38oLdcEdkgR9HbZPOwUByo": {"geometry": {"location": {"lat": 51.5065432, "lng": -0.1350893}, "viewport": {"northeast": {"lat": 51.5079392802915, "lng": -0.133778419708498}, "southwest": {"lat": 51.5052413197085, "lng": -0.136476380291502}}}, "name": "Intelligent Investments", "place_id": "ChIJy38oLdcEdkgR9HbZPOwUByo", "types": ["finance", "point_of_interest", "establishment"]}, "ChIJy38oLdcEdkgR7CPCdpVmmqY": {"geometry": {"location": {"lat": 51.5065432, "lng": -0.1350893}, "viewport": {"northeast": {"lat": 51.5079392802915, "lng": -0.133778419708498}, "southwest": {"lat": 51.5052413197085, "lng": -0.136476380291502}}}, "name": "Pro Capital Group", "place_id": "ChIJy38oLdcEdkgR7CPCdpVmmqY", "types": ["point_of_interest", "establishment"]}, "ChIJIYF6W9cEdkgRfluKYOsD_MI": {"geometry": {"location": {"lat": 51.50493030000001, "lng": -0.1359779}, "viewport": {"northeast": {"lat": 51.5062047802915, "lng": -0.134560819708498}, "southwest": {"lat": 51.50350681970851, "lng": -0.137258780291502}}}, "name": "Commonwealth Foundation", "place_id": "ChIJIYF6W9cEdkgRfluKYOsD_MI", "types": ["point_of_interest", "establishment"]}, "ChIJ_f8DW9cEdkgRh7ZHaouYzPY": {"geometry": {"location": {"lat": 51.50493030000001, "lng": -0.1359778}, "viewport": {"northeast": {"lat": 51.5062048302915, "lng": -0.134560769708498}, "southwest": {"lat": 51.5035068697085, "lng": -0.137258730291502}}}, "name": "CommonwealthFirst", "place_id": "ChIJ_f8DW9cEdkgRh7ZHaouYzPY", "types": ["point_of_interest", "establishment"]}, "ChIJ5Y-zUNcEdkgRmuz3XXP7m5M": {"geometry": {"location": {"lat": 51.5045813, "lng": -0.1359532}, "viewport": {"northeast": {"lat": 51.50612734060592, "lng": -0.1342139501107832}, "southwest": {"lat": 51.50342938002292, "lng": -0.1369119106937872}}}, "name": "Marlborough House Gardens", "place_id": "ChIJ5Y-zUNcEdkgRmuz3XXP7m5M", "types": ["premise", "park", "point_of_interest", "establishment"]}, "ChIJv_EQQ9cEdkgRDZ8vplP6SvM": {"geometry": {"location": {"lat": 51.5051968, "lng": -0.1362778}, "viewport": {"northeast": {"lat": 51.506533360881, "lng": -0.1349211767093157}, "southwest": {"lat": 51.503835400298, "lng": -0.1376191372923197}}}, "name": "Parking lot", "place_id": "ChIJv_EQQ9cEdkgRDZ8vplP6SvM", "types": ["parking", "premise", "point_of_interest", "establishment"]}, "ChIJ3Rj969YEdkgRS6ZZQ5j1Rqo": {"geometry": {"location": {"lat": 51.5069927, "lng": -0.1360599}, "viewport": {"northeast": {"lat": 51.5100875436727, "lng": -0.1280440871928197}, "southwest": {"lat": 51.5026598385944, "lng": -0.1424854694949484}}}, "name": "St. James's", "place_id": "ChIJ3Rj969YEdkgRS6ZZQ5j1Rqo", "types": ["neighborhood", "political"]}, "ChIJc6gDAdoEdkgRFKXvoRjkutY": {"geometry": {"location": {"lat": 51.50423826497495, "lng": -0.1348070466160158}, "viewport": {"northeast": {"lat": 51.5055879802915, "lng": -0.133458919708498}, "southwest": {"lat": 51.5028900197085, "lng": -0.136156880291502}}}, "name": "The Mall", "place_id": "ChIJc6gDAdoEdkgRFKXvoRjkutY", "types": ["route"]}, "ChIJqcFAHdoEdkgRPDuhgqi0Esg": {"geometry": {"location": {"lat": 51.5036952, "lng": -0.134945}, "viewport": {"northeast": {"lat": 51.50520823029151, "lng": -0.133773369708498}, "southwest": {"lat": 51.50251026970851, "lng": -0.136471330291502}}}, "name": "St James' Park Drinking Fountain", "place_id": "ChIJqcFAHdoEdkgRPDuhgqi0Esg", "types": ["park", "point_of_interest", "establishment"], "rating": 4.6, "user_ratings_total": 21}, "ChIJG-CxwNoEdkgRXx26gHZwVf8": {"geometry": {"location": {"lat": 51.5024597, "lng": -0.1348109}, "viewport": {"northeast": {"lat": 51.50905125, "lng": -0.1242798}, "southwest": {"lat": 51.49755424999999, "lng": -0.1445742}}}, "name": "St James's Park", "place_id": "ChIJG-CxwNoEdkgRXx26gHZwVf8", "types": ["park", "tourist_attraction", "point_of_interest", "establishment"], "rating": 4.7, "user_ratings_total": 44161}, "ChIJWftLhtkEdkgRdEof0Afxfog": {"geometry": {"location": {"lat": 51.5025313, "lng": -0.1352809}, "viewport": {"northeast": {"lat": 51.5044814802915, "lng": -0.1343410697084979}, "southwest": {"lat": 51.5017835197085, "lng": -0.137039030291502}}}, "name": "St James's Park The Lake", "place_id": "ChIJWftLhtkEdkgRdEof0Afxfog", "types": ["point_of_interest", "establishment"], "rating": 4.8, "user_ratings_total": 18}, "ChIJSwwpJtoEdkgRgjvuFC-zV3s": {"geometry": {"location": {"lat": 51.5024597, "lng": -0.1348109}, "viewport": {"northeast": {"lat": 51.5038086802915, "lng": -0.133461919708498}, "southwest": {"lat": 51.50111071970851, "lng": -0.136159880291502}}}, "name": "VIP Equalizer ltd", "place_id": "ChIJSwwpJtoEdkgRgjvuFC-zV3s", "types": ["point_of_interest", "establishment"]}, "ChIJnefl7dkEdkgRuxr6iOb1sAg": {"geometry": {"location": {"lat": 51.50324860000001, "lng": -0.135703}, "viewport": {"northeast": {"lat": 51.50459758029151, "lng": -0.134354019708498}, "southwest": {"lat": 51.50189961970851, "lng": -0.1370519802915021}}}, "name": "Marlborough Gate Kiosk", "place_id": "ChIJnefl7dkEdkgRuxr6iOb1sAg", "types": ["meal_takeaway", "restaurant", "food", "point_of_interest", "establishment"], "rating": 4.4, "user_ratings_total": 12}, "ChIJf_lLhtkEdkgR6sr4CqL3DIU": {"geometry": {"location": {"lat": 51.50234049999999, "lng": -0.1352212}, "viewport": {"northeast": {"lat": 51.50443030000001, "lng": -0.1343112197084979}, "southwest": {"lat": 51.50164389999998, "lng": -0.137009180291502}}}, "name": "St James's Park The Park Bridge", "place_id": "ChIJf_lLhtkEdkgR6sr4CqL3DIU", "types": ["point_of_interest", "establishment"], "rating": 4.5, "user_ratings_total": 15}, "ChIJb6dimNYEdkgRUpagkw0VyvU": {"geometry": {"location": {"lat": 51.50917925035854, "lng": -0.1365766505751863}, "viewport": {"northeast": {"lat": 51.51052823029151, "lng": -0.135227669708498}, "southwest": {"lat": 51.50783026970851, "lng": -0.137925630291502}}}, "name": "31-25 Piccadilly", "place_id": "ChIJb6dimNYEdkgRUpagkw0VyvU", "types": ["route"]}, "ChIJmZPwodYEdkgR92t3kAmT0_s": {"geometry": {"location": {"lat": 51.5093727, "lng": -0.1364776}, "viewport": {"northeast": {"lat": 51.5106569802915, "lng": -0.135083769708498}, "southwest": {"lat": 51.5079590197085, "lng": -0.137781730291502}}}, "name": "Cotswold Outdoor London - Piccadilly", "place_id": "ChIJmZPwodYEdkgR92t3kAmT0_s", "types": ["point_of_interest", "clothing_store", "store", "establishment"], "rating": 4.1, "user_ratings_total": 351}, "ChIJNSBRgdYEdkgROhIfMWL4uO8": {"geometry": {"location": {"lat": 51.50936079999999, "lng": -0.1376069}, "viewport": {"northeast": {"lat": 51.51071288029149, "lng": -0.136174519708498}, "southwest": {"lat": 51.50801491970849, "lng": -0.138872480291502}}}, "name": "FishWorks", "place_id": "ChIJNSBRgdYEdkgROhIfMWL4uO8", "types": ["restaurant", "meal_takeaway", "food", "point_of_interest", "establishment"], "rating": 4.3, "user_ratings_total": 591}, "ChIJg9ncKNQEdkgRFl867kDRb6s": {"geometry": {"location": {"lat": 51.5096186, "lng": -0.1375546}, "viewport": {"northeast": {"lat": 51.5110128302915, "lng": -0.136310719708498}, "southwest": {"lat": 51.5083148697085, "lng": -0.139008680291502}}}, "name": "Hollister Co.", "place_id": "ChIJg9ncKNQEdkgRFl867kDRb6s", "types": ["clothing_store", "shoe_store", "point_of_interest", "store", "establishment"], "rating": 4.3, "user_ratings_total": 1403}, "ChIJl1l3INQEdkgR9NcwIm5QKmQ": {"geometry": {"location": {"lat": 51.50925679999999, "lng": -0.1368308}, "viewport": {"northeast": {"lat": 51.5105383302915, "lng": -0.135439219708498}, "southwest": {"lat": 51.5078403697085, "lng": -0.138137180291502}}}, "name": "Caff\u00e8 Concerto Piccadilly", "place_id": "ChIJl1l3INQEdkgR9NcwIm5QKmQ", "types": ["bakery", "cafe", "restaurant", "food", "point_of_interest", "store", "establishment"], "rating": 3.5, "user_ratings_total": 995}, "ChIJqSJAm9YEdkgRWUJQEOdFOSI": {"geometry": {"location": {"lat": 51.50934489999999, "lng": -0.1371609}, "viewport": {"northeast": {"lat": 51.51056693029151, "lng": -0.135692769708498}, "southwest": {"lat": 51.50786896970851, "lng": -0.138390730291502}}}, "name": "Restaurant Yoshino", "place_id": "ChIJqSJAm9YEdkgRWUJQEOdFOSI", "types": ["restaurant", "food", "point_of_interest", "establishment"], "rating": 4.3, "user_ratings_total": 306}, "ChIJ__xtj9YEdkgRGW6_KpVchuQ": {"geometry": {"location": {"lat": 51.50903810000001, "lng": -0.1375593}, "viewport": {"northeast": {"lat": 51.5103462302915, "lng": -0.136300719708498}, "southwest": {"lat": 51.5076482697085, "lng": -0.138998680291502}}}, "name": "Lloyds Bank", "place_id": "ChIJ__xtj9YEdkgRGW6_KpVchuQ", "types": ["bank", "atm", "finance", "point_of_interest", "establishment"], "rating": 2.6, "user_ratings_total": 25}, "ChIJaUryvNYEdkgRPrpyIEzQHJE": {"geometry": {"location": {"lat": 51.50911809999999, "lng": -0.136271}, "viewport": {"northeast": {"lat": 51.5104891302915, "lng": -0.134967319708498}, "southwest": {"lat": 51.5077911697085, "lng": -0.137665280291502}}}, "name": "Kahve Dunyasi", "place_id": "ChIJaUryvNYEdkgRPrpyIEzQHJE", "types": ["cafe", "bakery", "food", "point_of_interest", "store", "establishment"], "rating": 4.2, "user_ratings_total": 1054}, "ChIJX8DZQ9YEdkgR1mD2H8pplrU": {"geometry": {"location": {"lat": 51.5092731, "lng": -0.1371696}, "viewport": {"northeast": {"lat": 51.5105071302915, "lng": -0.135725869708498}, "southwest": {"lat": 51.5078091697085, "lng": -0.138423830291502}}}, "name": "Webster Partners Ltd", "place_id": "ChIJX8DZQ9YEdkgR1mD2H8pplrU", "types": ["point_of_interest", "establishment"]}, "ChIJgWJOodYEdkgRV4JHzX3gUt4": {"geometry": {"location": {"lat": 51.509426, "lng": -0.1364362}, "viewport": {"northeast": {"lat": 51.5106981302915, "lng": -0.134968269708498}, "southwest": {"lat": 51.5080001697085, "lng": -0.137666230291502}}}, "name": "Premier a V", "place_id": "ChIJgWJOodYEdkgRV4JHzX3gUt4", "types": ["electronics_store", "home_goods_store", "point_of_interest", "store", "establishment"]}, "ChIJySoHkNYEdkgRpUGLR4vFCVU": {"geometry": {"location": {"lat": 51.5092731, "lng": -0.1371696}, "viewport": {"northeast": {"lat": 51.5105071302915, "lng": -0.135725869708498}, "southwest": {"lat": 51.5078091697085, "lng": -0.138423830291502}}}, "name": "Law Offices of Suzanne Reisman", "place_id": "ChIJySoHkNYEdkgRpUGLR4vFCVU", "types": ["lawyer", "point_of_interest", "establishment"]}, "ChIJ0fI0BdYEdkgRkUpff_mTte4": {"geometry": {"location": {"lat": 51.5094619, "lng": -0.1374397}, "viewport": {"northeast": {"lat": 51.5107999302915, "lng": -0.136086319708498}, "southwest": {"lat": 51.50810196970851, "lng": -0.138784280291502}}}, "name": "Bruford and Carr", "place_id": "ChIJ0fI0BdYEdkgRkUpff_mTte4", "types": ["jewelry_store", "point_of_interest", "store", "establishment"]}, "ChIJt5CGQdYEdkgR4hvLHWhzNqI": {"geometry": {"location": {"lat": 51.5091504, "lng": -0.1369468}, "viewport": {"northeast": {"lat": 51.5104620802915, "lng": -0.135582869708498}, "southwest": {"lat": 51.5077641197085, "lng": -0.138280830291502}}}, "name": "Libra Europe Consulting Ltd", "place_id": "ChIJt5CGQdYEdkgR4hvLHWhzNqI", "types": ["point_of_interest", "establishment"], "rating": 5, "user_ratings_total": 1}, "ChIJh0EbHtQEdkgRlNi7l8wJhhw": {"geometry": {"location": {"lat": 51.5097456, "lng": -0.1364815}, "viewport": {"northeast": {"lat": 51.5111141302915, "lng": -0.134955019708498}, "southwest": {"lat": 51.5084161697085, "lng": -0.137652980291502}}}, "name": "Whittard of Chelsea Regent Street", "place_id": "ChIJh0EbHtQEdkgRlNi7l8wJhhw", "types": ["cafe", "food", "point_of_interest", "store", "establishment"], "rating": 4.4, "user_ratings_total": 304}, "ChIJXUIiodYEdkgR0Jx8jxd0-oM": {"geometry": {"location": {"lat": 51.50941249999999, "lng": -0.1365743}, "viewport": {"northeast": {"lat": 51.51067188029149, "lng": -0.135157219708498}, "southwest": {"lat": 51.50797391970849, "lng": -0.137855180291502}}}, "name": "Jon Mortimer & Co Personal Training", "place_id": "ChIJXUIiodYEdkgR0Jx8jxd0-oM", "types": ["gym", "health", "point_of_interest", "establishment"], "rating": 5, "user_ratings_total": 11}, "ChIJWW6-mNYEdkgRRM_nNf8VrW8": {"geometry": {"location": {"lat": 51.50927249999999, "lng": -0.1365903}, "viewport": {"northeast": {"lat": 51.51058128029149, "lng": -0.135217969708498}, "southwest": {"lat": 51.5078833197085, "lng": -0.137915930291502}}}, "name": "Caff\u00e8 Nero", "place_id": "ChIJWW6-mNYEdkgRRM_nNf8VrW8", "types": ["cafe", "food", "point_of_interest", "store", "establishment"], "rating": 3.9, "user_ratings_total": 703}, "ChIJoXlqm9YEdkgRs0bJ3-AE-KI": {"geometry": {"location": {"lat": 51.5092731, "lng": -0.1371695}, "viewport": {"northeast": {"lat": 51.5105071802915, "lng": -0.135725819708498}, "southwest": {"lat": 51.50780921970851, "lng": -0.138423780291502}}}, "name": "Trousset Fawcett", "place_id": "ChIJoXlqm9YEdkgRs0bJ3-AE-KI", "types": ["finance", "point_of_interest", "establishment"]}, "ChIJoXlqm9YEdkgRrwgqoxrPU0E": {"geometry": {"location": {"lat": 51.5092731, "lng": -0.1371695}, "viewport": {"northeast": {"lat": 51.5105071802915, "lng": -0.135725819708498}, "southwest": {"lat": 51.50780921970851, "lng": -0.138423780291502}}}, "name": "Colville Partners", "place_id": "ChIJoXlqm9YEdkgRrwgqoxrPU0E", "types": ["finance", "point_of_interest", "establishment"]}, "ChIJoXlqm9YEdkgRhjacu4hkSP8": {"geometry": {"location": {"lat": 51.5092731, "lng": -0.1371695}, "viewport": {"northeast": {"lat": 51.5105071802915, "lng": -0.135725819708498}, "southwest": {"lat": 51.50780921970851, "lng": -0.138423780291502}}}, "name": "Maxwell Asset Management", "place_id": "ChIJoXlqm9YEdkgRhjacu4hkSP8", "types": ["finance", "point_of_interest", "establishment"]}, "ChIJp3lqm9YEdkgRtICr9o5GujQ": {"geometry": {"location": {"lat": 51.5092731, "lng": -0.1371696}, "viewport": {"northeast": {"lat": 51.5105071302915, "lng": -0.135725869708498}, "southwest": {"lat": 51.5078091697085, "lng": -0.138423830291502}}}, "name": "Carsey Werner Distributions", "place_id": "ChIJp3lqm9YEdkgRtICr9o5GujQ", "types": ["point_of_interest", "establishment"]}, "ChIJWUARm9YEdkgR-LpzUoOj6Ms": {"geometry": {"location": {"lat": 51.50918230000001, "lng": -0.1370457}, "viewport": {"northeast": {"lat": 51.51047773029151, "lng": -0.135760769708498}, "southwest": {"lat": 51.50777976970851, "lng": -0.138458730291502}}}, "name": "Crosstown Piccadilly - Doughnuts, Ice Cream, Cookies & Coffee", "place_id": "ChIJWUARm9YEdkgR-LpzUoOj6Ms", "types": ["cafe", "bakery", "food", "point_of_interest", "store", "establishment"], "rating": 4.3, "user_ratings_total": 277}, "ChIJqSJAm9YEdkgRCqQlXXjEOtc": {"geometry": {"location": {"lat": 51.509266, "lng": -0.1371733}, "viewport": {"northeast": {"lat": 51.5105023802915, "lng": -0.135728719708498}, "southwest": {"lat": 51.50780441970851, "lng": -0.138426680291502}}}, "name": "Directors' Secretaries", "place_id": "ChIJqSJAm9YEdkgRCqQlXXjEOtc", "types": ["point_of_interest", "establishment"]}, "ChIJEaEYodYEdkgRR7nrIONBh_g": {"geometry": {"location": {"lat": 51.509426, "lng": -0.1364362}, "viewport": {"northeast": {"lat": 51.5106981302915, "lng": -0.135020319708498}, "southwest": {"lat": 51.5080001697085, "lng": -0.137718280291502}}}, "name": "Downstairs at The Dilly", "place_id": "ChIJEaEYodYEdkgRR7nrIONBh_g", "types": ["bar", "point_of_interest", "establishment"], "rating": 4.6, "user_ratings_total": 45}, "ChIJK4zwodYEdkgROlGXiAQZh9I": {"geometry": {"location": {"lat": 51.509378, "lng": -0.1364016}, "viewport": {"northeast": {"lat": 51.5106774302915, "lng": -0.134950969708498}, "southwest": {"lat": 51.5079794697085, "lng": -0.137648930291502}}}, "name": "Runners Need Piccadilly", "place_id": "ChIJK4zwodYEdkgROlGXiAQZh9I", "types": ["point_of_interest", "clothing_store", "store", "establishment"], "rating": 3.9, "user_ratings_total": 49}, "ChIJZSBVhNYEdkgRDDGoeAn1qM4": {"geometry": {"location": {"lat": 51.509186, "lng": -0.137392}, "viewport": {"northeast": {"lat": 51.51055083029151, "lng": -0.135996369708498}, "southwest": {"lat": 51.50785286970851, "lng": -0.138694330291502}}}, "name": "Photo Democracy", "place_id": "ChIJZSBVhNYEdkgRDDGoeAn1qM4", "types": ["art_gallery", "point_of_interest", "establishment"], "rating": 5, "user_ratings_total": 1}, "ChIJ5wssKNQEdkgR9wukWhsLQ8I": {"geometry": {"location": {"lat": 51.50968580000001, "lng": -0.1370259000000001}, "viewport": {"northeast": {"lat": 51.5110260802915, "lng": -0.135872019708498}, "southwest": {"lat": 51.5083281197085, "lng": -0.138569980291502}}}, "name": "Patron Capital Advisers", "place_id": "ChIJ5wssKNQEdkgR9wukWhsLQ8I", "types": ["finance", "point_of_interest", "establishment"]}, "ChIJWUyuNtQEdkgRABQzB0le-O4": {"geometry": {"location": {"lat": 51.509244, "lng": -0.1374118}, "viewport": {"northeast": {"lat": 51.51060148029151, "lng": -0.136037869708498}, "southwest": {"lat": 51.50790351970851, "lng": -0.138735830291502}}}, "name": "M Photography", "place_id": "ChIJWUyuNtQEdkgRABQzB0le-O4", "types": ["point_of_interest", "establishment"], "rating": 3.3, "user_ratings_total": 77}, "ChIJ7cfpINQEdkgRrSiJdMSvHUI": {"geometry": {"location": {"lat": 51.50972600000001, "lng": -0.1367828}, "viewport": {"northeast": {"lat": 51.5111309302915, "lng": -0.135341669708498}, "southwest": {"lat": 51.5084329697085, "lng": -0.138039630291502}}}, "name": "Barbour", "place_id": "ChIJ7cfpINQEdkgRrSiJdMSvHUI", "types": ["clothing_store", "point_of_interest", "store", "establishment"], "rating": 4.2, "user_ratings_total": 375}, "ChIJQapXnNYEdkgRgLaqlzR72gE": {"geometry": {"location": {"lat": 51.5095925, "lng": -0.1373475}, "viewport": {"northeast": {"lat": 51.51104473029149, "lng": -0.135993969708498}, "southwest": {"lat": 51.5083467697085, "lng": -0.138691930291502}}}, "name": "Boussard & Gavaudan Asset Management LP", "place_id": "ChIJQapXnNYEdkgRgLaqlzR72gE", "types": ["finance", "point_of_interest", "establishment"]}, "ChIJG4wWn9YEdkgReoek5-tp5rA": {"geometry": {"location": {"lat": 51.509414, "lng": -0.1362527}, "viewport": {"northeast": {"lat": 51.5107146802915, "lng": -0.134861669708498}, "southwest": {"lat": 51.5080167197085, "lng": -0.1375596302915021}}}, "name": "Terrace at The Dilly", "place_id": "ChIJG4wWn9YEdkgReoek5-tp5rA", "types": ["restaurant", "food", "point_of_interest", "establishment"], "rating": 4.1, "user_ratings_total": 148}, "ChIJTZpzoNYEdkgRIQVnNrNteqE": {"geometry": {"location": {"lat": 51.5096484, "lng": -0.1364236}, "viewport": {"northeast": {"lat": 51.5110912802915, "lng": -0.134965869708498}, "southwest": {"lat": 51.5083933197085, "lng": -0.137663830291502}}}, "name": "Kiehl's Regent Street", "place_id": "ChIJTZpzoNYEdkgRIQVnNrNteqE", "types": ["health", "point_of_interest", "establishment"], "rating": 4.3, "user_ratings_total": 24}, "ChIJE6EYodYEdkgRcCNStj9vBqQ": {"geometry": {"location": {"lat": 51.50948349999999, "lng": -0.1362538}, "viewport": {"northeast": {"lat": 51.51075718029151, "lng": -0.134839269708498}, "southwest": {"lat": 51.50805921970851, "lng": -0.137537230291502}}}, "name": "Health Club at The Dilly", "place_id": "ChIJE6EYodYEdkgRcCNStj9vBqQ", "types": ["gym", "health", "point_of_interest", "establishment"], "rating": 3.8, "user_ratings_total": 5}, "ChIJeTzGv9YEdkgRV8kb1Hy6UZQ": {"geometry": {"location": {"lat": 51.5090403, "lng": -0.1373333}, "viewport": {"northeast": {"lat": 51.51034518029149, "lng": -0.1359455697084979}, "southwest": {"lat": 51.5076472197085, "lng": -0.138643530291502}}}, "name": "Montrose Associates", "place_id": "ChIJeTzGv9YEdkgRV8kb1Hy6UZQ", "types": ["point_of_interest", "establishment"]}, "ChIJn166eCEFdkgRCl9xoM4XWdU": {"geometry": {"location": {"lat": 51.5096302, "lng": -0.137402}, "viewport": {"northeast": {"lat": 51.5110466802915, "lng": -0.136005269708498}, "southwest": {"lat": 51.5083487197085, "lng": -0.138703230291502}}}, "name": "The PTI", "place_id": "ChIJn166eCEFdkgRCl9xoM4XWdU", "types": ["point_of_interest", "establishment"]}, "ChIJieGshdYEdkgR06yY30iOuXE": {"geometry": {"location": {"lat": 51.509172, "lng": -0.1374797}, "viewport": {"northeast": {"lat": 51.5104069802915, "lng": -0.136030569708498}, "southwest": {"lat": 51.5077090197085, "lng": -0.138728530291502}}}, "name": "Cash Capital", "place_id": "ChIJieGshdYEdkgR06yY30iOuXE", "types": ["finance", "point_of_interest", "establishment"]}, "ChIJi-GshdYEdkgR6uXI6P7RR6U": {"geometry": {"location": {"lat": 51.509172, "lng": -0.1374798}, "viewport": {"northeast": {"lat": 51.5104069802915, "lng": -0.136030669708498}, "southwest": {"lat": 51.5077090197085, "lng": -0.138728630291502}}}, "name": "Novagalicia Banco", "place_id": "ChIJi-GshdYEdkgR6uXI6P7RR6U", "types": ["bank", "finance", "point_of_interest", "establishment"]}, "ChIJl1l3INQEdkgRjshRjcz-1yE": {"geometry": {"location": {"lat": 51.5097378, "lng": -0.1365217}, "viewport": {"northeast": {"lat": 51.5111362302915, "lng": -0.135011319708498}, "southwest": {"lat": 51.5084382697085, "lng": -0.137709280291502}}}, "name": "Caff\u00e8 Concerto - Regent Street", "place_id": "ChIJl1l3INQEdkgRjshRjcz-1yE", "types": ["bakery", "cafe", "restaurant", "food", "point_of_interest", "store", "establishment"], "rating": 3.7, "user_ratings_total": 675}, "ChIJ-bz5g9YEdkgRfr31inmv7Tw": {"geometry": {"location": {"lat": 51.5093571, "lng": -0.1375924}, "viewport": {"northeast": {"lat": 51.5107532802915, "lng": -0.136173669708498}, "southwest": {"lat": 51.5080553197085, "lng": -0.138871630291502}}}, "name": "Grays Search and Selection and Grays Advisory", "place_id": "ChIJ-bz5g9YEdkgRfr31inmv7Tw", "types": ["point_of_interest", "establishment"]}, "ChIJ-7z5g9YEdkgR1k62nu-y9wM": {"geometry": {"location": {"lat": 51.5093571, "lng": -0.1375925}, "viewport": {"northeast": {"lat": 51.5107532802915, "lng": -0.136173719708498}, "southwest": {"lat": 51.5080553197085, "lng": -0.138871680291502}}}, "name": "Cordant Specialist Services", "place_id": "ChIJ-7z5g9YEdkgR1k62nu-y9wM", "types": ["lodging", "point_of_interest", "establishment"]}, "ChIJFR6hRykFdkgRfskFgpx0COk": {"geometry": {"location": {"lat": 51.5093571, "lng": -0.1375925}, "viewport": {"northeast": {"lat": 51.5107532802915, "lng": -0.136173719708498}, "southwest": {"lat": 51.5080553197085, "lng": -0.138871680291502}}}, "name": "SigmaRoc", "place_id": "ChIJFR6hRykFdkgRfskFgpx0COk", "types": ["point_of_interest", "establishment"]}, "ChIJFR6hRykFdkgRILP-tviikyI": {"geometry": {"location": {"lat": 51.5093571, "lng": -0.1375925}, "viewport": {"northeast": {"lat": 51.5107532802915, "lng": -0.136173719708498}, "southwest": {"lat": 51.5080553197085, "lng": -0.138871680291502}}}, "name": "Heytesbury Corporate LLP", "place_id": "ChIJFR6hRykFdkgRILP-tviikyI", "types": ["point_of_interest", "establishment"]}, "ChIJ02OUg9YEdkgRCF5Hwa_NngI": {"geometry": {"location": {"lat": 51.5093571, "lng": -0.1375925}, "viewport": {"northeast": {"lat": 51.5107532802915, "lng": -0.136173719708498}, "southwest": {"lat": 51.5080553197085, "lng": -0.138871680291502}}}, "name": "Cordant People London", "place_id": "ChIJ02OUg9YEdkgRCF5Hwa_NngI", "types": ["point_of_interest", "establishment"], "rating": 2.3, "user_ratings_total": 3}, "ChIJ-7z5g9YEdkgRc5IUfRD5iG0": {"geometry": {"location": {"lat": 51.50935699999999, "lng": -0.137593},