{"E00023436": {"ChIJmXx0t-oadkgRFvMMKbRY1r4": {"geometry": {"location": {"lat": 51.53709303515103, "lng": -0.1639499549554431}, "viewport": {"northeast": {"lat": 51.5384322802915, "lng": -0.162634219708498}, "southwest": {"lat": 51.5357343197085, "lng": -0.165332180291502}}}, "name": "Broxwood Way", "place_id": "ChIJmXx0t-oadkgRFvMMKbRY1r4", "types": ["route"]}, "ChIJQ5L0Z-oadkgR4_38ZiTbXXw": {"geometry": {"location": {"lat": 51.53668589999999, "lng": -0.1638433}, "viewport": {"northeast": {"lat": 51.5380720302915, "lng": -0.162406769708498}, "southwest": {"lat": 51.5353740697085, "lng": -0.165104730291502}}}, "name": "St Edmund's Terrace", "place_id": "ChIJQ5L0Z-oadkgR4_38ZiTbXXw", "types": ["point_of_interest", "establishment"], "rating": 4.6, "user_ratings_total": 5}, "ChIJe8q23owbdkgRo87GB9AW4N4": {"geometry": {"location": {"lat": 51.53709300000001, "lng": -0.16395}, "viewport": {"northeast": {"lat": 51.5384254802915, "lng": -0.162644069708498}, "southwest": {"lat": 51.5357275197085, "lng": -0.165342030291502}}}, "name": "Tow To a Garage St John's Wood", "place_id": "ChIJe8q23owbdkgRo87GB9AW4N4", "types": ["car_repair", "point_of_interest", "establishment"]}, "ChIJt4CTG3YbdkgRJXbddLrVH9o": {"geometry": {"location": {"lat": 51.53687110000001, "lng": -0.1637899}, "viewport": {"northeast": {"lat": 51.53822008029151, "lng": -0.162440919708498}, "southwest": {"lat": 51.53552211970851, "lng": -0.165138880291502}}}, "name": "Broxwood way", "place_id": "ChIJt4CTG3YbdkgRJXbddLrVH9o", "types": ["lodging", "point_of_interest", "establishment"]}, "ChIJ1UCpaoAbdkgRlAOHISHRBM0": {"geometry": {"location": {"lat": 51.53697959999999, "lng": -0.1648972}, "viewport": {"northeast": {"lat": 51.53846893029149, "lng": -0.163558719708498}, "southwest": {"lat": 51.53577096970849, "lng": -0.166256680291502}}}, "name": "DKey Boutique", "place_id": "ChIJ1UCpaoAbdkgRlAOHISHRBM0", "types": ["clothing_store", "point_of_interest", "store", "establishment"]}, "ChIJP3xiquoadkgRZKii4tS7OdY": {"geometry": {"location": {"lat": 51.53598848814994, "lng": -0.1644375883528978}, "viewport": {"northeast": {"lat": 51.53733743029149, "lng": -0.163088569708498}, "southwest": {"lat": 51.5346394697085, "lng": -0.165786530291502}}}, "name": "32 St Edmund's Terrace", "place_id": "ChIJP3xiquoadkgRZKii4tS7OdY", "types": ["route"]}, "ChIJQ11hAsAadkgRigjAqfF3Z2c": {"geometry": {"location": {"lat": 51.53602549999999, "lng": -0.1637743}, "viewport": {"northeast": {"lat": 51.5374515802915, "lng": -0.162504869708498}, "southwest": {"lat": 51.5347536197085, "lng": -0.165202830291502}}}, "name": "Handmaids Of The Sacred Heart Of Jesus", "place_id": "ChIJQ11hAsAadkgRigjAqfF3Z2c", "types": ["church", "place_of_worship", "point_of_interest", "establishment"], "rating": 5, "user_ratings_total": 8}, "ChIJu31vqOoadkgRWkePX_Uwg1w": {"geometry": {"location": {"lat": 51.5360454, "lng": -0.1639488}, "viewport": {"northeast": {"lat": 51.53744253029149, "lng": -0.162647569708498}, "southwest": {"lat": 51.53474456970849, "lng": -0.165345530291502}}}, "name": "Mother Nature Science Holiday Camp | St. John's Wood", "place_id": "ChIJu31vqOoadkgRWkePX_Uwg1w", "types": ["point_of_interest", "establishment"]}, "ChIJvdC5p-oadkgRU0F2Z8G5hUE": {"geometry": {"location": {"lat": 51.53610949999999, "lng": -0.1637394}, "viewport": {"northeast": {"lat": 51.5374584802915, "lng": -0.162390419708498}, "southwest": {"lat": 51.5347605197085, "lng": -0.1650883802915021}}}, "name": "Saint Christina's School", "place_id": "ChIJvdC5p-oadkgRU0F2Z8G5hUE", "types": ["primary_school", "school", "point_of_interest", "establishment"], "rating": 5, "user_ratings_total": 1}, "ChIJzbOa8m8bdkgR_3R3dXq0ZTQ": {"geometry": {"location": {"lat": 51.53604240000001, "lng": -0.1639457}, "viewport": {"northeast": {"lat": 51.5374410302915, "lng": -0.162646019708498}, "southwest": {"lat": 51.5347430697085, "lng": -0.165343980291502}}}, "name": "Jumpup Dance Academy", "place_id": "ChIJzbOa8m8bdkgR_3R3dXq0ZTQ", "types": ["point_of_interest", "establishment"]}, "ChIJQc4O7RkbdkgRG-d14lD4DEQ": {"geometry": {"location": {"lat": 51.53604180000001, "lng": -0.1647703}, "viewport": {"northeast": {"lat": 51.53731383029151, "lng": -0.163560869708498}, "southwest": {"lat": 51.53461586970851, "lng": -0.166258830291502}}}, "name": "Agata Pisula", "place_id": "ChIJQc4O7RkbdkgRG-d14lD4DEQ", "types": ["health", "point_of_interest", "establishment"]}, "ChIJb5hSC8AadkgRUyxdr0WUfpQ": {"geometry": {"location": {"lat": 51.53467221788576, "lng": -0.1641867951792448}, "viewport": {"northeast": {"lat": 51.5360208802915, "lng": -0.162837369708498}, "southwest": {"lat": 51.5333229197085, "lng": -0.165535330291502}}}, "name": "Prince Albert Road", "place_id": "ChIJb5hSC8AadkgRUyxdr0WUfpQ", "types": ["route"]}, "ChIJe37zC8AadkgRVR0yPW79vro": {"geometry": {"location": {"lat": 51.5347939, "lng": -0.1643745}, "viewport": {"northeast": {"lat": 51.53607883029149, "lng": -0.162937769708498}, "southwest": {"lat": 51.5333808697085, "lng": -0.165635730291502}}}, "name": "Imperial Court Ltd", "place_id": "ChIJe37zC8AadkgRVR0yPW79vro", "types": ["point_of_interest", "establishment"], "rating": 5, "user_ratings_total": 1}, "ChIJ-VvZE8AadkgRGrEB6ykjXoE": {"geometry": {"location": {"lat": 51.534918, "lng": -0.163634}, "viewport": {"northeast": {"lat": 51.5362528302915, "lng": -0.162311019708498}, "southwest": {"lat": 51.5335548697085, "lng": -0.165008980291502}}}, "name": "Avenue Road St John's Wood", "place_id": "ChIJ-VvZE8AadkgRGrEB6ykjXoE", "types": ["transit_station", "point_of_interest", "establishment"]}, "ChIJabymDsAadkgR-EFovOTKzlc": {"geometry": {"location": {"lat": 51.5349535, "lng": -0.1641867}, "viewport": {"northeast": {"lat": 51.5362227802915, "lng": -0.162725069708498}, "southwest": {"lat": 51.5335248197085, "lng": -0.165423030291502}}}, "name": "Central Park Estates Limited", "place_id": "ChIJabymDsAadkgR-EFovOTKzlc", "types": ["real_estate_agency", "point_of_interest", "establishment"]}, "ChIJL9RGC8AadkgRx3SHR2X0SDI": {"geometry": {"location": {"lat": 51.534668, "lng": -0.164329}, "viewport": {"northeast": {"lat": 51.53599938029149, "lng": -0.162954819708498}, "southwest": {"lat": 51.53330141970849, "lng": -0.165652780291502}}}, "name": "Avenue Road (Stop G)", "place_id": "ChIJL9RGC8AadkgRx3SHR2X0SDI", "types": ["transit_station", "point_of_interest", "establishment"]}, "ChIJR5Ivh9EbdkgRJ7f-1YyWuAo": {"geometry": {"location": {"lat": 51.5391024, "lng": -0.1650869}, "viewport": {"northeast": {"lat": 51.5398622302915, "lng": -0.163648469708498}, "southwest": {"lat": 51.5371642697085, "lng": -0.166346430291502}}}, "name": "Primrose Hill 11 Aside Football Pitches", "place_id": "ChIJR5Ivh9EbdkgRJ7f-1YyWuAo", "types": ["point_of_interest", "establishment"]}, "ChIJ8Z-0bpUadkgR3ItUSHt0E20": {"geometry": {"location": {"lat": 51.53686044880518, "lng": -0.1664454819927253}, "viewport": {"northeast": {"lat": 51.5382071302915, "lng": -0.165100219708498}, "southwest": {"lat": 51.5355091697085, "lng": -0.167798180291502}}}, "name": "25-37 Avenue Road", "place_id": "ChIJ8Z-0bpUadkgR3ItUSHt0E20", "types": ["route"]}, "ChIJ6TXEWZUadkgRiS-1nTO6AQo": {"geometry": {"location": {"lat": 51.53615146172387, "lng": -0.1654249433909662}, "viewport": {"northeast": {"lat": 51.5375009802915, "lng": -0.164075069708498}, "southwest": {"lat": 51.53480301970851, "lng": -0.166773030291502}}}, "name": "15-25 Avenue Road", "place_id": "ChIJ6TXEWZUadkgRiS-1nTO6AQo", "types": ["route"]}, "ChIJO2-P3b8adkgR--jO60-jGTM": {"geometry": {"location": {"lat": 51.535457, "lng": -0.1661565}, "viewport": {"northeast": {"lat": 51.5367497302915, "lng": -0.1647390697084979}, "southwest": {"lat": 51.5340517697085, "lng": -0.167437030291502}}}, "name": "The New Inn Restaurant - St Johns Wood", "place_id": "ChIJO2-P3b8adkgR--jO60-jGTM", "types": ["restaurant", "bar", "food", "point_of_interest", "establishment"], "rating": 4, "user_ratings_total": 296}, "ChIJAb38dCcbdkgRSA6hLT2JhuM": {"geometry": {"location": {"lat": 51.535457, "lng": -0.1661565}, "viewport": {"northeast": {"lat": 51.53684373029149, "lng": -0.164730869708498}, "southwest": {"lat": 51.5341457697085, "lng": -0.167428830291502}}}, "name": "St Johns Boutique Hotel", "place_id": "ChIJAb38dCcbdkgRSA6hLT2JhuM", "types": ["lodging", "point_of_interest", "establishment"], "rating": 5, "user_ratings_total": 2}, "ChIJ__-b3b8adkgRn9vXjSqHqNU": {"geometry": {"location": {"lat": 51.53544710000001, "lng": -0.1661634}, "viewport": {"northeast": {"lat": 51.53674193029151, "lng": -0.164748519708498}, "southwest": {"lat": 51.53404396970851, "lng": -0.167446480291502}}}, "name": "Lsdp Ltd", "place_id": "ChIJ__-b3b8adkgRn9vXjSqHqNU", "types": ["point_of_interest", "establishment"]}, "ChIJ__-b3b8adkgReUb5FYr8Byw": {"geometry": {"location": {"lat": 51.53544710000001, "lng": -0.1661634}, "viewport": {"northeast": {"lat": 51.53674193029151, "lng": -0.164748519708498}, "southwest": {"lat": 51.53404396970851, "lng": -0.167446480291502}}}, "name": "Room 1", "place_id": "ChIJ__-b3b8adkgReUb5FYr8Byw", "types": ["lodging", "point_of_interest", "establishment"]}, "ChIJo7mW778adkgREJ2RO6CS3bc": {"geometry": {"location": {"lat": 51.53518201313759, "lng": -0.1655023022033512}, "viewport": {"northeast": {"lat": 51.5365402802915, "lng": -0.164122969708498}, "southwest": {"lat": 51.5338423197085, "lng": -0.166820930291502}}}, "name": "Townshend Road", "place_id": "ChIJo7mW778adkgREJ2RO6CS3bc", "types": ["route"]}, "ChIJ3TzNlL8adkgRevRK1RzgiaU": {"geometry": {"location": {"lat": 51.5346009, "lng": -0.1658558}, "viewport": {"northeast": {"lat": 51.5359315802915, "lng": -0.1645321197084979}, "southwest": {"lat": 51.5332336197085, "lng": -0.167230080291502}}}, "name": "ubitricity Charging Station", "place_id": "ChIJ3TzNlL8adkgRevRK1RzgiaU", "types": ["point_of_interest", "establishment"]}, "ChIJfYFciskbdkgRz-sxc_Yw_XQ": {"geometry": {"location": {"lat": 51.53503709999999, "lng": -0.1656089}, "viewport": {"northeast": {"lat": 51.5364367302915, "lng": -0.164172169708498}, "southwest": {"lat": 51.5337387697085, "lng": -0.166870130291502}}}, "name": "Goldhurst Art Advisory", "place_id": "ChIJfYFciskbdkgRz-sxc_Yw_XQ", "types": ["point_of_interest", "establishment"], "rating": 5, "user_ratings_total": 2}, "ChIJa7j8wL8adkgREVpZB2wALkU": {"geometry": {"location": {"lat": 51.534724, "lng": -0.1663435}, "viewport": {"northeast": {"lat": 51.53610113029149, "lng": -0.164949119708498}, "southwest": {"lat": 51.5334031697085, "lng": -0.167647080291502}}}, "name": "Ian and Nick", "place_id": "ChIJa7j8wL8adkgREVpZB2wALkU", "types": ["point_of_interest", "establishment"]}, "ChIJiwR57r8adkgRNoMpdcZueW4": {"geometry": {"location": {"lat": 51.5352338, "lng": -0.1659353}, "viewport": {"northeast": {"lat": 51.53663058029149, "lng": -0.164644469708498}, "southwest": {"lat": 51.5339326197085, "lng": -0.167342430291502}}}, "name": "Townshend Court", "place_id": "ChIJiwR57r8adkgRNoMpdcZueW4", "types": ["point_of_interest", "establishment"], "rating": 4.8, "user_ratings_total": 23}, "ChIJzc4Fw78adkgR8A1Dv9RWuqc": {"geometry": {"location": {"lat": 51.535122, "lng": -0.166313}, "viewport": {"northeast": {"lat": 51.5364983302915, "lng": -0.164996519708498}, "southwest": {"lat": 51.5338003697085, "lng": -0.167694480291502}}}, "name": "ubitricity Charging Station", "place_id": "ChIJzc4Fw78adkgR8A1Dv9RWuqc", "types": ["point_of_interest", "establishment"]}, "ChIJA4GH91gbdkgR3hSTp-u2xjg": {"geometry": {"location": {"lat": 51.53494999999999, "lng": -0.1665462}, "viewport": {"northeast": {"lat": 51.5362855302915, "lng": -0.165219119708498}, "southwest": {"lat": 51.5335875697085, "lng": -0.167917080291502}}}, "name": "Upright Physio & Pilates", "place_id": "ChIJA4GH91gbdkgR3hSTp-u2xjg", "types": ["health", "point_of_interest", "establishment"]}, "ChIJHS9M8L8adkgRQBFYpCtuXfI": {"geometry": {"location": {"lat": 51.5350185, "lng": -0.1651344}, "viewport": {"northeast": {"lat": 51.5363492302915, "lng": -0.163818519708498}, "southwest": {"lat": 51.5336512697085, "lng": -0.166516480291502}}}, "name": "ubitricity Charging Station", "place_id": "ChIJHS9M8L8adkgRQBFYpCtuXfI", "types": ["point_of_interest", "establishment"]}, "ChIJ_ZuPxr8adkgRHs5PX68fZrk": {"geometry": {"location": {"lat": 51.5348769, "lng": -0.1666268}, "viewport": {"northeast": {"lat": 51.53626083029149, "lng": -0.165221019708498}, "southwest": {"lat": 51.5335628697085, "lng": -0.167918980291502}}}, "name": "Eamont Court", "place_id": "ChIJ_ZuPxr8adkgRHs5PX68fZrk", "types": ["point_of_interest", "establishment"], "rating": 3, "user_ratings_total": 1}, "ChIJ8ah6rJUadkgRropuOgoRQ2Y": {"geometry": {"location": {"lat": 51.53833615058327, "lng": -0.1679337522697027}, "viewport": {"northeast": {"lat": 51.5396851302915, "lng": -0.166584769708498}, "southwest": {"lat": 51.5369871697085, "lng": -0.169282730291502}}}, "name": "Radlett Place", "place_id": "ChIJ8ah6rJUadkgRropuOgoRQ2Y", "types": ["route"]}, "ChIJJWAQu5UadkgRft9AzaKWu08": {"geometry": {"location": {"lat": 51.53769070068275, "lng": -0.1684414020518344}, "viewport": {"northeast": {"lat": 51.5390396802915, "lng": -0.167092419708498}, "southwest": {"lat": 51.5363417197085, "lng": -0.169790380291502}}}, "name": "47 Acacia Rd", "place_id": "ChIJJWAQu5UadkgRft9AzaKWu08", "types": ["route"]}, "ChIJKR-2CZUadkgRfvxuXGAKqi0": {"geometry": {"location": {"lat": 51.5377149, "lng": -0.1674079}, "viewport": {"northeast": {"lat": 51.5390191802915, "lng": -0.166136669708498}, "southwest": {"lat": 51.5363212197085, "lng": -0.168834630291502}}}, "name": "Hayley Lehmann Photography - Wedding Photography London", "place_id": "ChIJKR-2CZUadkgRfvxuXGAKqi0", "types": ["point_of_interest", "establishment"]}, "ChIJwxSyCZUadkgR8ZJh-gPmuCo": {"geometry": {"location": {"lat": 51.5377095, "lng": -0.1674472}, "viewport": {"northeast": {"lat": 51.53902113029149, "lng": -0.166163219708498}, "southwest": {"lat": 51.5363231697085, "lng": -0.168861180291502}}}, "name": "Forecast Furniture Ltd", "place_id": "ChIJwxSyCZUadkgR8ZJh-gPmuCo", "types": ["furniture_store", "home_goods_store", "point_of_interest", "store", "establishment"]}, "ChIJwxSyCZUadkgRk_gIJrSuB7Y": {"geometry": {"location": {"lat": 51.5377095, "lng": -0.1674472}, "viewport": {"northeast": {"lat": 51.53902113029149, "lng": -0.166163219708498}, "southwest": {"lat": 51.5363231697085, "lng": -0.168861180291502}}}, "name": "Good Grooming Ltd", "place_id": "ChIJwxSyCZUadkgRk_gIJrSuB7Y", "types": ["real_estate_agency", "point_of_interest", "establishment"]}, "ChIJx5vQDJUadkgRvVAA-vookGY": {"geometry": {"location": {"lat": 51.53727210002722, "lng": -0.1670561499009802}, "viewport": {"northeast": {"lat": 51.53862108029151, "lng": -0.165707169708498}, "southwest": {"lat": 51.53592311970851, "lng": -0.168405130291502}}}, "name": "39 Avenue Road", "place_id": "ChIJx5vQDJUadkgRvVAA-vookGY", "types": ["route"]}, "ChIJUdby1b8adkgRxoSNM_D-QsM": {"geometry": {"location": {"lat": 51.5358502005647, "lng": -0.1673691013637734}, "viewport": {"northeast": {"lat": 51.5371991802915, "lng": -0.166020119708498}, "southwest": {"lat": 51.5345012197085, "lng": -0.168718080291502}}}, "name": "Saint John's Wood Terrace", "place_id": "ChIJUdby1b8adkgRxoSNM_D-QsM", "types": ["route"]}, "ChIJdc4UgJUadkgR_eGpffZFvW4": {"geometry": {"location": {"lat": 51.536014, "lng": -0.1675247}, "viewport": {"northeast": {"lat": 51.5372873802915, "lng": -0.166084419708498}, "southwest": {"lat": 51.5345894197085, "lng": -0.168782380291502}}}, "name": "St Martins in the Fields Almshouse Charity", "place_id": "ChIJdc4UgJUadkgR_eGpffZFvW4", "types": ["health", "point_of_interest", "establishment"], "rating": 2, "user_ratings_total": 1}, "ChIJ5091Eb4adkgRVLCBzEsOZNk": {"geometry": {"location": {"lat": 51.53553149999999, "lng": -0.1676279}, "viewport": {"northeast": {"lat": 51.53694653029149, "lng": -0.166351069708498}, "southwest": {"lat": 51.5342485697085, "lng": -0.169049030291502}}}, "name": "Adventure Play Hub", "place_id": "ChIJ5091Eb4adkgRVLCBzEsOZNk", "types": ["point_of_interest", "establishment"], "rating": 5, "user_ratings_total": 5}, "ChIJQ6ly1b8adkgRF5D050TixlI": {"geometry": {"location": {"lat": 51.53583699999999, "lng": -0.16743}, "viewport": {"northeast": {"lat": 51.5372014302915, "lng": -0.166099669708498}, "southwest": {"lat": 51.5345034697085, "lng": -0.168797630291502}}}, "name": "Landcruiser Spares", "place_id": "ChIJQ6ly1b8adkgRF5D050TixlI", "types": ["car_repair", "point_of_interest", "store", "establishment"]}, "ChIJL2RK44obdkgRKGOSrDYmxYA": {"geometry": {"location": {"lat": 51.53584600000001, "lng": -0.1673782}, "viewport": {"northeast": {"lat": 51.5371697802915, "lng": -0.165998819708498}, "southwest": {"lat": 51.5344718197085, "lng": -0.1686967802915021}}}, "name": "Fine Tutors St John's wood", "place_id": "ChIJL2RK44obdkgRKGOSrDYmxYA", "types": ["point_of_interest", "establishment"]}, "ChIJhbr_0L8adkgRwdzhxMyGkXU": {"geometry": {"location": {"lat": 51.53562199999999, "lng": -0.1673804}, "viewport": {"northeast": {"lat": 51.5369059302915, "lng": -0.165955569708498}, "southwest": {"lat": 51.5342079697085, "lng": -0.168653530291502}}}, "name": "Turner House", "place_id": "ChIJhbr_0L8adkgRwdzhxMyGkXU", "types": ["point_of_interest", "establishment"]}, "ChIJL6ertwQbdkgRzyWjUMa0uWA": {"geometry": {"location": {"lat": 51.53569220000001, "lng": -0.1671312}, "viewport": {"northeast": {"lat": 51.53698993029151, "lng": -0.165722469708498}, "southwest": {"lat": 51.53429196970851, "lng": -0.168420430291502}}}, "name": "Training Dog", "place_id": "ChIJL6ertwQbdkgRzyWjUMa0uWA", "types": ["point_of_interest", "establishment"], "rating": 5, "user_ratings_total": 3}, "ChIJ94FEeZUadkgR2wsLJHQjjfw": {"geometry": {"location": {"lat": 51.53630799999999, "lng": -0.16726}, "viewport": {"northeast": {"lat": 51.5376641302915, "lng": -0.165877269708498}, "southwest": {"lat": 51.5349661697085, "lng": -0.168575230291502}}}, "name": "ubitricity Charging Station", "place_id": "ChIJ94FEeZUadkgR2wsLJHQjjfw", "types": ["point_of_interest", "establishment"]}, "ChIJRSVizh8bdkgRRdbCkoHBcEM": {"geometry": {"location": {"lat": 51.5360932, "lng": -0.1668491}, "viewport": {"northeast": {"lat": 51.5374421802915, "lng": -0.165500119708498}, "southwest": {"lat": 51.5347442197085, "lng": -0.168198080291502}}}, "name": "Renaissance Advisory Services Limited", "place_id": "ChIJRSVizh8bdkgRRdbCkoHBcEM", "types": ["point_of_interest", "establishment"]}, "ChIJmVQoSr4adkgRROUWp97TDXQ": {"geometry": {"location": {"lat": 51.53450505018203, "lng": -0.1678392504225946}, "viewport": {"northeast": {"lat": 51.5358540302915, "lng": -0.166490269708498}, "southwest": {"lat": 51.5331560697085, "lng": -0.169188230291502}}}, "name": "66-54 Allitsen Rd", "place_id": "ChIJmVQoSr4adkgRROUWp97TDXQ", "types": ["route"]}, "ChIJw5SDzr8adkgRseNxXn2AjaA": {"geometry": {"location": {"lat": 51.53503480000001, "lng": -0.1672193}, "viewport": {"northeast": {"lat": 51.53640673029149, "lng": -0.165897619708498}, "southwest": {"lat": 51.5337087697085, "lng": -0.168595580291502}}}, "name": "All Translation", "place_id": "ChIJw5SDzr8adkgRseNxXn2AjaA", "types": ["point_of_interest", "establishment"]}, "ChIJS-Optb8adkgReQoehpk4eTs": {"geometry": {"location": {"lat": 51.53446210000001, "lng": -0.1673758}, "viewport": {"northeast": {"lat": 51.5358505302915, "lng": -0.165959419708498}, "southwest": {"lat": 51.5331525697085, "lng": -0.168657380291502}}}, "name": "St Johns Wood Luxury Travel", "place_id": "ChIJS-Optb8adkgReQoehpk4eTs", "types": ["travel_agency", "point_of_interest", "establishment"]}, "ChIJc_A3tb8adkgRw1KWSDgkj_I": {"geometry": {"location": {"lat": 51.534531, "lng": -0.167441}, "viewport": {"northeast": {"lat": 51.5359301802915, "lng": -0.166150719708498}, "southwest": {"lat": 51.5332322197085, "lng": -0.168848680291502}}}, "name": "Passion Hair", "place_id": "ChIJc_A3tb8adkgRw1KWSDgkj_I", "types": ["hair_care", "point_of_interest", "establishment"], "rating": 3.9, "user_ratings_total": 134}, "ChIJ6bWgSr4adkgReQebYafzCjk": {"geometry": {"location": {"lat": 51.534598, "lng": -0.167632}, "viewport": {"northeast": {"lat": 51.5359215802915, "lng": -0.166253369708498}, "southwest": {"lat": 51.5332236197085, "lng": -0.168951330291502}}}, "name": "ENERGY PERFORMANCE CERTIFICATES: EPC SERVICES", "place_id": "ChIJ6bWgSr4adkgReQebYafzCjk", "types": ["point_of_interest", "establishment"]}, "ChIJiQPZdnobdkgR6MUptlEyVwE": {"geometry": {"location": {"lat": 51.534598, "lng": -0.1676323}, "viewport": {"northeast": {"lat": 51.53594698029149, "lng": -0.166283319708498}, "southwest": {"lat": 51.53324901970849, "lng": -0.168981280291502}}}, "name": "Truck Jump Start St John's Wood", "place_id": "ChIJiQPZdnobdkgR6MUptlEyVwE", "types": ["car_repair", "point_of_interest", "establishment"]}, "ChIJre3QSL4adkgRHmSr49Lpmks": {"geometry": {"location": {"lat": 51.5345675, "lng": -0.1674604}, "viewport": {"northeast": {"lat": 51.53595188029151, "lng": -0.166152819708498}, "southwest": {"lat": 51.53325391970851, "lng": -0.168850780291502}}}, "name": "Whisson News & Food London", "place_id": "ChIJre3QSL4adkgRHmSr49Lpmks", "types": ["convenience_store", "food", "point_of_interest", "store", "establishment"], "rating": 3.7, "user_ratings_total": 7}, "ChIJM-UEyr8adkgR9LwJrWdEnYo": {"geometry": {"location": {"lat": 51.5346369, "lng": -0.167226}, "viewport": {"northeast": {"lat": 51.5359610302915, "lng": -0.165919469708498}, "southwest": {"lat": 51.5332630697085, "lng": -0.168617430291502}}}, "name": "ubitricity Charging Station", "place_id": "ChIJM-UEyr8adkgR9LwJrWdEnYo", "types": ["point_of_interest", "establishment"]}, "ChIJtbM3zL8adkgRRdXHKcyHN_Y": {"geometry": {"location": {"lat": 51.535051, "lng": -0.1672649}, "viewport": {"northeast": {"lat": 51.5364021302915, "lng": -0.165907519708498}, "southwest": {"lat": 51.5337041697085, "lng": -0.168605480291502}}}, "name": "Ramsay House", "place_id": "ChIJtbM3zL8adkgRRdXHKcyHN_Y", "types": ["point_of_interest", "establishment"], "rating": 3, "user_ratings_total": 1}, "ChIJr1SJUaEbdkgRStKXBmTkDSI": {"geometry": {"location": {"lat": 51.53476010000001, "lng": -0.1681556}, "viewport": {"northeast": {"lat": 51.5361253802915, "lng": -0.166771119708498}, "southwest": {"lat": 51.5334274197085, "lng": -0.169469080291502}}}, "name": "Indian Kitchen", "place_id": "ChIJr1SJUaEbdkgRStKXBmTkDSI", "types": ["meal_takeaway", "restaurant", "food", "point_of_interest", "establishment"], "rating": 5, "user_ratings_total": 4}, "ChIJOdqxoh4bdkgR9b5KlFzebLc": {"geometry": {"location": {"lat": 51.5352378, "lng": -0.1674553}, "viewport": {"northeast": {"lat": 51.5366365302915, "lng": -0.166164319708498}, "southwest": {"lat": 51.5339385697085, "lng": -0.168862280291502}}}, "name": "Townshend Estate", "place_id": "ChIJOdqxoh4bdkgR9b5KlFzebLc", "types": ["point_of_interest", "establishment"], "rating": 3.7, "user_ratings_total": 3}, "ChIJQxChRb4adkgRZhCKYDzXhas": {"geometry": {"location": {"lat": 51.53440089999999, "lng": -0.1676309}, "viewport": {"northeast": {"lat": 51.53581488029149, "lng": -0.166357369708498}, "southwest": {"lat": 51.53311691970849, "lng": -0.169055330291502}}}, "name": "Linnet House Clinic", "place_id": "ChIJQxChRb4adkgRZhCKYDzXhas", "types": ["physiotherapist", "hospital", "health", "point_of_interest", "establishment"]}, "ChIJPXLoOb4adkgR7FLDNAq7Ywc": {"geometry": {"location": {"lat": 51.53485449999999, "lng": -0.168348}, "viewport": {"northeast": {"lat": 51.5362329302915, "lng": -0.166934969708498}, "southwest": {"lat": 51.53353496970851, "lng": -0.1696329302915021}}}, "name": "Cotman House", "place_id": "ChIJPXLoOb4adkgR7FLDNAq7Ywc", "types": ["point_of_interest", "establishment"], "rating": 4.7, "user_ratings_total": 3}, "ChIJpUPFd_kbdkgRmNApVxw3r4I": {"geometry": {"location": {"lat": 51.53515729999999, "lng": -0.1682039}, "viewport": {"northeast": {"lat": 51.5366087302915, "lng": -0.166948219708498}, "southwest": {"lat": 51.5339107697085, "lng": -0.169646180291502}}}, "name": "15 Square Meter LTD.", "place_id": "ChIJpUPFd_kbdkgRmNApVxw3r4I", "types": ["point_of_interest", "establishment"]}, "ChIJUxo5LJQadkgR-yHpb1crWf8": {"geometry": {"location": {"lat": 51.53883914136996, "lng": -0.170020161632066}, "viewport": {"northeast": {"lat": 51.5401878302915, "lng": -0.168671519708498}, "southwest": {"lat": 51.5374898697085, "lng": -0.171369480291502}}}, "name": "65-71 Avenue Road", "place_id": "ChIJUxo5LJQadkgR-yHpb1crWf8", "types": ["route"]}, "ChIJHc0AtJUadkgRo1L1SvyY7KE": {"geometry": {"location": {"lat": 51.53824051562797, "lng": -0.1686912836351937}, "viewport": {"northeast": {"lat": 51.5395854302915, "lng": -0.167347019708498}, "southwest": {"lat": 51.5368874697085, "lng": -0.170044980291502}}}, "name": "42-36 Avenue Road", "place_id": "ChIJHc0AtJUadkgRo1L1SvyY7KE", "types": ["route"]}, "ChIJeXZItJUadkgRoYhBbKFrvOQ": {"geometry": {"location": {"lat": 51.5383048, "lng": -0.1688271}, "viewport": {"northeast": {"lat": 51.5396287302915, "lng": -0.167508769708498}, "southwest": {"lat": 51.5369307697085, "lng": -0.170206730291502}}}, "name": "Land and Planning Consultancy", "place_id": "ChIJeXZItJUadkgRoYhBbKFrvOQ", "types": ["real_estate_agency", "point_of_interest", "establishment"]}, "ChIJy6OTypUadkgRrJJF6QtKBzI": {"geometry": {"location": {"lat": 51.53843579999999, "lng": -0.1691362}, "viewport": {"northeast": {"lat": 51.5397601302915, "lng": -0.167818319708498}, "southwest": {"lat": 51.5370621697085, "lng": -0.170516280291502}}}, "name": "Wembrook", "place_id": "ChIJy6OTypUadkgRrJJF6QtKBzI", "types": ["school", "point_of_interest", "establishment"]}, "ChIJey9KsZUadkgRqXv1UeeZjxA": {"geometry": {"location": {"lat": 51.5381421, "lng": -0.1686665}, "viewport": {"northeast": {"lat": 51.5395185302915, "lng": -0.167283919708498}, "southwest": {"lat": 51.53682056970851, "lng": -0.169981880291502}}}, "name": "Knowles", "place_id": "ChIJey9KsZUadkgRqXv1UeeZjxA", "types": ["transit_station", "point_of_interest", "establishment"]}, "ChIJ5zQxy5UadkgRLdllq7K5Tlg": {"geometry": {"location": {"lat": 51.5385177, "lng": -0.1693106}, "viewport": {"northeast": {"lat": 51.5398918302915, "lng": -0.167931119708498}, "southwest": {"lat": 51.5371938697085, "lng": -0.1706290802915021}}}, "name": "Swiss Cottage Library Near Cherry Blossom", "place_id": "ChIJ5zQxy5UadkgRLdllq7K5Tlg", "types": ["museum", "point_of_interest", "establishment"], "rating": 5, "user_ratings_total": 1}, "ChIJC-6GypUadkgRUxJWLCtQT-k": {"geometry": {"location": {"lat": 51.5384906, "lng": -0.1688661}, "viewport": {"northeast": {"lat": 51.53978188029149, "lng": -0.167580469708498}, "southwest": {"lat": 51.53708391970849, "lng": -0.170278430291502}}}, "name": "Century Estate Maintenance", "place_id": "ChIJC-6GypUadkgRUxJWLCtQT-k", "types": ["point_of_interest", "establishment"]}, "ChIJ1xmd6pUadkgRPra14RGqXI0": {"geometry": {"location": {"lat": 51.53722075045963, "lng": -0.1691710517120085}, "viewport": {"northeast": {"lat": 51.5385697302915, "lng": -0.167822069708498}, "southwest": {"lat": 51.5358717697085, "lng": -0.170520030291502}}}, "name": "29-26 Acacia Rd", "place_id": "ChIJ1xmd6pUadkgRPra14RGqXI0", "types": ["route"]}, "ChIJg9DSlJUadkgRMbvukzpBUMA": {"geometry": {"location": {"lat": 51.5370756, "lng": -0.1690444}, "viewport": {"northeast": {"lat": 51.53847503029149, "lng": -0.167789419708498}, "southwest": {"lat": 51.53577706970849, "lng": -0.170487380291502}}}, "name": "Oakland & Co Solicitors", "place_id": "ChIJg9DSlJUadkgRMbvukzpBUMA", "types": ["lawyer", "point_of_interest", "establishment"], "rating": 5, "user_ratings_total": 3}, "ChIJ4cvl55UadkgRP_uZXtBXeyg": {"geometry": {"location": {"lat": 51.53717129999999, "lng": -0.169822}, "viewport": {"northeast": {"lat": 51.53854338029149, "lng": -0.168438619708498}, "southwest": {"lat": 51.53584541970849, "lng": -0.171136580291502}}}, "name": "CASSANDRO London", "place_id": "ChIJ4cvl55UadkgRP_uZXtBXeyg", "types": ["jewelry_store", "point_of_interest", "store", "establishment"]}, "ChIJWTURi5UadkgRycaH0I8dN_4": {"geometry": {"location": {"lat": 51.53613985077511, "lng": -0.1689188518150224}, "viewport": {"northeast": {"lat": 51.53748883029149, "lng": -0.167569869708498}, "southwest": {"lat": 51.53479086970849, "lng": -0.170267830291502}}}, "name": "1-6 Henstridge Pl", "place_id": "ChIJWTURi5UadkgRycaH0I8dN_4", "types": ["route"]}, "ChIJDzRBJ74adkgROlmoua53OaQ": {"geometry": {"location": {"lat": 51.53585880000001, "lng": -0.1685723}, "viewport": {"northeast": {"lat": 51.53702688029151, "lng": -0.167020369708498}, "southwest": {"lat": 51.53432891970851, "lng": -0.169718330291502}}}, "name": "St Marylebone Almshouses", "place_id": "ChIJDzRBJ74adkgROlmoua53OaQ", "types": ["point_of_interest", "establishment"]}, "ChIJYYdJD74adkgRq1DlkJgyiFM": {"geometry": {"location": {"lat": 51.5359117, "lng": -0.1694338}, "viewport": {"northeast": {"lat": 51.5369757802915, "lng": -0.168682919708498}, "southwest": {"lat": 51.5342778197085, "lng": -0.171380880291502}}}, "name": "Robinsfield Infant School", "place_id": "ChIJYYdJD74adkgRq1DlkJgyiFM", "types": ["school", "point_of_interest", "establishment"], "rating": 4.5, "user_ratings_total": 2}, "ChIJy7OjK74adkgRrBJnuGsnS9I": {"geometry": {"location": {"lat": 51.535825, "lng": -0.1685499}, "viewport": {"northeast": {"lat": 51.5370099802915, "lng": -0.167009169708498}, "southwest": {"lat": 51.5343120197085, "lng": -0.169707130291502}}}, "name": "Adams Facility", "place_id": "ChIJy7OjK74adkgRrBJnuGsnS9I", "types": ["health", "point_of_interest", "establishment"]}, "ChIJ0dOwJL4adkgRaxfhjxzsXxk": {"geometry": {"location": {"lat": 51.53520555031793, "lng": -0.1687861007730135}, "viewport": {"northeast": {"lat": 51.5365545302915, "lng": -0.167437119708498}, "southwest": {"lat": 51.5338565697085, "lng": -0.170135080291502}}}, "name": "38 St John's Wood Terrace", "place_id": "ChIJ0dOwJL4adkgRaxfhjxzsXxk", "types": ["route"]}, "ChIJ5enSbL4adkgRxls7zvsNb48": {"geometry": {"location": {"lat": 51.53489070000001, "lng": -0.1690003}, "viewport": {"northeast": {"lat": 51.5363102302915, "lng": -0.167734019708498}, "southwest": {"lat": 51.5336122697085, "lng": -0.170431980291502}}}, "name": "Equipe Hair", "place_id": "ChIJ5enSbL4adkgRxls7zvsNb48", "types": ["hair_care", "point_of_interest", "establishment"], "rating": 4.5, "user_ratings_total": 26}, "ChIJhcSBFr4adkgRNhV5k9mgT9U": {"geometry": {"location": {"lat": 51.5349488, "lng": -0.1692182}, "viewport": {"northeast": {"lat": 51.5363169802915, "lng": -0.167892169708498}, "southwest": {"lat": 51.5336190197085, "lng": -0.170590130291502}}}, "name": "ubitricity Charging Station", "place_id": "ChIJhcSBFr4adkgRNhV5k9mgT9U", "types": ["point_of_interest", "establishment"]}, "ChIJBw4dPr4adkgRREvce78QTjE": {"geometry": {"location": {"lat": 51.53489070000001, "lng": -0.1690003}, "viewport": {"northeast": {"lat": 51.5363102302915, "lng": -0.167734019708498}, "southwest": {"lat": 51.5336122697085, "lng": -0.170431980291502}}}, "name": "St. Georges Property Management", "place_id": "ChIJBw4dPr4adkgRREvce78QTjE", "types": ["point_of_interest", "establishment"]}, "ChIJSVu8Eb4adkgRPjACtK1GKzA": {"geometry": {"location": {"lat": 51.5350246, "lng": -0.1696492}, "viewport": {"northeast": {"lat": 51.5363036802915, "lng": -0.168219019708498}, "southwest": {"lat": 51.5336057197085, "lng": -0.170916980291502}}}, "name": "Zebra Property Holdings Limited", "place_id": "ChIJSVu8Eb4adkgRPjACtK1GKzA", "types": ["point_of_interest", "establishment"]}, "ChIJiT4rbb4adkgR8W7QLoEICsA": {"geometry": {"location": {"lat": 51.5345956, "lng": -0.1696024}, "viewport": {"northeast": {"lat": 51.5360224802915, "lng": -0.168343969708498}, "southwest": {"lat": 51.5333245197085, "lng": -0.171041930291502}}}, "name": "Boa Foundation", "place_id": "ChIJiT4rbb4adkgR8W7QLoEICsA", "types": ["point_of_interest", "establishment"]}, "ChIJebKvEuYbdkgRFkXQe58GKXU": {"geometry": {"location": {"lat": 51.534704, "lng": -0.168824}, "viewport": {"northeast": {"lat": 51.53608243029149, "lng": -0.167409869708498}, "southwest": {"lat": 51.5333844697085, "lng": -0.170107830291502}}}, "name": "Medivet St Johns Wood", "place_id": "ChIJebKvEuYbdkgRFkXQe58GKXU", "types": ["veterinary_care", "health", "point_of_interest", "establishment"], "rating": 4.8, "user_ratings_total": 37}, "ChIJw0cbP74adkgR44h1fwRI4HI": {"geometry": {"location": {"lat": 51.5347402, "lng": -0.1688019}, "viewport": {"northeast": {"lat": 51.5361093802915, "lng": -0.167406769708498}, "southwest": {"lat": 51.53341141970851, "lng": -0.170104730291502}}}, "name": "Burrows Brentwood Limited", "place_id": "ChIJw0cbP74adkgR44h1fwRI4HI", "types": ["point_of_interest", "establishment"]}, "ChIJA6SCP74adkgRW0pC5kxTu44": {"geometry": {"location": {"lat": 51.5346837, "lng": -0.1687976}, "viewport": {"northeast": {"lat": 51.5360615802915, "lng": -0.167382519708498}, "southwest": {"lat": 51.5333636197085, "lng": -0.1700804802915021}}}, "name": "Cluttons", "place_id": "ChIJA6SCP74adkgRW0pC5kxTu44", "types": ["real_estate_agency", "point_of_interest", "establishment"]}, "ChIJoeAYQL4adkgRMvgOaIf21nE": {"geometry": {"location": {"lat": 51.53452799999999, "lng": -0.1690049}, "viewport": {"northeast": {"lat": 51.53585253029149, "lng": -0.167626819708498}, "southwest": {"lat": 51.53315456970849, "lng": -0.170324780291502}}}, "name": "The Golf Course Wildlife Trust", "place_id": "ChIJoeAYQL4adkgRMvgOaIf21nE", "types": ["point_of_interest", "establishment"]}, "ChIJq6ppP74adkgRZkSMFD1w5fQ": {"geometry": {"location": {"lat": 51.5346526, "lng": -0.1687699}, "viewport": {"northeast": {"lat": 51.53603158029149, "lng": -0.167352319708498}, "southwest": {"lat": 51.5333336197085, "lng": -0.170050280291502}}}, "name": "Blujade Limited", "place_id": "ChIJq6ppP74adkgRZkSMFD1w5fQ", "types": ["jewelry_store", "point_of_interest", "store", "establishment"], "rating": 1, "user_ratings_total": 1}, "ChIJd42zVngbdkgRD7sRTyE0AQs": {"geometry": {"location": {"lat": 51.53503550000001, "lng": -0.168789}, "viewport": {"northeast": {"lat": 51.5364392302915, "lng": -0.167502969708498}, "southwest": {"lat": 51.5337412697085, "lng": -0.170200930291502}}}, "name": "Secondary Glazing St John's Wood", "place_id": "ChIJd42zVngbdkgRD7sRTyE0AQs", "types": ["point_of_interest", "establishment"], "rating": 5, "user_ratings_total": 3}, "ChIJyTIxPL4adkgRY3VcXf6G82g": {"geometry": {"location": {"lat": 51.5350124, "lng": -0.1687454}, "viewport": {"northeast": {"lat": 51.5364304802915, "lng": -0.167475119708498}, "southwest": {"lat": 51.5337325197085, "lng": -0.170173080291502}}}, "name": "Drunch", "place_id": "ChIJyTIxPL4adkgRY3VcXf6G82g", "types": ["restaurant", "bar", "food", "point_of_interest", "establishment"], "rating": 4, "user_ratings_total": 314}, "ChIJ2TP4ar4adkgRjVDudc2py_s": {"geometry": {"location": {"lat": 51.5344454, "lng": -0.1691751}, "viewport": {"northeast": {"lat": 51.5359204302915, "lng": -0.167547219708498}, "southwest": {"lat": 51.5332224697085, "lng": -0.170245180291502}}}, "name": "KeyNest - Smart Key Exchange", "place_id": "ChIJ2TP4ar4adkgRjVDudc2py_s", "types": ["point_of_interest", "store", "establishment"]}, "ChIJRTz_yfobdkgRVCreepm0ooA": {"geometry": {"location": {"lat": 51.53514239999999, "lng": -0.1688928}, "viewport": {"northeast": {"lat": 51.5364744802915, "lng": -0.167523269708498}, "southwest": {"lat": 51.5337765197085, "lng": -0.170221230291502}}}, "name": "24Hr Local Minicab St Johns Wood", "place_id": "ChIJRTz_yfobdkgRVCreepm0ooA", "types": ["point_of_interest", "establishment"]}, "ChIJaVOZar4adkgRtT5ke2kOv5E": {"geometry": {"location": {"lat": 51.5346258, "lng": -0.1687311}, "viewport": {"northeast": {"lat": 51.5360035302915, "lng": -0.167316369708498}, "southwest": {"lat": 51.5333055697085, "lng": -0.170014330291502}}}, "name": "ViVi Nail Spa (St John\u2019s Wood)", "place_id": "ChIJaVOZar4adkgRtT5ke2kOv5E", "types": ["beauty_salon", "point_of_interest", "establishment"], "rating": 4.5, "user_ratings_total": 36}, "ChIJn_XPRykFdkgRHEsLabZ04TE": {"geometry": {"location": {"lat": 51.5345244, "lng": -0.1686733}, "viewport": {"northeast": {"lat": 51.53591108029151, "lng": -0.167239669708498}, "southwest": {"lat": 51.53321311970851, "lng": -0.169937630291502}}}, "name": "St John's Wood Dry Cleaners", "place_id": "ChIJn_XPRykFdkgRHEsLabZ04TE", "types": ["laundry", "point_of_interest", "establishment"], "rating": 4.3, "user_ratings_total": 16}, "ChIJVeeOQL4adkgRjwI8D0ftBbk": {"geometry": {"location": {"lat": 51.53447380000001, "lng": -0.1687409}, "viewport": {"northeast": {"lat": 51.5358789302915, "lng": -0.167265619708498}, "southwest": {"lat": 51.53318096970851, "lng": -0.169963580291502}}}, "name": "Toolbase Environmental Limited", "place_id": "ChIJVeeOQL4adkgRjwI8D0ftBbk", "types": ["point_of_interest", "establishment"]}, "ChIJVeeOQL4adkgRkLJjGLee47c": {"geometry": {"location": {"lat": 51.53447380000001, "lng": -0.1687409}, "viewport": {"northeast": {"lat": 51.5358789302915, "lng": -0.167265619708498}, "southwest": {"lat": 51.53318096970851, "lng": -0.169963580291502}}}, "name": "Nintech Testing Limited", "place_id": "ChIJVeeOQL4adkgRkLJjGLee47c", "types": ["point_of_interest", "establishment"]}, "ChIJS5gTR74adkgRVBmE6hMtBFU": {"geometry": {"location": {"lat": 51.5345501, "lng": -0.1686152}, "viewport": {"northeast": {"lat": 51.53591623029151, "lng": -0.167202769708498}, "southwest": {"lat": 51.53321826970851, "lng": -0.169900730291502}}}, "name": "St John's Wood Supermarket", "place_id": "ChIJS5gTR74adkgRVBmE6hMtBFU", "types": ["convenience_store", "hardware_store", "post_office", "grocery_or_supermarket", "finance", "food", "point_of_interest", "store", "establishment"], "rating": 4.1, "user_ratings_total": 19}, "ChIJ8QjAJpQadkgRriegXeA9xg8": {"geometry": {"location": {"lat": 51.5394455352253, "lng": -0.1702532931721187}, "viewport": {"northeast": {"lat": 51.5407958302915, "lng": -0.168906469708498}, "southwest": {"lat": 51.5380978697085, "lng": -0.171604430291502}}}, "name": "71 Elsworthy Rd", "place_id": "ChIJ8QjAJpQadkgRriegXeA9xg8", "types": ["route"]}, "ChIJB-mPepYadkgR97aF2OAaIDI": {"geometry": {"location": {"lat": 51.53798300010027, "lng": -0.1712117996939011}, "viewport": {"northeast": {"lat": 51.53933198029149, "lng": -0.169862819708498}, "southwest": {"lat": 51.53663401970849, "lng": -0.172560780291502}}}, "name": "42 Woronzow Rd", "place_id": "ChIJB-mPepYadkgR97aF2OAaIDI", "types": ["route"]}, "ChIJWdqA2i8bdkgRDhYbT1a64JM": {"geometry": {"location": {"lat": 51.5381076, "lng": -0.1706258}, "viewport": {"northeast": {"lat": 51.5394081802915, "lng": -0.169206269708498}, "southwest": {"lat": 51.5367102197085, "lng": -0.171904230291502}}}, "name": "Barking removals", "place_id": "ChIJWdqA2i8bdkgRDhYbT1a64JM", "types": ["moving_company", "point_of_interest", "establishment"]}, "ChIJzZFmiNwbdkgRB60RxDACMGY": {"geometry": {"location": {"lat": 51.53778819999999, "lng": -0.1708725}, "viewport": {"northeast": {"lat": 51.53916048029149, "lng": -0.169558069708498}, "southwest": {"lat": 51.53646251970849, "lng": -0.172256030291502}}}, "name": "Cheap Escorts London | Honey & Lexi Model Escorts", "place_id": "ChIJzZFmiNwbdkgRB60RxDACMGY", "types": ["point_of_interest", "establishment"], "rating": 5, "user_ratings_total": 6}, "ChIJRda515UadkgRKKqC_Nxxrog": {"geometry": {"location": {"lat": 51.538008, "lng": -0.170422}, "viewport": {"northeast": {"lat": 51.5393547302915, "lng": -0.169069719708498}, "southwest": {"lat": 51.5366567697085, "lng": -0.171767680291502}}}, "name": "ubitricity Charging Station", "place_id": "ChIJRda515UadkgRKKqC_Nxxrog", "types": ["point_of_interest", "establishment"]}, "ChIJN8o8cZYadkgR9KA4oueyWyM": {"geometry": {"location": {"lat": 51.537678, "lng": -0.170969}, "viewport": {"northeast": {"lat": 51.5390346302915, "lng": -0.169631119708498}, "southwest": {"lat": 51.5363366697085, "lng": -0.172329080291502}}}, "name": "ubitricity Charging Station", "place_id": "ChIJN8o8cZYadkgR9KA4oueyWyM", "types": ["point_of_interest", "establishment"]}, "ChIJ70tCE5YadkgR02DAk1gYJB0": {"geometry": {"location": {"lat": 51.53755220000001, "lng": -0.1708237}, "viewport": {"northeast": {"lat": 51.53897388029151, "lng": -0.169580269708498}, "southwest": {"lat": 51.53627591970851, "lng": -0.172278230291502}}}, "name": "James Rothman", "place_id": "ChIJ70tCE5YadkgR02DAk1gYJB0", "types": ["point_of_interest", "establishment"]}, "ChIJ3X5hZpYadkgRSBpUHbU54sE": {"geometry": {"location": {"lat": 51.5375338, "lng": -0.1709873}, "viewport": {"northeast": {"lat": 51.5389669802915, "lng": -0.169511669708498}, "southwest": {"lat": 51.53626901970851, "lng": -0.172209630291502}}}, "name": "Eyre Estate Office", "place_id": "ChIJ3X5hZpYadkgRSBpUHbU54sE", "types": ["point_of_interest", "establishment"], "rating": 4, "user_ratings_total": 2}, "ChIJISdqa5YadkgRbbgOA3hR_ek": {"geometry": {"location": {"lat": 51.53732690102903, "lng": -0.1716926556065112}, "viewport": {"northeast": {"lat": 51.5386758802915, "lng": -0.17006275}, "southwest": {"lat": 51.5359779197085, "lng": -0.17332255}}}, "name": "14-4 Norfolk Rd", "place_id": "ChIJISdqa5YadkgRbbgOA3hR_ek", "types": ["route"]}, "ChIJrefuB5YadkgRRdtYqMvs7DA": {"geometry": {"location": {"lat": 51.53650709999999, "lng": -0.1705376}, "viewport": {"northeast": {"lat": 51.5377985802915, "lng": -0.169081969708498}, "southwest": {"lat": 51.5351006197085, "lng": -0.171779930291502}}}, "name": "Alliance Family Foundation Limited", "place_id": "ChIJrefuB5YadkgRRdtYqMvs7DA", "types": ["point_of_interest", "establishment"]}, "ChIJ1Sis_ZUadkgRJRuWVVIbmEg": {"geometry": {"location": {"lat": 51.53638226190933, "lng": -0.1703360564378791}, "viewport": {"northeast": {"lat": 51.53772968029149, "lng": -0.1686668}, "southwest": {"lat": 51.53503171970849, "lng": -0.1719992}}}, "name": "25-11 Acacia Rd", "place_id": "ChIJ1Sis_ZUadkgRJRuWVVIbmEg", "types": ["route"]}, "ChIJt1w49r0adkgRvlnnYLVLgD0": {"geometry": {"location": {"lat": 51.5358119, "lng": -0.1715015}, "viewport": {"northeast": {"lat": 51.5372047302915, "lng": -0.170061069708498}, "southwest": {"lat": 51.5345067697085, "lng": -0.172759030291502}}}, "name": "The Ordnance Arms", "place_id": "ChIJt1w49r0adkgRvlnnYLVLgD0", "types": ["bar", "point_of_interest", "establishment"], "rating": 4.2, "user_ratings_total": 319}, "ChIJdUel5w4bdkgRNVioOhrleq0": {"geometry": {"location": {"lat": 51.53602309999999, "lng": -0.171059}, "viewport": {"northeast": {"lat": 51.5373097302915, "lng": -0.169839019708498}, "southwest": {"lat": 51.5346117697085, "lng": -0.172536980291502}}}, "name": "Regents Park Plumbers", "place_id": "ChIJdUel5w4bdkgRNVioOhrleq0", "types": ["plumber", "general_contractor", "point_of_interest", "establishment"], "rating": 1, "user_ratings_total": 1}, "ChIJAQBE9r0adkgRo-Kr5fVGACg": {"geometry": {"location": {"lat": 51.53580909999999, "lng": -0.1715034}, "viewport": {"northeast": {"lat": 51.53720318029149, "lng": -0.170061069708498}, "southwest": {"lat": 51.53450521970849, "lng": -0.172759030291502}}}, "name": "LIFE IS DIVE LLP", "place_id": "ChIJAQBE9r0adkgRo-Kr5fVGACg", "types": ["point_of_interest", "establishment"], "rating": 4, "user_ratings_total": 1}, "ChIJLVz2UGhJdkgR9ThtkYvsBfw": {"geometry": {"location": {"lat": 51.5361992, "lng": -0.1709126}, "viewport": {"northeast": {"lat": 51.5374989802915, "lng": -0.169472369708498}, "southwest": {"lat": 51.5348010197085, "lng": -0.172170330291502}}}, "name": "St Johns Wood Mini-cabs", "place_id": "ChIJLVz2UGhJdkgR9ThtkYvsBfw", "types": ["point_of_interest", "establishment"], "rating": 3.7, "user_ratings_total": 3}, "ChIJPyFcUKEbdkgR2ivGUQ01zlI": {"geometry": {"location": {"lat": 51.5356197, "lng": -0.1715488}, "viewport": {"northeast": {"lat": 51.5369621802915, "lng": -0.170190169708498}, "southwest": {"lat": 51.5342642197085, "lng": -0.172888130291502}}}, "name": "Zipcar", "place_id": "ChIJPyFcUKEbdkgR2ivGUQ01zlI", "types": ["point_of_interest", "establishment"]}, "ChIJE4qq4r0adkgRpJzYw8x5YLo": {"geometry": {"location": {"lat": 51.53524718338763, "lng": -0.1705133310835651}, "viewport": {"northeast": {"lat": 51.5365961802915, "lng": -0.169164319708498}, "southwest": {"lat": 51.5338982197085, "lng": -0.171862280291502}}}, "name": "18-2 Ordnance Hill", "place_id": "ChIJE4qq4r0adkgRpJzYw8x5YLo", "types": ["route"]}, "ChIJ97hg3r0adkgRPGs3V8L4Apw": {"geometry": {"location": {"lat": 51.53440999999999, "lng": -0.17081}, "viewport": {"northeast": {"lat": 51.5357212302915, "lng": -0.169403619708498}, "southwest": {"lat": 51.5330232697085, "lng": -0.172101580291502}}}, "name": "Foxtons St Johns Wood Estate Agents", "place_id": "ChIJ97hg3r0adkgRPGs3V8L4Apw", "types": ["finance", "real_estate_agency", "point_of_interest", "establishment"], "rating": 4.4, "user_ratings_total": 156}, "ChIJ4y213b0adkgRpIBRPKFc13k": {"geometry": {"location": {"lat": 51.53443499999999, "lng": -0.1709746}, "viewport": {"northeast": {"lat": 51.53584178029149, "lng": -0.169695319708498}, "southwest": {"lat": 51.53314381970849, "lng": -0.172393280291502}}}, "name": "INSTRUCT", "place_id": "ChIJ4y213b0adkgRpIBRPKFc13k", "types": ["point_of_interest", "establishment"]}, "ChIJ1_vQ6L0adkgRI-5El7Zauuk": {"geometry": {"location": {"lat": 51.5348935, "lng": -0.1713957}, "viewport": {"northeast": {"lat": 51.5362664302915, "lng": -0.1699754697084979}, "southwest": {"lat": 51.5335684697085, "lng": -0.172673430291502}}}, "name": "Top Tier Blinds & Shutters", "place_id": "ChIJ1_vQ6L0adkgRI-5El7Zauuk", "types": ["point_of_interest", "store", "establishment"]}, "ChIJe4ON3L0adkgReNWc6uK9yn4": {"geometry": {"location": {"lat": 51.5343871, "lng": -0.1708493}, "viewport": {"northeast": {"lat": 51.5356976802915, "lng": -0.169449169708498}, "southwest": {"lat": 51.5329997197085, "lng": -0.172147130291502}}}, "name": "Hamptons Estate Agents St. John's Wood", "place_id": "ChIJe4ON3L0adkgReNWc6uK9yn4", "types": ["finance", "real_estate_agency", "point_of_interest", "establishment"], "rating": 4.6, "user_ratings_total": 17}, "ChIJPYON3L0adkgRlJmxLIaWCWo": {"geometry": {"location": {"lat": 51.53436019999999, "lng": -0.1709347}, "viewport": {"northeast": {"lat": 51.53566053029149, "lng": -0.169542519708498}, "southwest": {"lat": 51.53296256970849, "lng": -0.172240480291502}}}, "name": "Hair By Partners", "place_id": "ChIJPYON3L0adkgRlJmxLIaWCWo", "types": ["beauty_salon", "hair_care", "point_of_interest", "establishment"], "rating": 4.1, "user_ratings_total": 26}, "ChIJc6_roJ8adkgRz9hB3kRcyHQ": {"geometry": {"location": {"lat": 51.53431399999999, "lng": -0.171021}, "viewport": {"northeast": {"lat": 51.53562083029149, "lng": -0.169621069708498}, "southwest": {"lat": 51.53292286970849, "lng": -0.172319030291502}}}, "name": "Hanover Residential", "place_id": "ChIJc6_roJ8adkgRz9hB3kRcyHQ", "types": ["real_estate_agency", "point_of_interest", "establishment"], "rating": 5, "user_ratings_total": 86}, "ChIJ1RL3ydobdkgRMxT41Q7qj_s": {"geometry": {"location": {"lat": 51.5346687, "lng": -0.171807}, "viewport": {"northeast": {"lat": 51.5359710302915, "lng": -0.170555169708498}, "southwest": {"lat": 51.5332730697085, "lng": -0.173253130291502}}}, "name": "Barbara Hepworth & John Skeaping Blue Plaque", "place_id": "ChIJ1RL3ydobdkgRMxT41Q7qj_s", "types": ["point_of_interest", "establishment"], "rating": 5, "user_ratings_total": 1}, "ChIJVVW2w70adkgRjMcJfYgq5xM": {"geometry": {"location": {"lat": 51.5344114, "lng": -0.1715055}, "viewport": {"northeast": {"lat": 51.5357163802915, "lng": -0.170248119708498}, "southwest": {"lat": 51.5330184197085, "lng": -0.172946080291502}}}, "name": "The Abbey Barbers", "place_id": "ChIJVVW2w70adkgRjMcJfYgq5xM", "types": ["hair_care", "health", "point_of_interest", "establishment"]}, "ChIJTSqsCb4adkgRHCW1Ep-jKWw": {"geometry": {"location": {"lat": 51.5350153, "lng": -0.1702715}, "viewport": {"northeast": {"lat": 51.53637878029149, "lng": -0.1689318697084979}, "southwest": {"lat": 51.5336808197085, "lng": -0.171629830291502}}}, "name": "ubitricity Charging Station", "place_id": "ChIJTSqsCb4adkgRHCW1Ep-jKWw", "types": ["point_of_interest", "establishment"]}, "ChIJraLl6r0adkgR0ZOamKxK0OQ": {"geometry": {"location": {"lat": 51.53472530000001, "lng": -0.1718562}, "viewport": {"northeast": {"lat": 51.5360244802915, "lng": -0.170610969708498}, "southwest": {"lat": 51.5333265197085, "lng": -0.173308930291502}}}, "name": "The Edge Cycle Limited", "place_id": "ChIJraLl6r0adkgR0ZOamKxK0OQ", "types": ["point_of_interest", "store", "establishment"]}, "ChIJoWrE3r0adkgR5LAZuFCfFGE": {"geometry": {"location": {"lat": 51.5343263, "lng": -0.170752}, "viewport": {"northeast": {"lat": 51.5356744802915, "lng": -0.169401569708498}, "southwest": {"lat": 51.5329765197085, "lng": -0.172099530291502}}}, "name": "ubitricity Charging Station", "place_id": "ChIJoWrE3r0adkgR5LAZuFCfFGE", "types": ["point_of_interest", "establishment"]}, "ChIJkThk4pYadkgRLTprYffDRJk": {"geometry": {"location": {"lat": 51.53946376828913, "lng": -0.1731996763432316}, "viewport": {"northeast": {"lat": 51.54077048029149, "lng": -0.172062819708498}, "southwest": {"lat": 51.5380725197085, "lng": -0.174760780291502}}}, "name": "2-8 Queensmead", "place_id": "ChIJkThk4pYadkgRLTprYffDRJk", "types": ["route"]}, "ChIJESuFWpYadkgR6zuJHELxa8s": {"geometry": {"location": {"lat": 51.53802721951931, "lng": -0.1727151731902731}, "viewport": {"northeast": {"lat": 51.53937528029151, "lng": -0.17117415}, "southwest": {"lat": 51.53667731970851, "lng": -0.17425435}}}, "name": "48-41 Queen's Grove", "place_id": "ChIJESuFWpYadkgR6zuJHELxa8s", "types": ["route"]}, "ChIJaYtu2EkbdkgR5nviMFxZc0c": {"geometry": {"location": {"lat": 51.53821989999999, "lng": -0.1721382}, "viewport": {"northeast": {"lat": 51.5395959302915, "lng": -0.170823119708498}, "southwest": {"lat": 51.5368979697085, "lng": -0.173521080291502}}}, "name": "George Frampton Blue Plaque", "place_id": "ChIJaYtu2EkbdkgR5nviMFxZc0c", "types": ["point_of_interest", "establishment"], "rating": 5, "user_ratings_total": 1}, "ChIJSRNvNK8bdkgRTP3Uey11CRk": {"geometry": {"location": {"lat": 51.53787899999999, "lng": -0.1733911}, "viewport": {"northeast": {"lat": 51.53917118029149, "lng": -0.171970619708498}, "southwest": {"lat": 51.53647321970849, "lng": -0.174668580291502}}}, "name": "zero waste management", "place_id": "ChIJSRNvNK8bdkgRTP3Uey11CRk", "types": ["point_of_interest", "establishment"]}, "ChIJT-iNXZYadkgRQCEY-VCyfK0": {"geometry": {"location": {"lat": 51.53811189999999, "lng": -0.1720416}, "viewport": {"northeast": {"lat": 51.53953648029149, "lng": -0.170788719708498}, "southwest": {"lat": 51.53683851970849, "lng": -0.173486680291502}}}, "name": "Elian Medical Counselling", "place_id": "ChIJT-iNXZYadkgRQCEY-VCyfK0", "types": ["point_of_interest", "establishment"]}, "ChIJY1wgXpYadkgRmVpjzRSHDyc": {"geometry": {"location": {"lat": 51.5383061, "lng": -0.1720327}, "viewport": {"northeast": {"lat": 51.53967318029149, "lng": -0.170703769708498}, "southwest": {"lat": 51.53697521970849, "lng": -0.173401730291502}}}, "name": "Source London Charging Station", "place_id": "ChIJY1wgXpYadkgRmVpjzRSHDyc", "types": ["point_of_interest", "establishment"]}, "ChIJe9neGJYadkgRJf1k0fVeH04": {"geometry": {"location": {"lat": 51.53673000006657, "lng": -0.1723454497187127}, "viewport": {"northeast": {"lat": 51.5380789802915, "lng": -0.170996469708498}, "southwest": {"lat": 51.5353810197085, "lng": -0.173694430291502}}}, "name": "51 Ordnance Hill", "place_id": "ChIJe9neGJYadkgRJf1k0fVeH04", "types": ["route"]}, "ChIJVfXuFZYadkgRU-yyInCCiqg": {"geometry": {"location": {"lat": 51.5369582, "lng": -0.1719516}, "viewport": {"northeast": {"lat": 51.5383689302915, "lng": -0.1706923197084979}, "southwest": {"lat": 51.5356709697085, "lng": -0.173390280291502}}}, "name": "McKinnon Films", "place_id": "ChIJVfXuFZYadkgRU-yyInCCiqg", "types": ["point_of_interest", "establishment"], "rating": 1, "user_ratings_total": 1}, "ChIJK36yIpYadkgRy1TUFl59iL4": {"geometry": {"location": {"lat": 51.5367297, "lng": -0.1722814}, "viewport": {"northeast": {"lat": 51.5380686802915, "lng": -0.170952069708498}, "southwest": {"lat": 51.5353707197085, "lng": -0.173650030291502}}}, "name": "ubitricity Charging Station", "place_id": "ChIJK36yIpYadkgRy1TUFl59iL4", "types": ["point_of_interest", "establishment"]}, "ChIJCy3vQkgbdkgRVWL2wZ2XOKQ": {"geometry": {"location": {"lat": 51.5365587, "lng": -0.1731787}, "viewport": {"northeast": {"lat": 51.5380481302915, "lng": -0.171479469708498}, "southwest": {"lat": 51.53535016970851, "lng": -0.174177430291502}}}, "name": "THE OLD RIDING SCHOOL, ST JOHNS WOOD BARRACKS", "place_id": "ChIJCy3vQkgbdkgRVWL2wZ2XOKQ", "types": ["school", "point_of_interest", "establishment"]}, "ChIJ-2xYSpYadkgRmrWNl5g24JY": {"geometry": {"location": {"lat": 51.5373414, "lng": -0.1732809}, "viewport": {"northeast": {"lat": 51.5387177802915, "lng": -0.171875519708498}, "southwest": {"lat": 51.5360198197085, "lng": -0.174573480291502}}}, "name": "Rossetti House", "place_id": "ChIJ-2xYSpYadkgRmrWNl5g24JY", "types": ["point_of_interest", "establishment"], "rating": 5, "user_ratings_total": 2}, "ChIJvWj4i70adkgRZgP8zUH1Doc": {"geometry": {"location": {"lat": 51.53557636054269, "lng": -0.1722832742954238}, "viewport": {"northeast": {"lat": 51.5369242302915, "lng": -0.170937619708498}, "southwest": {"lat": 51.5342262697085, "lng": -0.1736355802915021}}}, "name": "3-52 Acacia Pl", "place_id": "ChIJvWj4i70adkgRZgP8zUH1Doc", "types": ["route"]}, "ChIJUyO2nr0adkgR0n6FJ17M260": {"geometry": {"location": {"lat": 51.53487822178165, "lng": -0.1730433557296309}, "viewport": {"northeast": {"lat": 51.53622273029151, "lng": -0.171691069708498}, "southwest": {"lat": 51.53352476970851, "lng": -0.174389030291502}}}, "name": "59-58 Acacia Rd", "place_id": "ChIJUyO2nr0adkgR0n6FJ17M260", "types": ["route"]}, "ChIJYSUD6ccadkgR4RQNs_SDqxE": {"geometry": {"location": {"lat": 51.5351186, "lng": -0.1728944}, "viewport": {"northeast": {"lat": 51.53640068029149, "lng": -0.171473919708498}, "southwest": {"lat": 51.5337027197085, "lng": -0.174171880291502}}}, "name": "Rescorp", "place_id": "ChIJYSUD6ccadkgR4RQNs_SDqxE", "types": ["real_estate_agency", "point_of_interest", "establishment"]}, "ChIJjQ0lm70adkgRp6sgXLPU2rg": {"geometry": {"location": {"lat": 51.53503449999999, "lng": -0.1731427}, "viewport": {"northeast": {"lat": 51.5363139802915, "lng": -0.171722319708498}, "southwest": {"lat": 51.5336160197085, "lng": -0.174420280291502}}}, "name": "Margaretta Corporate Services Ltd", "place_id": "ChIJjQ0lm70adkgRp6sgXLPU2rg", "types": ["point_of_interest", "establishment"]}, "ChIJVVVF-r8adkgR7SxHMMx_7fY": {"geometry": {"location": {"lat": 51.53510139999999, "lng": -0.1728721}, "viewport": {"northeast": {"lat": 51.53639243029149, "lng": -0.171461919708498}, "southwest": {"lat": 51.53369446970849, "lng": -0.174159880291502}}}, "name": "Coy Communications", "place_id": "ChIJVVVF-r8adkgR7SxHMMx_7fY", "types": ["point_of_interest", "establishment"]}, "ChIJu1MKmr0adkgRbC74kzDIAA0": {"geometry": {"location": {"lat": 51.535114, "lng": -0.1728357}, "viewport": {"northeast": {"lat": 51.5364060802915, "lng": -0.171425919708498}, "southwest": {"lat": 51.5337081197085, "lng": -0.174123880291502}}}, "name": "MSSEC Ltd", "place_id": "ChIJu1MKmr0adkgRbC74kzDIAA0", "types": ["finance", "point_of_interest", "establishment"]}, "ChIJb0pzmr0adkgRjaY2440AqPY": {"geometry": {"location": {"lat": 51.53512610000001, "lng": -0.1728568}, "viewport": {"northeast": {"lat": 51.53641098029151, "lng": -0.171439319708498}, "southwest": {"lat": 51.53371301970851, "lng": -0.1741372802915021}}}, "name": "Academy Construction & Maintenance Ltd", "place_id": "ChIJb0pzmr0adkgRjaY2440AqPY", "types": ["general_contractor", "point_of_interest", "establishment"], "rating": 5, "user_ratings_total": 2}, "ChIJuxcKmr0adkgRAChRkasgarU": {"geometry": {"location": {"lat": 51.53521139999999, "lng": -0.1729493}, "viewport": {"northeast": {"lat": 51.53645343029149, "lng": -0.171486019708498}, "southwest": {"lat": 51.53375546970849, "lng": -0.174183980291502}}}, "name": "Fincorp", "place_id": "ChIJuxcKmr0adkgRAChRkasgarU", "types": ["finance", "atm", "bank", "point_of_interest", "establishment"], "rating": 1, "user_ratings_total": 1}, "ChIJu1MKmr0adkgRmBdMCZfyOM8": {"geometry": {"location": {"lat": 51.53518099999999, "lng": -0.1728938}, "viewport": {"northeast": {"lat": 51.5364415302915, "lng": -0.1714502697084979}, "southwest": {"lat": 51.5337435697085, "lng": -0.174148230291502}}}, "name": "Ranncorp", "place_id": "ChIJu1MKmr0adkgRmBdMCZfyOM8", "types": ["finance", "point_of_interest", "establishment"]}, "ChIJHachm70adkgRrULr0c9tQOQ": {"geometry": {"location": {"lat": 51.53518, "lng": -0.1729184}, "viewport": {"northeast": {"lat": 51.53643733029151, "lng": -0.171471469708498}, "southwest": {"lat": 51.53373936970851, "lng": -0.174169430291502}}}, "name": "Sterling Trade Finance", "place_id": "ChIJHachm70adkgRrULr0c9tQOQ", "types": ["finance", "point_of_interest", "establishment"]}, "ChIJ5RTfmr0adkgRvYBIVM-wWwc": {"geometry": {"location": {"lat": 51.535185, "lng": -0.1728969}, "viewport": {"northeast": {"lat": 51.53644368029149, "lng": -0.171451419708498}, "southwest": {"lat": 51.5337457197085, "lng": -0.174149380291502}}}, "name": "Dr. Nicole Gehl", "place_id": "ChIJ5RTfmr0adkgRvYBIVM-wWwc", "types": ["health", "point_of_interest", "establishment"]}, "ChIJjQ0lm70adkgRdQ0KXMuhbP8": {"geometry": {"location": {"lat": 51.53521139999999, "lng": -0.1729493}, "viewport": {"northeast": {"lat": 51.53645343029149, "lng": -0.171486019708498}, "southwest": {"lat": 51.53375546970849, "lng": -0.174183980291502}}}, "name": "Callfix", "place_id": "ChIJjQ0lm70adkgRdQ0KXMuhbP8", "types": ["point_of_interest", "establishment"]}, "ChIJgQ8Lmr0adkgR8qKfwduj4KE": {"geometry": {"location": {"lat": 51.53521139999999, "lng": -0.1729493}, "viewport": {"northeast": {"lat": 51.53645343029149, "lng": -0.171486019708498}, "southwest": {"lat": 51.53375546970849, "lng": -0.174183980291502}}}, "name": "Mortgages & More (London) Ltd", "place_id": "ChIJgQ8Lmr0adkgR8qKfwduj4KE", "types": ["finance", "point_of_interest", "establishment"], "rating": 3.7, "user_ratings_total": 3}, "ChIJd7790aMadkgRX4uWGOydFfE": {"geometry": {"location": {"lat": 51.53521139999999, "lng": -0.1729493}, "viewport": {"northeast": {"lat": 51.53645343029149, "lng": -0.171486019708498}, "southwest": {"lat": 51.53375546970849, "lng": -0.174183980291502}}}, "name": "Buckingham Properties", "place_id": "ChIJd7790aMadkgRX4uWGOydFfE", "types": ["real_estate_agency", "point_of_interest", "establishment"]}, "ChIJSxrwmr0adkgRWFQFQm14OWA": {"geometry": {"location": {"lat": 51.53512740000001, "lng": -0.1728528}, "viewport": {"northeast": {"lat": 51.53641238029151, "lng": -0.171435419708498}, "southwest": {"lat": 51.53371441970851, "lng": -0.174133380291502}}}, "name": "London Real Estate Office", "place_id": "ChIJSxrwmr0adkgRWFQFQm14OWA", "types": ["point_of_interest", "establishment"]}, "ChIJ4Xa8lb0adkgRjU6n45IlgWs": {"geometry": {"location": {"lat": 51.534698, "lng": -0.172225}, "viewport": {"northeast": {"lat": 51.5360493302915, "lng": -0.170871219708498}, "southwest": {"lat": 51.5333513697085, "lng": -0.173569180291502}}}, "name": "ubitricity Charging Station", "place_id": "ChIJ4Xa8lb0adkgRjU6n45IlgWs", "types": ["point_of_interest", "establishment"]}, "ChIJUUTm0-4bdkgRnuB-DPe6Tqk": {"geometry": {"location": {"lat": 51.53519860000001, "lng": -0.1729763}, "viewport": {"northeast": {"lat": 51.5364411802915, "lng": -0.171513619708498}, "southwest": {"lat": 51.53374321970851, "lng": -0.174211580291502}}}, "name": "Call2fix", "place_id": "ChIJUUTm0-4bdkgRnuB-DPe6Tqk", "types": ["point_of_interest", "establishment"]}, "ChIJRbrq8b0adkgRYT5sYfEgfyM": {"geometry": {"location": {"lat": 51.53521139999999, "lng": -0.1729493}, "viewport": {"northeast": {"lat": 51.53645343029149, "lng": -0.171486019708498}, "southwest": {"lat": 51.53375546970849, "lng": -0.174183980291502}}}, "name": "Fairholme Estates (Holdings) Limited", "place_id": "ChIJRbrq8b0adkgRYT5sYfEgfyM", "types": ["point_of_interest", "establishment"]}, "ChIJAQAwm70adkgRnTW0XTNOjQ0": {"geometry": {"location": {"lat": 51.53521139999999, "lng": -0.1729493}, "viewport": {"northeast": {"lat": 51.53645343029149, "lng": -0.171486019708498}, "southwest": {"lat": 51.53375546970849, "lng": -0.174183980291502}}}, "name": "Rubbish Removal St Johns Wood", "place_id": "ChIJAQAwm70adkgRnTW0XTNOjQ0", "types": ["point_of_interest", "establishment"]}, "ChIJ57zbWggbdkgRRKfHnsOtsR4": {"geometry": {"location": {"lat": 51.53521139999999, "lng": -0.1729493}, "viewport": {"northeast": {"lat": 51.53645343029149, "lng": -0.171486019708498}, "southwest": {"lat": 51.53375546970849, "lng": -0.174183980291502}}}, "name": "R&Co Property", "place_id": "ChIJ57zbWggbdkgRRKfHnsOtsR4", "types": ["finance", "real_estate_agency", "general_contractor", "point_of_interest", "establishment"], "rating": 5, "user_ratings_total": 1}, "ChIJc4LEHvEbdkgR_e-nbAWS8HM": {"geometry": {"location": {"lat": 51.53521139999999, "lng": -0.1729493}, "viewport": {"northeast": {"lat": 51.53645343029149, "lng": -0.171486019708498}, "southwest": {"lat": 51.53375546970849, "lng": -0.174183980291502}}}, "name": "ASC Oil Broking And Trading Ltd", "place_id": "ChIJc4LEHvEbdkgR_e-nbAWS8HM", "types": ["point_of_interest", "establishment"]}, "ChIJAQAwm70adkgRnOBDB8XqDcc": {"geometry": {"location": {"lat": 51.53521139999999, "lng": -0.1729493}, "viewport": {"northeast": {"lat": 51.53645343029149, "lng": -0.171486019708498}, "southwest": {"lat": 51.53375546970849, "lng": -0.174183980291502}}}, "name": "ExamArea", "place_id": "ChIJAQAwm70adkgRnOBDB8XqDcc", "types": ["point_of_interest", "establishment"]}, "ChIJAQAwm70adkgRH8GBihpNnDE": {"geometry": {"location": {"lat": 51.53521139999999, "lng": -0.1729493}, "viewport": {"northeast": {"lat": 51.53645343029149, "lng": -0.171486019708498}, "southwest": {"lat": 51.53375546970849, "lng": -0.174183980291502}}}, "name": "WINKLER FOUNDATION", "place_id": "ChIJAQAwm70adkgRH8GBihpNnDE", "types": ["point_of_interest", "establishment"]}, "ChIJAQAwm70adkgRK5CmgaH-stA": {"geometry": {"location": {"lat": 51.53521139999999, "lng": -0.1729493}, "viewport": {"northeast": {"lat": 51.53645343029149, "lng": -0.171486019708498}, "southwest": {"lat": 51.53375546970849, "lng": -0.174183980291502}}}, "name": "ShishaVaping by Giant Flavour", "place_id": "ChIJAQAwm70adkgRK5CmgaH-stA", "types": ["point_of_interest", "establishment"]}, "ChIJhRo3NYMbdkgRkDNeTBlQ9LY": {"geometry": {"location": {"lat": 51.53521139999999, "lng": -0.1729493}, "viewport": {"northeast": {"lat": 51.53645343029149, "lng": -0.171486019708498}, "southwest": {"lat": 51.53375546970849, "lng": -0.174183980291502}}}, "name": "Winners Raffle", "place_id": "ChIJhRo3NYMbdkgRkDNeTBlQ9LY", "types": ["point_of_interest", "establishment"]}, "ChIJFcyY7ZobdkgRe1sMVXUl9yY": {"geometry": {"location": {"lat": 51.53521139999999, "lng": -0.1729493}, "viewport": {"northeast": {"lat": 51.53645343029149, "lng": -0.171486019708498}, "southwest": {"lat": 51.53375546970849, "lng": -0.174183980291502}}}, "name": "Mini Skip Hire Marylebone", "place_id": "ChIJFcyY7ZobdkgRe1sMVXUl9yY", "types": ["point_of_interest", "establishment"]}, "ChIJAQAwm70adkgRYXBv8bxbHww": {"geometry": {"location": {"lat": 51.53521139999999, "lng": -0.1729493}, "viewport": {"northeast": {"lat": 51.53645343029149, "lng": -0.171486019708498}, "southwest": {"lat": 51.53375546970849, "lng": -0.174183980291502}}}, "name": "CertMagic", "place_id": "ChIJAQAwm70adkgRYXBv8bxbHww", "types": ["point_of_interest", "establishment"]}, "ChIJAQAwm70adkgRQ-6il7ecmvs": {"geometry": {"location": {"lat": 51.53521139999999, "lng": -0.1729493}, "viewport": {"northeast": {"lat": 51.53645343029149, "lng": -0.171486019708498}, "southwest": {"lat": 51.53375546970849, "lng": -0.174183980291502}}}, "name": "W&V Co. Ltd", "place_id": "ChIJAQAwm70adkgRQ-6il7ecmvs", "types": ["point_of_interest", "establishment"], "rating": 5, "user_ratings_total": 1}, "ChIJAQAwm70adkgRqADAIYKFsis": {"geometry": {"location": {"lat": 51.53521139999999, "lng": -0.1729493}, "viewport": {"northeast": {"lat": 51.53645343029149, "lng": -0.171486019708498}, "southwest": {"lat": 51.53375546970849, "lng": -0.174183980291502}}}, "name": "Blocktimum Digital Assets Plc", "place_id": "ChIJAQAwm70adkgRqADAIYKFsis", "types": ["point_of_interest", "establishment"]}, "ChIJAQAwm70adkgRuSs1QDOpdHI": {"geometry": {"location": {"lat": 51.53521139999999, "lng": -0.1729493}, "viewport": {"northeast": {"lat": 51.53645343029149, "lng": -0.171486019708498}, "southwest": {"lat": 51.53375546970849, "lng": -0.174183980291502}}}, "name": "Bittwatt Financial Investments", "place_id": "ChIJAQAwm70adkgRuSs1QDOpdHI", "types": ["finance", "point_of_interest", "establishment"]}, "ChIJi0PE2EQbdkgRZ0UqCdDXEyE": {"geometry": {"location": {"lat": 51.53521139999999, "lng": -0.1729493}, "viewport": {"northeast": {"lat": 51.53645343029149, "lng": -0.171486019708498}, "southwest": {"lat": 51.53375546970849, "lng": -0.174183980291502}}}, "name": "St Johns Wood Estates", "place_id": "ChIJi0PE2EQbdkgRZ0UqCdDXEyE", "types": ["point_of_interest", "establishment"], "rating": 5, "user_ratings_total": 1}, "ChIJAQAwm70adkgRF0LPfN3UmvU": {"geometry": {"location": {"lat": 51.53521139999999, "lng": -0.1729493}, "viewport": {"northeast": {"lat": 51.53645343029149, "lng": -0.171486019708498}, "southwest": {"lat": 51.53375546970849, "lng": -0.174183980291502}}}, "name": "The French Law Practice", "place_id": "ChIJAQAwm70adkgRF0LPfN3UmvU", "types": ["lawyer", "point_of_interest", "establishment"]}, "ChIJAQAwm70adkgRUEM1o9vRmXE": {"geometry": {"location": {"lat": 51.53521139999999, "lng": -0.1729493}, "viewport": {"northeast": {"lat": 51.53645343029149, "lng": -0.171486019708498}, "southwest": {"lat": 51.53375546970849, "lng": -0.174183980291502}}}, "name": "Guard International Security", "place_id": "ChIJAQAwm70adkgRUEM1o9vRmXE", "types": ["point_of_interest", "establishment"]}, "ChIJ4_M9mr0adkgR8mm7YWNqfU4": {"geometry": {"location": {"lat": 51.53521139999999, "lng": -0.1729493}, "viewport": {"northeast": {"lat": 51.53645343029149, "lng": -0.171486019708498}, "southwest": {"lat": 51.53375546970849, "lng": -0.174183980291502}}}, "name": "Acacia Road Residential", "place_id": "ChIJ4_M9mr0adkgR8mm7YWNqfU4", "types": ["real_estate_agency", "point_of_interest", "establishment"]}, "ChIJgQ8Lmr0adkgRetyjd_hlnQ0": {"geometry": {"location": {"lat": 51.53521139999999, "lng": -0.1729493}, "viewport": {"northeast": {"lat": 51.53645343029149, "lng": -0.171486019708498}, "southwest": {"lat": 51.53375546970849, "lng": -0.174183980291502}}}, "name": "Aesthetic Cosmetic Ltd", "place_id": "ChIJgQ8Lmr0adkgRetyjd_hlnQ0", "types": ["beauty_salon", "point_of_interest", "establishment"]}, "ChIJjQ0lm70adkgRUBRNOb3O8To": {"geometry": {"location": {"lat": 51.53521139999999, "lng": -0.1729493}, "viewport": {"northeast": {"lat": 51.53645343029149, "lng": -0.171486019708498}, "southwest": {"lat": 51.53375546970849, "lng": -0.174183980291502}}}, "name": "Finance and Credit Corporation Ltd", "place_id": "ChIJjQ0lm70adkgRUBRNOb3O8To", "types": ["finance", "point_of_interest", "establishment"]}, "ChIJF9H-3KIbdkgRK7uNpqKOaHI": {"geometry": {"location": {"lat": 51.53497509999999, "lng": -0.1733557}, "viewport": {"northeast": {"lat": 51.53624563029149, "lng": -0.171926169708498}, "southwest": {"lat": 51.53354766970849, "lng": -0.174624130291502}}}, "name": "Plumbers St John's Wood", "place_id": "ChIJF9H-3KIbdkgRK7uNpqKOaHI", "types": ["plumber", "point_of_interest", "establishment"]}, "ChIJZ8Vd3tkbdkgRPFjI2v860bk": {"geometry": {"location": {"lat": 51.5344705, "lng": -0.1722165}, "viewport": {"northeast": {"lat": 51.5358714302915, "lng": -0.170759269708498}, "southwest": {"lat": 51.5331734697085, "lng": -0.173457230291502}}}, "name": "Flower delivery", "place_id": "ChIJZ8Vd3tkbdkgRPFjI2v860bk", "types": ["point_of_interest", "establishment"]}, "ChIJV1Vavr0adkgRPvEKywQ1TD4": {"geometry": {"location": {"lat": 51.5344627, "lng": -0.1722198}, "viewport": {"northeast": {"lat": 51.5358655802915, "lng": -0.170758519708498}, "southwest": {"lat": 51.5331676197085, "lng": -0.173456480291502}}}, "name": "Nuccii", "place_id": "ChIJV1Vavr0adkgRPvEKywQ1TD4", "types": ["point_of_interest", "establishment"]}, "ChIJ-QzTd70adkgRgxGYsTNIN34": {"geometry": {"location": {"lat": 51.5350958, "lng": -0.1734842}, "viewport": {"northeast": {"lat": 51.5364272302915, "lng": -0.172190619708498}, "southwest": {"lat": 51.53372926970851, "lng": -0.174888580291502}}}, "name": "Business Vales Partnership", "place_id": "ChIJ-QzTd70adkgRgxGYsTNIN34", "types": ["point_of_interest", "establishment"]}, "ChIJtz0LFJcadkgRAyD2REs_qqo": {"geometry": {"location": {"lat": 51.53952662229221, "lng": -0.1745321228674463}, "viewport": {"northeast": {"lat": 51.5408738802915, "lng": -0.173183619708498}, "southwest": {"lat": 51.5381759197085, "lng": -0.175881580291502}}}, "name": "2 Boundary Rd", "place_id": "ChIJtz0LFJcadkgRAyD2REs_qqo", "types": ["route"]}, "ChIJlQ6FEpcadkgR4-v0fPN8YCs": {"geometry": {"location": {"lat": 51.5392277, "lng": -0.1748056}, "viewport": {"northeast": {"lat": 51.5407343802915, "lng": -0.173424619708498}, "southwest": {"lat": 51.5380364197085, "lng": -0.176122580291502}}}, "name": "Jerusalem Ball", "place_id": "ChIJlQ6FEpcadkgR4-v0fPN8YCs", "types": ["point_of_interest", "establishment"]}, "ChIJYwKnE5cadkgR2P_HTwAloqo": {"geometry": {"location": {"lat": 51.539411, "lng": -0.1747591}, "viewport": {"northeast": {"lat": 51.54082453029149, "lng": -0.173382719708498}, "southwest": {"lat": 51.5381265697085, "lng": -0.176080680291502}}}, "name": "Buttermere Court", "place_id": "ChIJYwKnE5cadkgR2P_HTwAloqo", "types": ["bus_station", "transit_station", "point_of_interest", "establishment"], "rating": 4.1, "user_ratings_total": 12}, "ChIJRUk6qJcadkgR2vBlhq1FYtM": {"geometry": {"location": {"lat": 51.53848884079244, "lng": -0.1740901863393637}, "viewport": {"northeast": {"lat": 51.53983753029149, "lng": -0.172727069708498}, "southwest": {"lat": 51.53713956970849, "lng": -0.175425030291502}}}, "name": "22-28 St John's Wood Park", "place_id": "ChIJRUk6qJcadkgR2vBlhq1FYtM", "types": ["route"]}, "ChIJt4f_oywFdkgR6Bc0fGHDkZw": {"geometry": {"location": {"lat": 51.53823019999999, "lng": -0.1738063}, "viewport": {"northeast": {"lat": 51.5395456802915, "lng": -0.172593419708498}, "southwest": {"lat": 51.5368477197085, "lng": -0.175291380291502}}}, "name": "Yellow Brick Estates", "place_id": "ChIJt4f_oywFdkgR6Bc0fGHDkZw", "types": ["finance", "point_of_interest", "establishment"]}, "ChIJ_SJsLFkbdkgR6Gz0zTDpHLI": {"geometry": {"location": {"lat": 51.53796450000001, "lng": -0.1743739}, "viewport": {"northeast": {"lat": 51.5393750802915, "lng": -0.172846719708498}, "southwest": {"lat": 51.5366771197085, "lng": -0.175544680291502}}}, "name": "25 St. John Wood Park", "place_id": "ChIJ_SJsLFkbdkgR6Gz0zTDpHLI", "types": ["lodging", "point_of_interest", "establishment"]}, "ChIJ2XpadZcadkgRSRNvuj_B-34": {"geometry": {"location": {"lat": 51.538287, "lng": -0.1752183}, "viewport": {"northeast": {"lat": 51.5396422302915, "lng": -0.173952969708498}, "southwest": {"lat": 51.5369442697085, "lng": -0.176650930291502}}}, "name": "T A Braithwaithe & Associates Insurance Brokers Ltd", "place_id": "ChIJ2XpadZcadkgRSRNvuj_B-34", "types": ["insurance_agency", "point_of_interest", "establishment"], "rating": 1, "user_ratings_total": 1}, "ChIJs7F1uJcadkgRBD8nE1ga1uM": {"geometry": {"location": {"lat": 51.53725082394085, "lng": -0.1742995097224455}, "viewport": {"northeast": {"lat": 51.5385996802915, "lng": -0.17266925}, "southwest": {"lat": 51.5359017197085, "lng": -0.17592945}}}, "name": "22-1 Queen's Grove", "place_id": "ChIJs7F1uJcadkgRBD8nE1ga1uM", "types": ["route"]}, "ChIJ7ThCwpcadkgRH1ppC3vQ8vQ": {"geometry": {"location": {"lat": 51.53678530000001, "lng": -0.1748383000000001}, "viewport": {"northeast": {"lat": 51.5381969302915, "lng": -0.173568319708498}, "southwest": {"lat": 51.5354989697085, "lng": -0.176266280291502}}}, "name": "Diving And Safety Boat Hire Contractors", "place_id": "ChIJ7ThCwpcadkgRH1ppC3vQ8vQ", "types": ["point_of_interest", "establishment"]}, "ChIJ8fxN55cadkgRYSDcHznsH6E": {"geometry": {"location": {"lat": 51.53604681663273, "lng": -0.174669789531001}, "viewport": {"northeast": {"lat": 51.5373861802915, "lng": -0.173373469708498}, "southwest": {"lat": 51.5346882197085, "lng": -0.176071430291502}}}, "name": "2-7 Queen's Terrace", "place_id": "ChIJ8fxN55cadkgRYSDcHznsH6E", "types": ["route"]}, "ChIJCbsSZ70adkgRsxHgqmhSxQs": {"geometry": {"location": {"lat": 51.5355247, "lng": -0.1749991}, "viewport": {"northeast": {"lat": 51.53689638029149, "lng": -0.173677469708498}, "southwest": {"lat": 51.5341984197085, "lng": -0.176375430291502}}}, "name": "The Terraces", "place_id": "ChIJCbsSZ70adkgRsxHgqmhSxQs", "types": ["point_of_interest", "establishment"], "rating": 4.5, "user_ratings_total": 11}, "ChIJg3OGYL0adkgRJRhhzGaDPsU": {"geometry": {"location": {"lat": 51.535804, "lng": -0.174955}, "viewport": {"northeast": {"lat": 51.5370940802915, "lng": -0.173535019708498}, "southwest": {"lat": 51.5343961197085, "lng": -0.176232980291502}}}, "name": "Heartcore", "place_id": "ChIJg3OGYL0adkgRJRhhzGaDPsU", "types": ["gym", "health", "point_of_interest", "establishment"], "rating": 4.6, "user_ratings_total": 15}, "ChIJK2brXr0adkgRk5YadYUMqRg": {"geometry": {"location": {"lat": 51.5356657, "lng": -0.1751869}, "viewport": {"northeast": {"lat": 51.5369654302915, "lng": -0.173778519708498}, "southwest": {"lat": 51.5342674697085, "lng": -0.176476480291502}}}, "name": "Jam In The Middle Ltd", "place_id": "ChIJK2brXr0adkgRk5YadYUMqRg", "types": ["point_of_interest", "establishment"]}, "ChIJRfF5fr0adkgRADFkdYcf14M": {"geometry": {"location": {"lat": 51.53576469999999, "lng": -0.1738041}, "viewport": {"northeast": {"lat": 51.53713050826927, "lng": -0.1724568691122167}, "southwest": {"lat": 51.53443254768627, "lng": -0.1751548296952208}}}, "name": "Parking lot", "place_id": "ChIJRfF5fr0adkgRADFkdYcf14M", "types": ["parking", "premise", "point_of_interest", "establishment"]}, "ChIJN4YZa70adkgRjR2zeZTb0F4": {"geometry": {"location": {"lat": 51.5347204000366, "lng": -0.1746595998444447}, "viewport": {"northeast": {"lat": 51.53606938029149, "lng": -0.173310619708498}, "southwest": {"lat": 51.5333714197085, "lng": -0.176008580291502}}}, "name": "2 A41", "place_id": "ChIJN4YZa70adkgRjR2zeZTb0F4", "types": ["route"]}, "ChIJZQk5cr0adkgR4RwxyXXzI0o": {"geometry": {"location": {"lat": 51.5346837, "lng": -0.1741104}, "viewport": {"northeast": {"lat": 51.5359571802915, "lng": -0.172921919708498}, "southwest": {"lat": 51.5332592197085, "lng": -0.175619880291502}}}, "name": "London Beatles Walks and Tours", "place_id": "ChIJZQk5cr0adkgR4RwxyXXzI0o", "types": ["travel_agency", "point_of_interest", "establishment"], "rating": 4.2, "user_ratings_total": 93}, "ChIJoQ45cr0adkgRXz0fCKYJg88": {"geometry": {"location": {"lat": 51.534856, "lng": -0.17404}, "viewport": {"northeast": {"lat": 51.5362314802915, "lng": -0.172723369708498}, "southwest": {"lat": 51.5335335197085, "lng": -0.175421330291502}}}, "name": "SJW Newsagents", "place_id": "ChIJoQ45cr0adkgRXz0fCKYJg88", "types": ["book_store", "point_of_interest", "store", "establishment"], "rating": 4, "user_ratings_total": 1}, "ChIJf1rADL0adkgREW-1BJxy_Iw": {"geometry": {"location": {"lat": 51.5347066, "lng": -0.1740969}, "viewport": {"northeast": {"lat": 51.5359461302915, "lng": -0.172842719708498}, "southwest": {"lat": 51.5332481697085, "lng": -0.175540680291502}}}, "name": "St. John's Wood", "place_id": "ChIJf1rADL0adkgREW-1BJxy_Iw", "types": ["subway_station", "transit_station", "point_of_interest", "establishment"], "rating": 4.2, "user_ratings_total": 73}, "ChIJWQNYDb0adkgRNqLAcomh14k": {"geometry": {"location": {"lat": 51.5346065, "lng": -0.1741483}, "viewport": {"northeast": {"lat": 51.53588713029149, "lng": -0.172721519708498}, "southwest": {"lat": 51.5331891697085, "lng": -0.175419480291502}}}, "name": "Piano Teacher London / 'Manda Dorj Piano School'", "place_id": "ChIJWQNYDb0adkgRNqLAcomh14k", "types": ["electronics_store", "home_goods_store", "school", "point_of_interest", "store", "establishment"]}, "ChIJzwpnbb0adkgR49EpTLDiOhQ": {"geometry": {"location": {"lat": 51.5346807, "lng": -0.1742225}, "viewport": {"northeast": {"lat": 51.5359715302915, "lng": -0.172997219708498}, "southwest": {"lat": 51.53327356970851, "lng": -0.1756951802915021}}}, "name": "St. John's Wood Station", "place_id": "ChIJzwpnbb0adkgR49EpTLDiOhQ", "types": ["transit_station", "point_of_interest", "establishment"]}, "ChIJkSQKlNwbdkgR5jP4DtKOsAs": {"geometry": {"location": {"lat": 51.53479850000001, "lng": -0.1743273}, "viewport": {"northeast": {"lat": 51.53608353029151, "lng": -0.173114169708498}, "southwest": {"lat": 51.53338556970851, "lng": -0.175812130291502}}}, "name": "Claudio Salon", "place_id": "ChIJkSQKlNwbdkgR5jP4DtKOsAs", "types": ["hair_care", "point_of_interest", "establishment"], "rating": 4.9, "user_ratings_total": 54}, "ChIJt_xnVL0adkgREl2yjfbD1ys": {"geometry": {"location": {"lat": 51.53481859999999, "lng": -0.174731}, "viewport": {"northeast": {"lat": 51.53662618029151, "lng": -0.17401395}, "southwest": {"lat": 51.53392821970851, "lng": -0.17688215}}}, "name": "Apsley House", "place_id": "ChIJt_xnVL0adkgREl2yjfbD1ys", "types": ["point_of_interest", "establishment"], "rating": 3.5, "user_ratings_total": 2}, "ChIJ9T7exaEbdkgRcOeNypmZMuE": {"geometry": {"location": {"lat": 51.5348886, "lng": -0.1748224}, "viewport": {"northeast": {"lat": 51.5362428802915, "lng": -0.173462769708498}, "southwest": {"lat": 51.5335449197085, "lng": -0.176160730291502}}}, "name": "Scaffolding Erectors Near St John's Wood", "place_id": "ChIJ9T7exaEbdkgRcOeNypmZMuE", "types": ["point_of_interest", "establishment"]}, "ChIJVVUFFb0adkgRYhJ_FhHOo4A": {"geometry": {"location": {"lat": 51.53464489999999, "lng": -0.1741998}, "viewport": {"northeast": {"lat": 51.53593883029149, "lng": -0.172967919708498}, "southwest": {"lat": 51.53324086970849, "lng": -0.175665880291502}}}, "name": "Man and Van St John's Wood.", "place_id": "ChIJVVUFFb0adkgRYhJ_FhHOo4A", "types": ["moving_company", "point_of_interest", "establishment"]}, "ChIJU9Djbr0adkgRyj-WGZ65xoQ": {"geometry": {"location": {"lat": 51.53507369999999, "lng": -0.1744418}, "viewport": {"northeast": {"lat": 51.5363220802915, "lng": -0.1732965197084979}, "southwest": {"lat": 51.5336241197085, "lng": -0.175994480291502}}}, "name": "HouseBuoy", "place_id": "ChIJU9Djbr0adkgRyj-WGZ65xoQ", "types": ["point_of_interest", "establishment"]}, "ChIJu0hxY6UadkgRDx9qb5Hceao": {"geometry": {"location": {"lat": 51.534436, "lng": -0.1746437}, "viewport": {"northeast": {"lat": 51.5358337802915, "lng": -0.173189119708498}, "southwest": {"lat": 51.5331358197085, "lng": -0.175887080291502}}}, "name": "Estate Office Property Consultants", "place_id": "ChIJu0hxY6UadkgRDx9qb5Hceao", "types": ["real_estate_agency", "finance", "point_of_interest", "establishment"], "rating": 3.3, "user_ratings_total": 3}, "ChIJBeT-27EbdkgReed8O-Eu6ic": {"geometry": {"location": {"lat": 51.534622, "lng": -0.1739459}, "viewport": {"northeast": {"lat": 51.5358820802915, "lng": -0.172785919708498}, "southwest": {"lat": 51.5331841197085, "lng": -0.175483880291502}}}, "name": "Helterskelter", "place_id": "ChIJBeT-27EbdkgReed8O-Eu6ic", "types": ["cafe", "food", "point_of_interest", "store", "establishment"], "rating": 4.5, "user_ratings_total": 51}, "ChIJ79iBWvAbdkgR4xRBNru9O2U": {"geometry": {"location": {"lat": 51.5344692, "lng": -0.1747854}, "viewport": {"northeast": {"lat": 51.53588268029149, "lng": -0.173299219708498}, "southwest": {"lat": 51.53318471970849, "lng": -0.175997180291502}}}, "name": "Oskar Kokoschka Blue Plaque", "place_id": "ChIJ79iBWvAbdkgR4xRBNru9O2U", "types": ["point_of_interest", "establishment"]}, "ChIJFbnP8vobdkgR9Zs1W7ddlm0": {"geometry": {"location": {"lat": 51.5344692, "lng": -0.1747854}, "viewport": {"northeast": {"lat": 51.53588268029149, "lng": -0.173299219708498}, "southwest": {"lat": 51.53318471970849, "lng": -0.175997180291502}}}, "name": "Estate Office Investments Ltd", "place_id": "ChIJFbnP8vobdkgR9Zs1W7ddlm0", "types": ["finance", "point_of_interest", "establishment"]}, "ChIJQatbgxsbdkgR7oj0X-vGFtk": {"geometry": {"location": {"lat": 51.5343659, "lng": -0.1742287}, "viewport": {"northeast": {"lat": 51.53571488029149, "lng": -0.172879719708498}, "southwest": {"lat": 51.53301691970849, "lng": -0.175577680291502}}}, "name": "Green Rooters & Heating", "place_id": "ChIJQatbgxsbdkgR7oj0X-vGFtk", "types": ["plumber", "general_contractor", "point_of_interest", "establishment"]}, "ChIJSWN0Er0adkgROaNUQZ2RolA": {"geometry": {"location": {"lat": 51.5343581, "lng": -0.1742065}, "viewport": {"northeast": {"lat": 51.5356867802915, "lng": -0.172903019708498}, "southwest": {"lat": 51.5329888197085, "lng": -0.175600980291502}}}, "name": "Nicole Marais", "place_id": "ChIJSWN0Er0adkgROaNUQZ2RolA", "types": ["health", "point_of_interest", "establishment"]}, "ChIJSWN0Er0adkgR0oEKzrx1-Ys": {"geometry": {"location": {"lat": 51.5343581, "lng": -0.1742065}, "viewport": {"northeast": {"lat": 51.5356867802915, "lng": -0.172903019708498}, "southwest": {"lat": 51.5329888197085, "lng": -0.175600980291502}}}, "name": "St Johns Wood Carpet Cleaners Ltd", "place_id": "ChIJSWN0Er0adkgR0oEKzrx1-Ys", "types": ["laundry", "point_of_interest", "establishment"]}, "ChIJW7IM4B0bdkgRG7R_ZSLKwno": {"geometry": {"location": {"lat": 51.5343581, "lng": -0.1742065}, "viewport": {"northeast": {"lat": 51.5356873302915, "lng": -0.172903919708498}, "southwest": {"lat": 51.5329893697085, "lng": -0.175601880291502}}}, "name": "Ben Warren Turner Gravesite", "place_id": "ChIJW7IM4B0bdkgRG7R_ZSLKwno", "types": ["cemetery", "point_of_interest", "establishment"]}, "ChIJdYNpVVkQdkgRQijev9Tm990": {"geometry": {"location": {"lat": 51.5343581, "lng": -0.1742065}, "viewport": {"northeast": {"lat": 51.5356873302915, "lng": -0.172903919708498}, "southwest": {"lat": 51.5329893697085, "lng": -0.175601880291502}}}, "name": "Nostra Comms", "place_id": "ChIJdYNpVVkQdkgRQijev9Tm990", "types": ["point_of_interest", "establishment"]}, "ChIJ11zIc70adkgRjK7kbC68cLQ": {"geometry": {"location": {"lat": 51.5348608, "lng": -0.1738905}, "viewport": {"northeast": {"lat": 51.53619699669569, "lng": -0.1726170350126524}, "southwest": {"lat": 51.53349903611269, "lng": -0.1753149955956564}}}, "name": "Parking lot", "place_id": "ChIJ11zIc70adkgRjK7kbC68cLQ", "types": ["parking", "premise", "point_of_interest", "establishment"]}, "ChIJ7ajPb70adkgRqxHVVXGoUng": {"geometry": {"location": {"lat": 51.53510670000001, "lng": -0.1742602}, "viewport": {"northeast": {"lat": 51.53646820138886, "lng": -0.1728988604131269}, "southwest": {"lat": 51.53377024080586, "lng": -0.1755968209961309}}}, "name": "Parking lot", "place_id": "ChIJ7ajPb70adkgRqxHVVXGoUng", "types": ["parking", "premise", "point_of_interest", "establishment"]}, "ChIJ-SnUpeoadkgRMZxyA2j_U5U": {"geometry": {"location": {"lat": 51.53633930000909, "lng": -0.1635251500153435}, "viewport": {"northeast": {"lat": 51.5376882802915, "lng": -0.162176169708498}, "southwest": {"lat": 51.5349903197085, "lng": -0.164874130291502}}}, "name": "25 St Edmund's Terrace", "place_id": "ChIJ-SnUpeoadkgRMZxyA2j_U5U", "types": ["route"]}, "ChIJSQpWOJUadkgRcl_gMD1ia7M": {"geometry": {"location": {"lat": 51.53743272998015, "lng": -0.1654895878880929}, "viewport": {"northeast": {"lat": 51.53877908029149, "lng": -0.164140369708498}, "southwest": {"lat": 51.5360811197085, "lng": -0.166838330291502}}}, "name": "Rudgwick Terrace", "place_id": "ChIJSQpWOJUadkgRcl_gMD1ia7M", "types": ["route"]}, "ChIJ0dTDWZUadkgRCPf0t-JJbMk": {"geometry": {"location": {"lat": 51.53629970000001, "lng": -0.1651708}, "viewport": {"northeast": {"lat": 51.5375768302915, "lng": -0.163952119708498}, "southwest": {"lat": 51.5348788697085, "lng": -0.1666500802915021}}}, "name": "Watertrade Limited", "place_id": "ChIJ0dTDWZUadkgRCPf0t-JJbMk", "types": ["point_of_interest", "establishment"]}, "ChIJ14Or_L8adkgRMqDPLBHeyHQ": {"geometry": {"location": {"lat": 51.53566205048414, "lng": -0.1652633010488269}, "viewport": {"northeast": {"lat": 51.5370110302915, "lng": -0.163914319708498}, "southwest": {"lat": 51.5343130697085, "lng": -0.166612280291502}}}, "name": "20 Allitsen Rd", "place_id": "ChIJ14Or_L8adkgRMqDPLBHeyHQ", "types": ["route"]}, "ChIJdSN-EcAadkgR_QhMkLor2qc": {"geometry": {"location": {"lat": 51.5353881, "lng": -0.1650604}, "viewport": {"northeast": {"lat": 51.5368537302915, "lng": -0.1635007697084979}, "southwest": {"lat": 51.5341557697085, "lng": -0.166198730291502}}}, "name": "Aspaera", "place_id": "ChIJdSN-EcAadkgR_QhMkLor2qc", "types": ["point_of_interest", "establishment"]}, "ChIJpVY3-r8adkgRbSoq05b6Jvg": {"geometry": {"location": {"lat": 51.5353881, "lng": -0.1650604}, "viewport": {"northeast": {"lat": 51.5368537302915, "lng": -0.1635007697084979}, "southwest": {"lat": 51.5341557697085, "lng": -0.166198730291502}}}, "name": "247 Investigations", "place_id": "ChIJpVY3-r8adkgRbSoq05b6Jvg", "types": ["point_of_interest", "establishment"]}, "ChIJcfFZFQEZdkgR6HXB806R9AE": {"geometry": {"location": {"lat": 51.5354256, "lng": -0.1649943}, "viewport": {"northeast": {"lat": 51.5368727302915, "lng": -0.163468069708498}, "southwest": {"lat": 51.5341747697085, "lng": -0.166166030291502}}}, "name": "Woodmere Court", "place_id": "ChIJcfFZFQEZdkgR6HXB806R9AE", "types": ["point_of_interest", "establishment"]}, "ChIJVVVF-r8adkgRDThO8zmooZw": {"geometry": {"location": {"lat": 51.5353869, "lng": -0.1651278}, "viewport": {"northeast": {"lat": 51.53686538029149, "lng": -0.163552219708498}, "southwest": {"lat": 51.5341674197085, "lng": -0.166250180291502}}}, "name": "Polorbis Holidays Ltd", "place_id": "ChIJVVVF-r8adkgRDThO8zmooZw", "types": ["travel_agency", "point_of_interest", "establishment"]}, "ChIJvUud-L8adkgRwout8IgNBiA": {"geometry": {"location": {"lat": 51.5354409, "lng": -0.1646798}, "viewport": {"northeast": {"lat": 51.53683608029149, "lng": -0.163247419708498}, "southwest": {"lat": 51.53413811970849, "lng": -0.165945380291502}}}, "name": "London House", "place_id": "ChIJvUud-L8adkgRwout8IgNBiA", "types": ["point_of_interest", "establishment"]}, "ChIJNcNYt94bdkgRpcrQS0n45HM": {"geometry": {"location": {"lat": 51.5386315, "lng": -0.1671795}, "viewport": {"northeast": {"lat": 51.5399521802915, "lng": -0.166022419708498}, "southwest": {"lat": 51.5372542197085, "lng": -0.168720380291502}}}, "name": "Purifier House", "place_id": "ChIJNcNYt94bdkgRpcrQS0n45HM", "types": ["point_of_interest", "establishment"]}, "ChIJuZ_lC5UadkgRjRcjwJ51Uzc": {"geometry": {"location": {"lat": 51.5375531, "lng": -0.1670445}, "viewport": {"northeast": {"lat": 51.53883863029151, "lng": -0.165810869708498}, "southwest": {"lat": 51.53614066970851, "lng": -0.168508830291502}}}, "name": "Elevator Insight Ltd.", "place_id": "ChIJuZ_lC5UadkgRjRcjwJ51Uzc", "types": ["point_of_interest", "establishment"]}, "ChIJOZFTY5UadkgRZyRN-qYiEAM": {"geometry": {"location": {"lat": 51.536223, "lng": -0.1668199}, "viewport": {"northeast": {"lat": 51.5375378802915, "lng": -0.165530819708498}, "southwest": {"lat": 51.5348399197085, "lng": -0.168228780291502}}}, "name": "Fff Investments Limited", "place_id": "ChIJOZFTY5UadkgRZyRN-qYiEAM", "types": ["point_of_interest", "establishment"]}, "ChIJVxd_w78adkgRN0bF6jAKpAM": {"geometry": {"location": {"lat": 51.53513050015864, "lng": -0.1664786003769111}, "viewport": {"northeast": {"lat": 51.5364794802915, "lng": -0.165129619708498}, "southwest": {"lat": 51.5337815197085, "lng": -0.167827580291502}}}, "name": "53 Allitsen Rd", "place_id": "ChIJVxd_w78adkgRN0bF6jAKpAM", "types": ["route"]}, "ChIJYfiz2r8adkgRG_QoqaZzJsc": {"geometry": {"location": {"lat": 51.5352617, "lng": -0.166749}, "viewport": {"northeast": {"lat": 51.53661718029151, "lng": -0.165406769708498}, "southwest": {"lat": 51.53391921970851, "lng": -0.168104730291502}}}, "name": "Opie House", "place_id": "ChIJYfiz2r8adkgRG_QoqaZzJsc", "types": ["point_of_interest", "establishment"], "rating": 5, "user_ratings_total": 1}, "ChIJV_uB3L8adkgRorHDBfdI1ZY": {"geometry": {"location": {"lat": 51.53540799999999, "lng": -0.1664608}, "viewport": {"northeast": {"lat": 51.5367570302915, "lng": -0.165111719708498}, "southwest": {"lat": 51.5340590697085, "lng": -0.167809680291502}}}, "name": "Cruiksink House", "place_id": "ChIJV_uB3L8adkgRorHDBfdI1ZY", "types": ["point_of_interest", "establishment"]}, "ChIJAQD00b8adkgRNFgjH8hLSlY": {"geometry": {"location": {"lat": 51.53532239999999, "lng": -0.167175}, "viewport": {"northeast": {"lat": 51.53660678029149, "lng": -0.165757069708498}, "southwest": {"lat": 51.53390881970849, "lng": -0.168455030291502}}}, "name": "library", "place_id": "ChIJAQD00b8adkgRNFgjH8hLSlY", "types": ["library", "point_of_interest", "establishment"]}, "ChIJASOdk78adkgRpBnPSpSzz8c": {"geometry": {"location": {"lat": 51.5343438, "lng": -0.1662493}, "viewport": {"northeast": {"lat": 51.5356479302915, "lng": -0.164804319708498}, "southwest": {"lat": 51.5329499697085, "lng": -0.167502280291502}}}, "name": "Gladstone", "place_id": "ChIJASOdk78adkgRpBnPSpSzz8c", "types": ["point_of_interest", "establishment"]}, "ChIJpdy7RNQbdkgRN5ux-iJq8aM": {"geometry": {"location": {"lat": 51.5344013, "lng": -0.1667318}, "viewport": {"northeast": {"lat": 51.5357044302915, "lng": -0.165454369708498}, "southwest": {"lat": 51.5330064697085, "lng": -0.168152330291502}}}, "name": "11-21 Eamont Court", "place_id": "ChIJpdy7RNQbdkgRN5ux-iJq8aM", "types": ["general_contractor", "point_of_interest", "establishment"]}, "ChIJ5Tr6l5UadkgRvd7M6-30BMQ": {"geometry": {"location": {"lat": 51.537197, "lng": -0.16834}, "viewport": {"northeast": {"lat": 51.53852638029149, "lng": -0.167024369708498}, "southwest": {"lat": 51.53582841970849, "lng": -0.169722330291502}}}, "name": "ubitricity Charging Station", "place_id": "ChIJ5Tr6l5UadkgRvd7M6-30BMQ", "types": ["point_of_interest", "establishment"]}, "ChIJoUXcjZUadkgRgVeg4yHwOf4": {"geometry": {"location": {"lat": 51.53648064803193, "lng": -0.1687001407008552}, "viewport": {"northeast": {"lat": 51.53783028029149, "lng": -0.167349919708498}, "southwest": {"lat": 51.5351323197085, "lng": -0.170047880291502}}}, "name": "7-11 Woronzow Rd", "place_id": "ChIJoUXcjZUadkgRgVeg4yHwOf4", "types": ["route"]}, "ChIJb7p4Jb4adkgRP6Y_wN4QDzA": {"geometry": {"location": {"lat": 51.53537880003824, "lng": -0.1684177500929384}, "viewport": {"northeast": {"lat": 51.5367277802915, "lng": -0.167068769708498}, "southwest": {"lat": 51.5340298197085, "lng": -0.169766730291502}}}, "name": "38 St John's Wood Terrace", "place_id": "ChIJb7p4Jb4adkgRP6Y_wN4QDzA", "types": ["route"]}, "ChIJjwdzL74adkgROTY4EI8s1yg": {"geometry": {"location": {"lat": 51.5354523, "lng": -0.1682224}, "viewport": {"northeast": {"lat": 51.5368187802915, "lng": -0.1668916697084979}, "southwest": {"lat": 51.5341208197085, "lng": -0.169589630291502}}}, "name": "ubitricity Charging Station", "place_id": "ChIJjwdzL74adkgROTY4EI8s1yg", "types": ["point_of_interest", "establishment"]}, "ChIJD-IUO74adkgRaSSsMq2E5e4": {"geometry": {"location": {"lat": 51.53513090000001, "lng": -0.1684798}, "viewport": {"northeast": {"lat": 51.5365489302915, "lng": -0.167216569708498}, "southwest": {"lat": 51.5338509697085, "lng": -0.169914530291502}}}, "name": "Cameron House", "place_id": "ChIJD-IUO74adkgRaSSsMq2E5e4", "types": ["point_of_interest", "establishment"]}, "ChIJeYS4Lb4adkgRzpDXiG_lkZg": {"geometry": {"location": {"lat": 51.535371, "lng": -0.167841}, "viewport": {"northeast": {"lat": 51.5366690802915, "lng": -0.166432669708498}, "southwest": {"lat": 51.5339711197085, "lng": -0.169130630291502}}}, "name": "Tigerlillies PreSchool", "place_id": "ChIJeYS4Lb4adkgRzpDXiG_lkZg", "types": ["school", "point_of_interest", "establishment"]}, "ChIJmVQoSr4adkgRaSKafZ3jayA": {"geometry": {"location": {"lat": 51.53437635002692, "lng": -0.1681258000625167}, "viewport": {"northeast": {"lat": 51.5357253302915, "lng": -0.166776819708498}, "southwest": {"lat": 51.5330273697085, "lng": -0.169474780291502}}}, "name": "55-57 Allitsen Rd", "place_id": "ChIJmVQoSr4adkgRaSKafZ3jayA", "types": ["route"]}, "ChIJExx9P74adkgR0kzYQwVH9OA": {"geometry": {"location": {"lat": 51.53436550000001, "lng": -0.1684231}, "viewport": {"northeast": {"lat": 51.5357394302915, "lng": -0.167011669708498}, "southwest": {"lat": 51.5330414697085, "lng": -0.169709630291502}}}, "name": "Brown's Of St Johns Wood", "place_id": "ChIJExx9P74adkgR0kzYQwVH9OA", "types": ["restaurant", "food", "point_of_interest", "store", "establishment"], "rating": 4.4, "user_ratings_total": 35}, "ChIJFTAbRr4adkgR7UeH-HQYYBI": {"geometry": {"location": {"lat": 51.5343593, "lng": -0.1684138}, "viewport": {"northeast": {"lat": 51.5357280802915, "lng": -0.166994219708498}, "southwest": {"lat": 51.5330301197085, "lng": -0.169692180291502}}}, "name": "The Lyndhurst Club", "place_id": "ChIJFTAbRr4adkgR7UeH-HQYYBI", "types": ["point_of_interest", "establishment"], "rating": 3.7, "user_ratings_total": 9}, "ChIJPXW62XUbdkgRjNoh3aeCat8": {"geometry": {"location": {"lat": 51.5344254, "lng": -0.1685025}, "viewport": {"northeast": {"lat": 51.53580373029149, "lng": -0.167087619708498}, "southwest": {"lat": 51.5331057697085, "lng": -0.169785580291502}}}, "name": "Browns of St Johns Wood", "place_id": "ChIJPXW62XUbdkgRjNoh3aeCat8", "types": ["food", "point_of_interest", "store", "establishment"]}, "ChIJkycxSb4adkgR-qHN62nHptE": {"geometry": {"location": {"lat": 51.53429999999999, "lng": -0.168074}, "viewport": {"northeast": {"lat": 51.5356501802915, "lng": -0.166723019708498}, "southwest": {"lat": 51.5329522197085, "lng": -0.169420980291502}}}, "name": "Santander Cycles", "place_id": "ChIJkycxSb4adkgR-qHN62nHptE", "types": ["point_of_interest", "establishment"], "rating": 4, "user_ratings_total": 4}, "ChIJRR90BO8bdkgR8b3mXpRy1J8": {"geometry": {"location": {"lat": 51.5344996, "lng": -0.1685212}, "viewport": {"northeast": {"lat": 51.5358681302915, "lng": -0.167128419708498}, "southwest": {"lat": 51.5331701697085, "lng": -0.169826380291502}}}, "name": "Post Office", "place_id": "ChIJRR90BO8bdkgR8b3mXpRy1J8", "types": ["post_office", "finance", "point_of_interest", "establishment"], "rating": 3.7, "user_ratings_total": 6}, "ChIJQxsxTe4bdkgRST5tqo4j4MY": {"geometry": {"location": {"lat": 51.5344979, "lng": -0.1685538}, "viewport": {"northeast": {"lat": 51.5358714802915, "lng": -0.167149569708498}, "southwest": {"lat": 51.53317351970851, "lng": -0.169847530291502}}}, "name": "Post Office Travel Money", "place_id": "ChIJQxsxTe4bdkgRST5tqo4j4MY", "types": ["finance", "point_of_interest", "establishment"]}, "ChIJz9rxrpgbdkgRDHc-K1-klnQ": {"geometry": {"location": {"lat": 51.53451690000001, "lng": -0.16854}, "viewport": {"northeast": {"lat": 51.53588498029151, "lng": -0.167147269708498}, "southwest": {"lat": 51.53318701970851, "lng": -0.169845230291502}}}, "name": "MoneyGram", "place_id": "ChIJz9rxrpgbdkgRDHc-K1-klnQ", "types": ["finance", "point_of_interest", "establishment"]}, "ChIJA8B83pUadkgRoQWWIARdB7o": {"geometry": {"location": {"lat": 51.53738422649906, "lng": -0.1701896650736525}, "viewport": {"northeast": {"lat": 51.53873378029149, "lng": -0.1688109999999999}, "southwest": {"lat": 51.53603581970849, "lng": -0.1715666}}}, "name": "15-25 Woronzow Rd", "place_id": "ChIJA8B83pUadkgRoQWWIARdB7o", "types": ["route"]}, "ChIJZXPk_L0adkgRqO75_AK5IJM": {"geometry": {"location": {"lat": 51.53536399999999, "lng": -0.17072}, "viewport": {"northeast": {"lat": 51.5367127302915, "lng": -0.169371619708498}, "southwest": {"lat": 51.5340147697085, "lng": -0.172069580291502}}}, "name": "ubitricity Charging Station", "place_id": "ChIJZXPk_L0adkgRqO75_AK5IJM", "types": ["point_of_interest", "establishment"]}, "ChIJWXu4dL4adkgRKNgF0yNGqOQ": {"geometry": {"location": {"lat": 51.53449460026067, "lng": -0.1703470506153325}, "viewport": {"northeast": {"lat": 51.53584358029151, "lng": -0.168998069708498}, "southwest": {"lat": 51.53314561970851, "lng": -0.171696030291502}}}, "name": "21-13 St John's Wood Terrace", "place_id": "ChIJWXu4dL4adkgRKNgF0yNGqOQ", "types": ["route"]}, "ChIJ9fIqhpYadkgRDZotAIkZrrQ": {"geometry": {"location": {"lat": 51.53874147300279, "lng": -0.1712501936363938}, "viewport": {"northeast": {"lat": 51.5400903802915, "lng": -0.1698619}, "southwest": {"lat": 51.53739241970851, "lng": -0.1726383}}}, "name": "40-38 Queen's Grove", "place_id": "ChIJ9fIqhpYadkgRDZotAIkZrrQ", "types": ["route"]}, "ChIJe9neGJYadkgR0nZADDd8-sE": {"geometry": {"location": {"lat": 51.53620188966723, "lng": -0.1716947871416518}, "viewport": {"northeast": {"lat": 51.5375516302915, "lng": -0.170344219708498}, "southwest": {"lat": 51.5348536697085, "lng": -0.173042180291502}}}, "name": "29-49 Ordnance Hill", "place_id": "ChIJe9neGJYadkgR0nZADDd8-sE", "types": ["route"]}, "ChIJk49Z8b0adkgReKLNpxGIYH8": {"geometry": {"location": {"lat": 51.53553842584156, "lng": -0.171595007292475}, "viewport": {"northeast": {"lat": 51.53688633029149, "lng": -0.170244469708498}, "southwest": {"lat": 51.5341883697085, "lng": -0.172942430291502}}}, "name": "52-50 Acacia Rd", "place_id": "ChIJk49Z8b0adkgReKLNpxGIYH8", "types": ["route"]}, "ChIJ4ZmM7b0adkgRGKHRG05KuGE": {"geometry": {"location": {"lat": 51.53512259999999, "lng": -0.1719763}, "viewport": {"northeast": {"lat": 51.53653698029149, "lng": -0.170700219708498}, "southwest": {"lat": 51.53383901970849, "lng": -0.173398180291502}}}, "name": "Tim Brown Photography", "place_id": "ChIJ4ZmM7b0adkgRGKHRG05KuGE", "types": ["point_of_interest", "establishment"]}, "ChIJyfXz7b0adkgRZ0S1L-ig3E0": {"geometry": {"location": {"lat": 51.5352332, "lng": -0.1716886}, "viewport": {"northeast": {"lat": 51.5366511302915, "lng": -0.170440119708498}, "southwest": {"lat": 51.5339531697085, "lng": -0.173138080291502}}}, "name": "Simma Properties", "place_id": "ChIJyfXz7b0adkgRZ0S1L-ig3E0", "types": ["real_estate_agency", "point_of_interest", "establishment"]}, "ChIJhfz27b0adkgRPO5b7rznOgM": {"geometry": {"location": {"lat": 51.535242, "lng": -0.1716738}, "viewport": {"northeast": {"lat": 51.53665978029149, "lng": -0.1704251197084979}, "southwest": {"lat": 51.53396181970849, "lng": -0.173123080291502}}}, "name": "John Chown", "place_id": "ChIJhfz27b0adkgRPO5b7rznOgM", "types": ["finance", "point_of_interest", "establishment"]}, "ChIJe1_q7b0adkgRlEGPVgTS1oQ": {"geometry": {"location": {"lat": 51.53517799999999, "lng": -0.171695}, "viewport": {"northeast": {"lat": 51.5366100802915, "lng": -0.170467169708498}, "southwest": {"lat": 51.5339121197085, "lng": -0.173165130291502}}}, "name": "St John's Wood - Acacia Rd", "place_id": "ChIJe1_q7b0adkgRlEGPVgTS1oQ", "types": ["car_rental", "point_of_interest", "establishment"]}, "ChIJry3dwb0adkgRtinBAsfRNro": {"geometry": {"location": {"lat": 51.5343749, "lng": -0.1715768}, "viewport": {"northeast": {"lat": 51.5356974302915, "lng": -0.170282869708498}, "southwest": {"lat": 51.5329994697085, "lng": -0.172980830291502}}}, "name": "St Johns Wood Barbers", "place_id": "ChIJry3dwb0adkgRtinBAsfRNro", "types": ["hair_care", "health", "point_of_interest", "establishment"], "rating": 4.4, "user_ratings_total": 100}, "ChIJJQftw70adkgR-QFJeOsd66c": {"geometry": {"location": {"lat": 51.5343161, "lng": -0.171511}, "viewport": {"northeast": {"lat": 51.5356596302915, "lng": -0.170157069708498}, "southwest": {"lat": 51.5329616697085, "lng": -0.172855030291502}}}, "name": "Nail Addict", "place_id": "ChIJJQftw70adkgR-QFJeOsd66c", "types": ["beauty_salon", "point_of_interest", "establishment"], "rating": 4.1, "user_ratings_total": 25}, "ChIJTZxAw70adkgRohk37VIcZL4": {"geometry": {"location": {"lat": 51.5342956, "lng": -0.1713784}, "viewport": {"northeast": {"lat": 51.5356025802915, "lng": -0.170116919708498}, "southwest": {"lat": 51.5329046197085, "lng": -0.172814880291502}}}, "name": "Experience Architect and Builders", "place_id": "ChIJTZxAw70adkgRohk37VIcZL4", "types": ["general_contractor", "point_of_interest", "establishment"]}, "ChIJ8TkbGpcadkgRIyVj7woV5ss": {"geometry": {"location": {"lat": 51.53949592555935, "lng": -0.1741629102405136},