{"E00024039": {"ChIJb9mJveEEdkgRgp_eRI9EmPY": {"geometry": {"location": {"lat": 51.48992534708079, "lng": -0.1388424279896616}, "viewport": {"northeast": {"lat": 51.4912967302915, "lng": -0.137515319708498}, "southwest": {"lat": 51.4885987697085, "lng": -0.140213280291502}}}, "name": "44-50 Charlwood St", "place_id": "ChIJb9mJveEEdkgRgp_eRI9EmPY", "types": ["route"]}, "ChIJk-UileEEdkgRoNwcYXorVVc": {"geometry": {"location": {"lat": 51.48983190000001, "lng": -0.1392876}, "viewport": {"northeast": {"lat": 51.4912282302915, "lng": -0.137827069708498}, "southwest": {"lat": 51.48853026970851, "lng": -0.140525030291502}}}, "name": "Ebuk Limited", "place_id": "ChIJk-UileEEdkgRoNwcYXorVVc", "types": ["point_of_interest", "establishment"]}, "ChIJP5O2k-EEdkgRAfImoDDOjdw": {"geometry": {"location": {"lat": 51.4894948, "lng": -0.1391088}, "viewport": {"northeast": {"lat": 51.4908626302915, "lng": -0.137665369708498}, "southwest": {"lat": 51.4881646697085, "lng": -0.140363330291502}}}, "name": "PULMINING LTD.", "place_id": "ChIJP5O2k-EEdkgRAfImoDDOjdw", "types": ["point_of_interest", "establishment"]}, "ChIJv2NpkeEEdkgRCC37oeGQNGA": {"geometry": {"location": {"lat": 51.4896451, "lng": -0.1389091}, "viewport": {"northeast": {"lat": 51.49096953029151, "lng": -0.137592869708498}, "southwest": {"lat": 51.48827156970851, "lng": -0.140290830291502}}}, "name": "ubitricity Charging Station", "place_id": "ChIJv2NpkeEEdkgRCC37oeGQNGA", "types": ["point_of_interest", "establishment"]}, "ChIJxQHPRmgFdkgRgAn2MUwX4uE": {"geometry": {"location": {"lat": 51.4898292, "lng": -0.139642}, "viewport": {"northeast": {"lat": 51.4911947802915, "lng": -0.138331869708498}, "southwest": {"lat": 51.4884968197085, "lng": -0.141029830291502}}}, "name": "S", "place_id": "ChIJxQHPRmgFdkgRgAn2MUwX4uE", "types": ["finance", "point_of_interest", "establishment"]}, "ChIJLxKql-EEdkgRRqc5p2-U6ik": {"geometry": {"location": {"lat": 51.4898013, "lng": -0.138801}, "viewport": {"northeast": {"lat": 51.4911973802915, "lng": -0.137516119708498}, "southwest": {"lat": 51.4884994197085, "lng": -0.140214080291502}}}, "name": "Lejligheden i London", "place_id": "ChIJLxKql-EEdkgRRqc5p2-U6ik", "types": ["lodging", "point_of_interest", "establishment"], "rating": 5, "user_ratings_total": 1}, "ChIJ4RMX7eEEdkgRXmK_Nf7kZsQ": {"geometry": {"location": {"lat": 51.4894216, "lng": -0.1394758}, "viewport": {"northeast": {"lat": 51.4907573302915, "lng": -0.138095119708498}, "southwest": {"lat": 51.4880593697085, "lng": -0.140793080291502}}}, "name": "Milestone Installation Ltd", "place_id": "ChIJ4RMX7eEEdkgRXmK_Nf7kZsQ", "types": ["point_of_interest", "establishment"]}, "ChIJOwGs7uEEdkgR501TvMBxIb0": {"geometry": {"location": {"lat": 51.49000640000001, "lng": -0.1394048}, "viewport": {"northeast": {"lat": 51.4913778302915, "lng": -0.138101869708498}, "southwest": {"lat": 51.48867986970851, "lng": -0.140799830291502}}}, "name": "Shel-fit", "place_id": "ChIJOwGs7uEEdkgR501TvMBxIb0", "types": ["painter", "point_of_interest", "establishment"]}, "ChIJ7f__v-EEdkgRNYawPKYPAQk": {"geometry": {"location": {"lat": 51.4900422, "lng": -0.1391993}, "viewport": {"northeast": {"lat": 51.4913938802915, "lng": -0.137833719708498}, "southwest": {"lat": 51.4886959197085, "lng": -0.140531680291502}}}, "name": "Egypt Day tours", "place_id": "ChIJ7f__v-EEdkgRNYawPKYPAQk", "types": ["travel_agency", "point_of_interest", "establishment"], "rating": 5, "user_ratings_total": 2}, "ChIJ6XVEKLwFdkgRWTWctkx3xJ0": {"geometry": {"location": {"lat": 51.4899381, "lng": -0.1388249}, "viewport": {"northeast": {"lat": 51.4912677302915, "lng": -0.137435969708498}, "southwest": {"lat": 51.4885697697085, "lng": -0.140133930291502}}}, "name": "Alpha Plumbing Services", "place_id": "ChIJ6XVEKLwFdkgRWTWctkx3xJ0", "types": ["plumber", "point_of_interest", "establishment"]}, "ChIJA6sGkOEEdkgRS27Ix1EXRIM": {"geometry": {"location": {"lat": 51.4893268, "lng": -0.1386557}, "viewport": {"northeast": {"lat": 51.49066253029149, "lng": -0.137391919708498}, "southwest": {"lat": 51.4879645697085, "lng": -0.140089880291502}}}, "name": "Exxpedition C.i.c.", "place_id": "ChIJA6sGkOEEdkgRS27Ix1EXRIM", "types": ["point_of_interest", "establishment"]}, "ChIJ60OeiuEEdkgRLGpEcsGM2uA": {"geometry": {"location": {"lat": 51.48866578435486, "lng": -0.1392491894360779}, "viewport": {"northeast": {"lat": 51.4900144802915, "lng": -0.137900369708498}, "southwest": {"lat": 51.4873165197085, "lng": -0.140598330291502}}}, "name": "129-99 St George's Dr", "place_id": "ChIJ60OeiuEEdkgRLGpEcsGM2uA", "types": ["route"]}, "ChIJjaSE9eEEdkgR-b2VthQEfJE": {"geometry": {"location": {"lat": 51.4885476, "lng": -0.1393448}, "viewport": {"northeast": {"lat": 51.48994883029149, "lng": -0.137933319708498}, "southwest": {"lat": 51.4872508697085, "lng": -0.140631280291502}}}, "name": "OYO St George Hotel", "place_id": "ChIJjaSE9eEEdkgR-b2VthQEfJE", "types": ["lodging", "point_of_interest", "establishment"], "rating": 3.5, "user_ratings_total": 361}, "ChIJHZmII-IEdkgR8XP7Az0Hvb0": {"geometry": {"location": {"lat": 51.48816089999999, "lng": -0.1392964}, "viewport": {"northeast": {"lat": 51.48944838029149, "lng": -0.137895769708498}, "southwest": {"lat": 51.48675041970849, "lng": -0.140593730291502}}}, "name": "Carpet Express", "place_id": "ChIJHZmII-IEdkgR8XP7Az0Hvb0", "types": ["furniture_store", "home_goods_store", "general_contractor", "point_of_interest", "store", "establishment"], "rating": 3.9, "user_ratings_total": 56}, "ChIJc6YDJuIEdkgRmG7anuL7vj4": {"geometry": {"location": {"lat": 51.4882961, "lng": -0.1388212}, "viewport": {"northeast": {"lat": 51.4896987302915, "lng": -0.137406719708498}, "southwest": {"lat": 51.4870007697085, "lng": -0.140104680291502}}}, "name": "A & M Campbell", "place_id": "ChIJc6YDJuIEdkgRmG7anuL7vj4", "types": ["painter", "general_contractor", "point_of_interest", "establishment"], "rating": 5, "user_ratings_total": 1}, "ChIJ7eXCJOIEdkgRrVC04XBx_t0": {"geometry": {"location": {"lat": 51.48817639999999, "lng": -0.1391098}, "viewport": {"northeast": {"lat": 51.4894645802915, "lng": -0.137740369708498}, "southwest": {"lat": 51.4867666197085, "lng": -0.140438330291502}}}, "name": "Sound Insulation London", "place_id": "ChIJ7eXCJOIEdkgRrVC04XBx_t0", "types": ["point_of_interest", "establishment"]}, "ChIJdZMpI-IEdkgRXCR7iSql5n0": {"geometry": {"location": {"lat": 51.48816089999999, "lng": -0.1392964}, "viewport": {"northeast": {"lat": 51.4894448302915, "lng": -0.137925519708498}, "southwest": {"lat": 51.4867468697085, "lng": -0.140623480291502}}}, "name": "CXP Contracts", "place_id": "ChIJdZMpI-IEdkgRXCR7iSql5n0", "types": ["general_contractor", "point_of_interest", "establishment"]}, "ChIJ-2l5JOIEdkgRiBQZAgqhFdw": {"geometry": {"location": {"lat": 51.4881818, "lng": -0.1389763}, "viewport": {"northeast": {"lat": 51.4894759802915, "lng": -0.137608069708498}, "southwest": {"lat": 51.4867780197085, "lng": -0.140306030291502}}}, "name": "HHbeautyclinic", "place_id": "ChIJ-2l5JOIEdkgRiBQZAgqhFdw", "types": ["point_of_interest", "store", "establishment"]}, "ChIJNTmkI-IEdkgRX7BEkWFNIEw": {"geometry": {"location": {"lat": 51.488134, "lng": -0.1390176}, "viewport": {"northeast": {"lat": 51.4894472302915, "lng": -0.137657169708498}, "southwest": {"lat": 51.4867492697085, "lng": -0.140355130291502}}}, "name": "Flowers by Patricia", "place_id": "ChIJNTmkI-IEdkgRX7BEkWFNIEw", "types": ["florist", "point_of_interest", "store", "establishment"], "rating": 4.6, "user_ratings_total": 9}, "ChIJA919zqsFdkgRvawtjLfNWkA": {"geometry": {"location": {"lat": 51.4886262, "lng": -0.1393943}, "viewport": {"northeast": {"lat": 51.49000953029149, "lng": -0.138004219708498}, "southwest": {"lat": 51.4873115697085, "lng": -0.140702180291502}}}, "name": "Childminder for early year", "place_id": "ChIJA919zqsFdkgRvawtjLfNWkA", "types": ["point_of_interest", "establishment"]}, "ChIJIfgDVzMDdkgRi1qfqEjeZL0": {"geometry": {"location": {"lat": 51.4884249, "lng": -0.139171}, "viewport": {"northeast": {"lat": 51.4898391302915, "lng": -0.137743119708498}, "southwest": {"lat": 51.4871411697085, "lng": -0.140441080291502}}}, "name": "We Trade Forex", "place_id": "ChIJIfgDVzMDdkgRi1qfqEjeZL0", "types": ["finance", "point_of_interest", "establishment"]}, "ChIJ-2l5JOIEdkgRGUX-cInf6PA": {"geometry": {"location": {"lat": 51.48833800000001, "lng": -0.1389815}, "viewport": {"northeast": {"lat": 51.4897513802915, "lng": -0.137553919708498}, "southwest": {"lat": 51.48705341970851, "lng": -0.140251880291502}}}, "name": "Mayfair Aesthetics Laser & Skin Clinic - Pimlico", "place_id": "ChIJ-2l5JOIEdkgRGUX-cInf6PA", "types": ["beauty_salon", "hair_care", "health", "point_of_interest", "establishment"], "rating": 4.8, "user_ratings_total": 25}, "ChIJQeiaKOIEdkgRFmtlXE6mRTQ": {"geometry": {"location": {"lat": 51.4885586, "lng": -0.1386866}, "viewport": {"northeast": {"lat": 51.4899123802915, "lng": -0.137263419708498}, "southwest": {"lat": 51.4872144197085, "lng": -0.139961380291502}}}, "name": "Thomas Cubitt Statue", "place_id": "ChIJQeiaKOIEdkgRFmtlXE6mRTQ", "types": ["point_of_interest", "establishment"], "rating": 4.1, "user_ratings_total": 7}, "ChIJVX7HJuAEdkgR5v5DsN1OO2o": {"geometry": {"location": {"lat": 51.48818060000001, "lng": -0.1391171}, "viewport": {"northeast": {"lat": 51.4894655302915, "lng": -0.137747619708498}, "southwest": {"lat": 51.4867675697085, "lng": -0.140445580291502}}}, "name": "Delicias Pimlico", "place_id": "ChIJVX7HJuAEdkgR5v5DsN1OO2o", "types": ["food", "point_of_interest", "store", "establishment"], "rating": 4.7, "user_ratings_total": 112}, "ChIJ0WmZ8-EEdkgRtIinyT6fzLw": {"geometry": {"location": {"lat": 51.4890412, "lng": -0.1395791}, "viewport": {"northeast": {"lat": 51.4904205302915, "lng": -0.138299569708498}, "southwest": {"lat": 51.4877225697085, "lng": -0.140997530291502}}}, "name": "Wolfson Energy Limited", "place_id": "ChIJ0WmZ8-EEdkgRtIinyT6fzLw", "types": ["point_of_interest", "establishment"]}, "ChIJaZOulU4FdkgRxPxfpud8TzA": {"geometry": {"location": {"lat": 51.4881879, "lng": -0.1390784}, "viewport": {"northeast": {"lat": 51.48947253029151, "lng": -0.137707769708498}, "southwest": {"lat": 51.48677456970851, "lng": -0.140405730291502}}}, "name": "Sky Bespoke Glass", "place_id": "ChIJaZOulU4FdkgRxPxfpud8TzA", "types": ["point_of_interest", "establishment"]}, "ChIJOcNcI-IEdkgRshW23Dh2D-Q": {"geometry": {"location": {"lat": 51.4881879, "lng": -0.1390784}, "viewport": {"northeast": {"lat": 51.48947253029151, "lng": -0.137707769708498}, "southwest": {"lat": 51.48677456970851, "lng": -0.140405730291502}}}, "name": "Glass Express", "place_id": "ChIJOcNcI-IEdkgRshW23Dh2D-Q", "types": ["transit_station", "point_of_interest", "establishment"]}, "ChIJK-KJWD0FdkgRwePH9OFQy78": {"geometry": {"location": {"lat": 51.48818060000001, "lng": -0.1391171}, "viewport": {"northeast": {"lat": 51.4894655302915, "lng": -0.137747619708498}, "southwest": {"lat": 51.4867675697085, "lng": -0.140445580291502}}}, "name": "Delicias Pimlico", "place_id": "ChIJK-KJWD0FdkgRwePH9OFQy78", "types": ["grocery_or_supermarket", "food", "point_of_interest", "store", "establishment"], "rating": 5, "user_ratings_total": 3}, "ChIJv9K5tq8cdkgRHCnGH5OPWT8": {"geometry": {"location": {"lat": 51.48819, "lng": -0.139059}, "viewport": {"northeast": {"lat": 51.48947483029149, "lng": -0.137688419708498}, "southwest": {"lat": 51.48677686970849, "lng": -0.140386380291502}}}, "name": "Pain & Performance NOI Clinic", "place_id": "ChIJv9K5tq8cdkgRHCnGH5OPWT8", "types": ["health", "point_of_interest", "establishment"], "rating": 5, "user_ratings_total": 1}, "ChIJQxRVlMEFdkgRuyHmxcSkdeQ": {"geometry": {"location": {"lat": 51.48817639999999, "lng": -0.1391098}, "viewport": {"northeast": {"lat": 51.4894645802915, "lng": -0.137740369708498}, "southwest": {"lat": 51.4867666197085, "lng": -0.140438330291502}}}, "name": "Stevie Purcell Yoga", "place_id": "ChIJQxRVlMEFdkgRuyHmxcSkdeQ", "types": ["gym", "health", "point_of_interest", "establishment"], "rating": 5, "user_ratings_total": 1}, "ChIJG4TGjuEEdkgRtKL45qgDpXE": {"geometry": {"location": {"lat": 51.4890298, "lng": -0.1388862}, "viewport": {"northeast": {"lat": 51.4903910802915, "lng": -0.137457919708498}, "southwest": {"lat": 51.4876931197085, "lng": -0.1401558802915021}}}, "name": "ZEITBTC", "place_id": "ChIJG4TGjuEEdkgRtKL45qgDpXE", "types": ["point_of_interest", "establishment"]}, "ChIJ4-apI-IEdkgRWt6xVX5LuzU": {"geometry": {"location": {"lat": 51.48815749999999, "lng": -0.1391507}, "viewport": {"northeast": {"lat": 51.4894515302915, "lng": -0.137784119708498}, "southwest": {"lat": 51.4867535697085, "lng": -0.1404820802915021}}}, "name": "Ace Carpet Cleaners Ltd", "place_id": "ChIJ4-apI-IEdkgRWt6xVX5LuzU", "types": ["laundry", "point_of_interest", "establishment"]}, "ChIJtdNyPFwFdkgRjUIS-rDlWvo": {"geometry": {"location": {"lat": 51.488288, "lng": -0.138721}, "viewport": {"northeast": {"lat": 51.4895468802915, "lng": -0.137340719708498}, "southwest": {"lat": 51.4868489197085, "lng": -0.140038680291502}}}, "name": "Central Health Physiotherapy @ Pimlico", "place_id": "ChIJtdNyPFwFdkgRjUIS-rDlWvo", "types": ["physiotherapist", "gym", "health", "point_of_interest", "establishment"], "rating": 5, "user_ratings_total": 1}, "ChIJ-2l5JOIEdkgR6sgypqRJbnc": {"geometry": {"location": {"lat": 51.48819899999999, "lng": -0.1388923}, "viewport": {"northeast": {"lat": 51.48949043029149, "lng": -0.137523119708498}, "southwest": {"lat": 51.48679246970849, "lng": -0.140221080291502}}}, "name": "Darren Rose Fertility Acupuncture", "place_id": "ChIJ-2l5JOIEdkgR6sgypqRJbnc", "types": ["health", "point_of_interest", "establishment"]}, "ChIJ_SxtRCIFdkgR1vZjCIkDUxA": {"geometry": {"location": {"lat": 51.48896, "lng": -0.13989}, "viewport": {"northeast": {"lat": 51.4902887802915, "lng": -0.138568019708498}, "southwest": {"lat": 51.4875908197085, "lng": -0.141265980291502}}}, "name": "ARF Private Investigator Pimlico", "place_id": "ChIJ_SxtRCIFdkgR1vZjCIkDUxA", "types": ["point_of_interest", "establishment"]}, "ChIJDcvIHOIEdkgRRfxykuiBHPg": {"geometry": {"location": {"lat": 51.48844109999999, "lng": -0.1400683}, "viewport": {"northeast": {"lat": 51.4897757802915, "lng": -0.138733269708498}, "southwest": {"lat": 51.4870778197085, "lng": -0.141431230291502}}}, "name": "ubitricity Charging Station", "place_id": "ChIJDcvIHOIEdkgRRfxykuiBHPg", "types": ["point_of_interest", "establishment"]}, "ChIJpVP80uMEdkgRDmii5ArNOME": {"geometry": {"location": {"lat": 51.4881514, "lng": -0.1389464}, "viewport": {"northeast": {"lat": 51.48946078029149, "lng": -0.137584219708498}, "southwest": {"lat": 51.4867628197085, "lng": -0.140282180291502}}}, "name": "Phone Box", "place_id": "ChIJpVP80uMEdkgRDmii5ArNOME", "types": ["point_of_interest", "establishment"]}, "ChIJx-EAI-IEdkgREl-cld7KbI4": {"geometry": {"location": {"lat": 51.4881883, "lng": -0.1388247}, "viewport": {"northeast": {"lat": 51.4894895802915, "lng": -0.137457569708498}, "southwest": {"lat": 51.48679161970851, "lng": -0.140155530291502}}}, "name": "Neate House", "place_id": "ChIJx-EAI-IEdkgREl-cld7KbI4", "types": ["point_of_interest", "establishment"], "rating": 5, "user_ratings_total": 1}, "ChIJx42uEOIEdkgRwP0sIKZa4mE": {"geometry": {"location": {"lat": 51.4879653004262, "lng": -0.1397660002742792}, "viewport": {"northeast": {"lat": 51.4893142802915, "lng": -0.138417019708498}, "southwest": {"lat": 51.4866163197085, "lng": -0.141114980291502}}}, "name": "69-77 Lupus St", "place_id": "ChIJx42uEOIEdkgRwP0sIKZa4mE", "types": ["route"]}, "ChIJ4WYlOeIEdkgRZ9VMutRsjkg": {"geometry": {"location": {"lat": 51.4875345, "lng": -0.1389441}, "viewport": {"northeast": {"lat": 51.4888726302915, "lng": -0.137663119708498}, "southwest": {"lat": 51.4861746697085, "lng": -0.140361080291502}}}, "name": "Hinton and Seymour Limited", "place_id": "ChIJ4WYlOeIEdkgRZ9VMutRsjkg", "types": ["point_of_interest", "establishment"]}, "ChIJk1dxOeIEdkgRUkp_KhFpH2A": {"geometry": {"location": {"lat": 51.4879301, "lng": -0.1391086}, "viewport": {"northeast": {"lat": 51.48926838029151, "lng": -0.137826769708498}, "southwest": {"lat": 51.48657041970851, "lng": -0.140524730291502}}}, "name": "Ranelagh International Ltd", "place_id": "ChIJk1dxOeIEdkgRUkp_KhFpH2A", "types": ["point_of_interest", "establishment"]}, "ChIJs-jAPOIEdkgR9VWTttjbDGo": {"geometry": {"location": {"lat": 51.4879237, "lng": -0.139094}, "viewport": {"northeast": {"lat": 51.48927268029149, "lng": -0.137745019708498}, "southwest": {"lat": 51.48657471970849, "lng": -0.140442980291502}}}, "name": "Andrew Reeves Estate Agents Pimlico", "place_id": "ChIJs-jAPOIEdkgR9VWTttjbDGo", "types": ["real_estate_agency", "point_of_interest", "establishment"], "rating": 4.5, "user_ratings_total": 10}, "ChIJiUVEI-IEdkgR-sHNmNFAeE8": {"geometry": {"location": {"lat": 51.48792129999999, "lng": -0.1390124}, "viewport": {"northeast": {"lat": 51.48933773029149, "lng": -0.137686119708498}, "southwest": {"lat": 51.48663976970849, "lng": -0.140384080291502}}}, "name": "Dye-namic Carpet & Rug Colour Restoration", "place_id": "ChIJiUVEI-IEdkgR-sHNmNFAeE8", "types": ["laundry", "point_of_interest", "establishment"], "rating": 5, "user_ratings_total": 5}, "ChIJk1dxOeIEdkgRGm0KFSCiOh8": {"geometry": {"location": {"lat": 51.4875225, "lng": -0.1396902}, "viewport": {"northeast": {"lat": 51.48887148029149, "lng": -0.138341219708498}, "southwest": {"lat": 51.4861735197085, "lng": -0.141039180291502}}}, "name": "Churchill Gardens Primary Academy", "place_id": "ChIJk1dxOeIEdkgRGm0KFSCiOh8", "types": ["primary_school", "school", "point_of_interest", "establishment"], "rating": 5, "user_ratings_total": 14}, "ChIJEWckIJEFdkgRhwszlvWDNqE": {"geometry": {"location": {"lat": 51.487499, "lng": -0.1392434}, "viewport": {"northeast": {"lat": 51.48886043029149, "lng": -0.137815019708498}, "southwest": {"lat": 51.4861624697085, "lng": -0.140512980291502}}}, "name": "Prime Tutors", "place_id": "ChIJEWckIJEFdkgRhwszlvWDNqE", "types": ["point_of_interest", "establishment"]}, "ChIJYeI1OeIEdkgRlSYvixPZLkY": {"geometry": {"location": {"lat": 51.4875781, "lng": -0.1389694}, "viewport": {"northeast": {"lat": 51.4889167802915, "lng": -0.137684969708498}, "southwest": {"lat": 51.4862188197085, "lng": -0.140382930291502}}}, "name": "Lyndsey Roome - Permanent Make Up", "place_id": "ChIJYeI1OeIEdkgRlSYvixPZLkY", "types": ["point_of_interest", "establishment"], "rating": 5, "user_ratings_total": 4}, "ChIJnR77V8oFdkgRh4X5Mo5KIoA": {"geometry": {"location": {"lat": 51.4874513, "lng": -0.1388149}, "viewport": {"northeast": {"lat": 51.48878098029151, "lng": -0.137577919708498}, "southwest": {"lat": 51.48608301970851, "lng": -0.140275880291502}}}, "name": "Douglas Macmillan (1884-1969) Blue Plaque", "place_id": "ChIJnR77V8oFdkgRh4X5Mo5KIoA", "types": ["point_of_interest", "establishment"], "rating": 5, "user_ratings_total": 1}, "ChIJW3FyF-IEdkgRH0P98lNZ_eg": {"geometry": {"location": {"lat": 51.48792299999999, "lng": -0.139589}, "viewport": {"northeast": {"lat": 51.4893029302915, "lng": -0.138249969708498}, "southwest": {"lat": 51.4866049697085, "lng": -0.140947930291502}}}, "name": "Alderney Street (Stop M)", "place_id": "ChIJW3FyF-IEdkgRH0P98lNZ_eg", "types": ["transit_station", "point_of_interest", "establishment"]}, "ChIJj2_01o8FdkgRkKK2y3xY3J4": {"geometry": {"location": {"lat": 51.4878438, "lng": -0.1399249}, "viewport": {"northeast": {"lat": 51.4891927802915, "lng": -0.138575919708498}, "southwest": {"lat": 51.4864948197085, "lng": -0.141273880291502}}}, "name": "\ub7f0\ub358 \uac10\uc131\ubbfc\ubc15", "place_id": "ChIJj2_01o8FdkgRkKK2y3xY3J4", "types": ["lodging", "point_of_interest", "establishment"]}, "ChIJoYVf9AgFdkgRAtCwfJLT2l4": {"geometry": {"location": {"lat": 51.4879653, "lng": -0.139766}, "viewport": {"northeast": {"lat": 51.4892833802915, "lng": -0.138407069708498}, "southwest": {"lat": 51.4865854197085, "lng": -0.141105030291502}}}, "name": "Blossom Upper School, Pimlico", "place_id": "ChIJoYVf9AgFdkgRAtCwfJLT2l4", "types": ["school", "point_of_interest", "establishment"]}, "ChIJ2_-DGR4FdkgRmPkRoVXGSKo": {"geometry": {"location": {"lat": 51.48966115039333, "lng": -0.1413551490677102}, "viewport": {"northeast": {"lat": 51.4910101302915, "lng": -0.140006169708498}, "southwest": {"lat": 51.4883121697085, "lng": -0.142704130291502}}}, "name": "42-46 St George's Dr", "place_id": "ChIJ2_-DGR4FdkgRmPkRoVXGSKo", "types": ["route"]}, "ChIJfSZu_eEEdkgR5W_YVZEjJss": {"geometry": {"location": {"lat": 51.4891813, "lng": -0.1407756}, "viewport": {"northeast": {"lat": 51.49059543029149, "lng": -0.139349119708498}, "southwest": {"lat": 51.4878974697085, "lng": -0.142047080291502}}}, "name": "Stylish Apartment in Victoria", "place_id": "ChIJfSZu_eEEdkgR5W_YVZEjJss", "types": ["lodging", "point_of_interest", "establishment"], "rating": 1.5, "user_ratings_total": 8}, "ChIJXdtwGx4FdkgRX4z2v2yQR00": {"geometry": {"location": {"lat": 51.4894426, "lng": -0.14126}, "viewport": {"northeast": {"lat": 51.49084818029149, "lng": -0.139843969708498}, "southwest": {"lat": 51.48815021970849, "lng": -0.142541930291502}}}, "name": "Blue Plaque: Swami Vivekananda", "place_id": "ChIJXdtwGx4FdkgRX4z2v2yQR00", "types": ["point_of_interest", "establishment"], "rating": 4.1, "user_ratings_total": 19}, "ChIJVSvrHNYEdkgRY06czfoHQHg": {"geometry": {"location": {"lat": 51.4892676, "lng": -0.1407704}, "viewport": {"northeast": {"lat": 51.4906530802915, "lng": -0.139377969708498}, "southwest": {"lat": 51.4879551197085, "lng": -0.142075930291502}}}, "name": "William Thuillier Fine Art", "place_id": "ChIJVSvrHNYEdkgRY06czfoHQHg", "types": ["art_gallery", "point_of_interest", "establishment"], "rating": 5, "user_ratings_total": 4}, "ChIJG5kT4-EEdkgRWy-ZGDFHu6U": {"geometry": {"location": {"lat": 51.4894185, "lng": -0.1404148}, "viewport": {"northeast": {"lat": 51.4907013802915, "lng": -0.139142719708498}, "southwest": {"lat": 51.48800341970851, "lng": -0.141840680291502}}}, "name": "Real Estate Consultancy Ltd", "place_id": "ChIJG5kT4-EEdkgRWy-ZGDFHu6U", "types": ["real_estate_agency", "point_of_interest", "establishment"]}, "ChIJ200L1akFdkgR5ir3Mvi-74c": {"geometry": {"location": {"lat": 51.48980840000001, "lng": -0.1408498}, "viewport": {"northeast": {"lat": 51.49113543029151, "lng": -0.139453819708498}, "southwest": {"lat": 51.48843746970851, "lng": -0.142151780291502}}}, "name": "My Crypto Profits", "place_id": "ChIJ200L1akFdkgR5ir3Mvi-74c", "types": ["finance", "point_of_interest", "establishment"]}, "ChIJZ1QO4eEEdkgRtlwpxP9HG9U": {"geometry": {"location": {"lat": 51.48974390000001, "lng": -0.1406202}, "viewport": {"northeast": {"lat": 51.49111688029151, "lng": -0.139322669708498}, "southwest": {"lat": 51.48841891970851, "lng": -0.142020630291502}}}, "name": "Webster House", "place_id": "ChIJZ1QO4eEEdkgRtlwpxP9HG9U", "types": ["point_of_interest", "establishment"]}, "ChIJgcS5AfEFdkgR6N8xKNk3KhE": {"geometry": {"location": {"lat": 51.4900037, "lng": -0.1407237}, "viewport": {"northeast": {"lat": 51.4913144802915, "lng": -0.139292819708498}, "southwest": {"lat": 51.4886165197085, "lng": -0.141990780291502}}}, "name": "Steve", "place_id": "ChIJgcS5AfEFdkgR6N8xKNk3KhE", "types": ["point_of_interest", "establishment"]}, "ChIJtcZy4-EEdkgRNaEgv7IxOz8": {"geometry": {"location": {"lat": 51.4894504, "lng": -0.1404861}, "viewport": {"northeast": {"lat": 51.49073338029149, "lng": -0.139213919708498}, "southwest": {"lat": 51.4880354197085, "lng": -0.141911880291502}}}, "name": "Cleaners Pimlico", "place_id": "ChIJtcZy4-EEdkgRNaEgv7IxOz8", "types": ["point_of_interest", "establishment"]}, "ChIJK0FdIR4FdkgR6O5AYesb5KQ": {"geometry": {"location": {"lat": 51.49014450000001, "lng": -0.1410021}, "viewport": {"northeast": {"lat": 51.4915518802915, "lng": -0.139770919708498}, "southwest": {"lat": 51.4888539197085, "lng": -0.1424688802915021}}}, "name": "Association Of Inner Wheel Clubs In Great Britain & Ireland", "place_id": "ChIJK0FdIR4FdkgR6O5AYesb5KQ", "types": ["point_of_interest", "establishment"], "rating": 4, "user_ratings_total": 2}, "ChIJwWLNEB4FdkgROR_PVOurafw": {"geometry": {"location": {"lat": 51.4896231, "lng": -0.1417107}, "viewport": {"northeast": {"lat": 51.4909966802915, "lng": -0.140414219708498}, "southwest": {"lat": 51.4882987197085, "lng": -0.143112180291502}}}, "name": "Moral Fox Ltd", "place_id": "ChIJwWLNEB4FdkgROR_PVOurafw", "types": ["point_of_interest", "establishment"]}, "ChIJwWLNEB4FdkgRI6DyAXiY49o": {"geometry": {"location": {"lat": 51.4896231, "lng": -0.1417107}, "viewport": {"northeast": {"lat": 51.4909966802915, "lng": -0.140414219708498}, "southwest": {"lat": 51.4882987197085, "lng": -0.143112180291502}}}, "name": "Home of James Rannie Swinton", "place_id": "ChIJwWLNEB4FdkgRI6DyAXiY49o", "types": ["point_of_interest", "establishment"]}, "ChIJW6wQGgcFdkgROAKLmqjYg80": {"geometry": {"location": {"lat": 51.4892676, "lng": -0.1407704}, "viewport": {"northeast": {"lat": 51.4906530802915, "lng": -0.139377969708498}, "southwest": {"lat": 51.4879551197085, "lng": -0.142075930291502}}}, "name": "St. Farra\u2019s Drive", "place_id": "ChIJW6wQGgcFdkgROAKLmqjYg80", "types": ["night_club", "point_of_interest", "establishment"]}, "ChIJsSxZ43YFdkgRdWuELG-r1kg": {"geometry": {"location": {"lat": 51.49007240000001, "lng": -0.140536}, "viewport": {"northeast": {"lat": 51.49139888029151, "lng": -0.139138819708498}, "southwest": {"lat": 51.48870091970851, "lng": -0.1418367802915021}}}, "name": "Accountant in Pimlico", "place_id": "ChIJsSxZ43YFdkgRdWuELG-r1kg", "types": ["accounting", "finance", "point_of_interest", "establishment"]}, "ChIJZ2H7Ih4FdkgRsvuMUswwR7s": {"geometry": {"location": {"lat": 51.490102, "lng": -0.141431}, "viewport": {"northeast": {"lat": 51.4914443302915, "lng": -0.140071419708498}, "southwest": {"lat": 51.4887463697085, "lng": -0.142769380291502}}}, "name": "ubitricity Charging Station", "place_id": "ChIJZ2H7Ih4FdkgRsvuMUswwR7s", "types": ["point_of_interest", "establishment"]}, "ChIJVVWA5-EEdkgRBu-KGlYTK5M": {"geometry": {"location": {"lat": 51.4899504, "lng": -0.140278}, "viewport": {"northeast": {"lat": 51.49133738029149, "lng": -0.139010469708498}, "southwest": {"lat": 51.48863941970849, "lng": -0.141708430291502}}}, "name": "Antler Capital Partners Llp", "place_id": "ChIJVVWA5-EEdkgRBu-KGlYTK5M", "types": ["point_of_interest", "establishment"]}, "ChIJe6B93eEEdkgR0swz4y1vkgA": {"geometry": {"location": {"lat": 51.4899663, "lng": -0.1402552}, "viewport": {"northeast": {"lat": 51.49135383029149, "lng": -0.1389888197084979}, "southwest": {"lat": 51.4886558697085, "lng": -0.141686780291502}}}, "name": "Zenith Partners Limited", "place_id": "ChIJe6B93eEEdkgR0swz4y1vkgA", "types": ["point_of_interest", "establishment"]}, "ChIJXxfPWiUEdkgRFiWc9rYOECs": {"geometry": {"location": {"lat": 51.4899663, "lng": -0.1402552}, "viewport": {"northeast": {"lat": 51.4913537802915, "lng": -0.138988769708498}, "southwest": {"lat": 51.4886558197085, "lng": -0.141686730291502}}}, "name": "TOTTENHAM & CO", "place_id": "ChIJXxfPWiUEdkgRFiWc9rYOECs", "types": ["point_of_interest", "establishment"]}, "ChIJsbIoAB4FdkgRsD2VqctOC9M": {"geometry": {"location": {"lat": 51.48877354543767, "lng": -0.1408557089276229}, "viewport": {"northeast": {"lat": 51.49012123029149, "lng": -0.139508319708498}, "southwest": {"lat": 51.48742326970849, "lng": -0.142206280291502}}}, "name": "156-146 Cambridge St", "place_id": "ChIJsbIoAB4FdkgRsD2VqctOC9M", "types": ["route"]}, "ChIJ3--bBx4FdkgRG3nM081thIA": {"geometry": {"location": {"lat": 51.48870429999999, "lng": -0.1414109}, "viewport": {"northeast": {"lat": 51.4899624802915, "lng": -0.140172519708498}, "southwest": {"lat": 51.4872645197085, "lng": -0.142870480291502}}}, "name": "Invisible Midwives", "place_id": "ChIJ3--bBx4FdkgRG3nM081thIA", "types": ["health", "point_of_interest", "establishment"]}, "ChIJVxek_eEEdkgRFOiB0aWbYuE": {"geometry": {"location": {"lat": 51.48904710000001, "lng": -0.1404571}, "viewport": {"northeast": {"lat": 51.4904563802915, "lng": -0.139035119708498}, "southwest": {"lat": 51.4877584197085, "lng": -0.141733080291502}}}, "name": "Japan Neko UK office", "place_id": "ChIJVxek_eEEdkgRFOiB0aWbYuE", "types": ["point_of_interest", "establishment"]}, "ChIJrxrxAR4FdkgRI2DobqTRjgk": {"geometry": {"location": {"lat": 51.48894660000001, "lng": -0.1408955}, "viewport": {"northeast": {"lat": 51.49024628029151, "lng": -0.139606069708498}, "southwest": {"lat": 51.48754831970851, "lng": -0.142304030291502}}}, "name": "WOLKEMINING LTD", "place_id": "ChIJrxrxAR4FdkgRI2DobqTRjgk", "types": ["finance", "point_of_interest", "establishment"]}, "ChIJhVc5RjUFdkgRUY4jcliZ59w": {"geometry": {"location": {"lat": 51.4884275, "lng": -0.1414212}, "viewport": {"northeast": {"lat": 51.4897515802915, "lng": -0.140103219708498}, "southwest": {"lat": 51.4870536197085, "lng": -0.142801180291502}}}, "name": "\u6700\u611b\u963f\u5bb9", "place_id": "ChIJhVc5RjUFdkgRUY4jcliZ59w", "types": ["lodging", "point_of_interest", "establishment"]}, "ChIJy4NtAeIEdkgRw56ScUsosCY": {"geometry": {"location": {"lat": 51.4884399, "lng": -0.1405451}, "viewport": {"northeast": {"lat": 51.4897945802915, "lng": -0.139210069708498}, "southwest": {"lat": 51.4870966197085, "lng": -0.141908030291502}}}, "name": "Zipcar", "place_id": "ChIJy4NtAeIEdkgRw56ScUsosCY", "types": ["car_rental", "point_of_interest", "establishment"], "rating": 4, "user_ratings_total": 2}, "ChIJWayCAR4FdkgRyPstq__ZP80": {"geometry": {"location": {"lat": 51.488985, "lng": -0.140985}, "viewport": {"northeast": {"lat": 51.49028578029149, "lng": -0.139694219708498}, "southwest": {"lat": 51.48758781970849, "lng": -0.142392180291502}}}, "name": "Psytherapy Private Practice", "place_id": "ChIJWayCAR4FdkgRyPstq__ZP80", "types": ["health", "point_of_interest", "establishment"], "rating": 5, "user_ratings_total": 3}, "ChIJHSpQCB4FdkgRcqJmZzOw6h4": {"geometry": {"location": {"lat": 51.48876869999999, "lng": -0.1417169}, "viewport": {"northeast": {"lat": 51.49015393029149, "lng": -0.140444569708498}, "southwest": {"lat": 51.48745596970849, "lng": -0.143142530291502}}}, "name": "Nala Developments Limited", "place_id": "ChIJHSpQCB4FdkgRcqJmZzOw6h4", "types": ["point_of_interest", "establishment"]}, "ChIJd0-SA-IEdkgRnbDWFAbikps": {"geometry": {"location": {"lat": 51.4883675, "lng": -0.1403582}, "viewport": {"northeast": {"lat": 51.4897717302915, "lng": -0.138947569708498}, "southwest": {"lat": 51.4870737697085, "lng": -0.141645530291502}}}, "name": "Embev Ltd", "place_id": "ChIJd0-SA-IEdkgRnbDWFAbikps", "types": ["point_of_interest", "establishment"]}, "ChIJLxyz-R0FdkgRwdmNxp64kZ4": {"geometry": {"location": {"lat": 51.4881432, "lng": -0.1410953}, "viewport": {"northeast": {"lat": 51.48945518029149, "lng": -0.139672969708498}, "southwest": {"lat": 51.4867572197085, "lng": -0.142370930291502}}}, "name": "Graham Tombs Architectural Photography", "place_id": "ChIJLxyz-R0FdkgRwdmNxp64kZ4", "types": ["point_of_interest", "establishment"]}, "ChIJA48zB0kFdkgRv8RKy6nFBt4": {"geometry": {"location": {"lat": 51.48910469999999, "lng": -0.1413334}, "viewport": {"northeast": {"lat": 51.49048628029149, "lng": -0.140054569708498}, "southwest": {"lat": 51.48778831970849, "lng": -0.142752530291502}}}, "name": "Skip Hire Pimlico", "place_id": "ChIJA48zB0kFdkgRv8RKy6nFBt4", "types": ["point_of_interest", "establishment"]}, "ChIJq3xl-h0FdkgRNVbscnS33Yc": {"geometry": {"location": {"lat": 51.4880982, "lng": -0.1411411}, "viewport": {"northeast": {"lat": 51.48941213029151, "lng": -0.139722569708498}, "southwest": {"lat": 51.48671416970851, "lng": -0.142420530291502}}}, "name": "Mosimanns Ltd", "place_id": "ChIJq3xl-h0FdkgRNVbscnS33Yc", "types": ["point_of_interest", "establishment"]}, "ChIJmXMrCOIEdkgR2WviwrWCWz8": {"geometry": {"location": {"lat": 51.48783410012224, "lng": -0.1408018500855281}, "viewport": {"northeast": {"lat": 51.4891830802915, "lng": -0.139452869708498}, "southwest": {"lat": 51.4864851197085, "lng": -0.142150830291502}}}, "name": "89-97 Lupus St", "place_id": "ChIJmXMrCOIEdkgR2WviwrWCWz8", "types": ["route"]}, "ChIJ_xXvCeIEdkgRQG2SNT5jDZ0": {"geometry": {"location": {"lat": 51.4877176, "lng": -0.1407761}, "viewport": {"northeast": {"lat": 51.4891238802915, "lng": -0.1393597197084979}, "southwest": {"lat": 51.48642591970851, "lng": -0.142057680291502}}}, "name": "ATM", "place_id": "ChIJ_xXvCeIEdkgRQG2SNT5jDZ0", "types": ["atm", "finance", "point_of_interest", "establishment"], "rating": 4, "user_ratings_total": 2}, "ChIJ69m98R0FdkgRxJg6IE58sx0": {"geometry": {"location": {"lat": 51.487607, "lng": -0.141619}, "viewport": {"northeast": {"lat": 51.4890137802915, "lng": -0.140389469708498}, "southwest": {"lat": 51.4863158197085, "lng": -0.143087430291502}}}, "name": "Pimlico Eye Care", "place_id": "ChIJ69m98R0FdkgRxJg6IE58sx0", "types": ["health", "point_of_interest", "store", "establishment"], "rating": 4.6, "user_ratings_total": 9}, "ChIJV6SfCeIEdkgRbxkZY0FKx1A": {"geometry": {"location": {"lat": 51.4877366, "lng": -0.140655}, "viewport": {"northeast": {"lat": 51.48914163029151, "lng": -0.1392987197084979}, "southwest": {"lat": 51.48644366970851, "lng": -0.141996680291502}}}, "name": "Tesco ATM", "place_id": "ChIJV6SfCeIEdkgRbxkZY0FKx1A", "types": ["atm", "finance", "point_of_interest", "establishment"], "rating": 5, "user_ratings_total": 1}, "ChIJzXKvZxwFdkgRHSliQ-BvEug": {"geometry": {"location": {"lat": 51.4875795, "lng": -0.1418001}, "viewport": {"northeast": {"lat": 51.48899198029149, "lng": -0.140432669708498}, "southwest": {"lat": 51.4862940197085, "lng": -0.1431306302915021}}}, "name": "Pizza Hut Delivery", "place_id": "ChIJzXKvZxwFdkgRHSliQ-BvEug", "types": ["meal_delivery", "meal_takeaway", "restaurant", "food", "point_of_interest", "establishment"], "rating": 3.3, "user_ratings_total": 132}, "ChIJ7ef99x0FdkgREKvoepq7938": {"geometry": {"location": {"lat": 51.48793419999999, "lng": -0.140781}, "viewport": {"northeast": {"lat": 51.48923673029149, "lng": -0.139415769708498}, "southwest": {"lat": 51.4865387697085, "lng": -0.142113730291502}}}, "name": "The Salon", "place_id": "ChIJ7ef99x0FdkgREKvoepq7938", "types": ["hair_care", "point_of_interest", "establishment"], "rating": 4.2, "user_ratings_total": 5}, "ChIJ13iW7R0FdkgRbeLbYNW0dJA": {"geometry": {"location": {"lat": 51.4876823, "lng": -0.14117}, "viewport": {"northeast": {"lat": 51.4890796802915, "lng": -0.1395537697084979}, "southwest": {"lat": 51.4863817197085, "lng": -0.142251730291502}}}, "name": "Pimlico Traditional Fish & Chips", "place_id": "ChIJ13iW7R0FdkgRbeLbYNW0dJA", "types": ["meal_takeaway", "restaurant", "food", "point_of_interest", "establishment"], "rating": 4.3, "user_ratings_total": 230}, "ChIJ13iW7R0FdkgRf1SZNwruDjY": {"geometry": {"location": {"lat": 51.487735, "lng": -0.1406493}, "viewport": {"northeast": {"lat": 51.4891450802915, "lng": -0.139287119708498}, "southwest": {"lat": 51.4864471197085, "lng": -0.141985080291502}}}, "name": "Tesco Express", "place_id": "ChIJ13iW7R0FdkgRf1SZNwruDjY", "types": ["supermarket", "convenience_store", "grocery_or_supermarket", "food", "point_of_interest", "store", "establishment"], "rating": 2.5, "user_ratings_total": 136}, "ChIJ13iW7R0FdkgRxWL2oL62exc": {"geometry": {"location": {"lat": 51.4876057, "lng": -0.1416381}, "viewport": {"northeast": {"lat": 51.48901153029149, "lng": -0.140310719708498}, "southwest": {"lat": 51.4863135697085, "lng": -0.143008680291502}}}, "name": "Greggs", "place_id": "ChIJ13iW7R0FdkgRxWL2oL62exc", "types": ["bakery", "cafe", "restaurant", "food", "point_of_interest", "store", "establishment"], "rating": 3.9, "user_ratings_total": 77}, "ChIJiZkbO-IEdkgRPKB_5ApIewI": {"geometry": {"location": {"lat": 51.4876174, "lng": -0.1415368}, "viewport": {"northeast": {"lat": 51.4890216302915, "lng": -0.140348369708498}, "southwest": {"lat": 51.4863236697085, "lng": -0.143046330291502}}}, "name": "Graces Design Studio", "place_id": "ChIJiZkbO-IEdkgRPKB_5ApIewI", "types": ["furniture_store", "home_goods_store", "general_contractor", "point_of_interest", "store", "establishment"], "rating": 3.3, "user_ratings_total": 3}, "ChIJt2oU8R0FdkgRoO5OB6CoTEQ": {"geometry": {"location": {"lat": 51.4876941, "lng": -0.141065}, "viewport": {"northeast": {"lat": 51.4890927302915, "lng": -0.139501719708498}, "southwest": {"lat": 51.4863947697085, "lng": -0.142199680291502}}}, "name": "Lam Professional Nail Care", "place_id": "ChIJt2oU8R0FdkgRoO5OB6CoTEQ", "types": ["beauty_salon", "point_of_interest", "establishment"], "rating": 4.6, "user_ratings_total": 19}, "ChIJ_wl3Z4MFdkgRMtFj0Hw8Uq4": {"geometry": {"location": {"lat": 51.4876775, "lng": -0.1411257}, "viewport": {"northeast": {"lat": 51.4890800802915, "lng": -0.139533419708498}, "southwest": {"lat": 51.4863821197085, "lng": -0.142231380291502}}}, "name": "PIMLICO BARBER", "place_id": "ChIJ_wl3Z4MFdkgRMtFj0Hw8Uq4", "types": ["hair_care", "health", "point_of_interest", "establishment"], "rating": 4.9, "user_ratings_total": 80}, "ChIJHWel9h0FdkgRy89n5anYy98": {"geometry": {"location": {"lat": 51.4876961, "lng": -0.1411485}, "viewport": {"northeast": {"lat": 51.4890883302915, "lng": -0.139541169708498}, "southwest": {"lat": 51.4863903697085, "lng": -0.142239130291502}}}, "name": "\ub7f0\ub358 \uc54c\ub7ec\ubdf0\ud558\uc6b0\uc2a4", "place_id": "ChIJHWel9h0FdkgRy89n5anYy98", "types": ["lodging", "point_of_interest", "establishment"], "rating": 4.7, "user_ratings_total": 13}, "ChIJVVWZCeIEdkgRpgcDR3MbRDg": {"geometry": {"location": {"lat": 51.487723, "lng": -0.1406685}, "viewport": {"northeast": {"lat": 51.4891336302915, "lng": -0.1393074697084979}, "southwest": {"lat": 51.4864356697085, "lng": -0.142005430291502}}}, "name": "Kentino Ltd", "place_id": "ChIJVVWZCeIEdkgRpgcDR3MbRDg", "types": ["general_contractor", "point_of_interest", "establishment"]}, "ChIJRcxkqHQFdkgRqG1f69aB4Gc": {"geometry": {"location": {"lat": 51.4876715, "lng": -0.1413898}, "viewport": {"northeast": {"lat": 51.4890319802915, "lng": -0.140274869708498}, "southwest": {"lat": 51.4863340197085, "lng": -0.142972830291502}}}, "name": "Casa de Londres", "place_id": "ChIJRcxkqHQFdkgRqG1f69aB4Gc", "types": ["lodging", "point_of_interest", "establishment"]}, "ChIJzZiK8R0FdkgRpf_voP8DlRM": {"geometry": {"location": {"lat": 51.4876277, "lng": -0.1414429}, "viewport": {"northeast": {"lat": 51.4890270302915, "lng": -0.1403014197084979}, "southwest": {"lat": 51.4863290697085, "lng": -0.142999380291502}}}, "name": "Simmonds Chemist", "place_id": "ChIJzZiK8R0FdkgRpf_voP8DlRM", "types": ["pharmacy", "health", "point_of_interest", "store", "establishment"], "rating": 3.1, "user_ratings_total": 15}, "ChIJC8yOr3UFdkgRDvUUtbGlCdY": {"geometry": {"location": {"lat": 51.48774, "lng": -0.1414205}, "viewport": {"northeast": {"lat": 51.48906993029151, "lng": -0.140064669708498}, "southwest": {"lat": 51.48637196970851, "lng": -0.142762630291502}}}, "name": "Warmflow", "place_id": "ChIJC8yOr3UFdkgRDvUUtbGlCdY", "types": ["plumber", "point_of_interest", "establishment"], "rating": 5, "user_ratings_total": 1}, "ChIJ5V5hG8wFdkgRPsKD3fH29Bs": {"geometry": {"location": {"lat": 51.4878935, "lng": -0.1412996}, "viewport": {"northeast": {"lat": 51.48927173029151, "lng": -0.139832469708498}, "southwest": {"lat": 51.48657376970851, "lng": -0.142530430291502}}}, "name": "Coffee House", "place_id": "ChIJ5V5hG8wFdkgRPsKD3fH29Bs", "types": ["cafe", "food", "point_of_interest", "store", "establishment"], "rating": 4.7, "user_ratings_total": 16}, "ChIJxyTr8B0FdkgR4o3uaJ_VIAY": {"geometry": {"location": {"lat": 51.4879035, "lng": -0.1413033}, "viewport": {"northeast": {"lat": 51.4891866802915, "lng": -0.139931019708498}, "southwest": {"lat": 51.4864887197085, "lng": -0.142628980291502}}}, "name": "Caff\u00e9 Foresta", "place_id": "ChIJxyTr8B0FdkgR4o3uaJ_VIAY", "types": ["point_of_interest", "establishment"], "rating": 3.5, "user_ratings_total": 2}, "ChIJ0w9CaIcFdkgRimoNNCD0j1M": {"geometry": {"location": {"lat": 51.4877824, "lng": -0.1404431}, "viewport": {"northeast": {"lat": 51.4891799302915, "lng": -0.139090119708498}, "southwest": {"lat": 51.4864819697085, "lng": -0.141788080291502}}}, "name": "Alhayat Grocery", "place_id": "ChIJ0w9CaIcFdkgRimoNNCD0j1M", "types": ["grocery_or_supermarket", "supermarket", "food", "point_of_interest", "store", "establishment"], "rating": 4.1, "user_ratings_total": 40}, "ChIJj-VS9x0FdkgRE1ZDiUv9N5k": {"geometry": {"location": {"lat": 51.4879559, "lng": -0.14119}, "viewport": {"northeast": {"lat": 51.4893059802915, "lng": -0.139780319708498}, "southwest": {"lat": 51.4866080197085, "lng": -0.142478280291502}}}, "name": "ubitricity Charging Station", "place_id": "ChIJj-VS9x0FdkgRE1ZDiUv9N5k", "types": ["point_of_interest", "establishment"]}, "ChIJUZ3_GVwFdkgRjNuH3YBsWio": {"geometry": {"location": {"lat": 51.4879363, "lng": -0.141285}, "viewport": {"northeast": {"lat": 51.4892988802915, "lng": -0.139827819708498}, "southwest": {"lat": 51.4866009197085, "lng": -0.142525780291502}}}, "name": "Move Out Cleaning Pimlico", "place_id": "ChIJUZ3_GVwFdkgRjNuH3YBsWio", "types": ["point_of_interest", "establishment"], "rating": 5, "user_ratings_total": 4}, "ChIJu4v49x0FdkgRqCady4xvZRU": {"geometry": {"location": {"lat": 51.4879853, "lng": -0.140864}, "viewport": {"northeast": {"lat": 51.4893941802915, "lng": -0.139443919708498}, "southwest": {"lat": 51.4866962197085, "lng": -0.142141880291502}}}, "name": "Marli Mazon", "place_id": "ChIJu4v49x0FdkgRqCady4xvZRU", "types": ["health", "point_of_interest", "establishment"]}, "ChIJ___2YUQEdkgRYqKzwNyZQrU": {"geometry": {"location": {"lat": 51.4879853, "lng": -0.140864}, "viewport": {"northeast": {"lat": 51.4893941802915, "lng": -0.139443919708498}, "southwest": {"lat": 51.4866962197085, "lng": -0.142141880291502}}}, "name": "Patricia Aesthetics", "place_id": "ChIJ___2YUQEdkgRYqKzwNyZQrU", "types": ["doctor", "health", "point_of_interest", "establishment"], "rating": 4.6, "user_ratings_total": 21}, "ChIJ7ef99x0FdkgRQaEAoiaqgfg": {"geometry": {"location": {"lat": 51.4879741, "lng": -0.1407063}, "viewport": {"northeast": {"lat": 51.4892624302915, "lng": -0.139336119708498}, "southwest": {"lat": 51.4865644697085, "lng": -0.142034080291502}}}, "name": "Delizie D'italia", "place_id": "ChIJ7ef99x0FdkgRQaEAoiaqgfg", "types": ["food", "point_of_interest", "store", "establishment"], "rating": 4.8, "user_ratings_total": 277}, "ChIJKW0D-B0FdkgRn7JiXmrUR0k": {"geometry": {"location": {"lat": 51.4880051, "lng": -0.1408686}, "viewport": {"northeast": {"lat": 51.48937893029149, "lng": -0.139568969708498}, "southwest": {"lat": 51.48668096970849, "lng": -0.142266930291502}}}, "name": "Greendell Visions Limited", "place_id": "ChIJKW0D-B0FdkgRn7JiXmrUR0k", "types": ["point_of_interest", "establishment"]}, "ChIJVVWg8B0FdkgRAKb4AfIcJzs": {"geometry": {"location": {"lat": 51.4879776, "lng": -0.1412759}, "viewport": {"northeast": {"lat": 51.4893213302915, "lng": -0.139823319708498}, "southwest": {"lat": 51.4866233697085, "lng": -0.142521280291502}}}, "name": "Smart Nails & Eyelashes", "place_id": "ChIJVVWg8B0FdkgRAKb4AfIcJzs", "types": ["beauty_salon", "point_of_interest", "establishment"]}, "ChIJhd_hTecFdkgRA8O_VAvPbZo": {"geometry": {"location": {"lat": 51.4879776, "lng": -0.1412759}, "viewport": {"northeast": {"lat": 51.48932978029151, "lng": -0.139823319708498}, "southwest": {"lat": 51.48663181970851, "lng": -0.142521280291502}}}, "name": "THE NAIL BAR", "place_id": "ChIJhd_hTecFdkgRA8O_VAvPbZo", "types": ["beauty_salon", "point_of_interest", "establishment"], "rating": 4.5, "user_ratings_total": 39}, "ChIJxRfzqsIFdkgRsQkKBaqGwak": {"geometry": {"location": {"lat": 51.4877951, "lng": -0.1402474}, "viewport": {"northeast": {"lat": 51.48919323029149, "lng": -0.138986819708498}, "southwest": {"lat": 51.48649526970849, "lng": -0.141684780291502}}}, "name": "Coral", "place_id": "ChIJxRfzqsIFdkgRsQkKBaqGwak", "types": ["point_of_interest", "establishment"], "rating": 2.4, "user_ratings_total": 9}, "ChIJU_v8KAIFdkgRYtqhd9BUZvs": {"geometry": {"location": {"lat": 51.487795, "lng": -0.140247}, "viewport": {"northeast": {"lat": 51.48919328029149, "lng": -0.138986619708498}, "southwest": {"lat": 51.48649531970849, "lng": -0.141684580291502}}}, "name": "pStruble Mdoor Fkoiasghasf", "place_id": "ChIJU_v8KAIFdkgRYtqhd9BUZvs", "types": ["point_of_interest", "establishment"], "rating": 5, "user_ratings_total": 1}, "ChIJkzm0B-IEdkgRJyVI-kI7LJ4": {"geometry": {"location": {"lat": 51.488057, "lng": -0.140741}, "viewport": {"northeast": {"lat": 51.4894173302915, "lng": -0.139378269708498}, "southwest": {"lat": 51.4867193697085, "lng": -0.142076230291502}}}, "name": "Santander Cycles", "place_id": "ChIJkzm0B-IEdkgRJyVI-kI7LJ4", "types": ["point_of_interest", "establishment"], "rating": 5, "user_ratings_total": 4}, "ChIJV0JiQB4FdkgRHyfA8mGlSCc": {"geometry": {"location": {"lat": 51.49013115004679, "lng": -0.1423379998896727}, "viewport": {"northeast": {"lat": 51.4914801302915, "lng": -0.1409890197084979}, "southwest": {"lat": 51.4887821697085, "lng": -0.143686980291502}}}, "name": "61 St George's Dr", "place_id": "ChIJV0JiQB4FdkgRHyfA8mGlSCc", "types": ["route"]}, "ChIJn8JhEx4FdkgR3kuoepncp3I": {"geometry": {"location": {"lat": 51.48962699999999, "lng": -0.142199}, "viewport": {"northeast": {"lat": 51.49097598029149, "lng": -0.140850019708498}, "southwest": {"lat": 51.4882780197085, "lng": -0.143547980291502}}}, "name": "St Gabriel's, Pimlico", "place_id": "ChIJn8JhEx4FdkgR3kuoepncp3I", "types": ["church", "place_of_worship", "point_of_interest", "establishment"], "rating": 4.5, "user_ratings_total": 64}, "ChIJreStcx4FdkgRj9nGuYnso2I": {"geometry": {"location": {"lat": 51.4891794, "lng": -0.1426368}, "viewport": {"northeast": {"lat": 51.49047433029151, "lng": -0.141354219708498}, "southwest": {"lat": 51.48777636970851, "lng": -0.144052180291502}}}, "name": "Donald Burke Decorations", "place_id": "ChIJreStcx4FdkgRj9nGuYnso2I", "types": ["painter", "point_of_interest", "establishment"], "rating": 5, "user_ratings_total": 1}, "ChIJTeF6RB4FdkgRdDtgRh_w4H4": {"geometry": {"location": {"lat": 51.4901524, "lng": -0.142942}, "viewport": {"northeast": {"lat": 51.4915844302915, "lng": -0.141493369708498}, "southwest": {"lat": 51.4888864697085, "lng": -0.144191330291502}}}, "name": "Brompton House", "place_id": "ChIJTeF6RB4FdkgRdDtgRh_w4H4", "types": ["lodging", "point_of_interest", "establishment"]}, "ChIJK7rbax4FdkgRLqUmxPZLvS4": {"geometry": {"location": {"lat": 51.4897391, "lng": -0.1426456}, "viewport": {"northeast": {"lat": 51.49110698029149, "lng": -0.141337069708498}, "southwest": {"lat": 51.48840901970849, "lng": -0.144035030291502}}}, "name": "Grosvenor School Of Modern Art", "place_id": "ChIJK7rbax4FdkgRLqUmxPZLvS4", "types": ["point_of_interest", "establishment"]}, "ChIJ8cUUBJEFdkgRcubx4Jk-Bu4": {"geometry": {"location": {"lat": 51.4897292, "lng": -0.1428875}, "viewport": {"northeast": {"lat": 51.4910781802915, "lng": -0.141538519708498}, "southwest": {"lat": 51.4883802197085, "lng": -0.144236480291502}}}, "name": "Mathematical Bridge", "place_id": "ChIJ8cUUBJEFdkgRcubx4Jk-Bu4", "types": ["point_of_interest", "establishment"]}, "ChIJI206z9sFdkgRMNeGISV1i4E": {"geometry": {"location": {"lat": 51.4897292, "lng": -0.1428875}, "viewport": {"northeast": {"lat": 51.4910781802915, "lng": -0.141538519708498}, "southwest": {"lat": 51.4883802197085, "lng": -0.144236480291502}}}, "name": "Smith may solicitors", "place_id": "ChIJI206z9sFdkgRMNeGISV1i4E", "types": ["point_of_interest", "establishment"]}, "ChIJgV4kah4FdkgRnAKTLcK3PNc": {"geometry": {"location": {"lat": 51.4898494, "lng": -0.1426434}, "viewport": {"northeast": {"lat": 51.4911800802915, "lng": -0.141253469708498}, "southwest": {"lat": 51.4884821197085, "lng": -0.143951430291502}}}, "name": "Pimlico Musical Foundation", "place_id": "ChIJgV4kah4FdkgRnAKTLcK3PNc", "types": ["point_of_interest", "establishment"]}, "ChIJy-ECZh4FdkgR97_1hU9CnCE": {"geometry": {"location": {"lat": 51.4896641, "lng": -0.143054}, "viewport": {"northeast": {"lat": 51.4910587302915, "lng": -0.141649619708498}, "southwest": {"lat": 51.4883607697085, "lng": -0.144347580291502}}}, "name": "Ski 2 Freedom Foundation", "place_id": "ChIJy-ECZh4FdkgR97_1hU9CnCE", "types": ["point_of_interest", "establishment"]}, "ChIJf8wSZh4FdkgR9-BWhsXbYV8": {"geometry": {"location": {"lat": 51.48967630000001, "lng": -0.143134}, "viewport": {"northeast": {"lat": 51.49107903029149, "lng": -0.141719769708498}, "southwest": {"lat": 51.4883810697085, "lng": -0.1444177302915021}}}, "name": "Dickens Brothers Limited", "place_id": "ChIJf8wSZh4FdkgR9-BWhsXbYV8", "types": ["point_of_interest", "establishment"]}, "ChIJJzCTXBcFdkgRs4RMBvUhg_Q": {"geometry": {"location": {"lat": 51.48949349999999, "lng": -0.1423814}, "viewport": {"northeast": {"lat": 51.49086688029149, "lng": -0.141003969708498}, "southwest": {"lat": 51.4881689197085, "lng": -0.143701930291502}}}, "name": "Aubrey Beardsley Blue Plaque", "place_id": "ChIJJzCTXBcFdkgRs4RMBvUhg_Q", "types": ["tourist_attraction", "point_of_interest", "establishment"], "rating": 3, "user_ratings_total": 1}, "ChIJCdCXah4FdkgRnWC4t7l1n4U": {"geometry": {"location": {"lat": 51.4899093, "lng": -0.1424039}, "viewport": {"northeast": {"lat": 51.4912528302915, "lng": -0.141043369708498}, "southwest": {"lat": 51.4885548697085, "lng": -0.143741330291502}}}, "name": "Zipcar", "place_id": "ChIJCdCXah4FdkgRnWC4t7l1n4U", "types": ["car_rental", "point_of_interest", "establishment"]}, "ChIJMSEFNAoFdkgRvIuWoMgdXaM": {"geometry": {"location": {"lat": 51.48987090000001, "lng": -0.1431886}, "viewport": {"northeast": {"lat": 51.4911947302915, "lng": -0.141870119708498}, "southwest": {"lat": 51.4884967697085, "lng": -0.1445680802915021}}}, "name": "Jomo Kenyatta Blue Plaque", "place_id": "ChIJMSEFNAoFdkgRvIuWoMgdXaM", "types": ["point_of_interest", "establishment"], "rating": 4, "user_ratings_total": 2}, "ChIJm-Y6Qh4FdkgR9mXyyFTCxKs": {"geometry": {"location": {"lat": 51.49007229999999, "lng": -0.1427306}, "viewport": {"northeast": {"lat": 51.4914984802915, "lng": -0.141288969708498}, "southwest": {"lat": 51.4888005197085, "lng": -0.143986930291502}}}, "name": "As Energy Ltd", "place_id": "ChIJm-Y6Qh4FdkgR9mXyyFTCxKs", "types": ["point_of_interest", "establishment"]}, "ChIJRxzjQB4FdkgRPRT8qdXwgbA": {"geometry": {"location": {"lat": 51.4901037, "lng": -0.1425575}, "viewport": {"northeast": {"lat": 51.49149458029149, "lng": -0.141160269708498}, "southwest": {"lat": 51.48879661970849, "lng": -0.143858230291502}}}, "name": "Dinsdales Of London", "place_id": "ChIJRxzjQB4FdkgRPRT8qdXwgbA", "types": ["storage", "point_of_interest", "establishment"], "rating": 5, "user_ratings_total": 22}, "ChIJp8FhVYYFdkgR1ddRWZsSMbU": {"geometry": {"location": {"lat": 51.4892645, "lng": -0.142903}, "viewport": {"northeast": {"lat": 51.49057258029151, "lng": -0.141604269708498}, "southwest": {"lat": 51.48787461970851, "lng": -0.144302230291502}}}, "name": "TR Corp", "place_id": "ChIJp8FhVYYFdkgR1ddRWZsSMbU", "types": ["point_of_interest", "establishment"]}, "ChIJWad2Fh4FdkgR4MFqe8WbG2I": {"geometry": {"location": {"lat": 51.489856, "lng": -0.141923}, "viewport": {"northeast": {"lat": 51.4912260802915, "lng": -0.140547219708498}, "southwest": {"lat": 51.4885281197085, "lng": -0.143245180291502}}}, "name": "Santander Cycles", "place_id": "ChIJWad2Fh4FdkgR4MFqe8WbG2I", "types": ["point_of_interest", "establishment"]}, "ChIJWad2Fh4FdkgRUWaba2enY5E": {"geometry": {"location": {"lat": 51.489856, "lng": -0.141923}, "viewport": {"northeast": {"lat": 51.4912260802915, "lng": -0.140547219708498}, "southwest": {"lat": 51.4885281197085, "lng": -0.143245180291502}}}, "name": "Santander Cycles", "place_id": "ChIJWad2Fh4FdkgRUWaba2enY5E", "types": ["point_of_interest", "establishment"]}, "ChIJsTv7cx4FdkgRwusV8vGr6j8": {"geometry": {"location": {"lat": 51.48901030103907, "lng": -0.1426415474465542}, "viewport": {"northeast": {"lat": 51.4903592802915, "lng": -0.141292569708498}, "southwest": {"lat": 51.4876613197085, "lng": -0.143990530291502}}}, "name": "112-92 Alderney St", "place_id": "ChIJsTv7cx4FdkgRwusV8vGr6j8", "types": ["route"]}, "ChIJvwV4dB4FdkgRIpXv6FsktQY": {"geometry": {"location": {"lat": 51.4889711, "lng": -0.1425318}, "viewport": {"northeast": {"lat": 51.4903368302915, "lng": -0.141162219708498}, "southwest": {"lat": 51.4876388697085, "lng": -0.143860180291502}}}, "name": "Outlook Care", "place_id": "ChIJvwV4dB4FdkgRIpXv6FsktQY", "types": ["point_of_interest", "establishment"]}, "ChIJa5jd0B0FdkgRFYYb8xx0kUE": {"geometry": {"location": {"lat": 51.4884099, "lng": -0.1432637}, "viewport": {"northeast": {"lat": 51.48967328029151, "lng": -0.142018519708498}, "southwest": {"lat": 51.48697531970851, "lng": -0.1447164802915021}}}, "name": "Perform Pimlico", "place_id": "ChIJa5jd0B0FdkgRFYYb8xx0kUE", "types": ["university", "point_of_interest", "establishment"]}, "ChIJa5jd0B0FdkgR0eAIGCUZeFE": {"geometry": {"location": {"lat": 51.4882134, "lng": -0.143202}, "viewport": {"northeast": {"lat": 51.4895301302915, "lng": -0.141892169708498}, "southwest": {"lat": 51.48683216970851, "lng": -0.144590130291502}}}, "name": "New Ways", "place_id": "ChIJa5jd0B0FdkgR0eAIGCUZeFE", "types": ["point_of_interest", "establishment"]}, "ChIJeSWO2B0FdkgRuMN1qXkoodk": {"geometry": {"location": {"lat": 51.48859, "lng": -0.14281}, "viewport": {"northeast": {"lat": 51.4899114302915, "lng": -0.1414946697084979}, "southwest": {"lat": 51.4872134697085, "lng": -0.144192630291502}}}, "name": "Spacious Loft With Balcony in Central London", "place_id": "ChIJeSWO2B0FdkgRuMN1qXkoodk", "types": ["lodging", "point_of_interest", "establishment"], "rating": 3, "user_ratings_total": 3}, "ChIJq6ozdh4FdkgRe356He-3OdM": {"geometry": {"location": {"lat": 51.4886953, "lng": -0.1428427}, "viewport": {"northeast": {"lat": 51.48998823029149, "lng": -0.141562119708498}, "southwest": {"lat": 51.4872902697085, "lng": -0.144260080291502}}}, "name": "Perfect mines", "place_id": "ChIJq6ozdh4FdkgRe356He-3OdM", "types": ["finance", "point_of_interest", "establishment"]}, "ChIJt5tY3x0FdkgRf9w8mF5R7J4": {"geometry": {"location": {"lat": 51.4885113, "lng": -0.1425372}, "viewport": {"northeast": {"lat": 51.4898202802915, "lng": -0.141104169708498}, "southwest": {"lat": 51.4871223197085, "lng": -0.143802130291502}}}, "name": "Stanley Fyffe Associates", "place_id": "ChIJt5tY3x0FdkgRf9w8mF5R7J4", "types": ["point_of_interest", "establishment"]}, "ChIJ1SY7ij8FdkgR7t7Fr-UeHOM": {"geometry": {"location": {"lat": 51.4887615, "lng": -0.1430959}, "viewport": {"northeast": {"lat": 51.4900713802915, "lng": -0.141794569708498}, "southwest": {"lat": 51.4873734197085, "lng": -0.144492530291502}}}, "name": "paul connected massage", "place_id": "ChIJ1SY7ij8FdkgR7t7Fr-UeHOM", "types": ["point_of_interest", "establishment"], "rating": 5, "user_ratings_total": 46}, "ChIJAQC1Ch4FdkgRufw88rh5ITM": {"geometry": {"location": {"lat": 51.4887165, "lng": -0.1422919}, "viewport": {"northeast": {"lat": 51.49002598029149, "lng": -0.140857869708498}, "southwest": {"lat": 51.48732801970849, "lng": -0.143555830291502}}}, "name": "Viable Limited", "place_id": "ChIJAQC1Ch4FdkgRufw88rh5ITM", "types": ["point_of_interest", "establishment"]}, "ChIJbYKnZQEFdkgRKWZtoSXAztw": {"geometry": {"location": {"lat": 51.489, "lng": -0.1428284}, "viewport": {"northeast": {"lat": 51.4903803802915, "lng": -0.141441119708498}, "southwest": {"lat": 51.4876824197085, "lng": -0.144139080291502}}}, "name": "RegenAlift PDO Threads", "place_id": "ChIJbYKnZQEFdkgRKWZtoSXAztw", "types": ["health", "point_of_interest", "establishment"]}, "ChIJIWwI4R0FdkgRjHj6HUtePIc": {"geometry": {"location": {"lat": 51.4884743, "lng": -0.1420687}, "viewport": {"northeast": {"lat": 51.4898603802915, "lng": -0.140799569708498}, "southwest": {"lat": 51.4871624197085, "lng": -0.143497530291502}}}, "name": "Pvdb Ltd", "place_id": "ChIJIWwI4R0FdkgRjHj6HUtePIc", "types": ["point_of_interest", "establishment"]}, "ChIJXzEkWxkFdkgR7z3u3vMyPy4": {"geometry": {"location": {"lat": 51.48901979999999, "lng": -0.1423811}, "viewport": {"northeast": {"lat": 51.49032663029149, "lng": -0.141083869708498}, "southwest": {"lat": 51.48762866970849, "lng": -0.143781830291502}}}, "name": "Boca Pharm Store", "place_id": "ChIJXzEkWxkFdkgR7z3u3vMyPy4", "types": ["health", "point_of_interest", "store", "establishment"]}, "ChIJ-ZiY4R0FdkgRTMqPxmlRnUM": {"geometry": {"location": {"lat": 51.4885069, "lng": -0.1420247}, "viewport": {"northeast": {"lat": 51.4898937302915, "lng": -0.140757169708498}, "southwest": {"lat": 51.4871957697085, "lng": -0.143455130291502}}}, "name": "Harbour Energy", "place_id": "ChIJ-ZiY4R0FdkgRTMqPxmlRnUM", "types": ["point_of_interest", "establishment"]}, "ChIJsVqzxh0FdkgRCVGamIjZvMU": {"geometry": {"location": {"lat": 51.48759985009497, "lng": -0.142668050062441}, "viewport": {"northeast": {"lat": 51.4889488302915, "lng": -0.141319069708498}, "southwest": {"lat": 51.4862508697085, "lng": -0.144017030291502}}}, "name": "129-133 Lupus St", "place_id": "ChIJsVqzxh0FdkgRCVGamIjZvMU", "types": ["route"]}, "ChIJG1uYwR0FdkgRTzG5mLooctI": {"geometry": {"location": {"lat": 51.48754819999999, "lng": -0.1421609}, "viewport": {"northeast": {"lat": 51.4889482802915, "lng": -0.140944369708498}, "southwest": {"lat": 51.4862503197085, "lng": -0.143642330291502}}}, "name": "Post Office", "place_id": "ChIJG1uYwR0FdkgRTzG5mLooctI", "types": ["post_office", "atm", "finance", "point_of_interest", "establishment"], "rating": 3.8, "user_ratings_total": 28}, "ChIJH25_hR0FdkgRu9DlJt29hoc": {"geometry": {"location": {"lat": 51.4871624, "lng": -0.1428037}, "viewport": {"northeast": {"lat": 51.48851138029149, "lng": -0.141454719708498}, "southwest": {"lat": 51.48581341970849, "lng": -0.1441526802915021}}}, "name": "St Gabriel's Church Hall", "place_id": "ChIJH25_hR0FdkgRu9DlJt29hoc", "types": ["point_of_interest", "establishment"], "rating": 4.1, "user_ratings_total": 75}, "ChIJu4ZF6h0FdkgRIUDkWw9sMqM": {"geometry": {"location": {"lat": 51.48754819999999, "lng": -0.1421609}, "viewport": {"northeast": {"lat": 51.4889482802915, "lng": -0.140944369708498}, "southwest": {"lat": 51.4862503197085, "lng": -0.143642330291502}}}, "name": "MoneyGram", "place_id": "ChIJu4ZF6h0FdkgRIUDkWw9sMqM", "types": ["finance", "point_of_interest", "establishment"]}, "ChIJWZ7a6B0FdkgRr4CkeiNETCY": {"geometry": {"location": {"lat": 51.4877968, "lng": -0.1422386}, "viewport": {"northeast": {"lat": 51.4890772802915, "lng": -0.1408586197084979}, "southwest": {"lat": 51.4863793197085, "lng": -0.143556580291502}}}, "name": "Hair Trendy", "place_id": "ChIJWZ7a6B0FdkgRr4CkeiNETCY", "types": ["beauty_salon", "point_of_interest", "establishment"], "rating": 4.5, "user_ratings_total": 29}, "ChIJ0VkDgm0FdkgRGH-xutSajgc": {"geometry": {"location": {"lat": 51.487922, "lng": -0.142514}, "viewport": {"northeast": {"lat": 51.48922818029151, "lng": -0.141217519708498}, "southwest": {"lat": 51.48653021970851, "lng": -0.143915480291502}}}, "name": "3DF mediaStudio", "place_id": "ChIJ0VkDgm0FdkgRGH-xutSajgc", "types": ["point_of_interest", "establishment"]}, "ChIJb4WsuR0FdkgR5FKBlbxL8ls": {"geometry": {"location": {"lat": 51.487158, "lng": -0.142872}, "viewport": {"northeast": {"lat": 51.4885193802915, "lng": -0.141423569708498}, "southwest": {"lat": 51.4858214197085, "lng": -0.144121530291502}}}, "name": "Wing Tsun London", "place_id": "ChIJb4WsuR0FdkgR5FKBlbxL8ls", "types": ["health", "point_of_interest", "establishment"], "rating": 5, "user_ratings_total": 35}, "ChIJ13iW7R0FdkgRO91nkP77GpI": {"geometry": {"location": {"lat": 51.4875571, "lng": -0.142045}, "viewport": {"northeast": {"lat": 51.4889631802915, "lng": -0.140620269708498}, "southwest": {"lat": 51.4862652197085, "lng": -0.143318230291502}}}, "name": "K F Stores", "place_id": "ChIJ13iW7R0FdkgRO91nkP77GpI", "types": ["convenience_store", "food", "point_of_interest", "store", "establishment"], "rating": 2.3, "user_ratings_total": 3}, "ChIJ13iW7R0FdkgR0AAG4XCBLKY": {"geometry": {"location": {"lat": 51.48751619999999, "lng": -0.1426272}, "viewport": {"northeast": {"lat": 51.4889078302915, "lng": -0.141292219708498}, "southwest": {"lat": 51.4862098697085, "lng": -0.143990180291502}}}, "name": "Pimlico Toy Library", "place_id": "ChIJ13iW7R0FdkgR0AAG4XCBLKY", "types": ["point_of_interest", "establishment"], "rating": 4.4, "user_ratings_total": 7}, "ChIJ13iW7R0FdkgRZhLiHnE_L4o": {"geometry": {"location": {"lat": 51.4875947, "lng": -0.1419622}, "viewport": {"northeast": {"lat": 51.4889874802915, "lng": -0.1405746697084979}, "southwest": {"lat": 51.4862895197085, "lng": -0.143272630291502}}}, "name": "Freemans", "place_id": "ChIJ13iW7R0FdkgRZhLiHnE_L4o", "types": ["food", "point_of_interest", "store", "establishment"], "rating": 4, "user_ratings_total": 1}, "ChIJO5cOxh0FdkgRCuwSjgnYFWo": {"geometry": {"location": {"lat": 51.48762169999999, "lng": -0.1429615}, "viewport": {"northeast": {"lat": 51.48894283029149, "lng": -0.141602069708498}, "southwest": {"lat": 51.4862448697085, "lng": -0.144300030291502}}}, "name": "Source London Charging Station", "place_id": "ChIJO5cOxh0FdkgRCuwSjgnYFWo", "types": ["point_of_interest", "establishment"]}, "ChIJqauWxh0FdkgRxDbFnZMWKco": {"geometry": {"location": {"lat": 51.4876227, "lng": -0.1430014000000001}, "viewport": {"northeast": {"lat": 51.4889408302915, "lng": -0.141642769708498}, "southwest": {"lat": 51.48624286970851, "lng": -0.144340730291502}}}, "name": "Chargemaster Charging Station", "place_id": "ChIJqauWxh0FdkgRxDbFnZMWKco", "types": ["point_of_interest", "establishment"], "rating": 3, "user_ratings_total": 1}, "ChIJu_Fz7B0FdkgRQfPp2podYH0": {"geometry": {"location": {"lat": 51.48753970000001, "lng": -0.1424329}, "viewport": {"northeast": {"lat": 51.4889321302915, "lng": -0.141089519708498}, "southwest": {"lat": 51.4862341697085, "lng": -0.143787480291502}}}, "name": "Boss Heating Electrical Plumbing Supplies", "place_id": "ChIJu_Fz7B0FdkgRQfPp2podYH0", "types": ["electrician", "point_of_interest", "store", "establishment"], "rating": 4, "user_ratings_total": 8}, "ChIJo160xx0FdkgRTK7hKdeWHro": {"geometry": {"location": {"lat": 51.4874294, "lng": -0.1430044}, "viewport": {"northeast": {"lat": 51.48884608029149, "lng": -0.141615419708498}, "southwest": {"lat": 51.4861481197085, "lng": -0.144313380291502}}}, "name": "City of Westminster | South Area Service Centre", "place_id": "ChIJo160xx0FdkgRTK7hKdeWHro", "types": ["local_government_office", "point_of_interest", "establishment"], "rating": 2.1, "user_ratings_total": 10}, "ChIJI3Qpt-QFdkgR_wTO779x5_E": {"geometry": {"location": {"lat": 51.4875012, "lng": -0.1423915}, "viewport": {"northeast": {"lat": 51.4889141302915, "lng": -0.141061469708498}, "southwest": {"lat": 51.4862161697085, "lng": -0.143759430291502}}}, "name": "Nail Bar Pimlico", "place_id": "ChIJI3Qpt-QFdkgR_wTO779x5_E", "types": ["beauty_salon", "point_of_interest", "establishment"], "rating": 5, "user_ratings_total": 4}, "ChIJYbEpWjEFdkgR_Y9wQJz6yIs": {"geometry": {"location": {"lat": 51.4875012, "lng": -0.1423915}, "viewport": {"northeast": {"lat": 51.4889141302915, "lng": -0.141061469708498}, "southwest": {"lat": 51.4862161697085, "lng": -0.143759430291502}}}, "name": "Lupus Pink Nail bar", "place_id": "ChIJYbEpWjEFdkgR_Y9wQJz6yIs", "types": ["beauty_salon", "point_of_interest", "establishment"]}, "ChIJacHE6R0FdkgRCwxHcRnRIec": {"geometry": {"location": {"lat": 51.4875012, "lng": -0.1423915}, "viewport": {"northeast": {"lat": 51.4889141302915, "lng": -0.141061469708498}, "southwest": {"lat": 51.4862161697085, "lng": -0.143759430291502}}}, "name": "F P J Shoe Repair & Key Cutting", "place_id": "ChIJacHE6R0FdkgRCwxHcRnRIec", "types": ["point_of_interest", "establishment"], "rating": 3.6, "user_ratings_total": 8}, "ChIJ3SD26R0FdkgR6rlwb38gxf4": {"geometry": {"location": {"lat": 51.4875012, "lng": -0.1423915}, "viewport": {"northeast": {"lat": 51.4889141302915, "lng": -0.141061469708498}, "southwest": {"lat": 51.4862161697085, "lng": -0.143759430291502}}}, "name": "PIMLICO_NAIL_BAR_127_LUPUS ST", "place_id": "ChIJ3SD26R0FdkgR6rlwb38gxf4", "types": ["locksmith", "beauty_salon", "point_of_interest", "establishment"], "rating": 4.5, "user_ratings_total": 80}, "ChIJLfL_yB0FdkgRmqlLJWi9yvo": {"geometry": {"location": {"lat": 51.4874961, "lng": -0.1432109}, "viewport": {"northeast": {"lat": 51.48885018029149, "lng": -0.141863519708498}, "southwest": {"lat": 51.4861522197085, "lng": -0.144561480291502}}}, "name": "Zipcar", "place_id": "ChIJLfL_yB0FdkgRmqlLJWi9yvo", "types": ["car_rental", "point_of_interest", "establishment"], "rating": 4, "user_ratings_total": 1}, "ChIJ9bg36h0FdkgRJxpz1ewRTO8": {"geometry": {"location": {"lat": 51.48761349999999, "lng": -0.1422437}, "viewport": {"northeast": {"lat": 51.4889683802915, "lng": -0.140896519708498}, "southwest": {"lat": 51.4862704197085, "lng": -0.143594480291502}}}, "name": "Winchester Street (Stop N)", "place_id": "ChIJ9bg36h0FdkgRJxpz1ewRTO8", "types": ["bus_station", "transit_station", "point_of_interest", "establishment"], "rating": 4.3, "user_ratings_total": 3}, "ChIJw3746R0FdkgRnCq9ICjd-7s": {"geometry": {"location": {"lat": 51.48766029999999, "lng": -0.1422624}, "viewport": {"northeast": {"lat": 51.48902973029151, "lng": -0.140919769708498}, "southwest": {"lat": 51.48633176970851, "lng": -0.143617730291502}}}, "name": "Motorcycle Parking Bay", "place_id": "ChIJw3746R0FdkgRnCq9ICjd-7s", "types": ["parking", "point_of_interest", "establishment"]}, "ChIJr6n-wh0FdkgR6sNVak5GPJ8": {"geometry": {"location": {"lat": 51.4878434, "lng": -0.1424616}, "viewport": {"northeast": {"lat": 51.48916653029149, "lng": -0.1411443197084979}, "southwest": {"lat": 51.48646856970849, "lng": -0.143842280291502}}}, "name": "Fiona Watson", "place_id": "ChIJr6n-wh0FdkgR6sNVak5GPJ8", "types": ["point_of_interest", "store", "establishment"]}, "ChIJu4ZF6h0FdkgRFjeeDJLOSW4": {"geometry": {"location": {"lat": 51.48754819999999, "lng": -0.1421609}, "viewport": {"northeast": {"lat": 51.4889482802915, "lng": -0.140944369708498}, "southwest": {"lat": 51.4862503197085, "lng": -0.143642330291502}}}, "name": "Lupus Street Post Office", "place_id": "ChIJu4ZF6h0FdkgRFjeeDJLOSW4", "types": ["post_office", "finance", "point_of_interest", "establishment"]}, "ChIJMxRZodQFdkgRyieaa54hrYo": {"geometry": {"location": {"lat": 51.48754819999999, "lng": -0.1421609}, "viewport": {"northeast": {"lat": 51.4889482802915, "lng": -0.140944369708498}, "southwest": {"lat": 51.4862503197085, "lng": -0.143642330291502}}}, "name": "Post Office Travel Money", "place_id": "ChIJMxRZodQFdkgRyieaa54hrYo", "types": ["finance", "point_of_interest", "establishment"]}, "ChIJTchv7h0FdkgRiVQYoS3AVMo": {"geometry": {"location": {"lat": 51.48754819999999, "lng": -0.1421609}, "viewport": {"northeast": {"lat": 51.4889482802915, "lng": -0.140944369708498}, "southwest": {"lat": 51.4862503197085, "lng": -0.143642330291502}}}, "name": "ATM", "place_id": "ChIJTchv7h0FdkgRiVQYoS3AVMo", "types": ["atm", "finance", "point_of_interest", "establishment"], "rating": 3, "user_ratings_total": 1}, "ChIJt7qA6R0FdkgRXTAG1j72EJ0": {"geometry": {"location": {"lat": 51.4876623, "lng": -0.1421341}, "viewport": {"northeast": {"lat": 51.48904343029149, "lng": -0.140795119708498}, "southwest": {"lat": 51.48634546970849, "lng": -0.143493080291502}}}, "name": "Winchester Street", "place_id": "ChIJt7qA6R0FdkgRXTAG1j72EJ0", "types": ["transit_station", "point_of_interest", "establishment"]}, "ChIJLZ5DNRwFdkgROM0PcZuPX5A": {"geometry": {"location": {"lat": 51.48739639999999, "lng": -0.1432512}, "viewport": {"northeast": {"lat": 51.4888105302915, "lng": -0.141899819708498}, "southwest": {"lat": 51.4861125697085, "lng": -0.144597780291502}}}, "name": "Nash House", "place_id": "ChIJLZ5DNRwFdkgROM0PcZuPX5A", "types": ["point_of_interest", "establishment"]}, "ChIJcVvj6B0FdkgRnr-3HCgwH0k": {"geometry": {"location": {"lat": 51.48778009999999, "lng": -0.1421163}, "viewport": {"northeast": {"lat": 51.48907523029149, "lng": -0.140745069708498}, "southwest": {"lat": 51.4863772697085, "lng": -0.143443030291502}}}, "name": "Friends Supermarket", "place_id": "ChIJcVvj6B0FdkgRnr-3HCgwH0k", "types": ["supermarket", "grocery_or_supermarket", "food", "point_of_interest", "store", "establishment"], "rating": 3.6, "user_ratings_total": 9}, "ChIJHQDtBMMFdkgREMd6wg8HYq8": {"geometry": {"location": {"lat": 51.4872071, "lng": -0.1429843}, "viewport": {"northeast": {"lat": 51.4885742302915, "lng": -0.141489469708498}, "southwest": {"lat": 51.4858762697085, "lng": -0.144187430291502}}}, "name": "Sport4Health Community Interest Company", "place_id": "ChIJHQDtBMMFdkgREMd6wg8HYq8", "types": ["point_of_interest", "establishment"]}, "ChIJO2QduR0FdkgR_TBXcfV4wDk": {"geometry": {"location": {"lat": 51.4871645, "lng": -0.1427931}, "viewport": {"northeast": {"lat": 51.48852103029149, "lng": -0.1413836197084979}, "southwest": {"lat": 51.48582306970849, "lng": -0.144081580291502}}}, "name": "MOGA UK", "place_id": "ChIJO2QduR0FdkgR_TBXcfV4wDk", "types": ["point_of_interest", "establishment"]}, "ChIJEetx6R0FdkgRlulmoufPiLs": {"geometry": {"location": {"lat": 51.487717, "lng": -0.142074}, "viewport": {"northeast": {"lat": 51.4890475302915, "lng": -0.140691819708498}, "southwest": {"lat": 51.48634956970851, "lng": -0.143389780291502}}}, "name": "POD Point Charging Station", "place_id": "ChIJEetx6R0FdkgRlulmoufPiLs", "types": ["point_of_interest", "establishment"]}, "ChIJk-aN6x0FdkgRJepWZrVeJ40": {"geometry": {"location": {"lat": 51.4875589, "lng": -0.1419715}, "viewport": {"northeast": {"lat": 51.4889683802915, "lng": -0.1405844697084979}, "southwest": {"lat": 51.4862704197085, "lng": -0.143282430291502}}}, "name": "Pantaloons Fancy Dress", "place_id": "ChIJk-aN6x0FdkgRJepWZrVeJ40", "types": ["clothing_store", "point_of_interest", "store", "establishment"]}, "ChIJxSiV7h0FdkgRdKWWL6vCUYA": {"geometry": {"location": {"lat": 51.4877401, "lng": -0.1420257}, "viewport": {"northeast": {"lat": 51.4890600802915, "lng": -0.140667719708498}, "southwest": {"lat": 51.4863621197085, "lng": -0.143365680291502}}}, "name": "Winchester Street (Stop C)", "place_id": "ChIJxSiV7h0FdkgRdKWWL6vCUYA", "types": ["bus_station", "transit_station", "point_of_interest", "establishment"], "rating": 4.3, "user_ratings_total": 3}, "ChIJg_4DDtMFdkgRIK1m2JWYvz0": {"geometry": {"location": {"lat": 51.4875942, "lng": -0.141963}, "viewport": {"northeast": {"lat": 51.48898718029149, "lng": -0.140575119708498}, "southwest": {"lat": 51.48628921970849, "lng": -0.143273080291502}}}, "name": "Starmeat ( Grocery-Halal Butcher - Super Market)", "place_id": "ChIJg_4DDtMFdkgRIK1m2JWYvz0", "types": ["grocery_or_supermarket", "food", "point_of_interest", "store", "establishment"], "rating": 5, "user_ratings_total": 21}, "ChIJoa1hDuIEdkgRwsnrgtK6X4A": {"geometry": {"location": {"lat": 51.4878137, "lng": -0.1420348}, "viewport": {"northeast": {"lat": 51.48909673029149, "lng": -0.1406653697084979}, "southwest": {"lat": 51.4863987697085, "lng": -0.143363330291502}}}, "name": "Consolidated Roofing (Pimlico)", "place_id": "ChIJoa1hDuIEdkgRwsnrgtK6X4A", "types": ["roofing_contractor", "point_of_interest", "establishment"], "rating": 5, "user_ratings_total": 1}, "ChIJcVvj6B0FdkgRgC0jUCPeEp0": {"geometry": {"location": {"lat": 51.4877911, "lng": -0.1420396}, "viewport": {"northeast": {"lat": 51.4890861802915, "lng": -0.140661519708498}, "southwest": {"lat": 51.4863882197085, "lng": -0.143359480291502}}}, "name": "Lupus Dry Cleaners", "place_id": "ChIJcVvj6B0FdkgRgC0jUCPeEp0", "types": ["laundry", "point_of_interest", "establishment"], "rating": 4.9, "user_ratings_total": 63}, "ChIJBySS7R0FdkgRwaQdE5bArXQ": {"geometry": {"location": {"lat": 51.48760620000001, "lng": -0.1418827}, "viewport": {"northeast": {"lat": 51.4889996302915, "lng": -0.1405217197084979}, "southwest": {"lat": 51.4863016697085, "lng": -0.143219680291502}}}, "name": "Norris Newsagent", "place_id": "ChIJBySS7R0FdkgRwaQdE5bArXQ", "types": ["point_of_interest", "store", "establishment"], "rating": 3.3, "user_ratings_total": 7}, "ChIJC7v6vOEEdkgRMzUB4sDDpCI": {"geometry": {"location": {"lat": 51.4901947, "lng": -0.1387737000000001}, "viewport": {"northeast": {"lat": 51.4915109802915, "lng": -0.137344819708498}, "southwest": {"lat": 51.4888130197085, "lng": -0.1400427802915021}}}, "name": "The Melita, London", "place_id": "ChIJC7v6vOEEdkgRMzUB4sDDpCI", "types": ["lodging", "point_of_interest", "establishment"], "rating": 3.8, "user_ratings_total": 127}, "ChIJqxHHvuEEdkgRlf_wDoTng8s": {"geometry": {"location": {"lat": 51.490236, "lng": -0.139105}, "viewport": {"northeast": {"lat": 51.49157828029149, "lng": -0.137804669708498}, "southwest": {"lat": 51.48888031970849, "lng": -0.140502630291502}}}, "name": "ubitricity Charging Station", "place_id": "ChIJqxHHvuEEdkgRlf_wDoTng8s", "types": ["point_of_interest", "establishment"]}, "ChIJHxkkyuEEdkgRFZPDtZHrpZk": {"geometry": {"location": {"lat": 51.48896730000001, "lng": -0.1384825}, "viewport": {"northeast": {"lat": 51.4903009302915, "lng": -0.137232469708498}, "southwest": {"lat": 51.4876029697085, "lng": -0.139930430291502}}}, "name": "ixPocket mobile", "place_id": "ChIJHxkkyuEEdkgRFZPDtZHrpZk", "types": ["point_of_interest", "establishment"]}, "ChIJJ15ULuIEdkgR9axHF5RE74w": {"geometry": {"location": {"lat": 51.4881418500044, "lng": -0.1384255500049712}, "viewport": {"northeast": {"lat": 51.4894908302915, "lng": -0.137076569708498}, "southwest": {"lat": 51.4867928697085, "lng": -0.139774530291502}}}, "name": "48 Lupus St", "place_id": "ChIJJ15ULuIEdkgR9axHF5RE74w", "types": ["route"]}, "ChIJiSOqBKgEdkgRHll4v-3eFcc": {"geometry": {"location": {"lat": 51.4883299, "lng": -0.1384788}, "viewport": {"northeast": {"lat": 51.4897037302915, "lng": -0.1371967197084979}, "southwest": {"lat": 51.4870057697085, "lng": -0.139894680291502}}}, "name": "Emma Gibbons", "place_id": "ChIJiSOqBKgEdkgRHll4v-3eFcc", "types": ["health", "point_of_interest", "establishment"]}, "ChIJCfvHDQEFdkgR85tyhshYdsQ": {"geometry": {"location": {"lat": 51.4880236, "lng": -0.1385846}, "viewport": {"northeast": {"lat": 51.4894175302915, "lng": -0.137251219708498}, "southwest": {"lat": 51.4867195697085, "lng": -0.139949180291502}}}, "name": "Community English Classes", "place_id": "ChIJCfvHDQEFdkgR85tyhshYdsQ", "types": ["school", "point_of_interest", "establishment"]}, "ChIJAU4BMOIEdkgRuFsJyJWA8g8": {"geometry": {"location": {"lat": 51.487973, "lng": -0.1386067}, "viewport": {"northeast": {"lat": 51.48932198029149, "lng": -0.137257719708498}, "southwest": {"lat": 51.4866240197085, "lng": -0.139955680291502}}}, "name": "EPE SCAFFOLDING", "place_id": "ChIJAU4BMOIEdkgRuFsJyJWA8g8", "types": ["health", "point_of_interest", "establishment"]}, "ChIJ-0wOfaoFdkgRmJINXfPz97w": {"geometry": {"location": {"lat": 51.488221, "lng": -0.1386882}, "viewport": {"northeast": {"lat": 51.48951398029149, "lng": -0.137319769708498}, "southwest": {"lat": 51.48681601970849, "lng": -0.140017730291502}}}, "name": "Brewhouse Pimlico", "place_id": "ChIJ-0wOfaoFdkgRmJINXfPz97w", "types": ["cafe", "food", "point_of_interest", "store", "establishment"], "rating": 4.3, "user_ratings_total": 35}, "ChIJqQas3eEEdkgRWfQ8mFXE1xo": {"geometry": {"location": {"lat": 51.49014754401273, "lng": -0.1402949128852788}, "viewport": {"northeast": {"lat": 51.4914765302915, "lng": -0.1387167}, "southwest": {"lat": 51.48877856970851, "lng": -0.1418291}}}, "name": "2-36 Gloucester St", "place_id": "ChIJqQas3eEEdkgRWfQ8mFXE1xo", "types": ["route"]}, "ChIJNWNj3OEEdkgRJjqOxOs-_8M": {"geometry": {"location": {"lat": 51.4902334, "lng": -0.1403209}, "viewport": {"northeast": {"lat": 51.4915629802915, "lng": -0.138930569708498}, "southwest": {"lat": 51.4888650197085, "lng": -0.141628530291502}}}, "name": "Just Off", "place_id": "ChIJNWNj3OEEdkgRJjqOxOs-_8M", "types": ["point_of_interest", "establishment"]}, "ChIJ3yy928IEdkgRs9Twns6fca8": {"geometry": {"location": {"lat": 51.4901542, "lng": -0.1404256}, "viewport": {"northeast": {"lat": 51.49148248029149, "lng": -0.139032269708498}, "southwest": {"lat": 51.4887845197085, "lng": -0.141730230291502}}}, "name": "St. George Valuations", "place_id": "ChIJ3yy928IEdkgRs9Twns6fca8", "types": ["point_of_interest", "establishment"]}, "ChIJq7zowOEEdkgRd1RPg11Kc9Y": {"geometry": {"location": {"lat": 51.4902181, "lng": -0.1395677}, "viewport": {"northeast": {"lat": 51.4915161302915, "lng": -0.138136669708498}, "southwest": {"lat": 51.48881816970851, "lng": -0.140834630291502}}}, "name": "Area16 Marketing", "place_id": "ChIJq7zowOEEdkgRd1RPg11Kc9Y", "types": ["point_of_interest", "establishment"]}, "ChIJtcQ83OEEdkgRowPuWjTdeZQ": {"geometry": {"location": {"lat": 51.4902375, "lng": -0.1404401}, "viewport": {"northeast": {"lat": 51.4915485302915, "lng": -0.1390101197084979}, "southwest": {"lat": 51.4888505697085, "lng": -0.141708080291502}}}, "name": "Powder Puffs", "place_id": "ChIJtcQ83OEEdkgRowPuWjTdeZQ", "types": ["point_of_interest", "establishment"]}, "ChIJNWNj3OEEdkgRsuzP1YOnNLo": {"geometry": {"location": {"lat": 51.49024030000001, "lng": -0.1403128}, "viewport": {"northeast": {"lat": 51.49156983029151, "lng": -0.138922369708498}, "southwest": {"lat": 51.48887186970851, "lng": -0.141620330291502}}}, "name": "The BDG Group", "place_id": "ChIJNWNj3OEEdkgRsuzP1YOnNLo", "types": ["finance", "point_of_interest", "establishment"]}, "ChIJeaJmTwUFdkgRahNBtdBwMxQ": {"geometry": {"location": {"lat": 51.4902334, "lng": -0.1403209}, "viewport": {"northeast": {"lat": 51.4915629802915, "lng": -0.138930519708498}, "southwest": {"lat": 51.4888650197085, "lng": -0.141628480291502}}}, "name": "Bolinkgbroke Advisory", "place_id": "ChIJeaJmTwUFdkgRahNBtdBwMxQ", "types": ["point_of_interest", "establishment"]}, "ChIJNWNj3OEEdkgREl-J7BmhE7Q": {"geometry": {"location": {"lat": 51.4902334, "lng": -0.1403209}, "viewport": {"northeast": {"lat": 51.4915629802915, "lng": -0.138930569708498}, "southwest": {"lat": 51.4888650197085, "lng": -0.141628530291502}}}, "name": "Secure Inside Area", "place_id": "ChIJNWNj3OEEdkgREl-J7BmhE7Q", "types": ["point_of_interest", "establishment"]}, "ChIJA9Ix3OEEdkgR62YFDsHCjO4": {"geometry": {"location": {"lat": 51.4901542, "lng": -0.1404255}, "viewport": {"northeast": {"lat": 51.49148248029149, "lng": -0.139032169708498}, "southwest": {"lat": 51.4887845197085, "lng": -0.141730130291502}}}, "name": "Christian Art Today", "place_id": "ChIJA9Ix3OEEdkgR62YFDsHCjO4", "types": ["point_of_interest", "establishment"]}, "ChIJHdIx3OEEdkgRWaNmKOStZvc": {"geometry": {"location": {"lat": 51.4901542, "lng": -0.1404256}, "viewport": {"northeast": {"lat": 51.49148248029149, "lng": -0.139032269708498}, "southwest": {"lat": 51.4887845197085, "lng": -0.141730230291502}}}, "name": "Valuemystuff", "place_id": "ChIJHdIx3OEEdkgRWaNmKOStZvc", "types": ["point_of_interest", "establishment"]}, "ChIJJ4to-uEEdkgRFejwnK1BDjA": {"geometry": {"location": {"lat": 51.48909744152832, "lng": -0.1401615325070233}, "viewport": {"northeast": {"lat": 51.49044523029149, "lng": -0.138814069708498}, "southwest": {"lat": 51.48774726970849, "lng": -0.141512030291502}}}, "name": "60-70 St George's Dr", "place_id": "ChIJJ4to-uEEdkgRFejwnK1BDjA", "types": ["route"]}, "ChIJg4M6-uEEdkgRnKNP79Rl88M": {"geometry": {"location": {"lat": 51.4890249, "lng": -0.1402376}, "viewport": {"northeast": {"lat": 51.49040838029151, "lng": -0.138846819708498}, "southwest": {"lat": 51.48771041970851, "lng": -0.141544780291502}}}, "name": "Pimlico Advisory Ltd", "place_id": "ChIJg4M6-uEEdkgRnKNP79Rl88M", "types": ["point_of_interest", "establishment"]}, "ChIJvd0SBJAFdkgRmScL5_vhZ7E": {"geometry": {"location": {"lat": 51.4889986, "lng": -0.1401221}, "viewport": {"northeast": {"lat": 51.4903731802915, "lng": -0.138742119708498}, "southwest": {"lat": 51.4876752197085, "lng": -0.141440080291502}}}, "name": "Green Cab Shelter", "place_id": "ChIJvd0SBJAFdkgRmScL5_vhZ7E", "types": ["point_of_interest", "establishment"]}, "ChIJz0Gf--EEdkgRpDnacxbC2WY": {"geometry": {"location": {"lat": 51.48912389999999, "lng": -0.140382}, "viewport": {"northeast": {"lat": 51.4904958302915, "lng": -0.138999919708498}, "southwest": {"lat": 51.4877978697085, "lng": -0.141697880291502}}}, "name": "ubitricity Charging Station", "place_id": "ChIJz0Gf--EEdkgRpDnacxbC2WY", "types": ["point_of_interest", "establishment"]}, "ChIJmaMf-uEEdkgRiq5B0L_1SlQ": {"geometry": {"location": {"lat": 51.488984, "lng": -0.1401859}, "viewport": {"northeast": {"lat": 51.49037278029149, "lng": -0.138788719708498}, "southwest": {"lat": 51.4876748197085, "lng": -0.141486680291502}}}, "name": "Martin Mrzena", "place_id": "ChIJmaMf-uEEdkgRiq5B0L_1SlQ", "types": ["health", "point_of_interest", "establishment"]}, "ChIJwVSiD-IEdkgRbCDy5o3urko": {"geometry": {"location": {"lat": 51.48790415012821, "lng": -0.1402562500824549}, "viewport": {"northeast": {"lat": 51.4892531302915, "lng": -0.138907269708498}, "southwest": {"lat": 51.4865551697085, "lng": -0.141605230291502}}}, "name": "79-85 Lupus St", "place_id": "ChIJwVSiD-IEdkgRbCDy5o3urko", "types": ["route"]}, "ChIJY7ZKex4FdkgRzrILzDQtyZQ": {"geometry": {"location": {"lat": 51.4880575, "lng": -0.1403691}, "viewport": {"northeast": {"lat": 51.48937128029151, "lng": -0.139076169708498}, "southwest": {"lat": 51.48667331970851, "lng": -0.141774130291502}}}, "name": "Vanbrugh Public Relations LLP", "place_id": "ChIJY7ZKex4FdkgRzrILzDQtyZQ", "types": ["point_of_interest", "establishment"]}, "ChIJf6mcBeIEdkgRPnQSWkHzUUM": {"geometry": {"location": {"lat": 51.4880326, "lng": -0.140302}, "viewport": {"northeast": {"lat": 51.48931708029149, "lng": -0.138932269708498}, "southwest": {"lat": 51.48661911970849, "lng": -0.141630230291502}}}, "name": "WS Studios Hair Professionals", "place_id": "ChIJf6mcBeIEdkgRPnQSWkHzUUM", "types": ["beauty_salon", "hair_care", "point_of_interest", "establishment"], "rating": 4.6, "user_ratings_total": 163}, "ChIJs5WCHOIEdkgRm-KugGe-FpM": {"geometry": {"location": {"lat": 51.4882857, "lng": -0.1400281}, "viewport": {"northeast": {"lat": 51.48966448029149, "lng": -0.138642619708498}, "southwest": {"lat": 51.4869665197085, "lng": -0.141340580291502}}}, "name": "Ruth Finch", "place_id": "ChIJs5WCHOIEdkgRm-KugGe-FpM", "types": ["lawyer", "finance", "point_of_interest", "establishment"]}, "ChIJVVVpBeIEdkgRR5DYB4xUvgI": {"geometry": {"location": {"lat": 51.48806689999999, "lng": -0.1401697}, "viewport": {"northeast": {"lat": 51.48934283029149, "lng": -0.138797219708498}, "southwest": {"lat": 51.48664486970849, "lng": -0.141495180291502}}}, "name": "C G L Change Grow Live", "place_id": "ChIJVVVpBeIEdkgRR5DYB4xUvgI", "types": ["health", "point_of_interest", "establishment"]}, "ChIJn912COIEdkgRFcRDqZVEvgI": {"geometry": {"location": {"lat": 51.48802779999999, "lng": -0.1402965}, "viewport": {"northeast": {"lat": 51.48931493029149, "lng": -0.138927619708498}, "southwest": {"lat": 51.4866169697085, "lng": -0.141625580291502}}}, "name": "Manuela's Cake", "place_id": "ChIJn912COIEdkgRFcRDqZVEvgI", "types": ["bakery", "food", "point_of_interest", "store", "establishment"], "rating": 5, "user_ratings_total": 6}, "ChIJW3eg6xoFdkgRqBAdDuXYz5I": {"geometry": {"location": {"lat": 51.4879258, "lng": -0.1400826}, "viewport": {"northeast": {"lat": 51.4892747802915, "lng": -0.138733619708498}, "southwest": {"lat": 51.4865768197085, "lng": -0.141431580291502}}}, "name": "urlifeurbusiness.com", "place_id": "ChIJW3eg6xoFdkgRqBAdDuXYz5I", "types": ["health", "point_of_interest", "establishment"]}, "ChIJh4oyDuIEdkgRoSpWBGwDcig": {"geometry": {"location": {"lat": 51.4878161, "lng": -0.1401461}, "viewport": {"northeast": {"lat": 51.48919973029149, "lng": -0.138936169708498}, "southwest": {"lat": 51.48650176970849, "lng": -0.141634130291502}}}, "name": "Expert Cleaners", "place_id": "ChIJh4oyDuIEdkgRoSpWBGwDcig", "types": ["laundry", "point_of_interest", "establishment"]}, "ChIJV0j1FR4FdkgRVY6Eh2NAJYg": {"geometry": {"location": {"lat": 51.48996915022797, "lng": -0.1420015494207631}, "viewport": {"northeast": {"lat": 51.4913181302915, "lng": -0.140652569708498}, "southwest": {"lat": 51.4886201697085, "lng": -0.143350530291502}}}, "name": "61 St George's Dr", "place_id": "ChIJV0j1FR4FdkgRVY6Eh2NAJYg", "types": ["route"]}, "ChIJJaMGDh4FdkgRU81rNC7NRNg": {"geometry": {"location": {"lat": 51.48927523387769, "lng": -0.1419208058947326}, "viewport": {"northeast": {"lat": 51.4906259802915, "lng": -0.140569669708498}, "southwest": {"lat": 51.4879280197085, "lng": -0.143267630291502}}}, "name": "138-124 Cambridge St", "place_id": "ChIJJaMGDh4FdkgRU81rNC7NRNg", "types": ["route"]}, "ChIJH8w1Dh4FdkgRb6rPlMgLb-Q": {"geometry": {"location": {"lat": 51.4892999, "lng": -0.1418692}, "viewport": {"northeast": {"lat": 51.4906330802915, "lng": -0.140538919708498}, "southwest": {"lat": 51.4879351197085, "lng": -0.143236880291502}}}, "name": "ubitricity Charging Station", "place_id": "ChIJH8w1Dh4FdkgRb6rPlMgLb-Q", "types": ["point_of_interest", "establishment"]}, "ChIJ47yP7h0FdkgRbEWlqOWCo4s": {"geometry": {"location": {"lat": 51.48771405023023, "lng": -0.1417260001431562}, "viewport": {"northeast": {"lat": 51.4890630302915, "lng": -0.140377019708498}, "southwest": {"lat": 51.4863650697085, "lng": -0.143074980291502}}}, "name": "105-117 Lupus St", "place_id": "ChIJ47yP7h0FdkgRbEWlqOWCo4s", "types": ["route"]}, "ChIJWZ7a6B0FdkgR3SPbpFmYE3Y": {"geometry": {"location": {"lat": 51.4878448, "lng": -0.141771}, "viewport": {"northeast": {"lat": 51.4891281302915, "lng": -0.140401619708498}, "southwest": {"lat": 51.48643016970851, "lng": -0.143099580291502}}}, "name": "The McLeod Centre for Learning", "place_id": "ChIJWZ7a6B0FdkgR3SPbpFmYE3Y", "types": ["point_of_interest", "establishment"], "rating": 5, "user_ratings_total": 2}, "ChIJ7z3W6B0FdkgRnqJ9QJaFZyA": {"geometry": {"location": {"lat": 51.4878277, "lng": -0.1419605}, "viewport": {"northeast": {"lat": 51.4891082802915, "lng": -0.1405902697084979}, "southwest": {"lat": 51.4864103197085, "lng": -0.143288230291502}}}, "name": "Western Union", "place_id": "ChIJ7z3W6B0FdkgRnqJ9QJaFZyA", "types": ["finance", "point_of_interest", "establishment"], "rating": 2.2, "user_ratings_total": 5}, "ChIJcVvj6B0FdkgREqtZbF1AZY4": {"geometry": {"location": {"lat": 51.4878309, "lng": -0.141951}, "viewport": {"northeast": {"lat": 51.48911048029149, "lng": -0.140580469708498}, "southwest": {"lat": 51.48641251970849, "lng": -0.143278430291502}}}, "name": "Pimlico Finance", "place_id": "ChIJcVvj6B0FdkgREqtZbF1AZY4", "types": ["finance", "point_of_interest", "establishment"], "rating": 5, "user_ratings_total": 1}, "ChIJcVvj6B0FdkgRS4mZsLmq_vE": {"geometry": {"location": {"lat": 51.48784089999999, "lng": -0.1418678}, "viewport": {"northeast": {"lat": 51.4891205302915, "lng": -0.140497269708498}, "southwest": {"lat": 51.4864225697085, "lng": -0.143195230291502}}}, "name": "Pimlico Hardware Plumbing & Electrical Supplies & Key Cutting", "place_id": "ChIJcVvj6B0FdkgRS4mZsLmq_vE", "types": ["home_goods_store", "point_of_interest", "store", "establishment"], "rating": 4.5, "user_ratings_total": 43}, "ChIJfwyOPvQFdkgR50UzZAHli4g": {"geometry": {"location": {"lat": 51.4880575, "lng": -0.141854}, "viewport": {"northeast": {"lat": 51.48937943029149, "lng": -0.140537869708498}, "southwest": {"lat": 51.4866814697085, "lng": -0.143235830291502}}}, "name": "B&D", "place_id": "ChIJfwyOPvQFdkgR50UzZAHli4g", "types": ["lodging", "point_of_interest", "establishment"]}, "ChIJ53L2GeEFdkgRgF5Un63oKRo": {"geometry": {"location": {"lat": 51.4881512, "lng": -0.1418704}, "viewport": {"northeast": {"lat": 51.4894708802915, "lng": -0.140556969708498}, "southwest": {"lat": 51.48677291970851, "lng": -0.143254930291502}}}, "name": "London Expert Gas Engineers", "place_id": "ChIJ53L2GeEFdkgRgF5Un63oKRo", "types": ["plumber", "general_contractor", "point_of_interest", "establishment"], "rating": 5, "user_ratings_total": 1}, "ChIJi6Wh5R0FdkgRlAS3SVJhLuY": {"geometry": {"location": {"lat": 51.48807919999999, "lng": -0.1417636}, "viewport": {"northeast": {"lat": 51.4894085802915, "lng": -0.140438419708498}, "southwest": {"lat": 51.4867106197085, "lng": -0.143136380291502}}}, "name": "Matrix Group Limited", "place_id": "ChIJi6Wh5R0FdkgRlAS3SVJhLuY", "types": ["point_of_interest", "establishment"]}, "ChIJnetN5B0FdkgRr_P_TTbVjk8": {"geometry": {"location": {"lat": 51.4881892, "lng": -0.1417741}, "viewport": {"northeast": {"lat": 51.4894823802915, "lng": -0.140492869708498}, "southwest": {"lat": 51.4867844197085, "lng": -0.143190830291502}}}, "name": "Central London Flat Westminster", "place_id": "ChIJnetN5B0FdkgRr_P_TTbVjk8", "types": ["lodging", "point_of_interest", "establishment"], "rating": 5, "user_ratings_total": 2}, "ChIJ8fDY5R0FdkgR19dQtOGYLRo": {"geometry": {"location": {"lat": 51.4881922, "lng": -0.1417685}, "viewport": {"northeast": {"lat": 51.4894835802915, "lng": -0.140489419708498}, "southwest": {"lat": 51.4867856197085, "lng": -0.143187380291502}}}, "name": "W D Lettings", "place_id": "ChIJ8fDY5R0FdkgR19dQtOGYLRo", "types": ["lodging", "point_of_interest", "establishment"]}, "ChIJfRCg6B0FdkgR3qk-yr8cTNQ": {"geometry": {"location": {"lat": 51.48798499999999, "lng": -0.1420212}, "viewport": {"northeast": {"lat": 51.48938018029148, "lng": -0.140616169708498}, "southwest": {"lat": 51.48668221970848, "lng": -0.143314130291502}}}, "name": "Skyhook Adventure", "place_id": "ChIJfRCg6B0FdkgR3qk-yr8cTNQ", "types": ["travel_agency", "point_of_interest", "establishment"]}, "ChIJO4OG88cFdkgRoFPHgAkRCQY": {"geometry": {"location": {"lat": 51.4881663, "lng": -0.1420979}, "viewport": {"northeast": {"lat": 51.4894901802915, "lng": -0.140779419708498}, "southwest": {"lat": 51.48679221970851, "lng": -0.143477380291502}}}, "name": "Anna With Yoga - Private Yoga Teacher in SW1", "place_id": "ChIJO4OG88cFdkgRoFPHgAkRCQY", "types": ["school", "point_of_interest", "establishment"], "rating": 5, "user_ratings_total": 10}, "ChIJjcmO5x0FdkgRvLmB3HzehCs": {"geometry": {"location": {"lat": 51.488096, "lng": -0.1422757}, "viewport": {"northeast": {"lat": 51.4894937802915, "lng": -0.140866669708498}, "southwest": {"lat": 51.4867958197085, "lng": -0.143564630291502}}}, "name": "Danielle Beauty", "place_id": "ChIJjcmO5x0FdkgRvLmB3HzehCs", "types": ["point_of_interest", "establishment"]}, "ChIJ7Zh73R0FdkgR-dEkxC6vRdE": {"geometry": {"location": {"lat": 51.4881229, "lng": -0.1423286}, "viewport": {"northeast": {"lat": 51.4895201302915, "lng": -0.140920169708498}, "southwest": {"lat": 51.4868221697085, "lng": -0.143618130291502}}}, "name": "SIAlinks", "place_id": "ChIJ7Zh73R0FdkgR-dEkxC6vRdE", "types": ["finance", "point_of_interest", "establishment"]}, "ChIJS9-ulR0FdkgRQVplbqBUxNE": {"geometry": {"location": {"lat": 51.48714265002241, "lng": -0.1421457996513789}, "viewport": {"northeast": {"lat": 51.48849163029149, "lng": -0.140796819708498}, "southwest": {"lat": 51.48579366970849, "lng": -0.143494780291502}}}, "name": "Johnson's Place", "place_id": "ChIJS9-ulR0FdkgRQVplbqBUxNE", "types": ["route"]}}}