{"E00023478": {"ChIJsWjPvQEQdkgROziGh4k7l-Y": {"geometry": {"location": {"lat": 51.51656090000822, "lng": -0.1922794998833057}, "viewport": {"northeast": {"lat": 51.5179098802915, "lng": -0.1909305197084979}, "southwest": {"lat": 51.5152119197085, "lng": -0.193628480291502}}}, "name": "Alexander Street", "place_id": "ChIJsWjPvQEQdkgROziGh4k7l-Y", "types": ["route"]}, "ChIJ8y-zlwEQdkgRh-A7Dvlsz7k": {"geometry": {"location": {"lat": 51.5166864, "lng": -0.192602}, "viewport": {"northeast": {"lat": 51.51805468029151, "lng": -0.191122019708498}, "southwest": {"lat": 51.51535671970851, "lng": -0.193819980291502}}}, "name": "Philippa Holland Fine Jewellery", "place_id": "ChIJ8y-zlwEQdkgRh-A7Dvlsz7k", "types": ["jewelry_store", "point_of_interest", "store", "establishment"]}, "ChIJi3i_6gEQdkgRvGPc_Ate-HY": {"geometry": {"location": {"lat": 51.5161102, "lng": -0.1925616}, "viewport": {"northeast": {"lat": 51.51741053029151, "lng": -0.191195669708498}, "southwest": {"lat": 51.51471256970851, "lng": -0.193893630291502}}}, "name": "Melanie Boissevain", "place_id": "ChIJi3i_6gEQdkgRvGPc_Ate-HY", "types": ["general_contractor", "point_of_interest", "establishment"]}, "ChIJwbtojQEQdkgRnzk7NQBJg1Y": {"geometry": {"location": {"lat": 51.5162817, "lng": -0.1932489}, "viewport": {"northeast": {"lat": 51.51763888029149, "lng": -0.191832519708498}, "southwest": {"lat": 51.5149409197085, "lng": -0.194530480291502}}}, "name": "Kildare Gardens", "place_id": "ChIJwbtojQEQdkgRnzk7NQBJg1Y", "types": ["park", "point_of_interest", "establishment"], "rating": 4.5, "user_ratings_total": 24}, "ChIJ69YLvgEQdkgRHo_dp1qLSGw": {"geometry": {"location": {"lat": 51.5164811, "lng": -0.1924039}, "viewport": {"northeast": {"lat": 51.5178403802915, "lng": -0.190981919708498}, "southwest": {"lat": 51.5151424197085, "lng": -0.193679880291502}}}, "name": "ubitricity Charging Station", "place_id": "ChIJ69YLvgEQdkgRHo_dp1qLSGw", "types": ["point_of_interest", "establishment"]}, "ChIJJZmWmQEQdkgRtRn8lhUsS-0": {"geometry": {"location": {"lat": 51.5169545, "lng": -0.1926958}, "viewport": {"northeast": {"lat": 51.5183222302915, "lng": -0.1912196697084979}, "southwest": {"lat": 51.5156242697085, "lng": -0.193917630291502}}}, "name": "London Water Filters", "place_id": "ChIJJZmWmQEQdkgRtRn8lhUsS-0", "types": ["point_of_interest", "establishment"]}, "ChIJoQ6r7QEQdkgR7chenFO00Rw": {"geometry": {"location": {"lat": 51.51598510000001, "lng": -0.1930324}, "viewport": {"northeast": {"lat": 51.51732288029151, "lng": -0.191668469708498}, "southwest": {"lat": 51.51462491970851, "lng": -0.194366430291502}}}, "name": "Zipcar", "place_id": "ChIJoQ6r7QEQdkgR7chenFO00Rw", "types": ["car_rental", "point_of_interest", "establishment"]}, "ChIJLQJ05wEQdkgRR65Ofld_w0s": {"geometry": {"location": {"lat": 51.51532380050832, "lng": -0.1925357002983514}, "viewport": {"northeast": {"lat": 51.51667278029149, "lng": -0.191186719708498}, "southwest": {"lat": 51.51397481970849, "lng": -0.193884680291502}}}, "name": "76-64 A4206", "place_id": "ChIJLQJ05wEQdkgRR65Ofld_w0s", "types": ["route"]}, "ChIJVZEF-wEQdkgRfrPQUYYsCMs": {"geometry": {"location": {"lat": 51.5153228, "lng": -0.1934076}, "viewport": {"northeast": {"lat": 51.5166251802915, "lng": -0.192059269708498}, "southwest": {"lat": 51.5139272197085, "lng": -0.194757230291502}}}, "name": "Lords", "place_id": "ChIJVZEF-wEQdkgRfrPQUYYsCMs", "types": ["home_goods_store", "furniture_store", "point_of_interest", "store", "establishment"], "rating": 4.4, "user_ratings_total": 16}, "ChIJFXQtxQEQdkgRoOfwX50zb9I": {"geometry": {"location": {"lat": 51.5155551, "lng": -0.1928308}, "viewport": {"northeast": {"lat": 51.5167759302915, "lng": -0.191444219708498}, "southwest": {"lat": 51.51407796970851, "lng": -0.194142180291502}}}, "name": "A M Investments", "place_id": "ChIJFXQtxQEQdkgRoOfwX50zb9I", "types": ["general_contractor", "point_of_interest", "establishment"], "rating": 5, "user_ratings_total": 3}, "ChIJRT-6MvwPdkgRub2tgMCBRjQ": {"geometry": {"location": {"lat": 51.51518489999999, "lng": -0.1927858999999999}, "viewport": {"northeast": {"lat": 51.5165873302915, "lng": -0.191452619708498}, "southwest": {"lat": 51.5138893697085, "lng": -0.194150580291502}}}, "name": "Jack Nadel International Ltd", "place_id": "ChIJRT-6MvwPdkgRub2tgMCBRjQ", "types": ["point_of_interest", "establishment"], "rating": 5, "user_ratings_total": 1}, "ChIJv436-gEQdkgRav-yNfl9jYs": {"geometry": {"location": {"lat": 51.51535399999999, "lng": -0.193159}, "viewport": {"northeast": {"lat": 51.5166566802915, "lng": -0.191780119708498}, "southwest": {"lat": 51.5139587197085, "lng": -0.194478080291502}}}, "name": "BENS", "place_id": "ChIJv436-gEQdkgRav-yNfl9jYs", "types": ["grocery_or_supermarket", "food", "point_of_interest", "store", "establishment"], "rating": 4.6, "user_ratings_total": 120}, "ChIJ3w8NzQEQdkgRaLWBG5H1e2c": {"geometry": {"location": {"lat": 51.5153528, "lng": -0.1934767}, "viewport": {"northeast": {"lat": 51.51663793029149, "lng": -0.192142919708498}, "southwest": {"lat": 51.5139399697085, "lng": -0.194840880291502}}}, "name": "Deliberate Public Relations", "place_id": "ChIJ3w8NzQEQdkgRaLWBG5H1e2c", "types": ["point_of_interest", "establishment"]}, "ChIJJeZ74wEQdkgRRaSxXA9ggsM": {"geometry": {"location": {"lat": 51.5151529, "lng": -0.1930118}, "viewport": {"northeast": {"lat": 51.5165591302915, "lng": -0.191678469708498}, "southwest": {"lat": 51.5138611697085, "lng": -0.194376430291502}}}, "name": "Cocotte", "place_id": "ChIJJeZ74wEQdkgRRaSxXA9ggsM", "types": ["restaurant", "food", "point_of_interest", "establishment"], "rating": 4.4, "user_ratings_total": 357}, "ChIJd0FVD_4PdkgR0CKZ34-mGiI": {"geometry": {"location": {"lat": 51.51523100000001, "lng": -0.1934413}, "viewport": {"northeast": {"lat": 51.5165557302915, "lng": -0.192327219708498}, "southwest": {"lat": 51.51385776970851, "lng": -0.195025180291502}}}, "name": "Bective", "place_id": "ChIJd0FVD_4PdkgR0CKZ34-mGiI", "types": ["point_of_interest", "establishment"]}, "ChIJmVAp-wEQdkgRmgEtNIlruNc": {"geometry": {"location": {"lat": 51.5153204, "lng": -0.1936511}, "viewport": {"northeast": {"lat": 51.5166122302915, "lng": -0.192247719708498}, "southwest": {"lat": 51.5139142697085, "lng": -0.194945680291502}}}, "name": "ATM", "place_id": "ChIJmVAp-wEQdkgRmgEtNIlruNc", "types": ["atm", "finance", "point_of_interest", "establishment"]}, "ChIJFysa4QEQdkgRaqU6LHpegOs": {"geometry": {"location": {"lat": 51.51512229999999, "lng": -0.1926967}, "viewport": {"northeast": {"lat": 51.5164642302915, "lng": -0.191416969708498}, "southwest": {"lat": 51.5137662697085, "lng": -0.194114930291502}}}, "name": "Kingdom Hall of Jehovah's Witnesses - Bayswater", "place_id": "ChIJFysa4QEQdkgRaqU6LHpegOs", "types": ["church", "place_of_worship", "point_of_interest", "establishment"], "rating": 4.3, "user_ratings_total": 21}, "ChIJgzoS-QEQdkgRQhIbS8kwoAk": {"geometry": {"location": {"lat": 51.5152923, "lng": -0.1936815}, "viewport": {"northeast": {"lat": 51.5166009802915, "lng": -0.192262919708498}, "southwest": {"lat": 51.5139030197085, "lng": -0.194960880291502}}}, "name": "Maximus (Maximise)", "place_id": "ChIJgzoS-QEQdkgRQhIbS8kwoAk", "types": ["point_of_interest", "establishment"]}, "ChIJlXMtxQEQdkgROobJcsHOHTk": {"geometry": {"location": {"lat": 51.51519940000001, "lng": -0.1923961}, "viewport": {"northeast": {"lat": 51.5166162302915, "lng": -0.191067019708498}, "southwest": {"lat": 51.5139182697085, "lng": -0.193764980291502}}}, "name": "Robin Monotti Architects", "place_id": "ChIJlXMtxQEQdkgROobJcsHOHTk", "types": ["general_contractor", "point_of_interest", "establishment"]}, "ChIJD-sslfsPdkgRotGoBzc6DuY": {"geometry": {"location": {"lat": 51.51547799999999, "lng": -0.192339}, "viewport": {"northeast": {"lat": 51.5167631802915, "lng": -0.190978119708498}, "southwest": {"lat": 51.5140652197085, "lng": -0.193676080291502}}}, "name": "Trendco London", "place_id": "ChIJD-sslfsPdkgRotGoBzc6DuY", "types": ["hair_care", "health", "point_of_interest", "establishment"], "rating": 4.3, "user_ratings_total": 43}, "ChIJBVzfG2kbdkgRMKDDF1D01fg": {"geometry": {"location": {"lat": 51.51556189999999, "lng": -0.1939095}, "viewport": {"northeast": {"lat": 51.5169046802915, "lng": -0.192612269708498}, "southwest": {"lat": 51.5142067197085, "lng": -0.195310230291502}}}, "name": "Morgan Lockyer Photographers Agents", "place_id": "ChIJBVzfG2kbdkgRMKDDF1D01fg", "types": ["point_of_interest", "establishment"], "rating": 5, "user_ratings_total": 1}, "ChIJQ8Id_wEQdkgRtXPQuP0ztM4": {"geometry": {"location": {"lat": 51.51507100000001, "lng": -0.193759}, "viewport": {"northeast": {"lat": 51.51641998029151, "lng": -0.1924100197084979}, "southwest": {"lat": 51.51372201970851, "lng": -0.195107980291502}}}, "name": "Franco Manca Westbourne Grove", "place_id": "ChIJQ8Id_wEQdkgRtXPQuP0ztM4", "types": ["restaurant", "food", "point_of_interest", "establishment"], "rating": 4.2, "user_ratings_total": 993}, "ChIJ_dsGr7IadkgRZL6s-DWnVMA": {"geometry": {"location": {"lat": 51.51534419999999, "lng": -0.193597}, "viewport": {"northeast": {"lat": 51.5166295302915, "lng": -0.192208969708498}, "southwest": {"lat": 51.5139315697085, "lng": -0.1949069302915021}}}, "name": "Sainsbury's Local", "place_id": "ChIJ_dsGr7IadkgRZL6s-DWnVMA", "types": ["supermarket", "convenience_store", "grocery_or_supermarket", "food", "point_of_interest", "store", "establishment"], "rating": 3.7, "user_ratings_total": 33}, "ChIJwT3z_gEQdkgRICo8-cI-Op8": {"geometry": {"location": {"lat": 51.51507100000001, "lng": -0.1937687}, "viewport": {"northeast": {"lat": 51.5164778802915, "lng": -0.192435669708498}, "southwest": {"lat": 51.5137799197085, "lng": -0.195133630291502}}}, "name": "The Brazilian Wood Company", "place_id": "ChIJwT3z_gEQdkgRICo8-cI-Op8", "types": ["point_of_interest", "store", "establishment"]}, "ChIJFXQtxQEQdkgRRW1_g57J-us": {"geometry": {"location": {"lat": 51.5154403, "lng": -0.1924811999999999}, "viewport": {"northeast": {"lat": 51.5167359302915, "lng": -0.1911165697084979}, "southwest": {"lat": 51.5140379697085, "lng": -0.193814530291502}}}, "name": "Kitchen Ideas", "place_id": "ChIJFXQtxQEQdkgRRW1_g57J-us", "types": ["furniture_store", "home_goods_store", "point_of_interest", "store", "establishment"], "rating": 4.8, "user_ratings_total": 23}, "ChIJ5Wv-5AEQdkgRrUrE-A4_keg": {"geometry": {"location": {"lat": 51.51536489999999, "lng": -0.1930694999999999}, "viewport": {"northeast": {"lat": 51.51666513029149, "lng": -0.191707169708498}, "southwest": {"lat": 51.51396716970849, "lng": -0.194405130291502}}}, "name": "Domus Nova", "place_id": "ChIJ5Wv-5AEQdkgRrUrE-A4_keg", "types": ["real_estate_agency", "point_of_interest", "establishment"], "rating": 4.9, "user_ratings_total": 61}, "ChIJi-ww_AEQdkgR4Q6_q9TlPzY": {"geometry": {"location": {"lat": 51.515179, "lng": -0.1931689}, "viewport": {"northeast": {"lat": 51.5165644302915, "lng": -0.191829919708498}, "southwest": {"lat": 51.5138664697085, "lng": -0.194527880291502}}}, "name": "99 Dry Cleaners", "place_id": "ChIJi-ww_AEQdkgR4Q6_q9TlPzY", "types": ["laundry", "point_of_interest", "establishment"], "rating": 3.8, "user_ratings_total": 10}, "ChIJl8Z05QEQdkgRjg1DQS0tPXQ": {"geometry": {"location": {"lat": 51.5153791, "lng": -0.1930575}, "viewport": {"northeast": {"lat": 51.51667303029149, "lng": -0.191693469708498}, "southwest": {"lat": 51.5139750697085, "lng": -0.194391430291502}}}, "name": "Domus Nova Investments", "place_id": "ChIJl8Z05QEQdkgRjg1DQS0tPXQ", "types": ["finance", "point_of_interest", "establishment"]}, "ChIJXUiAlfYRdkgRKyMS3_hcR7s": {"geometry": {"location": {"lat": 51.51533509999999, "lng": -0.1932089}, "viewport": {"northeast": {"lat": 51.51664263029149, "lng": -0.191852219708498}, "southwest": {"lat": 51.51394466970849, "lng": -0.194550180291502}}}, "name": "De Lesseps", "place_id": "ChIJXUiAlfYRdkgRKyMS3_hcR7s", "types": ["clothing_store", "point_of_interest", "store", "establishment"]}, "ChIJFYbIIHcRdkgRgNZBrJUw8aM": {"geometry": {"location": {"lat": 51.5153206, "lng": -0.1931862}, "viewport": {"northeast": {"lat": 51.51663473029149, "lng": -0.191852219708498}, "southwest": {"lat": 51.51393676970849, "lng": -0.194550180291502}}}, "name": "Gustav Fouche", "place_id": "ChIJFYbIIHcRdkgRgNZBrJUw8aM", "types": ["hair_care", "point_of_interest", "establishment"], "rating": 4.9, "user_ratings_total": 34}, "ChIJm8jT5AEQdkgRqdYqYZNgC5k": {"geometry": {"location": {"lat": 51.5153206, "lng": -0.1931862}, "viewport": {"northeast": {"lat": 51.5166363302915, "lng": -0.191843119708498}, "southwest": {"lat": 51.5139383697085, "lng": -0.194541080291502}}}, "name": "Salon Contemporary", "place_id": "ChIJm8jT5AEQdkgRqdYqYZNgC5k", "types": ["point_of_interest", "establishment"]}, "ChIJm8jT5AEQdkgRV5QPW9EmyV8": {"geometry": {"location": {"lat": 51.5153135, "lng": -0.1931838}, "viewport": {"northeast": {"lat": 51.51663423029149, "lng": -0.191827119708498}, "southwest": {"lat": 51.51393626970849, "lng": -0.194525080291502}}}, "name": "Zenildo Filho", "place_id": "ChIJm8jT5AEQdkgRV5QPW9EmyV8", "types": ["point_of_interest", "establishment"]}, "ChIJZZ7oxKERdkgR9iEVFzhfCvA": {"geometry": {"location": {"lat": 51.5153239, "lng": -0.1932998}, "viewport": {"northeast": {"lat": 51.5166321802915, "lng": -0.191939669708498}, "southwest": {"lat": 51.5139342197085, "lng": -0.194637630291502}}}, "name": "Verderame", "place_id": "ChIJZZ7oxKERdkgR9iEVFzhfCvA", "types": ["restaurant", "food", "point_of_interest", "establishment"], "rating": 4.7, "user_ratings_total": 47}, "ChIJdZkqkZMRdkgRvHsm1B1ERi8": {"geometry": {"location": {"lat": 51.5153287, "lng": -0.1933879}, "viewport": {"northeast": {"lat": 51.5166301302915, "lng": -0.192025819708498}, "southwest": {"lat": 51.5139321697085, "lng": -0.194723780291502}}}, "name": "Sainsbury's Bank ATM", "place_id": "ChIJdZkqkZMRdkgRvHsm1B1ERi8", "types": ["atm", "finance", "point_of_interest", "establishment"]}, "ChIJ___b7wEQdkgRaUBK3xVkXAk": {"geometry": {"location": {"lat": 51.51560879999999, "lng": -0.193181}, "viewport": {"northeast": {"lat": 51.51696758029149, "lng": -0.1917358697084979}, "southwest": {"lat": 51.5142696197085, "lng": -0.194433830291502}}}, "name": "Evolve Search Ltd.", "place_id": "ChIJ___b7wEQdkgRaUBK3xVkXAk", "types": ["point_of_interest", "establishment"]}, "ChIJJc7Mcz0RdkgRIDC00P5V1hU": {"geometry": {"location": {"lat": 51.515452, "lng": -0.19343}, "viewport": {"northeast": {"lat": 51.5166913802915, "lng": -0.192050819708498}, "southwest": {"lat": 51.5139934197085, "lng": -0.194748780291502}}}, "name": "Truck Mounted Crane Hire Kensington and Chelsea", "place_id": "ChIJJc7Mcz0RdkgRIDC00P5V1hU", "types": ["point_of_interest", "establishment"]}, "ChIJzU5xHaARdkgRlrt0UdTmMo8": {"geometry": {"location": {"lat": 51.5153099, "lng": -0.1934319}, "viewport": {"northeast": {"lat": 51.51661818029149, "lng": -0.192071719708498}, "southwest": {"lat": 51.5139202197085, "lng": -0.194769680291502}}}, "name": "ParcelShop Lords in Westbourne Grove Post Office", "place_id": "ChIJzU5xHaARdkgRlrt0UdTmMo8", "types": ["post_office", "finance", "point_of_interest", "establishment"]}, "ChIJVxjf5QEQdkgRkv7DELI1zeQ": {"geometry": {"location": {"lat": 51.51543599999999, "lng": -0.1927123}, "viewport": {"northeast": {"lat": 51.5167945802915, "lng": -0.191464919708498}, "southwest": {"lat": 51.5140966197085, "lng": -0.194162880291502}}}, "name": "Farmacy", "place_id": "ChIJVxjf5QEQdkgRkv7DELI1zeQ", "types": ["restaurant", "food", "point_of_interest", "establishment"], "rating": 4.3, "user_ratings_total": 1563}, "ChIJZTqD3QEQdkgRSGIrZ1_iDy4": {"geometry": {"location": {"lat": 51.5153883, "lng": -0.1926967}, "viewport": {"northeast": {"lat": 51.5166972302915, "lng": -0.191335869708498}, "southwest": {"lat": 51.5139992697085, "lng": -0.194033830291502}}}, "name": "247 Detectives & Private Investigators", "place_id": "ChIJZTqD3QEQdkgRSGIrZ1_iDy4", "types": ["point_of_interest", "establishment"]}, "ChIJJeZ74wEQdkgRw0G1-C3jmKY": {"geometry": {"location": {"lat": 51.515153, "lng": -0.1930426}, "viewport": {"northeast": {"lat": 51.5165575802915, "lng": -0.191708819708498}, "southwest": {"lat": 51.5138596197085, "lng": -0.194406780291502}}}, "name": "Neds Noodle Bar", "place_id": "ChIJJeZ74wEQdkgRw0G1-C3jmKY", "types": ["restaurant", "food", "point_of_interest", "establishment"], "rating": 5, "user_ratings_total": 1}, "ChIJqeyy0k8RdkgR9UISRdbJp7A": {"geometry": {"location": {"lat": 51.5151449, "lng": -0.1931353}, "viewport": {"northeast": {"lat": 51.5165486302915, "lng": -0.191801319708498}, "southwest": {"lat": 51.5138506697085, "lng": -0.194499280291502}}}, "name": "Parkside -architectural tiles Notting Hill", "place_id": "ChIJqeyy0k8RdkgR9UISRdbJp7A", "types": ["home_goods_store", "point_of_interest", "store", "establishment"]}, "ChIJAQB05gEQdkgRMvrxxujWgqk": {"geometry": {"location": {"lat": 51.51545309999999, "lng": -0.1926172}, "viewport": {"northeast": {"lat": 51.5168020802915, "lng": -0.191268219708498}, "southwest": {"lat": 51.5141041197085, "lng": -0.193966180291502}}}, "name": "Sushi Shop", "place_id": "ChIJAQB05gEQdkgRMvrxxujWgqk", "types": ["restaurant", "food", "point_of_interest", "establishment"], "rating": 3.4, "user_ratings_total": 87}, "ChIJXRVe3T4RdkgRWJ_Ts-33kf0": {"geometry": {"location": {"lat": 51.5151543, "lng": -0.1933517}, "viewport": {"northeast": {"lat": 51.5165423302915, "lng": -0.192010819708498}, "southwest": {"lat": 51.5138443697085, "lng": -0.194708780291502}}}, "name": "Saxbury", "place_id": "ChIJXRVe3T4RdkgRWJ_Ts-33kf0", "types": ["real_estate_agency", "point_of_interest", "establishment"]}, "ChIJASliqw0RdkgRC0oWGdFNFrQ": {"geometry": {"location": {"lat": 51.51515680000001, "lng": -0.1934089}, "viewport": {"northeast": {"lat": 51.5165406302915, "lng": -0.192069519708498}, "southwest": {"lat": 51.51384266970851, "lng": -0.194767480291502}}}, "name": "Molecule | Wellness | CBD London", "place_id": "ChIJASliqw0RdkgRC0oWGdFNFrQ", "types": ["cafe", "food", "gym", "health", "point_of_interest", "store", "establishment"], "rating": 5, "user_ratings_total": 20}, "ChIJu7Ii5wEQdkgRmTH9XRD4gto": {"geometry": {"location": {"lat": 51.51523169999999, "lng": -0.1926474}, "viewport": {"northeast": {"lat": 51.5166190802915, "lng": -0.191309719708498}, "southwest": {"lat": 51.5139211197085, "lng": -0.194007680291502}}}, "name": "Jump Gbs Ltd.", "place_id": "ChIJu7Ii5wEQdkgRmTH9XRD4gto", "types": ["point_of_interest", "establishment"]}, "ChIJ5VxITD8RdkgRgmJIm8bKt3s": {"geometry": {"location": {"lat": 51.51512549999999, "lng": -0.1933577}, "viewport": {"northeast": {"lat": 51.51652848029149, "lng": -0.192005369708498}, "southwest": {"lat": 51.51383051970849, "lng": -0.1947033302915021}}}, "name": "Beam", "place_id": "ChIJ5VxITD8RdkgRgmJIm8bKt3s", "types": ["cafe", "food", "point_of_interest", "establishment"], "rating": 4.8, "user_ratings_total": 100}, "ChIJs_xB3QEQdkgRjgBMBMJZNV8": {"geometry": {"location": {"lat": 51.5151722, "lng": -0.1927161000000001}, "viewport": {"northeast": {"lat": 51.5165846302915, "lng": -0.191385719708498}, "southwest": {"lat": 51.5138866697085, "lng": -0.194083680291502}}}, "name": "Westboure dry cleaners", "place_id": "ChIJs_xB3QEQdkgRjgBMBMJZNV8", "types": ["laundry", "point_of_interest", "establishment"]}, "ChIJMZWk4wEQdkgRj2afJEMbBP8": {"geometry": {"location": {"lat": 51.5150877, "lng": -0.1929417}, "viewport": {"northeast": {"lat": 51.5164422302915, "lng": -0.191538219708498}, "southwest": {"lat": 51.5137442697085, "lng": -0.194236180291502}}}, "name": "Westmont Court", "place_id": "ChIJMZWk4wEQdkgRj2afJEMbBP8", "types": ["point_of_interest", "establishment"]}, "ChIJP0CD-QEQdkgRBVDQC--qYkI": {"geometry": {"location": {"lat": 51.5153569, "lng": -0.1936109}, "viewport": {"northeast": {"lat": 51.5166330802915, "lng": -0.192227619708498}, "southwest": {"lat": 51.5139351197085, "lng": -0.194925580291502}}}, "name": "King Media Ltd", "place_id": "ChIJP0CD-QEQdkgRBVDQC--qYkI", "types": ["point_of_interest", "establishment"]}, "ChIJcWe28AEQdkgRS5YiM81wo8I": {"geometry": {"location": {"lat": 51.5155792, "lng": -0.1935434}, "viewport": {"northeast": {"lat": 51.5168862302915, "lng": -0.192203219708498}, "southwest": {"lat": 51.51418826970851, "lng": -0.194901180291502}}}, "name": "I & A Consulting Ltd", "place_id": "ChIJcWe28AEQdkgRS5YiM81wo8I", "types": ["point_of_interest", "establishment"]}, "ChIJVWQV-AEQdkgRzy-VJiijVHI": {"geometry": {"location": {"lat": 51.5153664, "lng": -0.1938215}, "viewport": {"northeast": {"lat": 51.5167084302915, "lng": -0.192540019708498}, "southwest": {"lat": 51.51401046970851, "lng": -0.195237980291502}}}, "name": "District & Urban Group", "place_id": "ChIJVWQV-AEQdkgRzy-VJiijVHI", "types": ["finance", "point_of_interest", "establishment"]}, "ChIJAePngfYRdkgR8ztfXUzF9UY": {"geometry": {"location": {"lat": 51.51536919999999, "lng": -0.1936524}, "viewport": {"northeast": {"lat": 51.5166372802915, "lng": -0.192248369708498}, "southwest": {"lat": 51.5139393197085, "lng": -0.194946330291502}}}, "name": "Rubbish Capital Ltd", "place_id": "ChIJAePngfYRdkgR8ztfXUzF9UY", "types": ["point_of_interest", "establishment"], "rating": 5, "user_ratings_total": 45}, "ChIJqeSY-QEQdkgRplBHAnHhkso": {"geometry": {"location": {"lat": 51.51536919999999, "lng": -0.1936524}, "viewport": {"northeast": {"lat": 51.5166372802915, "lng": -0.192248369708498}, "southwest": {"lat": 51.5139393197085, "lng": -0.194946330291502}}}, "name": "The Week", "place_id": "ChIJqeSY-QEQdkgRplBHAnHhkso", "types": ["point_of_interest", "establishment"]}, "ChIJQfb-RQIRdkgR438ZLi9CiSE": {"geometry": {"location": {"lat": 51.51536919999999, "lng": -0.1936524}, "viewport": {"northeast": {"lat": 51.5166372802915, "lng": -0.192248369708498}, "southwest": {"lat": 51.5139393197085, "lng": -0.194946330291502}}}, "name": "Max Scaffolding Wraps", "place_id": "ChIJQfb-RQIRdkgR438ZLi9CiSE", "types": ["point_of_interest", "establishment"]}, "ChIJqeSY-QEQdkgRCCNY-bmE5LU": {"geometry": {"location": {"lat": 51.51536919999999, "lng": -0.1936524}, "viewport": {"northeast": {"lat": 51.5166372802915, "lng": -0.192248369708498}, "southwest": {"lat": 51.5139393197085, "lng": -0.194946330291502}}}, "name": "Articulate Ventures", "place_id": "ChIJqeSY-QEQdkgRCCNY-bmE5LU", "types": ["point_of_interest", "establishment"]}, "ChIJN_uY-QEQdkgRVoTmeE3ebYA": {"geometry": {"location": {"lat": 51.5153694, "lng": -0.1936528}, "viewport": {"northeast": {"lat": 51.51663733029149, "lng": -0.192248569708498}, "southwest": {"lat": 51.5139393697085, "lng": -0.1949465302915021}}}, "name": "Old Clocks and Watches", "place_id": "ChIJN_uY-QEQdkgRVoTmeE3ebYA", "types": ["point_of_interest", "store", "establishment"]}, "ChIJawAluXoRdkgRlBGcoynvUow": {"geometry": {"location": {"lat": 51.515183, "lng": -0.1926191}, "viewport": {"northeast": {"lat": 51.5165955302915, "lng": -0.191288769708498}, "southwest": {"lat": 51.5138975697085, "lng": -0.193986730291502}}}, "name": "Prezzemolo & Vitale", "place_id": "ChIJawAluXoRdkgRlBGcoynvUow", "types": ["grocery_or_supermarket", "food", "point_of_interest", "store", "establishment"], "rating": 4.4, "user_ratings_total": 192}, "ChIJS9wT-QEQdkgR7-f9dYT0YrE": {"geometry": {"location": {"lat": 51.5153253, "lng": -0.1936885}, "viewport": {"northeast": {"lat": 51.5166128302915, "lng": -0.192266419708498}, "southwest": {"lat": 51.5139148697085, "lng": -0.194964380291502}}}, "name": "Ninety", "place_id": "ChIJS9wT-QEQdkgR7-f9dYT0YrE", "types": ["point_of_interest", "establishment"]}, "ChIJOefR4mIFdkgRtZIYUQQiF84": {"geometry": {"location": {"lat": 51.5151, "lng": -0.193512}, "viewport": {"northeast": {"lat": 51.5165060802915, "lng": -0.192178769708498}, "southwest": {"lat": 51.5138081197085, "lng": -0.194876730291502}}}, "name": "Embassy of Guatemala", "place_id": "ChIJOefR4mIFdkgRtZIYUQQiF84", "types": ["embassy", "point_of_interest", "establishment"], "rating": 3.9, "user_ratings_total": 9}, "ChIJIRtwIgAQdkgR8L-KEQXvTBk": {"geometry": {"location": {"lat": 51.5150744, "lng": -0.1934994}, "viewport": {"northeast": {"lat": 51.5164935802915, "lng": -0.192169769708498}, "southwest": {"lat": 51.5137956197085, "lng": -0.194867730291502}}}, "name": "UK Immigration & Property Solicitors", "place_id": "ChIJIRtwIgAQdkgR8L-KEQXvTBk", "types": ["lawyer", "point_of_interest", "establishment"]}, "ChIJY120LIkRdkgRJq6J5Hnk1eU": {"geometry": {"location": {"lat": 51.5150744, "lng": -0.1934994}, "viewport": {"northeast": {"lat": 51.5164935802915, "lng": -0.192169769708498}, "southwest": {"lat": 51.5137956197085, "lng": -0.194867730291502}}}, "name": "Apogii Clinic Cryo + Wellness", "place_id": "ChIJY120LIkRdkgRJq6J5Hnk1eU", "types": ["beauty_salon", "spa", "health", "point_of_interest", "establishment"], "rating": 5, "user_ratings_total": 31}, "ChIJFXQtxQEQdkgR1hcwGU5D5M8": {"geometry": {"location": {"lat": 51.5154291, "lng": -0.1923861}, "viewport": {"northeast": {"lat": 51.5167353802915, "lng": -0.191020369708498}, "southwest": {"lat": 51.5140374197085, "lng": -0.193718330291502}}}, "name": "Westbourne Dry Cleaners", "place_id": "ChIJFXQtxQEQdkgR1hcwGU5D5M8", "types": ["laundry", "point_of_interest", "establishment"], "rating": 3, "user_ratings_total": 10}, "ChIJzwk-3QEQdkgRmn3u9h9mcJ0": {"geometry": {"location": {"lat": 51.51542870000001, "lng": -0.1923519}, "viewport": {"northeast": {"lat": 51.5167370302915, "lng": -0.190990969708498}, "southwest": {"lat": 51.5140390697085, "lng": -0.1936889302915021}}}, "name": "Greek Farmer", "place_id": "ChIJzwk-3QEQdkgRmn3u9h9mcJ0", "types": ["restaurant", "food", "point_of_interest", "establishment"]}, "ChIJh4vE4eQFdkgRhGf6JzgqUFA": {"geometry": {"location": {"lat": 51.5154386, "lng": -0.1923516}, "viewport": {"northeast": {"lat": 51.5167421802915, "lng": -0.1909897697084979}, "southwest": {"lat": 51.5140442197085, "lng": -0.193687730291502}}}, "name": "Bayswater Dental Surgery", "place_id": "ChIJh4vE4eQFdkgRhGf6JzgqUFA", "types": ["dentist", "health", "point_of_interest", "establishment"], "rating": 4.6, "user_ratings_total": 18}, "ChIJyzHZ3QEQdkgRfXebfPti5Cs": {"geometry": {"location": {"lat": 51.51523630000001, "lng": -0.1923908}, "viewport": {"northeast": {"lat": 51.51663558029151, "lng": -0.191056569708498}, "southwest": {"lat": 51.51393761970851, "lng": -0.193754530291502}}}, "name": "J H Kenyon / J Hemp Funeral Directors", "place_id": "ChIJyzHZ3QEQdkgRfXebfPti5Cs", "types": ["funeral_home", "point_of_interest", "establishment"], "rating": 5, "user_ratings_total": 2}, "ChIJEx_JCP4PdkgRqr-AdWjvU0E": {"geometry": {"location": {"lat": 51.51415550001153, "lng": -0.1936383997805148}, "viewport": {"northeast": {"lat": 51.5155044802915, "lng": -0.192289419708498}, "southwest": {"lat": 51.5128065197085, "lng": -0.194987380291502}}}, "name": "9-21 Hereford Rd", "place_id": "ChIJEx_JCP4PdkgRqr-AdWjvU0E", "types": ["route"]}, "ChIJweFaB_4PdkgRdPKFhrKGnRc": {"geometry": {"location": {"lat": 51.51446829999999, "lng": -0.1938931}, "viewport": {"northeast": {"lat": 51.5158266802915, "lng": -0.1924642697084979}, "southwest": {"lat": 51.5131287197085, "lng": -0.195162230291502}}}, "name": "Peel&Co", "place_id": "ChIJweFaB_4PdkgRdPKFhrKGnRc", "types": ["point_of_interest", "establishment"]}, "ChIJQ3_yBf4PdkgRpG79QeXzXzs": {"geometry": {"location": {"lat": 51.514232, "lng": -0.193483}, "viewport": {"northeast": {"lat": 51.51557173029149, "lng": -0.192220269708498}, "southwest": {"lat": 51.5128737697085, "lng": -0.194918230291502}}}, "name": "Sinuhe Restaurant", "place_id": "ChIJQ3_yBf4PdkgRpG79QeXzXzs", "types": ["restaurant", "food", "point_of_interest", "establishment"], "rating": 4.4, "user_ratings_total": 111}, "ChIJnextBP4PdkgRNwDMZB7LBlY": {"geometry": {"location": {"lat": 51.51447520000001, "lng": -0.1934545}, "viewport": {"northeast": {"lat": 51.51580853029151, "lng": -0.192238419708498}, "southwest": {"lat": 51.51311056970851, "lng": -0.194936380291502}}}, "name": "Deep Cleaning Bayswater", "place_id": "ChIJnextBP4PdkgRNwDMZB7LBlY", "types": ["point_of_interest", "establishment"]}, "ChIJAy_ED_4PdkgR4MCfMnw1dxI": {"geometry": {"location": {"lat": 51.5140809, "lng": -0.1932605}, "viewport": {"northeast": {"lat": 51.5153912802915, "lng": -0.191900069708498}, "southwest": {"lat": 51.5126933197085, "lng": -0.1945980302915021}}}, "name": "Benningen Lloyd Ltd", "place_id": "ChIJAy_ED_4PdkgR4MCfMnw1dxI", "types": ["point_of_interest", "establishment"]}, "ChIJ4VFdBv4PdkgRJ2SMWmS6Aro": {"geometry": {"location": {"lat": 51.514316, "lng": -0.193658}, "viewport": {"northeast": {"lat": 51.5156656302915, "lng": -0.192311219708498}, "southwest": {"lat": 51.5129676697085, "lng": -0.195009180291502}}}, "name": "ubitricity Charging Station", "place_id": "ChIJ4VFdBv4PdkgRJ2SMWmS6Aro", "types": ["point_of_interest", "establishment"]}, "ChIJu61wCP4PdkgRbzq4lrXR7r0": {"geometry": {"location": {"lat": 51.5141651, "lng": -0.1938343}, "viewport": {"northeast": {"lat": 51.5155268302915, "lng": -0.192392769708498}, "southwest": {"lat": 51.5128288697085, "lng": -0.195090730291502}}}, "name": "Aphrodite Taverna", "place_id": "ChIJu61wCP4PdkgRbzq4lrXR7r0", "types": ["bar", "restaurant", "food", "point_of_interest", "establishment"], "rating": 4.5, "user_ratings_total": 347}, "ChIJs0PSBv4PdkgROv9dPQgc1TM": {"geometry": {"location": {"lat": 51.5145111, "lng": -0.1936751}, "viewport": {"northeast": {"lat": 51.51585848029149, "lng": -0.1923583197084979}, "southwest": {"lat": 51.5131605197085, "lng": -0.195056280291502}}}, "name": "ubitricity Charging Station", "place_id": "ChIJs0PSBv4PdkgROv9dPQgc1TM", "types": ["point_of_interest", "establishment"]}, "ChIJ6S5fCP4PdkgR8TC1y-RaK94": {"geometry": {"location": {"lat": 51.5140901, "lng": -0.1937552}, "viewport": {"northeast": {"lat": 51.5154460302915, "lng": -0.192341219708498}, "southwest": {"lat": 51.5127480697085, "lng": -0.195039180291502}}}, "name": "Caffe Connect", "place_id": "ChIJ6S5fCP4PdkgR8TC1y-RaK94", "types": ["point_of_interest", "establishment"]}, "ChIJs8rVBv4PdkgRsA--D6oKn0Q": {"geometry": {"location": {"lat": 51.5140965, "lng": -0.1937863}, "viewport": {"northeast": {"lat": 51.5154539802915, "lng": -0.192358069708498}, "southwest": {"lat": 51.5127560197085, "lng": -0.195056030291502}}}, "name": "Sinuhe Caffe", "place_id": "ChIJs8rVBv4PdkgRsA--D6oKn0Q", "types": ["cafe", "restaurant", "food", "point_of_interest", "establishment"], "rating": 4.5, "user_ratings_total": 58}, "ChIJiXp0Fv4PdkgRfTOF7tKHMGY": {"geometry": {"location": {"lat": 51.51394670000001, "lng": -0.1925485}, "viewport": {"northeast": {"lat": 51.5153614802915, "lng": -0.191219019708498}, "southwest": {"lat": 51.5126635197085, "lng": -0.193916980291502}}}, "name": "Leinster Square", "place_id": "ChIJiXp0Fv4PdkgRfTOF7tKHMGY", "types": ["park", "point_of_interest", "establishment"], "rating": 4.3, "user_ratings_total": 71}, "ChIJp1pWCP4PdkgRK162dBl7N3g": {"geometry": {"location": {"lat": 51.51405519999999, "lng": -0.1938065}, "viewport": {"northeast": {"lat": 51.51541433029149, "lng": -0.192362919708498}, "southwest": {"lat": 51.51271636970849, "lng": -0.195060880291502}}}, "name": "Spotless", "place_id": "ChIJp1pWCP4PdkgRK162dBl7N3g", "types": ["laundry", "point_of_interest", "establishment"], "rating": 5, "user_ratings_total": 2}, "ChIJMfL2iGkPdkgRHU3C0rkXWws": {"geometry": {"location": {"lat": 51.5144973, "lng": -0.1938973}, "viewport": {"northeast": {"lat": 51.5158559302915, "lng": -0.192468569708498}, "southwest": {"lat": 51.5131579697085, "lng": -0.195166530291502}}}, "name": "Baynards", "place_id": "ChIJMfL2iGkPdkgRHU3C0rkXWws", "types": ["lodging", "point_of_interest", "establishment"]}, "ChIJlxJmDP4PdkgRESX66BNRg8U": {"geometry": {"location": {"lat": 51.513735, "lng": -0.193487}, "viewport": {"northeast": {"lat": 51.5150861802915, "lng": -0.192118919708498}, "southwest": {"lat": 51.5123882197085, "lng": -0.194816880291502}}}, "name": "Santander Cycles", "place_id": "ChIJlxJmDP4PdkgRESX66BNRg8U", "types": ["point_of_interest", "establishment"]}, "ChIJAQ0WRwIQdkgRvkhH9hCPzu8": {"geometry": {"location": {"lat": 51.51657624975622, "lng": -0.1955082491171064}, "viewport": {"northeast": {"lat": 51.51837775000004, "lng": -0.194159269708498}, "southwest": {"lat": 51.51477474999996, "lng": -0.196857230291502}}}, "name": "7-61 Chepstow Rd", "place_id": "ChIJAQ0WRwIQdkgRvkhH9hCPzu8", "types": ["route"]}, "ChIJ-U5uUdoRdkgRvBQrewUUcxo": {"geometry": {"location": {"lat": 51.51645660000001, "lng": -0.1945078}, "viewport": {"northeast": {"lat": 51.51781898029151, "lng": -0.193061219708498}, "southwest": {"lat": 51.51512101970851, "lng": -0.195759180291502}}}, "name": "Guglielmo Marconi Blue Plaque", "place_id": "ChIJ-U5uUdoRdkgRvBQrewUUcxo", "types": ["point_of_interest", "establishment"], "rating": 3, "user_ratings_total": 1}, "ChIJqRxRPgIQdkgRQOlWU3hQSpE": {"geometry": {"location": {"lat": 51.516296, "lng": -0.1952}, "viewport": {"northeast": {"lat": 51.5176319302915, "lng": -0.193956119708498}, "southwest": {"lat": 51.5149339697085, "lng": -0.196654080291502}}}, "name": "SUNVIS SYSTEMS", "place_id": "ChIJqRxRPgIQdkgRQOlWU3hQSpE", "types": ["point_of_interest", "establishment"]}, "ChIJHXTDIwIQdkgRGxkfKwhS6ZA": {"geometry": {"location": {"lat": 51.516391, "lng": -0.1943699}, "viewport": {"northeast": {"lat": 51.5177458302915, "lng": -0.192978019708498}, "southwest": {"lat": 51.5150478697085, "lng": -0.195675980291502}}}, "name": "ubitricity Charging Station", "place_id": "ChIJHXTDIwIQdkgRGxkfKwhS6ZA", "types": ["point_of_interest", "establishment"]}, "ChIJzRzsCAIQdkgRu4ZO20Tnihc": {"geometry": {"location": {"lat": 51.51508432629065, "lng": -0.1947665077090817}, "viewport": {"northeast": {"lat": 51.5164285302915, "lng": -0.193415319708498}, "southwest": {"lat": 51.51373056970851, "lng": -0.196113280291502}}}, "name": "112-110 A4206", "place_id": "ChIJzRzsCAIQdkgRu4ZO20Tnihc", "types": ["route"]}, "ChIJS1AMDQIQdkgR1mYGlnSPvKs": {"geometry": {"location": {"lat": 51.5154103, "lng": -0.195318}, "viewport": {"northeast": {"lat": 51.5167791302915, "lng": -0.193881169708498}, "southwest": {"lat": 51.5140811697085, "lng": -0.196579130291502}}}, "name": "Infusion Haberdashery & Party Shop", "place_id": "ChIJS1AMDQIQdkgR1mYGlnSPvKs", "types": ["laundry", "home_goods_store", "point_of_interest", "store", "establishment"], "rating": 4.2, "user_ratings_total": 70}, "ChIJKccnIwAQdkgRtIF8_yqvvOM": {"geometry": {"location": {"lat": 51.51551430000001, "lng": -0.1942195}, "viewport": {"northeast": {"lat": 51.5168505802915, "lng": -0.192760119708498}, "southwest": {"lat": 51.5141526197085, "lng": -0.195458080291502}}}, "name": "Savana spa And Laser Hair Removal", "place_id": "ChIJKccnIwAQdkgRtIF8_yqvvOM", "types": ["beauty_salon", "hair_care", "spa", "health", "point_of_interest", "establishment"], "rating": 4.2, "user_ratings_total": 15}, "ChIJkxAoAgIQdkgRDKLAthaH8Tk": {"geometry": {"location": {"lat": 51.5152606, "lng": -0.1942716}, "viewport": {"northeast": {"lat": 51.5165549302915, "lng": -0.192866869708498}, "southwest": {"lat": 51.5138569697085, "lng": -0.195564830291502}}}, "name": "Clarendon Fine Art Westbourne Grove", "place_id": "ChIJkxAoAgIQdkgRDKLAthaH8Tk", "types": ["art_gallery", "point_of_interest", "establishment"], "rating": 3.9, "user_ratings_total": 14}, "ChIJXXLCEwIQdkgRGiMHQ_ynPfw": {"geometry": {"location": {"lat": 51.5158417, "lng": -0.1951265}, "viewport": {"northeast": {"lat": 51.5171801302915, "lng": -0.193847469708498}, "southwest": {"lat": 51.5144821697085, "lng": -0.196545430291502}}}, "name": "Tawana Oriental Supermarket", "place_id": "ChIJXXLCEwIQdkgRGiMHQ_ynPfw", "types": ["supermarket", "grocery_or_supermarket", "food", "point_of_interest", "store", "establishment"], "rating": 3.8, "user_ratings_total": 195}, "ChIJ-ZstCAIQdkgRdRcFAICLpYU": {"geometry": {"location": {"lat": 51.5149094, "lng": -0.1947089}, "viewport": {"northeast": {"lat": 51.51615243029149, "lng": -0.193466369708498}, "southwest": {"lat": 51.5134544697085, "lng": -0.196164330291502}}}, "name": "Space NK Westbourne Grove", "place_id": "ChIJ-ZstCAIQdkgRdRcFAICLpYU", "types": ["point_of_interest", "store", "establishment"], "rating": 4.1, "user_ratings_total": 51}, "ChIJI18LDgIQdkgRP96HTPb8ml0": {"geometry": {"location": {"lat": 51.51538009999999, "lng": -0.1949047}, "viewport": {"northeast": {"lat": 51.5167158302915, "lng": -0.193658419708498}, "southwest": {"lat": 51.5140178697085, "lng": -0.196356380291502}}}, "name": "1st Call Detectives", "place_id": "ChIJI18LDgIQdkgRP96HTPb8ml0", "types": ["point_of_interest", "establishment"], "rating": 5, "user_ratings_total": 4}, "ChIJh0fMDgIQdkgR4Bz4JuOAgKo": {"geometry": {"location": {"lat": 51.51519010000001, "lng": -0.1949183}, "viewport": {"northeast": {"lat": 51.51658288029151, "lng": -0.193650419708498}, "southwest": {"lat": 51.51388491970851, "lng": -0.196348380291502}}}, "name": "Maddox Gallery - Westbourne Grove", "place_id": "ChIJh0fMDgIQdkgR4Bz4JuOAgKo", "types": ["art_gallery", "point_of_interest", "establishment"], "rating": 4.5, "user_ratings_total": 53}, "ChIJ17gaEuQadkgR_6RLew8NKMw": {"geometry": {"location": {"lat": 51.51564399999999, "lng": -0.1951099}, "viewport": {"northeast": {"lat": 51.5169868802915, "lng": -0.1938056197084979}, "southwest": {"lat": 51.51428891970851, "lng": -0.196503580291502}}}, "name": "The Frankincense Store", "place_id": "ChIJ17gaEuQadkgR_6RLew8NKMw", "types": ["health", "point_of_interest", "store", "establishment"], "rating": 4.8, "user_ratings_total": 48}, "ChIJCUAvAwIQdkgRZ-2bPbWgb3A": {"geometry": {"location": {"lat": 51.51548299999999, "lng": -0.194283}, "viewport": {"northeast": {"lat": 51.5168486802915, "lng": -0.192793919708498}, "southwest": {"lat": 51.5141507197085, "lng": -0.195491880291502}}}, "name": "Notting Hill Dental Clinic", "place_id": "ChIJCUAvAwIQdkgRZ-2bPbWgb3A", "types": ["dentist", "health", "point_of_interest", "establishment"], "rating": 4.8, "user_ratings_total": 156}, "ChIJx3S5EwIQdkgRYwfbiCRrTZI": {"geometry": {"location": {"lat": 51.5157309, "lng": -0.1951293}, "viewport": {"northeast": {"lat": 51.5170891802915, "lng": -0.193835519708498}, "southwest": {"lat": 51.51439121970851, "lng": -0.196533480291502}}}, "name": "Om Thai Massage & Spa", "place_id": "ChIJx3S5EwIQdkgRYwfbiCRrTZI", "types": ["point_of_interest", "establishment"], "rating": 4.4, "user_ratings_total": 81}, "ChIJx_U4BwIQdkgRRN7KlxewI4I": {"geometry": {"location": {"lat": 51.5149458, "lng": -0.1945795}, "viewport": {"northeast": {"lat": 51.5163729302915, "lng": -0.1932574697084979}, "southwest": {"lat": 51.5136749697085, "lng": -0.195955430291502}}}, "name": "Mark Alexander", "place_id": "ChIJx_U4BwIQdkgRRN7KlxewI4I", "types": ["point_of_interest", "establishment"], "rating": 5, "user_ratings_total": 1}, "ChIJxbERCAIQdkgRbwqJE082IQo": {"geometry": {"location": {"lat": 51.51489960000001, "lng": -0.1947257}, "viewport": {"northeast": {"lat": 51.5161563302915, "lng": -0.193501819708498}, "southwest": {"lat": 51.5134583697085, "lng": -0.196199780291502}}}, "name": "Margaret Dabbs London", "place_id": "ChIJxbERCAIQdkgRbwqJE082IQo", "types": ["beauty_salon", "doctor", "health", "point_of_interest", "establishment"], "rating": 4.6, "user_ratings_total": 16}, "ChIJWZAGEwIQdkgRIgc7ZyTSojI": {"geometry": {"location": {"lat": 51.51571370000001, "lng": -0.19512}, "viewport": {"northeast": {"lat": 51.5170559802915, "lng": -0.193824969708498}, "southwest": {"lat": 51.5143580197085, "lng": -0.196522930291502}}}, "name": "Barrecore Notting Hill", "place_id": "ChIJWZAGEwIQdkgRIgc7ZyTSojI", "types": ["gym", "health", "point_of_interest", "establishment"], "rating": 4.4, "user_ratings_total": 37}, "ChIJUzUxAQIQdkgR3v4ZTKIf068": {"geometry": {"location": {"lat": 51.5149765, "lng": -0.1945764}, "viewport": {"northeast": {"lat": 51.51638913029149, "lng": -0.193249369708498}, "southwest": {"lat": 51.5136911697085, "lng": -0.195947330291502}}}, "name": "Lords Decorators Merchants", "place_id": "ChIJUzUxAQIQdkgR3v4ZTKIf068", "types": ["home_goods_store", "point_of_interest", "store", "establishment"], "rating": 4.5, "user_ratings_total": 8}, "ChIJ22d6qr8RdkgRbOrhXVqhy4U": {"geometry": {"location": {"lat": 51.51542689999999, "lng": -0.1950002}, "viewport": {"northeast": {"lat": 51.51674818029149, "lng": -0.193715619708498}, "southwest": {"lat": 51.5140502197085, "lng": -0.196413580291502}}}, "name": "Pera Studios", "place_id": "ChIJ22d6qr8RdkgRbOrhXVqhy4U", "types": ["furniture_store", "art_gallery", "home_goods_store", "point_of_interest", "store", "establishment"], "rating": 5, "user_ratings_total": 2}, "ChIJ8YA4DgIQdkgRYiv3ErU_NsA": {"geometry": {"location": {"lat": 51.515317, "lng": -0.194976}, "viewport": {"northeast": {"lat": 51.5166932302915, "lng": -0.193694819708498}, "southwest": {"lat": 51.5139952697085, "lng": -0.196392780291502}}}, "name": "STIL Salon", "place_id": "ChIJ8YA4DgIQdkgRYiv3ErU_NsA", "types": ["hair_care", "point_of_interest", "establishment"], "rating": 4.9, "user_ratings_total": 68}, "ChIJ1770NCQRdkgR1p9EuxwJrGc": {"geometry": {"location": {"lat": 51.51552359999999, "lng": -0.1950207}, "viewport": {"northeast": {"lat": 51.5168634802915, "lng": -0.193741769708498}, "southwest": {"lat": 51.5141655197085, "lng": -0.196439730291502}}}, "name": "Seasons Bayswater Bistrot", "place_id": "ChIJ1770NCQRdkgR1p9EuxwJrGc", "types": ["restaurant", "food", "point_of_interest", "establishment"], "rating": 5, "user_ratings_total": 7}, "ChIJqbNOm6ARdkgRbSmVf7lTZe0": {"geometry": {"location": {"lat": 51.5152137, "lng": -0.1949305}, "viewport": {"northeast": {"lat": 51.51658323029149, "lng": -0.193644669708498}, "southwest": {"lat": 51.5138852697085, "lng": -0.196342630291502}}}, "name": "Maddox Gallery", "place_id": "ChIJqbNOm6ARdkgRbSmVf7lTZe0", "types": ["museum", "point_of_interest", "establishment"]}, "ChIJ3wiOZ7YRdkgRKt0F0jJzSIw": {"geometry": {"location": {"lat": 51.5152303, "lng": -0.1946598}, "viewport": {"northeast": {"lat": 51.5165174302915, "lng": -0.193280519708498}, "southwest": {"lat": 51.5138194697085, "lng": -0.195978480291502}}}, "name": "Co-op Food - Westminster - Westbourne Grove", "place_id": "ChIJ3wiOZ7YRdkgRKt0F0jJzSIw", "types": ["convenience_store", "food", "point_of_interest", "store", "establishment"], "rating": 2.6, "user_ratings_total": 20}, "ChIJX0sCBQIQdkgR2BKA80ajaPI": {"geometry": {"location": {"lat": 51.5153666, "lng": -0.1945017}, "viewport": {"northeast": {"lat": 51.5167428302915, "lng": -0.192889269708498}, "southwest": {"lat": 51.5140448697085, "lng": -0.195587230291502}}}, "name": "R Whitham", "place_id": "ChIJX0sCBQIQdkgR2BKA80ajaPI", "types": ["point_of_interest", "establishment"]}, "ChIJn7SKDQIQdkgRnZrPRAAay8E": {"geometry": {"location": {"lat": 51.515499, "lng": -0.195136}, "viewport": {"northeast": {"lat": 51.51685163029149, "lng": -0.193759169708498}, "southwest": {"lat": 51.5141536697085, "lng": -0.196457130291502}}}, "name": "Westbourne Grove (Stop Z)", "place_id": "ChIJn7SKDQIQdkgRnZrPRAAay8E", "types": ["transit_station", "point_of_interest", "establishment"]}, "ChIJh0fMDgIQdkgR2kgonV08_EE": {"geometry": {"location": {"lat": 51.51519010000001, "lng": -0.1949183}, "viewport": {"northeast": {"lat": 51.5165711302915, "lng": -0.193634369708498}, "southwest": {"lat": 51.5138731697085, "lng": -0.196332330291502}}}, "name": "Averys Property Management", "place_id": "ChIJh0fMDgIQdkgR2kgonV08_EE", "types": ["point_of_interest", "establishment"]}, "ChIJ9ZHTQIIRdkgRZMpTQHfgPZQ": {"geometry": {"location": {"lat": 51.515226, "lng": -0.1945189}, "viewport": {"northeast": {"lat": 51.5165219802915, "lng": -0.193154919708498}, "southwest": {"lat": 51.5138240197085, "lng": -0.195852880291502}}}, "name": "Balfe's Bikes Notting Hill", "place_id": "ChIJ9ZHTQIIRdkgRZMpTQHfgPZQ", "types": ["bicycle_store", "point_of_interest", "store", "establishment"], "rating": 4.8, "user_ratings_total": 78}, "ChIJYx9-BgIQdkgRiREjZtY4ycI": {"geometry": {"location": {"lat": 51.5151644, "lng": -0.194495}, "viewport": {"northeast": {"lat": 51.5164920302915, "lng": -0.193133819708498}, "southwest": {"lat": 51.5137940697085, "lng": -0.1958317802915021}}}, "name": "Chepstow Road / Westbourne Grove (Stop PL)", "place_id": "ChIJYx9-BgIQdkgRiREjZtY4ycI", "types": ["transit_station", "point_of_interest", "establishment"], "rating": 3, "user_ratings_total": 2}, "ChIJlXAzPQQRdkgR_hMBWMUztmQ": {"geometry": {"location": {"lat": 51.51525119999999, "lng": -0.1943762}, "viewport": {"northeast": {"lat": 51.5165413302915, "lng": -0.193012719708498}, "southwest": {"lat": 51.5138433697085, "lng": -0.195710680291502}}}, "name": "Or\u00e9e Notting Hill", "place_id": "ChIJlXAzPQQRdkgR_hMBWMUztmQ", "types": ["bakery", "food", "point_of_interest", "store", "establishment"], "rating": 4.2, "user_ratings_total": 34}, "ChIJxc-DCwIQdkgRqGv70fa3VE0": {"geometry": {"location": {"lat": 51.5151768, "lng": -0.1952131}, "viewport": {"northeast": {"lat": 51.5164510302915, "lng": -0.193861569708498}, "southwest": {"lat": 51.51375306970851, "lng": -0.196559530291502}}}, "name": "Le Beauty Boudoir", "place_id": "ChIJxc-DCwIQdkgRqGv70fa3VE0", "types": ["point_of_interest", "establishment"]}, "ChIJ___QEwIQdkgRZUlx1Oi8cew": {"geometry": {"location": {"lat": 51.5156981, "lng": -0.1950794}, "viewport": {"northeast": {"lat": 51.5170382802915, "lng": -0.193801519708498}, "southwest": {"lat": 51.5143403197085, "lng": -0.196499480291502}}}, "name": "Legs", "place_id": "ChIJ___QEwIQdkgRZUlx1Oi8cew", "types": ["point_of_interest", "establishment"]}, "ChIJ026GMpURdkgRRLYpOqNcssU": {"geometry": {"location": {"lat": 51.5157497, "lng": -0.1948307}, "viewport": {"northeast": {"lat": 51.51710783029149, "lng": -0.193396169708498}, "southwest": {"lat": 51.5144098697085, "lng": -0.196094130291502}}}, "name": "Float", "place_id": "ChIJ026GMpURdkgRRLYpOqNcssU", "types": ["doctor", "health", "point_of_interest", "establishment"]}, "ChIJedviyDERdkgR3XWtHE-hbrs": {"geometry": {"location": {"lat": 51.51515389999999, "lng": -0.1952581}, "viewport": {"northeast": {"lat": 51.5164374302915, "lng": -0.193894469708498}, "southwest": {"lat": 51.5137394697085, "lng": -0.196592430291502}}}, "name": "Manikur", "place_id": "ChIJedviyDERdkgR3XWtHE-hbrs", "types": ["beauty_salon", "point_of_interest", "establishment"]}, "ChIJ70nGEwIQdkgR--hmYYtxFaE": {"geometry": {"location": {"lat": 51.5157136, "lng": -0.1951239}, "viewport": {"northeast": {"lat": 51.5170561302915, "lng": -0.193827019708498}, "southwest": {"lat": 51.5143581697085, "lng": -0.196524980291502}}}, "name": "Barre Toned", "place_id": "ChIJ70nGEwIQdkgR--hmYYtxFaE", "types": ["point_of_interest", "establishment"]}, "ChIJXSieDAIQdkgR-tDxmAtpWTw": {"geometry": {"location": {"lat": 51.5151746, "lng": -0.1953034}, "viewport": {"northeast": {"lat": 51.5164485302915, "lng": -0.193908869708498}, "southwest": {"lat": 51.5137505697085, "lng": -0.196606830291502}}}, "name": "Carter Jonas", "place_id": "ChIJXSieDAIQdkgR-tDxmAtpWTw", "types": ["real_estate_agency", "point_of_interest", "establishment"]}, "ChIJyxYVTikRdkgRJIrEeu-KgUE": {"geometry": {"location": {"lat": 51.51575, "lng": -0.1951037}, "viewport": {"northeast": {"lat": 51.51709063029151, "lng": -0.193822119708498}, "southwest": {"lat": 51.51439266970851, "lng": -0.196520080291502}}}, "name": "Diesel Pro", "place_id": "ChIJyxYVTikRdkgRJIrEeu-KgUE", "types": ["school", "point_of_interest", "establishment"]}, "ChIJ58HMBgIQdkgR7BbAdAKE2SI": {"geometry": {"location": {"lat": 51.51503510000001, "lng": -0.1943299}, "viewport": {"northeast": {"lat": 51.51643293029149, "lng": -0.192992919708498}, "southwest": {"lat": 51.5137349697085, "lng": -0.195690880291502}}}, "name": "Lords Builders Merchants", "place_id": "ChIJ58HMBgIQdkgR7BbAdAKE2SI", "types": ["home_goods_store", "point_of_interest", "store", "establishment"], "rating": 4.4, "user_ratings_total": 39}, "ChIJO7_cUCwRdkgRHB2UdEuwAYo": {"geometry": {"location": {"lat": 51.5152385, "lng": -0.1941382}, "viewport": {"northeast": {"lat": 51.5165458802915, "lng": -0.192778969708498}, "southwest": {"lat": 51.5138479197085, "lng": -0.195476930291502}}}, "name": "Sunday in Brooklyn", "place_id": "ChIJO7_cUCwRdkgRHB2UdEuwAYo", "types": ["restaurant", "food", "point_of_interest", "establishment"]}, "ChIJi-ww_AEQdkgREA4f6kYtyv0": {"geometry": {"location": {"lat": 51.5150843, "lng": -0.1942602}, "viewport": {"northeast": {"lat": 51.5164582302915, "lng": -0.192917369708498}, "southwest": {"lat": 51.5137602697085, "lng": -0.195615330291502}}}, "name": "Barley Chambers", "place_id": "ChIJi-ww_AEQdkgREA4f6kYtyv0", "types": ["point_of_interest", "establishment"], "rating": 3.7, "user_ratings_total": 3}, "ChIJtVmHQjQRdkgR-Gr82UjZDIE": {"geometry": {"location": {"lat": 51.5158827, "lng": -0.1951497}, "viewport": {"northeast": {"lat": 51.5172235302915, "lng": -0.193866419708498}, "southwest": {"lat": 51.5145255697085, "lng": -0.196564380291502}}}, "name": "RE:NU DENTAL & MEDISPA - Aesthetics Clinic & Dentist Notting Hill, West London", "place_id": "ChIJtVmHQjQRdkgR-Gr82UjZDIE", "types": ["beauty_salon", "dentist", "spa", "doctor", "health", "point_of_interest", "establishment"], "rating": 5, "user_ratings_total": 39}, "ChIJN52ai_0PdkgRN8cs8JUeLDg": {"geometry": {"location": {"lat": 51.51458494593066, "lng": -0.1956490296411184}, "viewport": {"northeast": {"lat": 51.51592273029151, "lng": -0.1942844697084979}, "southwest": {"lat": 51.51322476970851, "lng": -0.196982430291502}}}, "name": "1-7 A4206", "place_id": "ChIJN52ai_0PdkgRN8cs8JUeLDg", "types": ["route"]}, "ChIJrUmc9v0PdkgRchHJX7aAFFI": {"geometry": {"location": {"lat": 51.514692, "lng": -0.1951163}, "viewport": {"northeast": {"lat": 51.5159745802915, "lng": -0.193673169708498}, "southwest": {"lat": 51.5132766197085, "lng": -0.1963711302915021}}}, "name": "Chepstow Cars Ltd", "place_id": "ChIJrUmc9v0PdkgRchHJX7aAFFI", "types": ["point_of_interest", "establishment"], "rating": 2.8, "user_ratings_total": 19}, "ChIJUVN69_0PdkgRZv8vLfccKHk": {"geometry": {"location": {"lat": 51.51465289999999, "lng": -0.1947042}, "viewport": {"northeast": {"lat": 51.5160204802915, "lng": -0.193452469708498}, "southwest": {"lat": 51.5133225197085, "lng": -0.196150430291502}}}, "name": "The Baynards - Notting Hill Apartments", "place_id": "ChIJUVN69_0PdkgRZv8vLfccKHk", "types": ["point_of_interest", "establishment"], "rating": 4, "user_ratings_total": 3}, "ChIJ4ysc9P0PdkgRnB1ATLcuzQU": {"geometry": {"location": {"lat": 51.5145303, "lng": -0.1950309}, "viewport": {"northeast": {"lat": 51.5158894802915, "lng": -0.1936030197084979}, "southwest": {"lat": 51.5131915197085, "lng": -0.196300980291502}}}, "name": "Harvey Jones Kitchens Notting Hill", "place_id": "ChIJ4ysc9P0PdkgRnB1ATLcuzQU", "types": ["furniture_store", "home_goods_store", "general_contractor", "point_of_interest", "store", "establishment"], "rating": 4.9, "user_ratings_total": 10}, "ChIJyXh-8_0PdkgRJ_glqGOfHg4": {"geometry": {"location": {"lat": 51.5145083, "lng": -0.1952432}, "viewport": {"northeast": {"lat": 51.5159431302915, "lng": -0.194012169708498}, "southwest": {"lat": 51.5132451697085, "lng": -0.196710130291502}}}, "name": "Legs Boutique", "place_id": "ChIJyXh-8_0PdkgRJ_glqGOfHg4", "types": ["point_of_interest", "store", "establishment"], "rating": 3, "user_ratings_total": 1}, "ChIJqYem9v0PdkgRhtF_t8qiFF0": {"geometry": {"location": {"lat": 51.51456899999999, "lng": -0.195016}, "viewport": {"northeast": {"lat": 51.5159093802915, "lng": -0.193601419708498}, "southwest": {"lat": 51.5132114197085, "lng": -0.196299380291502}}}, "name": "Sparkle Launderette & Dry Cleaners", "place_id": "ChIJqYem9v0PdkgRhtF_t8qiFF0", "types": ["laundry", "point_of_interest", "establishment"], "rating": 4.7, "user_ratings_total": 20}, "ChIJyXh-8_0PdkgRnIhJ8N_Ngi4": {"geometry": {"location": {"lat": 51.5145083, "lng": -0.1952432}, "viewport": {"northeast": {"lat": 51.5159431302915, "lng": -0.194012169708498}, "southwest": {"lat": 51.5132451697085, "lng": -0.196710130291502}}}, "name": "Regent Private Finance", "place_id": "ChIJyXh-8_0PdkgRnIhJ8N_Ngi4", "types": ["finance", "point_of_interest", "establishment"]}, "ChIJe7gN9P0PdkgRGvrIixKR__U": {"geometry": {"location": {"lat": 51.514594, "lng": -0.19524}, "viewport": {"northeast": {"lat": 51.5160040802915, "lng": -0.193976769708498}, "southwest": {"lat": 51.5133061197085, "lng": -0.196674730291502}}}, "name": "Westbourne Grove Dental and Implant centre", "place_id": "ChIJe7gN9P0PdkgRGvrIixKR__U", "types": ["dentist", "health", "point_of_interest", "establishment"], "rating": 4.9, "user_ratings_total": 50}, "ChIJtfsSi_0PdkgRASxtu4dbli4": {"geometry": {"location": {"lat": 51.51467579999999, "lng": -0.1951907}, "viewport": {"northeast": {"lat": 51.5160447802915, "lng": -0.193915219708498}, "southwest": {"lat": 51.5133468197085, "lng": -0.196613180291502}}}, "name": "Seen Design Concrete", "place_id": "ChIJtfsSi_0PdkgRASxtu4dbli4", "types": ["home_goods_store", "point_of_interest", "store", "establishment"], "rating": 3.7, "user_ratings_total": 6}, "ChIJ01vU_f0PdkgRITLwjBjdu8M": {"geometry": {"location": {"lat": 51.51450550000001, "lng": -0.1941034}, "viewport": {"northeast": {"lat": 51.51587593029149, "lng": -0.1925766197084979}, "southwest": {"lat": 51.51317796970849, "lng": -0.195274580291502}}}, "name": "The Ascend Consultancy Group", "place_id": "ChIJ01vU_f0PdkgRITLwjBjdu8M", "types": ["point_of_interest", "establishment"]}, "ChIJe7gN9P0PdkgRwkNYk0P4i7Y": {"geometry": {"location": {"lat": 51.5146567, "lng": -0.1951588}, "viewport": {"northeast": {"lat": 51.5160461302915, "lng": -0.193899269708498}, "southwest": {"lat": 51.5133481697085, "lng": -0.196597230291502}}}, "name": "Farrow & Ball Notting Hill Showroom", "place_id": "ChIJe7gN9P0PdkgRwkNYk0P4i7Y", "types": ["home_goods_store", "point_of_interest", "store", "establishment"], "rating": 4.2, "user_ratings_total": 41}, "ChIJ8Tpv9v0PdkgRlEUqxCXctB8": {"geometry": {"location": {"lat": 51.51458079999999, "lng": -0.1954134}, "viewport": {"northeast": {"lat": 51.5159685302915, "lng": -0.194079819708498}, "southwest": {"lat": 51.5132705697085, "lng": -0.1967777802915021}}}, "name": "Gotham", "place_id": "ChIJ8Tpv9v0PdkgRlEUqxCXctB8", "types": ["general_contractor", "point_of_interest", "establishment"], "rating": 3.3, "user_ratings_total": 3}, "ChIJhyFTHhAPdkgRXF0mCwuuxaU": {"geometry": {"location": {"lat": 51.51418229999999, "lng": -0.1949387}, "viewport": {"northeast": {"lat": 51.5155408802915, "lng": -0.193498869708498}, "southwest": {"lat": 51.5128429197085, "lng": -0.1961968302915021}}}, "name": "Enterprise Car Club - 8 Chepstow Place London W2 4TA", "place_id": "ChIJhyFTHhAPdkgRXF0mCwuuxaU", "types": ["car_rental", "point_of_interest", "establishment"]}, "ChIJUdVVtM8EdkgRUToOLOOJC_0": {"geometry": {"location": {"lat": 51.5145082, "lng": -0.1952432}, "viewport": {"northeast": {"lat": 51.5159430802915, "lng": -0.1940122197084979}, "southwest": {"lat": 51.51324511970851, "lng": -0.196710180291502}}}, "name": "One of London's Smallest Studios", "place_id": "ChIJUdVVtM8EdkgRUToOLOOJC_0", "types": ["lodging", "point_of_interest", "establishment"]}, "ChIJU9Gi8vkPdkgR13lkQIB4dzw": {"geometry": {"location": {"lat": 51.51465289999999, "lng": -0.1947042}, "viewport": {"northeast": {"lat": 51.5160204802915, "lng": -0.193452469708498}, "southwest": {"lat": 51.5133225197085, "lng": -0.196150430291502}}}, "name": "N.Y. Jones Photography", "place_id": "ChIJU9Gi8vkPdkgR13lkQIB4dzw", "types": ["point_of_interest", "establishment"], "rating": 5, "user_ratings_total": 2}, "ChIJu0NT8f0PdkgRNvD-81i1r_0": {"geometry": {"location": {"lat": 51.5146707, "lng": -0.1952200000000001}, "viewport": {"northeast": {"lat": 51.5160394802915, "lng": -0.193929869708498}, "southwest": {"lat": 51.5133415197085, "lng": -0.1966278302915021}}}, "name": "Seen Photo", "place_id": "ChIJu0NT8f0PdkgRNvD-81i1r_0", "types": ["point_of_interest", "establishment"], "rating": 3.3, "user_ratings_total": 3}, "ChIJOys6Cq0PdkgR8xYnkVb3a2A": {"geometry": {"location": {"lat": 51.514692, "lng": -0.1951163}, "viewport": {"northeast": {"lat": 51.51605308029151, "lng": -0.193673169708498}, "southwest": {"lat": 51.51335511970851, "lng": -0.1963711302915021}}}, "name": "House of Saab", "place_id": "ChIJOys6Cq0PdkgR8xYnkVb3a2A", "types": ["health", "point_of_interest", "establishment"]}, "ChIJTRnG9P0PdkgRCW5JrGCfMsY": {"geometry": {"location": {"lat": 51.5146051, "lng": -0.1953246}, "viewport": {"northeast": {"lat": 51.51600098029149, "lng": -0.194035119708498}, "southwest": {"lat": 51.51330301970849, "lng": -0.196733080291502}}}, "name": "Viscount Court", "place_id": "ChIJTRnG9P0PdkgRCW5JrGCfMsY", "types": ["point_of_interest", "establishment"]}, "ChIJz47FWMsFdkgR44l9erunuAA": {"geometry": {"location": {"lat": 51.5147413, "lng": -0.1950617}, "viewport": {"northeast": {"lat": 51.5159943802915, "lng": -0.193652369708498}, "southwest": {"lat": 51.5132964197085, "lng": -0.196350330291502}}}, "name": "Arcvelop", "place_id": "ChIJz47FWMsFdkgR44l9erunuAA", "types": ["finance", "point_of_interest", "establishment"], "rating": 5, "user_ratings_total": 7}, "ChIJrU5Ai_0PdkgRvDDES2Eag4Y": {"geometry": {"location": {"lat": 51.51458699999999, "lng": -0.19549}, "viewport": {"northeast": {"lat": 51.5159611802915, "lng": -0.1941756197084979}, "southwest": {"lat": 51.5132632197085, "lng": -0.196873580291502}}}, "name": "Westbourne Grove (Stop PW)", "place_id": "ChIJrU5Ai_0PdkgRvDDES2Eag4Y", "types": ["transit_station", "point_of_interest", "establishment"], "rating": 5, "user_ratings_total": 1}, "ChIJD9t-XAIQdkgR_jU5PU1mD0s": {"geometry": {"location": {"lat": 51.51647446234773, "lng": -0.1963420992969307}, "viewport": {"northeast": {"lat": 51.51817495000005, "lng": -0.194993219708498}, "southwest": {"lat": 51.51477394999995, "lng": -0.197691180291502}}}, "name": "28-1 Northumberland Pl", "place_id": "ChIJD9t-XAIQdkgR_jU5PU1mD0s", "types": ["route"]}, "ChIJCfvV9QIQdkgR6NG-joxNysQ": {"geometry": {"location": {"lat": 51.5164888, "lng": -0.1970105}, "viewport": {"northeast": {"lat": 51.5178271802915, "lng": -0.195745869708498}, "southwest": {"lat": 51.5151292197085, "lng": -0.198443830291502}}}, "name": "Laurence Brown Solicitor", "place_id": "ChIJCfvV9QIQdkgR6NG-joxNysQ", "types": ["point_of_interest", "establishment"]}, "ChIJRRxq9AIQdkgRS1mlS9xHPDQ": {"geometry": {"location": {"lat": 51.51638330000001, "lng": -0.19717}, "viewport": {"northeast": {"lat": 51.51772828029149, "lng": -0.195853319708498}, "southwest": {"lat": 51.51503031970849, "lng": -0.198551280291502}}}, "name": "Sally Osullivan Psychotherapy", "place_id": "ChIJRRxq9AIQdkgRS1mlS9xHPDQ", "types": ["health", "point_of_interest", "establishment"]}, "ChIJm7CeZAIQdkgRTJeHr_4wSOQ": {"geometry": {"location": {"lat": 51.51559461585907, "lng": -0.1964794378546665}, "viewport": {"northeast": {"lat": 51.51694413029151, "lng": -0.195130519708498}, "southwest": {"lat": 51.51424616970851, "lng": -0.197828480291502}}}, "name": "24-14 Artesian Rd", "place_id": "ChIJm7CeZAIQdkgRTJeHr_4wSOQ", "types": ["route"]}, "ChIJOVdiYgIQdkgRTzFccPY_Nlw": {"geometry": {"location": {"lat": 51.5157184, "lng": -0.1966266}, "viewport": {"northeast": {"lat": 51.51700158029149, "lng": -0.195267069708498}, "southwest": {"lat": 51.51430361970849, "lng": -0.197965030291502}}}, "name": "Ana Ruivo", "place_id": "ChIJOVdiYgIQdkgRTzFccPY_Nlw", "types": ["point_of_interest", "establishment"], "rating": 5, "user_ratings_total": 10}, "ChIJmXdZhgIQdkgRIx8UCZy-3As": {"geometry": {"location": {"lat": 51.515353, "lng": -0.197125}, "viewport": {"northeast": {"lat": 51.5166929802915, "lng": -0.195840819708498}, "southwest": {"lat": 51.5139950197085, "lng": -0.198538780291502}}}, "name": "Blessed & Cursed Ltd.", "place_id": "ChIJmXdZhgIQdkgRIx8UCZy-3As", "types": ["point_of_interest", "clothing_store", "store", "establishment"]}, "ChIJObx_jgIQdkgR9f8buBUZi1w": {"geometry": {"location": {"lat": 51.5156989, "lng": -0.1971884}, "viewport": {"northeast": {"lat": 51.51705073029149, "lng": -0.195959969708498}, "southwest": {"lat": 51.51435276970849, "lng": -0.198657930291502}}}, "name": "St Mary of the Angels Catholic Church, Notting Hill", "place_id": "ChIJObx_jgIQdkgR9f8buBUZi1w", "types": ["church", "place_of_worship", "point_of_interest", "establishment"], "rating": 4.7, "user_ratings_total": 73}, "ChIJnT3hhgIQdkgRD9GGL3nrJg4": {"geometry": {"location": {"lat": 51.51522130000001, "lng": -0.1967911}, "viewport": {"northeast": {"lat": 51.51660793029151, "lng": -0.195494969708498}, "southwest": {"lat": 51.51390996970851, "lng": -0.198192930291502}}}, "name": "The Doggy Room", "place_id": "ChIJnT3hhgIQdkgRD9GGL3nrJg4", "types": ["point_of_interest", "establishment"]}, "ChIJPSnofQIQdkgRjwNRHDQfJXo": {"geometry": {"location": {"lat": 51.5151849, "lng": -0.1967121}, "viewport": {"northeast": {"lat": 51.51658973029151, "lng": -0.195455469708498}, "southwest": {"lat": 51.51389176970851, "lng": -0.198153430291502}}}, "name": "Alexander Hobbs Associates _ Architect", "place_id": "ChIJPSnofQIQdkgRjwNRHDQfJXo", "types": ["point_of_interest", "establishment"]}, "ChIJpfIV6SkRdkgRs5zehRUhuJw": {"geometry": {"location": {"lat": 51.5154226, "lng": -0.1971317}, "viewport": {"northeast": {"lat": 51.5167613802915, "lng": -0.195856219708498}, "southwest": {"lat": 51.5140634197085, "lng": -0.198554180291502}}}, "name": "Li Choi Ling (Family) UK Hair Care House International Limited", "place_id": "ChIJpfIV6SkRdkgRs5zehRUhuJw", "types": ["beauty_salon", "point_of_interest", "establishment"]}, "ChIJn9iSbwIQdkgR1t0-iovv7cc": {"geometry": {"location": {"lat": 51.5155763, "lng": -0.196114}, "viewport": {"northeast": {"lat": 51.5169468302915, "lng": -0.194768219708498}, "southwest": {"lat": 51.5142488697085, "lng": -0.197466180291502}}}, "name": "ubitricity Charging Station", "place_id": "ChIJn9iSbwIQdkgR1t0-iovv7cc", "types": ["point_of_interest", "establishment"]}, "ChIJS3CyLXARdkgR-Ow40v8_Zm0": {"geometry": {"location": {"lat": 51.51537729999999, "lng": -0.1971442}, "viewport": {"northeast": {"lat": 51.51671798029149, "lng": -0.1958550197084979}, "southwest": {"lat": 51.51402001970849, "lng": -0.198552980291502}}}, "name": "foundry.london", "place_id": "ChIJS3CyLXARdkgR-Ow40v8_Zm0", "types": ["furniture_store", "home_goods_store", "point_of_interest", "store", "establishment"], "rating": 5, "user_ratings_total": 1}, "ChIJq6o9hgIQdkgRpb_oXLmfHlg": {"geometry": {"location": {"lat": 51.51544819999999, "lng": -0.1971481}, "viewport": {"northeast": {"lat": 51.5167874802915, "lng": -0.195869169708498}, "southwest": {"lat": 51.5140895197085, "lng": -0.198567130291502}}}, "name": "FaFio", "place_id": "ChIJq6o9hgIQdkgRpb_oXLmfHlg", "types": ["general_contractor", "point_of_interest", "establishment"]}, "ChIJOZc9hgIQdkgRrloctXTE3DQ": {"geometry": {"location": {"lat": 51.5154453, "lng": -0.197155}, "viewport": {"northeast": {"lat": 51.5167850802915, "lng": -0.1958723197084979}, "southwest": {"lat": 51.5140871197085, "lng": -0.198570280291502}}}, "name": "Anthony Hill & Co Estate Agents Ltd", "place_id": "ChIJOZc9hgIQdkgRrloctXTE3DQ", "types": ["real_estate_agency", "point_of_interest", "establishment"]}, "ChIJx9QUhgIQdkgRX-OOcN1oE6w": {"geometry": {"location": {"lat": 51.5154176, "lng": -0.1971719}, "viewport": {"northeast": {"lat": 51.51675918029149, "lng": -0.195876419708498}, "southwest": {"lat": 51.51406121970849, "lng": -0.198574380291502}}}, "name": "Zensend Limited", "place_id": "ChIJx9QUhgIQdkgRX-OOcN1oE6w", "types": ["point_of_interest", "establishment"]}, "ChIJrTMRhgIQdkgRv-p-UXpwmYw": {"geometry": {"location": {"lat": 51.5154663, "lng": -0.1971676}, "viewport": {"northeast": {"lat": 51.5168064302915, "lng": -0.195882469708498}, "southwest": {"lat": 51.5141084697085, "lng": -0.198580430291502}}}, "name": "Mimi et Mina - Hair Couture", "place_id": "ChIJrTMRhgIQdkgRv-p-UXpwmYw", "types": ["hair_care", "point_of_interest", "establishment"], "rating": 4.6, "user_ratings_total": 129}, "ChIJdVkkbgIQdkgR0fd0kfh-yWo": {"geometry": {"location": {"lat": 51.5154739, "lng": -0.1959959}, "viewport": {"northeast": {"lat": 51.5168994302915, "lng": -0.194658919708498}, "southwest": {"lat": 51.5142014697085, "lng": -0.197356880291502}}}, "name": "11 Artesian Road Ltd", "place_id": "ChIJdVkkbgIQdkgR0fd0kfh-yWo", "types": ["point_of_interest", "establishment"]}, "ChIJmwT0a98RdkgR9SS7pHRU_io": {"geometry": {"location": {"lat": 51.5156842, "lng": -0.1972302}, "viewport": {"northeast": {"lat": 51.5169952302915, "lng": -0.195973269708498}, "southwest": {"lat": 51.5142972697085, "lng": -0.198671230291502}}}, "name": "Notting Hill Nursery School", "place_id": "ChIJmwT0a98RdkgR9SS7pHRU_io", "types": ["school", "point_of_interest", "establishment"], "rating": 5, "user_ratings_total": 3}, "ChIJG1pFbgIQdkgRTsp_FP8Ii3A": {"geometry": {"location": {"lat": 51.5155048, "lng": -0.1957595}, "viewport": {"northeast": {"lat": 51.5169221302915, "lng": -0.194421219708498}, "southwest": {"lat": 51.51422416970851, "lng": -0.197119180291502}}}, "name": "DigitalPeo", "place_id": "ChIJG1pFbgIQdkgRTsp_FP8Ii3A", "types": ["point_of_interest", "establishment"], "rating": 5, "user_ratings_total": 1}, "ChIJpfvQhQIQdkgRkA3chuNK7G8": {"geometry": {"location": {"lat": 51.51532109999999, "lng": -0.1974192}, "viewport": {"northeast": {"lat": 51.51668128029149, "lng": -0.195989469708498}, "southwest": {"lat": 51.5139833197085, "lng": -0.198687430291502}}}, "name": "Alan Power Architects Ltd", "place_id": "ChIJpfvQhQIQdkgRkA3chuNK7G8", "types": ["point_of_interest", "establishment"]}, "ChIJi5x7fwIQdkgRWe5FrFaXzz0": {"geometry": {"location": {"lat": 51.5149064, "lng": -0.1968826}, "viewport": {"northeast": {"lat": 51.5162160302915, "lng": -0.195518269708498}, "southwest": {"lat": 51.5135180697085, "lng": -0.198216230291502}}}, "name": "ubitricity Charging Station", "place_id": "ChIJi5x7fwIQdkgRWe5FrFaXzz0", "types": ["point_of_interest", "establishment"]}, "ChIJ5_yyjwIQdkgRL5K4Oq7eHw4": {"geometry": {"location": {"lat": 51.5156427, "lng": -0.197506}, "viewport": {"northeast": {"lat": 51.51700103254223, "lng": -0.1961447415217766}, "southwest": {"lat": 51.51430307195923, "lng": -0.1988427021047806}}}, "name": "Parking lot", "place_id": "ChIJ5_yyjwIQdkgRL5K4Oq7eHw4", "types": ["parking", "premise", "point_of_interest", "establishment"]}, "ChIJH_5nhf0PdkgRbamt_KiKIT4": {"geometry": {"location": {"lat": 51.51422678863596, "lng": -0.1962444525360315}, "viewport": {"northeast": {"lat": 51.51557303029151, "lng": -0.1948908697084979}, "southwest": {"lat": 51.51287506970851, "lng": -0.197588830291502}}}, "name": "16-12 A4206", "place_id": "ChIJH_5nhf0PdkgRbamt_KiKIT4", "types": ["route"]}, "ChIJ78welWjrcEgRHFsELpNvgUs": {"geometry": {"location": {"lat": 51.51456570000001, "lng": -0.1962329}, "viewport": {"northeast": {"lat": 51.51582493029149, "lng": -0.194754019708498}, "southwest": {"lat": 51.5131269697085, "lng": -0.197451980291502}}}, "name": "Phil M Jones", "place_id": "ChIJ78welWjrcEgRHFsELpNvgUs", "types": ["point_of_interest", "establishment"], "rating": 5, "user_ratings_total": 1}, "ChIJf-mTh_0PdkgRWL6zcdDXpmk": {"geometry": {"location": {"lat": 51.5147868, "lng": -0.1962535}, "viewport": {"northeast": {"lat": 51.51619033029149, "lng": -0.194921519708498}, "southwest": {"lat": 51.51349236970849, "lng": -0.197619480291502}}}, "name": "Nomad Collection", "place_id": "ChIJf-mTh_0PdkgRWL6zcdDXpmk", "types": ["point_of_interest", "establishment"]}, "ChIJf-mTh_0PdkgR_oX8zbzC3Bs": {"geometry": {"location": {"lat": 51.5147868, "lng": -0.1962535}, "viewport": {"northeast": {"lat": 51.51619033029149, "lng": -0.194921519708498}, "southwest": {"lat": 51.51349236970849, "lng": -0.197619480291502}}}, "name": "Midnight Lab", "place_id": "ChIJf-mTh_0PdkgR_oX8zbzC3Bs", "types": ["point_of_interest", "establishment"]}, "ChIJs6o_h_0PdkgRk3Kq_cQBC6c": {"geometry": {"location": {"lat": 51.5147868, "lng": -0.1962535}, "viewport": {"northeast": {"lat": 51.51619033029149, "lng": -0.194921519708498}, "southwest": {"lat": 51.51349236970849, "lng": -0.197619480291502}}}, "name": "UBX Security Systems Ltd", "place_id": "ChIJs6o_h_0PdkgRk3Kq_cQBC6c", "types": ["point_of_interest", "establishment"]}, "ChIJ0eiigv0PdkgRXf3P6SaUXac": {"geometry": {"location": {"lat": 51.51426089999999, "lng": -0.1968362}, "viewport": {"northeast": {"lat": 51.51552528029148, "lng": -0.195404769708498}, "southwest": {"lat": 51.51282731970849, "lng": -0.198102730291502}}}, "name": "Pure Logistics & Consultancy Limited", "place_id": "ChIJ0eiigv0PdkgRXf3P6SaUXac", "types": ["point_of_interest", "establishment"]}, "ChIJezwLm_0PdkgRPWb5LNazl2Q": {"geometry": {"location": {"lat": 51.514036, "lng": -0.196409}, "viewport": {"northeast": {"lat": 51.5153875802915, "lng": -0.1950659197084979}, "southwest": {"lat": 51.5126896197085, "lng": -0.197763880291502}}}, "name": "ubitricity Charging Station", "place_id": "ChIJezwLm_0PdkgRPWb5LNazl2Q", "types": ["point_of_interest", "establishment"]}, "ChIJK0pYPVIPdkgRYVsAqpEMD6M": {"geometry": {"location": {"lat": 51.51465870000001, "lng": -0.1965329}, "viewport": {"northeast": {"lat": 51.5161076802915, "lng": -0.195215069708498}, "southwest": {"lat": 51.51340971970851, "lng": -0.197913030291502}}}, "name": "Sumi Restaurant", "place_id": "ChIJK0pYPVIPdkgRYVsAqpEMD6M", "types": ["restaurant", "food", "point_of_interest", "establishment"], "rating": 4.8, "user_ratings_total": 24}, "ChIJ86VxsIEPdkgR8XWfbdpFmWU": {"geometry": {"location": {"lat": 51.51445649999999, "lng": -0.1971243999999999}, "viewport": {"northeast": {"lat": 51.51580628029151, "lng": -0.195779719708498}, "southwest": {"lat": 51.51310831970851, "lng": -0.198477680291502}}}, "name": "Vivienne Cozens", "place_id": "ChIJ86VxsIEPdkgR8XWfbdpFmWU", "types": ["point_of_interest", "establishment"]}, "ChIJc-s7ef0PdkgR_bKc9AXg9h4": {"geometry": {"location": {"lat": 51.51445649999999, "lng": -0.1971243999999999}, "viewport": {"northeast": {"lat": 51.51580628029151, "lng": -0.195779719708498}, "southwest": {"lat": 51.51310831970851, "lng": -0.198477680291502}}}, "name": "Paul Todd", "place_id": "ChIJc-s7ef0PdkgR_bKc9AXg9h4", "types": ["school", "point_of_interest", "establishment"]}, "ChIJg_QuXoIPdkgRUKcr8ZkfxgM": {"geometry": {"location": {"lat": 51.51474109999999, "lng": -0.1963954}, "viewport": {"northeast": {"lat": 51.51615838029149, "lng": -0.195067719708498}, "southwest": {"lat": 51.51346041970849, "lng": -0.197765680291502}}}, "name": "Monty", "place_id": "ChIJg_QuXoIPdkgRUKcr8ZkfxgM", "types": ["bar", "food", "point_of_interest", "establishment"], "rating": 5, "user_ratings_total": 20}, "ChIJ97IYnP0PdkgRbvuYPyIaXxc": {"geometry": {"location": {"lat": 51.513879, "lng": -0.196593}, "viewport": {"northeast": {"lat": 51.5152252802915, "lng": -0.195237569708498}, "southwest": {"lat": 51.5125273197085, "lng": -0.197935530291502}}}, "name": "ubitricity Charging Station", "place_id": "ChIJ97IYnP0PdkgRbvuYPyIaXxc", "types": ["point_of_interest", "establishment"]}, "ChIJ3-rWjv0PdkgRBv_m4l_zqi8": {"geometry": {"location": {"lat": 51.51452570000001, "lng": -0.1959008}, "viewport": {"northeast": {"lat": 51.5158486802915, "lng": -0.194510019708498}, "southwest": {"lat": 51.51315071970851, "lng": -0.197207980291502}}}, "name": "Westbourne Grove (Stop PV)", "place_id": "ChIJ3-rWjv0PdkgRBv_m4l_zqi8", "types": ["bus_station", "transit_station", "point_of_interest", "establishment"], "rating": 3, "user_ratings_total": 1}, "ChIJkcNCYWwPdkgRv9VriRQyFwU": {"geometry": {"location": {"lat": 51.5147868, "lng": -0.1962535}, "viewport": {"northeast": {"lat": 51.51619033029149, "lng": -0.194921519708498}, "southwest": {"lat": 51.51349236970849, "lng": -0.197619480291502}}}, "name": "Laboutik Studio", "place_id": "ChIJkcNCYWwPdkgRv9VriRQyFwU", "types": ["point_of_interest", "establishment"], "rating": 5, "user_ratings_total": 1}, "ChIJW6Oxu5EPdkgRb-w972JtetY": {"geometry": {"location": {"lat": 51.5147863, "lng": -0.1962477}, "viewport": {"northeast": {"lat": 51.51619038029149, "lng": -0.1949158697084979}, "southwest": {"lat": 51.5134924197085, "lng": -0.197613830291502}}}, "name": "Design Your Vision Photography Studio", "place_id": "ChIJW6Oxu5EPdkgRb-w972JtetY", "types": ["point_of_interest", "establishment"], "rating": 5, "user_ratings_total": 1}, "ChIJX3WqquUPdkgRPjqAXG_UaWw": {"geometry": {"location": {"lat": 51.5147863, "lng": -0.1962477}, "viewport": {"northeast": {"lat": 51.51619038029149, "lng": -0.1949158697084979}, "southwest": {"lat": 51.5134924197085, "lng": -0.197613830291502}}}, "name": "Design Your Vision", "place_id": "ChIJX3WqquUPdkgRPjqAXG_UaWw", "types": ["point_of_interest", "establishment"], "rating": 5, "user_ratings_total": 3}, "ChIJXwchitcPdkgRnbtI-UCzjeA": {"geometry": {"location": {"lat": 51.5138492, "lng": -0.196871}, "viewport": {"northeast": {"lat": 51.51517048029149, "lng": -0.1954542697084979}, "southwest": {"lat": 51.5124725197085, "lng": -0.198152230291502}}}, "name": "Daniela Henao Films & Events", "place_id": "ChIJXwchitcPdkgRnbtI-UCzjeA", "types": ["point_of_interest", "establishment"]}, "ChIJnXpm3AIQdkgRg11qkbi89bA": {"geometry": {"location": {"lat": 51.51701740075147, "lng": -0.198638950542786}, "viewport": {"northeast": {"lat": 51.5183663802915, "lng": -0.197289969708498}, "southwest": {"lat": 51.5156684197085, "lng": -0.199987930291502}}}, "name": "92-76 Talbot Rd", "place_id": "ChIJnXpm3AIQdkgRg11qkbi89bA", "types": ["route"]}, "ChIJvXc76QIQdkgRWPNhPiRcLmU": {"geometry": {"location": {"lat": 51.5162917, "lng": -0.1981215}, "viewport": {"northeast": {"lat": 51.5176487302915, "lng": -0.196702569708498}, "southwest": {"lat": 51.5149507697085, "lng": -0.199400530291502}}}, "name": "Business LanguageTuition - In company language training", "place_id": "ChIJvXc76QIQdkgRWPNhPiRcLmU", "types": ["school", "point_of_interest", "establishment"]}, "ChIJJRpB3QIQdkgRaXaiRKXXszg": {"geometry": {"location": {"lat": 51.5164192, "lng": -0.1987389}, "viewport": {"northeast": {"lat": 51.5180462302915, "lng": -0.197490319708498}, "southwest": {"lat": 51.5153482697085, "lng": -0.200188280291502}}}, "name": "Ht Line Express", "place_id": "ChIJJRpB3QIQdkgRaXaiRKXXszg", "types": ["point_of_interest", "establishment"], "rating": 3.5, "user_ratings_total": 2}, "ChIJp4or7AIQdkgRyZX8VDoZFcc": {"geometry": {"location": {"lat": 51.51646349999999, "lng": -0.1978279}, "viewport": {"northeast": {"lat": 51.51780133029149, "lng": -0.196575619708498}, "southwest": {"lat": 51.51510336970849, "lng": -0.199273580291502}}}, "name": "Youth 2000", "place_id": "ChIJp4or7AIQdkgRyZX8VDoZFcc", "types": ["point_of_interest", "establishment"]}, "ChIJcexfvwIQdkgRnMm0nniIU9k": {"geometry": {"location": {"lat": 51.5161504, "lng": -0.1986417}, "viewport": {"northeast": {"lat": 51.51748978029151, "lng": -0.1973718697084979}, "southwest": {"lat": 51.51479181970851, "lng": -0.200069830291502}}}, "name": "Gabrielle Pinto", "place_id": "ChIJcexfvwIQdkgRnMm0nniIU9k", "types": ["health", "point_of_interest", "establishment"]}, "ChIJhUrGjP8PdkgRZdDQT1IcVFw": {"geometry": {"location": {"lat": 51.5160412, "lng": -0.1986016}, "viewport": {"northeast": {"lat": 51.5173809302915, "lng": -0.197332469708498}, "southwest": {"lat": 51.5146829697085, "lng": -0.200030430291502}}}, "name": "Holland Park Motor Services", "place_id": "ChIJhUrGjP8PdkgRZdDQT1IcVFw", "types": ["car_repair", "point_of_interest", "establishment"], "rating": 4.9, "user_ratings_total": 8}, "ChIJzUIA6QIQdkgRn2cTCStJim8": {"geometry": {"location": {"lat": 51.51664, "lng": -0.198174}, "viewport": {"northeast": {"lat": 51.51799383029149, "lng": -0.196785369708498}, "southwest": {"lat": 51.5152958697085, "lng": -0.199483330291502}}}, "name": "ubitricity Charging Station", "place_id": "ChIJzUIA6QIQdkgRn2cTCStJim8", "types": ["point_of_interest", "establishment"]}, "ChIJD3b1-DARdkgRnuOnPeHFyqE": {"geometry": {"location": {"lat": 51.51670980000001, "lng": -0.1978817}, "viewport": {"northeast": {"lat": 51.5180457802915, "lng": -0.1966394197084979}, "southwest": {"lat": 51.51534781970851, "lng": -0.199337380291502}}}, "name": "Private Piano Lessons in Notting Hill", "place_id": "ChIJD3b1-DARdkgRnuOnPeHFyqE", "types": ["electronics_store", "home_goods_store", "school", "point_of_interest", "store", "establishment"], "rating": 5, "user_ratings_total": 5}, "ChIJB8MgxwIQdkgRLG6tSKaExno": {"geometry": {"location": {"lat": 51.516311, "lng": -0.198804}, "viewport": {"northeast": {"lat": 51.5176572302915, "lng": -0.197478819708498}, "southwest": {"lat": 51.51495926970851, "lng": -0.200176780291502}}}, "name": "ubitricity Charging Station", "place_id": "ChIJB8MgxwIQdkgRLG6tSKaExno", "types": ["point_of_interest", "establishment"]}, "ChIJ9QJTxAIQdkgROsIa7hflDNA": {"geometry": {"location": {"lat": 51.5166178, "lng": -0.198905}, "viewport": {"northeast": {"lat": 51.5179640302915, "lng": -0.197578019708498}, "southwest": {"lat": 51.5152660697085, "lng": -0.200275980291502}}}, "name": "ubitricity Charging Station", "place_id": "ChIJ9QJTxAIQdkgROsIa7hflDNA", "types": ["point_of_interest", "establishment"]}, "ChIJUeYQvwIQdkgRM5nb8znxW1Y": {"geometry": {"location": {"lat": 51.5160412, "lng": -0.1986016}, "viewport": {"northeast": {"lat": 51.5173842302915, "lng": -0.197333519708498}, "southwest": {"lat": 51.5146862697085, "lng": -0.200031480291502}}}, "name": "Holland Park Motor Services", "place_id": "ChIJUeYQvwIQdkgRM5nb8znxW1Y", "types": ["car_repair", "point_of_interest", "establishment"], "rating": 4.7, "user_ratings_total": 18}, "ChIJQddd3AIQdkgRPd-GfnpG2eA": {"geometry": {"location": {"lat": 51.5169722, "lng": -0.198645}, "viewport": {"northeast": {"lat": 51.51834223029149, "lng": -0.197304219708498}, "southwest": {"lat": 51.5156442697085, "lng": -0.200002180291502}}}, "name": "ubitricity Charging Station", "place_id": "ChIJQddd3AIQdkgRPd-GfnpG2eA", "types": ["point_of_interest", "establishment"]}, "ChIJ8eWclwIQdkgRyJvAy1jRCTQ": {"geometry": {"location": {"lat": 51.51555825311838, "lng": -0.1981802566027437}, "viewport": {"northeast": {"lat": 51.5169074302915, "lng": -0.196831269708498}, "southwest": {"lat": 51.5142094697085, "lng": -0.199529230291502}}}, "name": "43-65 Artesian Rd", "place_id": "ChIJ8eWclwIQdkgRyJvAy1jRCTQ", "types": ["route"]}, "ChIJOT3_hgIQdkgRtkfWhXtAtSo": {"geometry": {"location": {"lat": 51.51527120000001, "lng": -0.1975211}, "viewport": {"northeast": {"lat": 51.5166392802915, "lng": -0.196034319708498}, "southwest": {"lat": 51.51394131970851, "lng": -0.1987322802915021}}}, "name": "Pentagram Design", "place_id": "ChIJOT3_hgIQdkgRtkfWhXtAtSo", "types": ["point_of_interest", "establishment"], "rating": 4.7, "user_ratings_total": 26}, "ChIJ5758uwIQdkgRxIr9oQLWNq4": {"geometry": {"location": {"lat": 51.5156474, "lng": -0.1988358}, "viewport": {"northeast": {"lat": 51.5170073302915, "lng": -0.197396519708498}, "southwest": {"lat": 51.5143093697085, "lng": -0.200094480291502}}}, "name": "Espace Prive", "place_id": "ChIJ5758uwIQdkgRxIr9oQLWNq4", "types": ["beauty_salon", "hair_care", "spa", "health", "point_of_interest", "establishment"], "rating": 4.8, "user_ratings_total": 4}, "ChIJAfsSuAIQdkgRyhpDbMpjgu8": {"geometry": {"location": {"lat": 51.515698, "lng": -0.1988451}, "viewport": {"northeast": {"lat": 51.5170575302915, "lng": -0.197409019708498}, "southwest": {"lat": 51.5143595697085, "lng": -0.200106980291502}}}, "name": "C D D I Ltd", "place_id": "ChIJAfsSuAIQdkgRyhpDbMpjgu8", "types": ["health", "point_of_interest", "establishment"]}, "ChIJ26mphQIQdkgRMDxUyfP7BhA": {"geometry": {"location": {"lat": 51.5153244, "lng": -0.1974923}, "viewport": {"northeast": {"lat": 51.5166893302915, "lng": -0.196028319708498}, "southwest": {"lat": 51.5139913697085, "lng": -0.198726280291502}}}, "name": "ILITHYIA", "place_id": "ChIJ26mphQIQdkgRMDxUyfP7BhA", "types": ["point_of_interest", "establishment"]}, "ChIJr12ohQIQdkgRuotHCQjm7OQ": {"geometry": {"location": {"lat": 51.5153387, "lng": -0.1974514}, "viewport": {"northeast": {"lat": 51.5167005802915, "lng": -0.196009319708498}, "southwest": {"lat": 51.5140026197085, "lng": -0.198707280291502}}}, "name": "The London Hair Extension Company Ltd", "place_id": "ChIJr12ohQIQdkgRuotHCQjm7OQ", "types": ["hair_care", "point_of_interest", "establishment"], "rating": 5, "user_ratings_total": 1}, "ChIJ1UvgabUPdkgR_wTsyORgUiM": {"geometry": {"location": {"lat": 51.5153557, "lng": -0.197451}, "viewport": {"northeast": {"lat": 51.51671718029149, "lng": -0.196012019708498}, "southwest": {"lat": 51.51401921970849, "lng": -0.198709980291502}}}, "name": "IHS Hair Replacement London", "place_id": "ChIJ1UvgabUPdkgR_wTsyORgUiM", "types": ["hair_care", "health", "point_of_interest", "establishment"], "rating": 5, "user_ratings_total": 9}, "ChIJA3ljhQIQdkgRA33c922UUwI": {"geometry": {"location": {"lat": 51.515423, "lng": -0.1975556}, "viewport": {"northeast": {"lat": 51.5168132802915, "lng": -0.196086669708498}, "southwest": {"lat": 51.5141153197085, "lng": -0.198784630291502}}}, "name": "Cock & Bottle", "place_id": "ChIJA3ljhQIQdkgRA33c922UUwI", "types": ["bar", "restaurant", "food", "point_of_interest", "establishment"], "rating": 4.3, "user_ratings_total": 426}, "ChIJp0x0kAIQdkgREwSzuQo8RzA": {"geometry": {"location": {"lat": 51.51550899999999, "lng": -0.1977279}, "viewport": {"northeast": {"lat": 51.5168816302915, "lng": -0.196379419708498}, "southwest": {"lat": 51.5141836697085, "lng": -0.199077380291502}}}, "name": "ubitricity Charging Station", "place_id": "ChIJp0x0kAIQdkgREwSzuQo8RzA", "types": ["point_of_interest", "establishment"]}, "ChIJ_f9Y7wIQdkgRf2UnO4X2rDk": {"geometry": {"location": {"lat": 51.51558780000001, "lng": -0.1977783}, "viewport": {"northeast": {"lat": 51.51693338029149, "lng": -0.196457069708498}, "southwest": {"lat": 51.51423541970849, "lng": -0.199155030291502}}}, "name": "THE SCHOOL OF MARY", "place_id": "ChIJ_f9Y7wIQdkgRf2UnO4X2rDk", "types": ["school", "point_of_interest", "establishment"]}, "ChIJqUQND-MRdkgRJO4uYjdZe0M": {"geometry": {"location": {"lat": 51.515435, "lng": -0.1988848}, "viewport": {"northeast": {"lat": 51.5168466302915, "lng": -0.197535969708498}, "southwest": {"lat": 51.5141486697085, "lng": -0.200233930291502}}}, "name": "Notting Hill Psychotherapy and Counselling", "place_id": "ChIJqUQND-MRdkgRJO4uYjdZe0M", "types": ["health", "point_of_interest", "establishment"]}, "ChIJ26mphQIQdkgR9hbu6loXC2A": {"geometry": {"location": {"lat": 51.5153244, "lng": -0.1974923}, "viewport": {"northeast": {"lat": 51.5166893302915, "lng": -0.196028319708498}, "southwest": {"lat": 51.5139913697085, "lng": -0.198726280291502}}}, "name": "Alternative Living Nutritionist", "place_id": "ChIJ26mphQIQdkgR9hbu6loXC2A", "types": ["health", "point_of_interest", "establishment"]}, "ChIJq6rjhAIQdkgRn2FKoKdrbUM": {"geometry": {"location": {"lat": 51.5153244, "lng": -0.1974923}, "viewport": {"northeast": {"lat": 51.5166893302915, "lng": -0.196028319708498}, "southwest": {"lat": 51.5139913697085, "lng": -0.198726280291502}}}, "name": "Kinesiology Notting Hill", "place_id": "ChIJq6rjhAIQdkgRn2FKoKdrbUM", "types": ["health", "point_of_interest", "establishment"]}, "ChIJqdHZkQIQdkgRf0wr2kDM0n4": {"geometry": {"location": {"lat": 51.51570599999999, "lng": -0.197635}, "viewport": {"northeast": {"lat": 51.5170252802915, "lng": -0.196242019708498}, "southwest": {"lat": 51.5143273197085, "lng": -0.198939980291502}}}, "name": "The Bard School", "place_id": "ChIJqdHZkQIQdkgRf0wr2kDM0n4", "types": ["point_of_interest", "establishment"]}, "ChIJ-QYwXv0PdkgRYNI0_LH3Rww": {"geometry": {"location": {"lat": 51.51463610726068, "lng": -0.1983841225073874}, "viewport": {"northeast": {"lat": 51.5159851802915, "lng": -0.19696845}, "southwest": {"lat": 51.5132872197085, "lng": -0.19979985}}}, "name": "176-160 Westbourne Grove", "place_id": "ChIJ-QYwXv0PdkgRYNI0_LH3Rww", "types": ["route"]}, "ChIJK44GY_0PdkgRZqwjZA3l7-w": {"geometry": {"location": {"lat": 51.5145986, "lng": -0.1977545}, "viewport": {"northeast": {"lat": 51.51600098029149, "lng": -0.196425869708498}, "southwest": {"lat": 51.51330301970849, "lng": -0.199123830291502}}}, "name": "Granger and Co", "place_id": "ChIJK44GY_0PdkgRZqwjZA3l7-w", "types": ["restaurant", "food", "point_of_interest", "establishment"], "rating": 4.4, "user_ratings_total": 1698}, "ChIJRayFXv0PdkgRh_orxIKC8H0": {"geometry": {"location": {"lat": 51.51449869999999, "lng": -0.1985776}, "viewport": {"northeast": {"lat": 51.51590293029149, "lng": -0.1972465197084979}, "southwest": {"lat": 51.51320496970849, "lng": -0.199944480291502}}}, "name": "diptyque", "place_id": "ChIJRayFXv0PdkgRh_orxIKC8H0", "types": ["home_goods_store", "point_of_interest", "clothing_store", "store", "establishment"], "rating": 4.6, "user_ratings_total": 35}, "ChIJQbHOWf0PdkgRTD7A4soyRvQ": {"geometry": {"location": {"lat": 51.51469530000001, "lng": -0.1987894}, "viewport": {"northeast": {"lat": 51.5159884802915, "lng": -0.197596919708498}, "southwest": {"lat": 51.5132905197085, "lng": -0.200294880291502}}}, "name": "Westbourne Grove Church", "place_id": "ChIJQbHOWf0PdkgRTD7A4soyRvQ", "types": ["church", "place_of_worship", "point_of_interest", "establishment"], "rating": 4.4, "user_ratings_total": 30}, "ChIJZdawQv0PdkgRfeWZQILWDmE": {"geometry": {"location": {"lat": 51.514152, "lng": -0.198414}, "viewport": {"northeast": {"lat": 51.51552333029149, "lng": -0.197073019708498}, "southwest": {"lat": 51.5128253697085, "lng": -0.199770980291502}}}, "name": "Sraymax Construction", "place_id": "ChIJZdawQv0PdkgRfeWZQILWDmE", "types": ["general_contractor", "point_of_interest", "establishment"], "rating": 4.4, "user_ratings_total": 7}, "ChIJM9awQv0PdkgRSWVbGewisEs": {"geometry": {"location": {"lat": 51.5142141, "lng": -0.198565}, "viewport": {"northeast": {"lat": 51.5155678302915, "lng": -0.197217719708498}, "southwest": {"lat": 51.5128698697085, "lng": -0.199915680291502}}}, "name": "Silver Seed", "place_id": "ChIJM9awQv0PdkgRSWVbGewisEs", "types": ["point_of_interest", "establishment"]}, "ChIJM9awQv0PdkgRqnP1EFfG6S0": {"geometry": {"location": {"lat": 51.5142141, "lng": -0.198565}, "viewport": {"northeast": {"lat": 51.5155678302915, "lng": -0.197217719708498}, "southwest": {"lat": 51.5128698697085, "lng": -0.199915680291502}}}, "name": "Web Studio Design", "place_id": "ChIJM9awQv0PdkgRqnP1EFfG6S0", "types": ["point_of_interest", "establishment"]}, "ChIJsa1rYf0PdkgRPNT75cXPRl0": {"geometry": {"location": {"lat": 51.5145569, "lng": -0.1980761}, "viewport": {"northeast": {"lat": 51.5159616302915, "lng": -0.196744069708498}, "southwest": {"lat": 51.5132636697085, "lng": -0.199442030291502}}}, "name": "Nanos", "place_id": "ChIJsa1rYf0PdkgRPNT75cXPRl0", "types": ["point_of_interest", "clothing_store", "store", "establishment"], "rating": 5, "user_ratings_total": 3}, "ChIJHRJl8fsPdkgR-lwWCmsNIFc": {"geometry": {"location": {"lat": 51.51422679999999, "lng": -0.1984606}, "viewport": {"northeast": {"lat": 51.5155822302915, "lng": -0.197113919708498}, "southwest": {"lat": 51.5128842697085, "lng": -0.199811880291502}}}, "name": "Little Dish", "place_id": "ChIJHRJl8fsPdkgR-lwWCmsNIFc", "types": ["food", "point_of_interest", "establishment"], "rating": 4.7, "user_ratings_total": 7}, "ChIJl2G0Qv0PdkgRdCn5sqdhm78": {"geometry": {"location": {"lat": 51.51417300000001, "lng": -0.19842}, "viewport": {"northeast": {"lat": 51.5155235302915, "lng": -0.197071619708498}, "southwest": {"lat": 51.5128255697085, "lng": -0.199769580291502}}}, "name": "Rui Ribeiro Interiors Ltd", "place_id": "ChIJl2G0Qv0PdkgRdCn5sqdhm78", "types": ["general_contractor", "point_of_interest", "establishment"], "rating": 5, "user_ratings_total": 1}, "ChIJm0QwYf0PdkgR8jLwc8Hhcy0": {"geometry": {"location": {"lat": 51.5145305, "lng": -0.1982372999999999}, "viewport": {"northeast": {"lat": 51.5159387802915, "lng": -0.196906369708498}, "southwest": {"lat": 51.5132408197085, "lng": -0.199604330291502}}}, "name": "American Vintage", "place_id": "ChIJm0QwYf0PdkgR8jLwc8Hhcy0", "types": ["clothing_store", "point_of_interest", "store", "establishment"], "rating": 4, "user_ratings_total": 11}, "ChIJ5RMMKWcFdkgRbx0ocg2Z3Do": {"geometry": {"location": {"lat": 51.5141988, "lng": -0.1980172}, "viewport": {"northeast": {"lat": 51.51557288029149, "lng": -0.196675369708498}, "southwest": {"lat": 51.51287491970849, "lng": -0.199373330291502}}}, "name": "Bartha Contemporary", "place_id": "ChIJ5RMMKWcFdkgRbx0ocg2Z3Do", "types": ["art_gallery", "point_of_interest", "establishment"], "rating": 5, "user_ratings_total": 4}, "ChIJy3P7Qv0PdkgRuSZtREXEq7s": {"geometry": {"location": {"lat": 51.51405200000001, "lng": -0.198502}, "viewport": {"northeast": {"lat": 51.51546938029151, "lng": -0.197177469708498}, "southwest": {"lat": 51.51277141970851, "lng": -0.1998754302915021}}}, "name": "Booxscale", "place_id": "ChIJy3P7Qv0PdkgRuSZtREXEq7s", "types": ["point_of_interest", "establishment"], "rating": 5, "user_ratings_total": 1}, "ChIJGZbBY_0PdkgRfa_n5WZ8IpY": {"geometry": {"location": {"lat": 51.5145607, "lng": -0.1979192}, "viewport": {"northeast": {"lat": 51.5159724802915, "lng": -0.196589319708498}, "southwest": {"lat": 51.5132745197085, "lng": -0.199287280291502}}}, "name": "Verve London Pet Boutique & Cafe", "place_id": "ChIJGZbBY_0PdkgRfa_n5WZ8IpY", "types": ["pet_store", "bar", "point_of_interest", "store", "establishment"], "rating": 4.3, "user_ratings_total": 69}, "ChIJKVW7RP0PdkgRB6FkduHfPHs": {"geometry": {"location": {"lat": 51.5142031, "lng": -0.1988301}, "viewport": {"northeast": {"lat": 51.5155520802915, "lng": -0.197481119708498}, "southwest": {"lat": 51.5128541197085, "lng": -0.200179080291502}}}, "name": "Sweaty Betty", "place_id": "ChIJKVW7RP0PdkgRB6FkduHfPHs", "types": ["gym", "health", "point_of_interest", "clothing_store", "store", "establishment"], "rating": 4.3, "user_ratings_total": 3}, "ChIJ97FRRP0PdkgRNxliSNH2Jjk": {"geometry": {"location": {"lat": 51.51392909999999, "lng": -0.1987877}, "viewport": {"northeast": {"lat": 51.51526808029149, "lng": -0.197519369708498}, "southwest": {"lat": 51.51257011970849, "lng": -0.200217330291502}}}, "name": "Aim\u00e9", "place_id": "ChIJ97FRRP0PdkgRNxliSNH2Jjk", "types": ["point_of_interest", "clothing_store", "store", "establishment"], "rating": 4.1, "user_ratings_total": 7}, "ChIJUWu4oM4IdkgRVnbQB5gJYR8": {"geometry": {"location": {"lat": 51.5143808, "lng": -0.1988853}, "viewport": {"northeast": {"lat": 51.51571518029149, "lng": -0.197648069708498}, "southwest": {"lat": 51.51301721970849, "lng": -0.200346030291502}}}, "name": "Rkade", "place_id": "ChIJUWu4oM4IdkgRVnbQB5gJYR8", "types": ["home_goods_store", "point_of_interest", "store", "establishment"], "rating": 4.5, "user_ratings_total": 2}, "ChIJ3VHpWv0PdkgRo59ouetHCYo": {"geometry": {"location": {"lat": 51.5143187, "lng": -0.1989073}, "viewport": {"northeast": {"lat": 51.5156523802915, "lng": -0.197648319708498}, "southwest": {"lat": 51.5129544197085, "lng": -0.200346280291502}}}, "name": "Robin Martin Antiques", "place_id": "ChIJ3VHpWv0PdkgRo59ouetHCYo", "types": ["furniture_store", "home_goods_store", "point_of_interest", "store", "establishment"], "rating": 4, "user_ratings_total": 4}, "ChIJHX-PX_0PdkgRm0eL2B5h6Q0": {"geometry": {"location": {"lat": 51.514714, "lng": -0.198643}, "viewport": {"northeast": {"lat": 51.5160106802915, "lng": -0.197278169708498}, "southwest": {"lat": 51.5133127197085, "lng": -0.199976130291502}}}, "name": "Martin Moore", "place_id": "ChIJHX-PX_0PdkgRm0eL2B5h6Q0", "types": ["furniture_store", "home_goods_store", "general_contractor", "point_of_interest", "store", "establishment"], "rating": 3, "user_ratings_total": 4}, "ChIJC1jwX_0PdkgR9Uf3zBqFXzE": {"geometry": {"location": {"lat": 51.51478519999999, "lng": -0.1983951}, "viewport": {"northeast": {"lat": 51.51606393029149, "lng": -0.197004069708498}, "southwest": {"lat": 51.5133659697085, "lng": -0.199702030291502}}}, "name": "LOVE BRAND & Co.", "place_id": "ChIJC1jwX_0PdkgR9Uf3zBqFXzE", "types": ["point_of_interest", "clothing_store", "store", "establishment"], "rating": 4.8, "user_ratings_total": 4}, "ChIJA9TvX_0PdkgRKcQeDCZlzYM": {"geometry": {"location": {"lat": 51.5147827, "lng": -0.1984401}, "viewport": {"northeast": {"lat": 51.5160563302915, "lng": -0.197081969708498}, "southwest": {"lat": 51.5133583697085, "lng": -0.199779930291502}}}, "name": "ba&sh", "place_id": "ChIJA9TvX_0PdkgRKcQeDCZlzYM", "types": ["point_of_interest", "clothing_store", "store", "establishment"], "rating": 3, "user_ratings_total": 2}, "ChIJKzDJbv0PdkgR2llKLC5O-zk": {"geometry": {"location": {"lat": 51.5138554, "lng": -0.1980569}, "viewport": {"northeast": {"lat": 51.5151355302915, "lng": -0.196666119708498}, "southwest": {"lat": 51.5124375697085, "lng": -0.199364080291502}}}, "name": "Estonian House Ltd", "place_id": "ChIJKzDJbv0PdkgR2llKLC5O-zk", "types": ["point_of_interest", "establishment"], "rating": 4.7, "user_ratings_total": 7}, "ChIJJaf_Xf0PdkgRhUY8C7it16g": {"geometry": {"location": {"lat": 51.5145542, "lng": -0.1984144}, "viewport": {"northeast": {"lat": 51.5159409802915, "lng": -0.197076919708498}, "southwest": {"lat": 51.5132430197085, "lng": -0.199774880291502}}}, "name": "TOAST", "place_id": "ChIJJaf_Xf0PdkgRhUY8C7it16g", "types": ["home_goods_store", "point_of_interest", "clothing_store", "store", "establishment"], "rating": 4.6, "user_ratings_total": 12}, "ChIJJaf_Xf0PdkgRU_x5AYIq6pA": {"geometry": {"location": {"lat": 51.51449470000001, "lng": -0.1986595}, "viewport": {"northeast": {"lat": 51.5158963302915, "lng": -0.197326469708498}, "southwest": {"lat": 51.5131983697085, "lng": -0.200024430291502}}}, "name": "Bonpoint", "place_id": "ChIJJaf_Xf0PdkgRU_x5AYIq6pA", "types": ["point_of_interest", "clothing_store", "store", "establishment"], "rating": 4.5, "user_ratings_total": 4}, "ChIJV34-suIPdkgRvgC3OtxHkGg": {"geometry": {"location": {"lat": 51.5145509, "lng": -0.1987196}, "viewport": {"northeast": {"lat": 51.51566348029149, "lng": -0.197913619708498}, "southwest": {"lat": 51.51296551970849, "lng": -0.200611580291502}}}, "name": "Homesite Estate Agents", "place_id": "ChIJV34-suIPdkgRvgC3OtxHkGg", "types": ["real_estate_agency", "point_of_interest", "establishment"], "rating": 4.7, "user_ratings_total": 61}, "ChIJ2a_YgP0PdkgRNihL17R08kE": {"geometry": {"location": {"lat": 51.5146029, "lng": -0.1975419}, "viewport": {"northeast": {"lat": 51.5159481802915, "lng": -0.196239669708498}, "southwest": {"lat": 51.5132502197085, "lng": -0.198937630291502}}}, "name": "SHOW Dry Hair Salon", "place_id": "ChIJ2a_YgP0PdkgRNihL17R08kE", "types": ["beauty_salon", "hair_care", "point_of_interest", "establishment"], "rating": 3.8, "user_ratings_total": 23}, "ChIJy0QeRf0PdkgROk1pB3Loi7M": {"geometry": {"location": {"lat": 51.51400169999999, "lng": -0.1988318}, "viewport": {"northeast": {"lat": 51.5153395302915, "lng": -0.197553469708498}, "southwest": {"lat": 51.5126415697085, "lng": -0.200251430291502}}}, "name": "Bodas London", "place_id": "ChIJy0QeRf0PdkgROk1pB3Loi7M", "types": ["point_of_interest", "clothing_store", "store", "establishment"], "rating": 5, "user_ratings_total": 1}, "ChIJI9DHW_0PdkgRpYWdtYQ4cqU": {"geometry": {"location": {"lat": 51.5144597, "lng": -0.1988894}, "viewport": {"northeast": {"lat": 51.5158652302915, "lng": -0.197557569708498}, "southwest": {"lat": 51.5131672697085, "lng": -0.200255530291502}}}, "name": "Lacy Gallery", "place_id": "ChIJI9DHW_0PdkgRpYWdtYQ4cqU", "types": ["art_gallery", "home_goods_store", "point_of_interest", "store", "establishment"], "rating": 4.8, "user_ratings_total": 4}, "ChIJKVW7RP0PdkgRQPQzcynb6as": {"geometry": {"location": {"lat": 51.51405579999999, "lng": -0.1988657}, "viewport": {"northeast": {"lat": 51.51540478029149, "lng": -0.197516719708498}, "southwest": {"lat": 51.5127068197085, "lng": -0.2002146802915021}}}, "name": "David Clulow Opticians", "place_id": "ChIJKVW7RP0PdkgRQPQzcynb6as", "types": ["health", "point_of_interest", "store", "establishment"], "rating": 3.5, "user_ratings_total": 2}, "ChIJQYk_Xf0PdkgRUazT26spCDY": {"geometry": {"location": {"lat": 51.5142587, "lng": -0.1984405}, "viewport": {"northeast": {"lat": 51.5155864302915, "lng": -0.197083919708498}, "southwest": {"lat": 51.5128884697085, "lng": -0.199781880291502}}}, "name": "Muza Lab", "place_id": "ChIJQYk_Xf0PdkgRUazT26spCDY", "types": ["general_contractor", "point_of_interest", "establishment"], "rating": 5, "user_ratings_total": 1}, "ChIJzymxQv0PdkgRJEq-9L8cGWM": {"geometry": {"location": {"lat": 51.5141527, "lng": -0.1984136}, "viewport": {"northeast": {"lat": 51.5155234302915, "lng": -0.197072419708498}, "southwest": {"lat": 51.5128254697085, "lng": -0.199770380291502}}}, "name": "Cartils", "place_id": "ChIJzymxQv0PdkgRJEq-9L8cGWM", "types": ["point_of_interest", "establishment"]}, "ChIJGSqxQv0PdkgRFPlqnKSH5kY": {"geometry": {"location": {"lat": 51.5141528, "lng": -0.1984143}, "viewport": {"northeast": {"lat": 51.51552333029149, "lng": -0.197073019708498}, "southwest": {"lat": 51.5128253697085, "lng": -0.199770980291502}}}, "name": "Notion Capital Partners Llp", "place_id": "ChIJGSqxQv0PdkgRFPlqnKSH5kY", "types": ["finance", "point_of_interest", "establishment"]}, "ChIJGSqxQv0PdkgRJTkjh7kS0lw": {"geometry": {"location": {"lat": 51.5141528, "lng": -0.1984143}, "viewport": {"northeast": {"lat": 51.51552333029149, "lng": -0.197073019708498}, "southwest": {"lat": 51.5128253697085, "lng": -0.199770980291502}}}, "name": "Expectation Entertainment", "place_id": "ChIJGSqxQv0PdkgRJTkjh7kS0lw", "types": ["point_of_interest", "establishment"]}, "ChIJGSqxQv0PdkgR834-iBWKQME": {"geometry": {"location": {"lat": 51.5141528, "lng": -0.1984143}, "viewport": {"northeast": {"lat": 51.51552333029149, "lng": -0.197073019708498}, "southwest": {"lat": 51.5128253697085, "lng": -0.199770980291502}}}, "name": "Banneya London", "place_id": "ChIJGSqxQv0PdkgR834-iBWKQME", "types": ["jewelry_store", "point_of_interest", "store", "establishment"]}, "ChIJKRWGQRIPdkgRm439v3eSImk": {"geometry": {"location": {"lat": 51.5141524, "lng": -0.1984135}, "viewport": {"northeast": {"lat": 51.5155234302915, "lng": -0.197072419708498}, "southwest": {"lat": 51.5128254697085, "lng": -0.199770380291502}}}, "name": "Ledbury Studio", "place_id": "ChIJKRWGQRIPdkgRm439v3eSImk", "types": ["point_of_interest", "establishment"]}, "ChIJLdawQv0PdkgRY1cpFoecY1Q": {"geometry": {"location": {"lat": 51.5141524, "lng": -0.1984135}, "viewport": {"northeast": {"lat": 51.5155234302915, "lng": -0.197072419708498}, "southwest": {"lat": 51.5128254697085, "lng": -0.199770380291502}}}, "name": "Julien Macdonald", "place_id": "ChIJLdawQv0PdkgRY1cpFoecY1Q", "types": ["point_of_interest", "establishment"], "rating": 5, "user_ratings_total": 1}, "ChIJzymxQv0PdkgRbACCB2vnuZ0": {"geometry": {"location": {"lat": 51.51422119999999, "lng": -0.1985521}, "viewport": {"northeast": {"lat": 51.51556993029149, "lng": -0.197203019708498}, "southwest": {"lat": 51.5128719697085, "lng": -0.199900980291502}}}, "name": "Floral Ltd", "place_id": "ChIJzymxQv0PdkgRbACCB2vnuZ0", "types": ["florist", "point_of_interest", "store", "establishment"]}, "ChIJ___TYP0PdkgRRHF3poGUhww": {"geometry": {"location": {"lat": 51.5145305, "lng": -0.1982372999999999}, "viewport": {"northeast": {"lat": 51.5159387802915, "lng": -0.196906369708498}, "southwest": {"lat": 51.5132408197085, "lng": -0.199604330291502}}}, "name": "Vom Fass", "place_id": "ChIJ___TYP0PdkgRRHF3poGUhww", "types": ["store", "point_of_interest", "establishment"]}, "ChIJv7tVjEEPdkgROV88dmky16A": {"geometry": {"location": {"lat": 51.5145305, "lng": -0.1982372999999999}, "viewport": {"northeast": {"lat": 51.5159387802915, "lng": -0.196906369708498}, "southwest": {"lat": 51.5132408197085, "lng": -0.199604330291502}}}, "name": "ONDA BEAUTY", "place_id": "ChIJv7tVjEEPdkgROV88dmky16A", "types": ["point_of_interest", "store", "establishment"], "rating": 5, "user_ratings_total": 5}, "ChIJObd2nLQPdkgRYWJP58RxqGo": {"geometry": {"location": {"lat": 51.5145338, "lng": -0.1983417}, "viewport": {"northeast": {"lat": 51.5159345802915, "lng": -0.197008469708498}, "southwest": {"lat": 51.5132366197085, "lng": -0.199706430291502}}}, "name": "Four Store", "place_id": "ChIJObd2nLQPdkgRYWJP58RxqGo", "types": ["grocery_or_supermarket", "food", "point_of_interest", "store", "establishment"], "rating": 5, "user_ratings_total": 1},