{"E00023904": {"ChIJCUAafccadkgRrRM2SILFg7k": {"geometry": {"location": {"lat": 51.52883809999999, "lng": -0.16145}, "viewport": {"northeast": {"lat": 51.5301870802915, "lng": -0.160101019708498}, "southwest": {"lat": 51.5274891197085, "lng": -0.162798980291502}}}, "name": "The Boathouse Cafe", "place_id": "ChIJCUAafccadkgRrRM2SILFg7k", "types": ["cafe", "food", "point_of_interest", "establishment"], "rating": 4, "user_ratings_total": 422}, "ChIJT7v6FscadkgRj5pbdHyOYrA": {"geometry": {"location": {"lat": 51.5290275, "lng": -0.1621761}, "viewport": {"northeast": {"lat": 51.53037648029149, "lng": -0.160827119708498}, "southwest": {"lat": 51.5276785197085, "lng": -0.163525080291502}}}, "name": "Hanover Gate Children's Playground", "place_id": "ChIJT7v6FscadkgRj5pbdHyOYrA", "types": ["point_of_interest", "establishment"], "rating": 4.2, "user_ratings_total": 30}, "ChIJxX6Op8cadkgR2XMX7k2hE68": {"geometry": {"location": {"lat": 51.52800605620422, "lng": -0.1624791357170241}, "viewport": {"northeast": {"lat": 51.5293560302915, "lng": -0.16097305}, "southwest": {"lat": 51.5266580697085, "lng": -0.1639820499999999}}}, "name": "Outer Circle", "place_id": "ChIJxX6Op8cadkgR2XMX7k2hE68", "types": ["route"]}, "ChIJn3c_P8YadkgRJXH9PiESOXg": {"geometry": {"location": {"lat": 51.52702999830148, "lng": -0.1609288020933045}, "viewport": {"northeast": {"lat": 51.52837898029151, "lng": -0.159579819708498}, "southwest": {"lat": 51.52568101970851, "lng": -0.162277780291502}}}, "name": "Outer Circle", "place_id": "ChIJn3c_P8YadkgRJXH9PiESOXg", "types": ["route"]}, "ChIJhXoXSsYadkgRdH9wqOvoTsU": {"geometry": {"location": {"lat": 51.5267661, "lng": -0.1613567}, "viewport": {"northeast": {"lat": 51.5281197302915, "lng": -0.160133969708498}, "southwest": {"lat": 51.5254217697085, "lng": -0.162831930291502}}}, "name": "The Nash Lounge", "place_id": "ChIJhXoXSsYadkgRdH9wqOvoTsU", "types": ["restaurant", "food", "point_of_interest", "establishment"], "rating": 4.1, "user_ratings_total": 8}, "ChIJqTWsSsYadkgRRWYShK4sE9A": {"geometry": {"location": {"lat": 51.5267549, "lng": -0.1616093}, "viewport": {"northeast": {"lat": 51.52810213029149, "lng": -0.160211669708498}, "southwest": {"lat": 51.52540416970849, "lng": -0.162909630291502}}}, "name": "British Maternal & Fetal Medicine Society", "place_id": "ChIJqTWsSsYadkgRRWYShK4sE9A", "types": ["point_of_interest", "establishment"]}, "ChIJHWVHtscadkgRGh--unjWZ-4": {"geometry": {"location": {"lat": 51.52681, "lng": -0.1620933}, "viewport": {"northeast": {"lat": 51.5281475802915, "lng": -0.160501719708498}, "southwest": {"lat": 51.5254496197085, "lng": -0.163199680291502}}}, "name": "National Collaborating Centre for Women's & Children's Health", "place_id": "ChIJHWVHtscadkgRGh--unjWZ-4", "types": ["point_of_interest", "establishment"]}, "ChIJA2VHtscadkgRwhzMWv68oQQ": {"geometry": {"location": {"lat": 51.52700839999999, "lng": -0.1620115}, "viewport": {"northeast": {"lat": 51.52835193029149, "lng": -0.160272819708498}, "southwest": {"lat": 51.5256539697085, "lng": -0.162970780291502}}}, "name": "Rooms on Regents Park", "place_id": "ChIJA2VHtscadkgRwhzMWv68oQQ", "types": ["university", "point_of_interest", "establishment"], "rating": 4.8, "user_ratings_total": 4}, "ChIJ0yNVNcYadkgRWK0RhYUrJzg": {"geometry": {"location": {"lat": 51.52671590000001, "lng": -0.1616219}, "viewport": {"northeast": {"lat": 51.5280635302915, "lng": -0.160218369708498}, "southwest": {"lat": 51.52536556970851, "lng": -0.162916330291502}}}, "name": "Markit!! Education", "place_id": "ChIJ0yNVNcYadkgRWK0RhYUrJzg", "types": ["point_of_interest", "establishment"]}, "ChIJA2VHtscadkgRbZfBYC0swpM": {"geometry": {"location": {"lat": 51.52680599999999, "lng": -0.1622713}, "viewport": {"northeast": {"lat": 51.52814283029149, "lng": -0.160590969708498}, "southwest": {"lat": 51.52544486970849, "lng": -0.163288930291502}}}, "name": "RCOG Venue Hire", "place_id": "ChIJA2VHtscadkgRbZfBYC0swpM", "types": ["point_of_interest", "establishment"], "rating": 4.5, "user_ratings_total": 4}, "ChIJ0xUoxscadkgR5vnDTqSQ_vE": {"geometry": {"location": {"lat": 51.5265389, "lng": -0.1623847}, "viewport": {"northeast": {"lat": 51.52788105276291, "lng": -0.1610345132040032}, "southwest": {"lat": 51.52518309217991, "lng": -0.1637324737870072}}}, "name": "Parking lot", "place_id": "ChIJ0xUoxscadkgR5vnDTqSQ_vE", "types": ["parking", "premise", "point_of_interest", "establishment"]}, "ChIJgw13LMYadkgRIyUZzXKaUzg": {"geometry": {"location": {"lat": 51.52579933777542, "lng": -0.1613775126111811}, "viewport": {"northeast": {"lat": 51.5271427802915, "lng": -0.160036119708498}, "southwest": {"lat": 51.5244448197085, "lng": -0.162734080291502}}}, "name": "74-56 A41", "place_id": "ChIJgw13LMYadkgRIyUZzXKaUzg", "types": ["route"]}, "ChIJ4aakLsYadkgRbgJGuUBhfbo": {"geometry": {"location": {"lat": 51.52583079999999, "lng": -0.161199}, "viewport": {"northeast": {"lat": 51.5271797802915, "lng": -0.159850019708498}, "southwest": {"lat": 51.5244818197085, "lng": -0.162547980291502}}}, "name": "The Bite", "place_id": "ChIJ4aakLsYadkgRbgJGuUBhfbo", "types": ["cafe", "food", "point_of_interest", "establishment"], "rating": 4.5, "user_ratings_total": 6}, "ChIJV5w-28cadkgR6m8a2QWs88o": {"geometry": {"location": {"lat": 51.52581259999999, "lng": -0.1618297}, "viewport": {"northeast": {"lat": 51.5272760302915, "lng": -0.160549319708498}, "southwest": {"lat": 51.5245780697085, "lng": -0.163247280291502}}}, "name": "Flower Station", "place_id": "ChIJV5w-28cadkgR6m8a2QWs88o", "types": ["florist", "point_of_interest", "store", "establishment"], "rating": 4, "user_ratings_total": 1001}, "ChIJV5w-28cadkgRTJpo8Gyn1x0": {"geometry": {"location": {"lat": 51.5261188, "lng": -0.1617039}, "viewport": {"northeast": {"lat": 51.5274677802915, "lng": -0.160354919708498}, "southwest": {"lat": 51.5247698197085, "lng": -0.163052880291502}}}, "name": "Plant Station", "place_id": "ChIJV5w-28cadkgRTJpo8Gyn1x0", "types": ["point_of_interest", "establishment"], "rating": 5, "user_ratings_total": 2}, "ChIJ79dFh2UbdkgRB39xoIRveZY": {"geometry": {"location": {"lat": 51.525724, "lng": -0.1613797}, "viewport": {"northeast": {"lat": 51.5270919802915, "lng": -0.160002869708498}, "southwest": {"lat": 51.5243940197085, "lng": -0.162700830291502}}}, "name": "Motor Sourcer", "place_id": "ChIJ79dFh2UbdkgRB39xoIRveZY", "types": ["car_dealer", "car_repair", "point_of_interest", "store", "establishment"], "rating": 5, "user_ratings_total": 6}, "ChIJR3e2J1EbdkgRGxYLUtNxe4E": {"geometry": {"location": {"lat": 51.5256158, "lng": -0.1616361}, "viewport": {"northeast": {"lat": 51.5269647802915, "lng": -0.160287119708498}, "southwest": {"lat": 51.5242668197085, "lng": -0.162985080291502}}}, "name": "MASSAGE TANTRIQUE BORDEAUX", "place_id": "ChIJR3e2J1EbdkgRGxYLUtNxe4E", "types": ["point_of_interest", "establishment"]}, "ChIJGVYShJsbdkgRtZJwaA9ft8o": {"geometry": {"location": {"lat": 51.5256158, "lng": -0.1616361}, "viewport": {"northeast": {"lat": 51.5269647802915, "lng": -0.160287119708498}, "southwest": {"lat": 51.5242668197085, "lng": -0.162985080291502}}}, "name": "TANTRAHOME MASSAGE LONDON", "place_id": "ChIJGVYShJsbdkgRtZJwaA9ft8o", "types": ["point_of_interest", "establishment"]}, "ChIJCcLELcYadkgR3lGlylS-PTw": {"geometry": {"location": {"lat": 51.5259587, "lng": -0.1613062}, "viewport": {"northeast": {"lat": 51.52724758029149, "lng": -0.1600330197084979}, "southwest": {"lat": 51.52454961970849, "lng": -0.162730980291502}}}, "name": "Enterprise 100 Ltd", "place_id": "ChIJCcLELcYadkgR3lGlylS-PTw", "types": ["university", "point_of_interest", "establishment"], "rating": 5, "user_ratings_total": 1}, "ChIJDdJ-1McadkgRrxmq5Is9gf0": {"geometry": {"location": {"lat": 51.52572600000001, "lng": -0.161827}, "viewport": {"northeast": {"lat": 51.52709848029151, "lng": -0.1603320197084979}, "southwest": {"lat": 51.52440051970851, "lng": -0.163029980291502}}}, "name": "JustPark Rossmore Road", "place_id": "ChIJDdJ-1McadkgRrxmq5Is9gf0", "types": ["parking", "point_of_interest", "establishment"], "rating": 2.9, "user_ratings_total": 8}, "ChIJx2cVLcYadkgRkFcE7lclx-k": {"geometry": {"location": {"lat": 51.5260406, "lng": -0.1615209}, "viewport": {"northeast": {"lat": 51.5273895802915, "lng": -0.160171919708498}, "southwest": {"lat": 51.5246916197085, "lng": -0.162869880291502}}}, "name": "London Business School Gift Shop", "place_id": "ChIJx2cVLcYadkgRkFcE7lclx-k", "types": ["point_of_interest", "store", "establishment"], "rating": 3.3, "user_ratings_total": 3}, "ChIJRx0p0scadkgR-mml5WMa6rk": {"geometry": {"location": {"lat": 51.52592019999999, "lng": -0.1619499}, "viewport": {"northeast": {"lat": 51.52732983029149, "lng": -0.160650769708498}, "southwest": {"lat": 51.5246318697085, "lng": -0.163348730291502}}}, "name": "Human Appeal", "place_id": "ChIJRx0p0scadkgR-mml5WMa6rk", "types": ["point_of_interest", "establishment"]}, "ChIJf8It0scadkgRcrhO12-2VYo": {"geometry": {"location": {"lat": 51.52592010000001, "lng": -0.16195}, "viewport": {"northeast": {"lat": 51.52732978029151, "lng": -0.160650769708498}, "southwest": {"lat": 51.52463181970851, "lng": -0.163348730291502}}}, "name": "Human Appeal", "place_id": "ChIJf8It0scadkgRcrhO12-2VYo", "types": ["point_of_interest", "establishment"]}, "ChIJf8It0scadkgRaooEDA5gALE": {"geometry": {"location": {"lat": 51.52592010000001, "lng": -0.16195}, "viewport": {"northeast": {"lat": 51.52732978029151, "lng": -0.160650769708498}, "southwest": {"lat": 51.52463181970851, "lng": -0.163348730291502}}}, "name": "Human Appeal", "place_id": "ChIJf8It0scadkgRaooEDA5gALE", "types": ["point_of_interest", "establishment"]}, "ChIJ86h30ccadkgRpz8-5JgUKaA": {"geometry": {"location": {"lat": 51.525893, "lng": -0.162045}, "viewport": {"northeast": {"lat": 51.5273162302915, "lng": -0.160669719708498}, "southwest": {"lat": 51.5246182697085, "lng": -0.163367680291502}}}, "name": "Mortar + Pestle Thai Restuarant", "place_id": "ChIJ86h30ccadkgRpz8-5JgUKaA", "types": ["restaurant", "food", "point_of_interest", "establishment"], "rating": 4.5, "user_ratings_total": 107}, "ChIJCaXW0z4bdkgRQha7nJQNnso": {"geometry": {"location": {"lat": 51.52596450000001, "lng": -0.1620334}, "viewport": {"northeast": {"lat": 51.5273639302915, "lng": -0.160694419708498}, "southwest": {"lat": 51.5246659697085, "lng": -0.163392380291502}}}, "name": "Love Rose", "place_id": "ChIJCaXW0z4bdkgRQha7nJQNnso", "types": ["florist", "point_of_interest", "store", "establishment"], "rating": 5, "user_ratings_total": 10}, "ChIJRWiS0ccadkgRnNF3a8h9RE8": {"geometry": {"location": {"lat": 51.5259716, "lng": -0.1620417}, "viewport": {"northeast": {"lat": 51.5273701802915, "lng": -0.160699669708498}, "southwest": {"lat": 51.5246722197085, "lng": -0.163397630291502}}}, "name": "Crouch End Classics", "place_id": "ChIJRWiS0ccadkgRnNF3a8h9RE8", "types": ["point_of_interest", "establishment"]}, "ChIJoyrZzccadkgRrxP089mO_rc": {"geometry": {"location": {"lat": 51.526118, "lng": -0.161814}, "viewport": {"northeast": {"lat": 51.5274425802915, "lng": -0.160523019708498}, "southwest": {"lat": 51.52474461970851, "lng": -0.163220980291502}}}, "name": "London Business School (Stop LB)", "place_id": "ChIJoyrZzccadkgRrxP089mO_rc", "types": ["bus_station", "transit_station", "point_of_interest", "establishment"], "rating": 3.6, "user_ratings_total": 5}, "ChIJE2c-2McadkgRPobQGrIO3bY": {"geometry": {"location": {"lat": 51.52559189999999, "lng": -0.1621248}, "viewport": {"northeast": {"lat": 51.52690783029149, "lng": -0.160783269708498}, "southwest": {"lat": 51.52420986970849, "lng": -0.163481230291502}}}, "name": "Park Road London Business School", "place_id": "ChIJE2c-2McadkgRPobQGrIO3bY", "types": ["transit_station", "point_of_interest", "establishment"], "rating": 3, "user_ratings_total": 1}, "ChIJ7fS3McYadkgRMTmRek5Wpb4": {"geometry": {"location": {"lat": 51.5261551, "lng": -0.1611167}, "viewport": {"northeast": {"lat": 51.52750998029151, "lng": -0.159809469708498}, "southwest": {"lat": 51.52481201970851, "lng": -0.162507430291502}}}, "name": "Educational Consultant & Tutor", "place_id": "ChIJ7fS3McYadkgRMTmRek5Wpb4", "types": ["point_of_interest", "establishment"]}, "ChIJPW2gTukadkgRNFaycWcrfww": {"geometry": {"location": {"lat": 51.5259556, "lng": -0.1621944}, "viewport": {"northeast": {"lat": 51.5273832802915, "lng": -0.160746069708498}, "southwest": {"lat": 51.5246853197085, "lng": -0.163444030291502}}}, "name": "Moulin Rouge", "place_id": "ChIJPW2gTukadkgRNFaycWcrfww", "types": ["cafe", "food", "point_of_interest", "establishment"], "rating": 4.4, "user_ratings_total": 46}, "ChIJC2qU0ccadkgR4g0zYLlMEOs": {"geometry": {"location": {"lat": 51.5260002, "lng": -0.1621524}, "viewport": {"northeast": {"lat": 51.5274077802915, "lng": -0.160746319708498}, "southwest": {"lat": 51.5247098197085, "lng": -0.163444280291502}}}, "name": "Park Lane Dry Cleaning & Laundries", "place_id": "ChIJC2qU0ccadkgR4g0zYLlMEOs", "types": ["laundry", "point_of_interest", "establishment"], "rating": 4.2, "user_ratings_total": 10}, "ChIJN07D0ccadkgRf7NGZ0at8tw": {"geometry": {"location": {"lat": 51.5260015, "lng": -0.1621398}, "viewport": {"northeast": {"lat": 51.5274067302915, "lng": -0.160719819708498}, "southwest": {"lat": 51.5247087697085, "lng": -0.1634177802915021}}}, "name": "Roya's Cafe", "place_id": "ChIJN07D0ccadkgRf7NGZ0at8tw", "types": ["cafe", "food", "point_of_interest", "establishment"]}, "ChIJlTSnaewbdkgRZoW54zaaoXQ": {"geometry": {"location": {"lat": 51.5257405, "lng": -0.1622885}, "viewport": {"northeast": {"lat": 51.52724593029149, "lng": -0.160733869708498}, "southwest": {"lat": 51.52454796970849, "lng": -0.163431830291502}}}, "name": "GOZATO GROCERIES", "place_id": "ChIJlTSnaewbdkgRZoW54zaaoXQ", "types": ["food", "point_of_interest", "establishment"]}, "ChIJ-3zaZ5EbdkgRgTYQwAX0fy4": {"geometry": {"location": {"lat": 51.5257405, "lng": -0.1622885}, "viewport": {"northeast": {"lat": 51.52724593029149, "lng": -0.160733869708498}, "southwest": {"lat": 51.52454796970849, "lng": -0.163431830291502}}}, "name": "NewConsortia London", "place_id": "ChIJ-3zaZ5EbdkgRgTYQwAX0fy4", "types": ["point_of_interest", "establishment"]}, "ChIJqUmxP2cbdkgRq55Ri-7AedU": {"geometry": {"location": {"lat": 51.5257405, "lng": -0.1622885}, "viewport": {"northeast": {"lat": 51.52724593029149, "lng": -0.160733869708498}, "southwest": {"lat": 51.52454796970849, "lng": -0.163431830291502}}}, "name": "Attic Self Storage", "place_id": "ChIJqUmxP2cbdkgRq55Ri-7AedU", "types": ["storage", "point_of_interest", "establishment"], "rating": 5, "user_ratings_total": 41}, "ChIJQxwfmyobdkgRKdUfP0V-gS4": {"geometry": {"location": {"lat": 51.5257405, "lng": -0.1622885}, "viewport": {"northeast": {"lat": 51.52724593029149, "lng": -0.160733869708498}, "southwest": {"lat": 51.52454796970849, "lng": -0.163431830291502}}}, "name": "Shoro", "place_id": "ChIJQxwfmyobdkgRKdUfP0V-gS4", "types": ["point_of_interest", "establishment"]}, "ChIJjVez0McadkgRyYJcCGtVfGI": {"geometry": {"location": {"lat": 51.5257405, "lng": -0.1622885}, "viewport": {"northeast": {"lat": 51.52724593029149, "lng": -0.160733869708498}, "southwest": {"lat": 51.52454796970849, "lng": -0.163431830291502}}}, "name": "Thelondongirl", "place_id": "ChIJjVez0McadkgRyYJcCGtVfGI", "types": ["point_of_interest", "establishment"]}, "ChIJYTtZMsYadkgRdwSef-knVUY": {"geometry": {"location": {"lat": 51.526191, "lng": -0.1614858}, "viewport": {"northeast": {"lat": 51.52752333381631, "lng": -0.1600882105254725}, "southwest": {"lat": 51.52482537323331, "lng": -0.1627861711084766}}}, "name": "Parking lot", "place_id": "ChIJYTtZMsYadkgRdwSef-knVUY", "types": ["parking", "premise", "point_of_interest", "establishment"]}, "ChIJEdYobscadkgRmERaVxJNIYo": {"geometry": {"location": {"lat": 51.52871305002309, "lng": -0.1636169999238367}, "viewport": {"northeast": {"lat": 51.5300620302915, "lng": -0.162268019708498}, "southwest": {"lat": 51.5273640697085, "lng": -0.164965980291502}}}, "name": "Outer Circle", "place_id": "ChIJEdYobscadkgRmERaVxJNIYo", "types": ["route"]}, "ChIJi_47dMcadkgRV22GgccWgGs": {"geometry": {"location": {"lat": 51.5282588, "lng": -0.1633816}, "viewport": {"northeast": {"lat": 51.5296293802915, "lng": -0.161996169708498}, "southwest": {"lat": 51.5269314197085, "lng": -0.164694130291502}}}, "name": "Company of Cooks", "place_id": "ChIJi_47dMcadkgRV22GgccWgGs", "types": ["cafe", "food", "point_of_interest", "establishment"], "rating": 3.7, "user_ratings_total": 3}, "ChIJp9uPoccadkgR_4QfSWnlwTI": {"geometry": {"location": {"lat": 51.5283257, "lng": -0.1633062}, "viewport": {"northeast": {"lat": 51.5296977302915, "lng": -0.1620023697084979}, "southwest": {"lat": 51.5269997697085, "lng": -0.164700330291502}}}, "name": "Guard Dog Security", "place_id": "ChIJp9uPoccadkgR_4QfSWnlwTI", "types": ["point_of_interest", "establishment"], "rating": 3, "user_ratings_total": 2}, "ChIJtapvg_UbdkgRpmPORE0Eh_4": {"geometry": {"location": {"lat": 51.52786369999999, "lng": -0.163057}, "viewport": {"northeast": {"lat": 51.5292602302915, "lng": -0.161631019708498}, "southwest": {"lat": 51.5265622697085, "lng": -0.164328980291502}}}, "name": "Blue Plaque: H.G.Wells", "place_id": "ChIJtapvg_UbdkgRpmPORE0Eh_4", "types": ["point_of_interest", "establishment"], "rating": 4, "user_ratings_total": 1}, "ChIJiduPoccadkgRFXfB91aOaOo": {"geometry": {"location": {"lat": 51.52777619999999, "lng": -0.1629098}, "viewport": {"northeast": {"lat": 51.5291715802915, "lng": -0.161485719708498}, "southwest": {"lat": 51.5264736197085, "lng": -0.164183680291502}}}, "name": "W&G Llp", "place_id": "ChIJiduPoccadkgRFXfB91aOaOo", "types": ["point_of_interest", "establishment"]}, "ChIJ5e7SpYwbdkgRk6lH4mhdwkw": {"geometry": {"location": {"lat": 51.5277241, "lng": -0.1628293}, "viewport": {"northeast": {"lat": 51.5291198802915, "lng": -0.161404519708498}, "southwest": {"lat": 51.5264219197085, "lng": -0.164102480291502}}}, "name": "Ralph Vaughan Williams Blue Plaque", "place_id": "ChIJ5e7SpYwbdkgRk6lH4mhdwkw", "types": ["point_of_interest", "establishment"], "rating": 4, "user_ratings_total": 1}, "ChIJPX5AkscadkgRiTv9lG6M39w": {"geometry": {"location": {"lat": 51.52696070432585, "lng": -0.1637327588459817}, "viewport": {"northeast": {"lat": 51.5283110302915, "lng": -0.162381669708498}, "southwest": {"lat": 51.52561306970851, "lng": -0.165079630291502}}}, "name": "Park Road", "place_id": "ChIJPX5AkscadkgRiTv9lG6M39w", "types": ["route"]}, "ChIJhyiG8scadkgRv-6LenaF0JM": {"geometry": {"location": {"lat": 51.52666019999999, "lng": -0.1637653}, "viewport": {"northeast": {"lat": 51.52795108029149, "lng": -0.162509169708498}, "southwest": {"lat": 51.52525311970849, "lng": -0.1652071302915021}}}, "name": "eLagaan", "place_id": "ChIJhyiG8scadkgRv-6LenaF0JM", "types": ["point_of_interest", "establishment"]}, "ChIJRZIhl8cadkgR6AvomCY-qGA": {"geometry": {"location": {"lat": 51.5271327, "lng": -0.1631298}, "viewport": {"northeast": {"lat": 51.52843048029149, "lng": -0.161859419708498}, "southwest": {"lat": 51.5257325197085, "lng": -0.164557380291502}}}, "name": "Orangutan Foundation", "place_id": "ChIJRZIhl8cadkgR6AvomCY-qGA", "types": ["point_of_interest", "establishment"], "rating": 5, "user_ratings_total": 2}, "ChIJcQHs6ccadkgRRjNlCCO3v6k": {"geometry": {"location": {"lat": 51.52633350000001, "lng": -0.1631663}, "viewport": {"northeast": {"lat": 51.5277600802915, "lng": -0.161710769708498}, "southwest": {"lat": 51.5250621197085, "lng": -0.164408730291502}}}, "name": "euroline design & build", "place_id": "ChIJcQHs6ccadkgRRjNlCCO3v6k", "types": ["general_contractor", "point_of_interest", "establishment"]}, "ChIJz1_jD1obdkgRj7N7htjamx8": {"geometry": {"location": {"lat": 51.52689360000001, "lng": -0.1635722}, "viewport": {"northeast": {"lat": 51.5282488302915, "lng": -0.162213269708498}, "southwest": {"lat": 51.5255508697085, "lng": -0.164911230291502}}}, "name": "Lorry Mounted Crane Transport Services", "place_id": "ChIJz1_jD1obdkgRj7N7htjamx8", "types": ["point_of_interest", "establishment"]}, "ChIJxZLr6scadkgRhG_JSv9dedM": {"geometry": {"location": {"lat": 51.5266229, "lng": -0.1632072}, "viewport": {"northeast": {"lat": 51.52795888029149, "lng": -0.161879019708498}, "southwest": {"lat": 51.52526091970849, "lng": -0.164576980291502}}}, "name": "tvrepairexpert", "place_id": "ChIJxZLr6scadkgRhG_JSv9dedM", "types": ["electronics_store", "point_of_interest", "store", "establishment"]}, "ChIJwd1j-3EbdkgR90UejfULPxw": {"geometry": {"location": {"lat": 51.5272331, "lng": -0.1633431}, "viewport": {"northeast": {"lat": 51.52853898029149, "lng": -0.162061869708498}, "southwest": {"lat": 51.52584101970849, "lng": -0.164759830291502}}}, "name": "E. H. Shepard Blue Plaque", "place_id": "ChIJwd1j-3EbdkgR90UejfULPxw", "types": ["point_of_interest", "establishment"], "rating": 4, "user_ratings_total": 1}, "ChIJhSo-7ccadkgRJ_6QMrf2njg": {"geometry": {"location": {"lat": 51.5266398, "lng": -0.1637301}, "viewport": {"northeast": {"lat": 51.5280706302915, "lng": -0.162254769708498}, "southwest": {"lat": 51.5253726697085, "lng": -0.164952730291502}}}, "name": "Translations For All", "place_id": "ChIJhSo-7ccadkgRJ_6QMrf2njg", "types": ["point_of_interest", "establishment"]}, "ChIJK10uvMUbdkgRkQd5i8mt3c0": {"geometry": {"location": {"lat": 51.5265679, "lng": -0.1638618}, "viewport": {"northeast": {"lat": 51.52789943029151, "lng": -0.162540719708498}, "southwest": {"lat": 51.52520146970851, "lng": -0.165238680291502}}}, "name": "Dochomerepair.com", "place_id": "ChIJK10uvMUbdkgRkQd5i8mt3c0", "types": ["general_contractor", "point_of_interest", "establishment"]}, "ChIJm9Lf3scadkgRreREx38Zb_Y": {"geometry": {"location": {"lat": 51.52562, "lng": -0.1629045}, "viewport": {"northeast": {"lat": 51.5269317302915, "lng": -0.161590619708498}, "southwest": {"lat": 51.5242337697085, "lng": -0.164288580291502}}}, "name": "Thai London Therapy Marylebone", "place_id": "ChIJm9Lf3scadkgRreREx38Zb_Y", "types": ["beauty_salon", "hair_care", "spa", "health", "point_of_interest", "establishment"], "rating": 4.4, "user_ratings_total": 124}, "ChIJ_ZGN2scadkgRZUHmmvOi4yM": {"geometry": {"location": {"lat": 51.5257328, "lng": -0.1625137}, "viewport": {"northeast": {"lat": 51.5272776802915, "lng": -0.1609175697084979}, "southwest": {"lat": 51.5245797197085, "lng": -0.163615530291502}}}, "name": "Rudolf Steiner House", "place_id": "ChIJ_ZGN2scadkgRZUHmmvOi4yM", "types": ["point_of_interest", "establishment"], "rating": 4.5, "user_ratings_total": 2}, "ChIJWyCh6rYcdkgRbr_nfAKGWvg": {"geometry": {"location": {"lat": 51.5255288, "lng": -0.1626488}, "viewport": {"northeast": {"lat": 51.5268324302915, "lng": -0.161278369708498}, "southwest": {"lat": 51.5241344697085, "lng": -0.163976330291502}}}, "name": "4 Balance & Health", "place_id": "ChIJWyCh6rYcdkgRbr_nfAKGWvg", "types": ["health", "point_of_interest", "establishment"], "rating": 4.9, "user_ratings_total": 78}, "ChIJm9Lf3scadkgRvDJyA1IiLgQ": {"geometry": {"location": {"lat": 51.5255889, "lng": -0.1628752}, "viewport": {"northeast": {"lat": 51.5269091802915, "lng": -0.161553919708498}, "southwest": {"lat": 51.5242112197085, "lng": -0.164251880291502}}}, "name": "Ultra Estates", "place_id": "ChIJm9Lf3scadkgRvDJyA1IiLgQ", "types": ["real_estate_agency", "point_of_interest", "establishment"], "rating": 4.7, "user_ratings_total": 61}, "ChIJTfzX084adkgRvUbr2xcY3zY": {"geometry": {"location": {"lat": 51.52599759999999, "lng": -0.1626124}, "viewport": {"northeast": {"lat": 51.52748043029149, "lng": -0.161050219708498}, "southwest": {"lat": 51.52478246970849, "lng": -0.163748180291502}}}, "name": "Aston Chase", "place_id": "ChIJTfzX084adkgRvUbr2xcY3zY", "types": ["finance", "real_estate_agency", "point_of_interest", "establishment"], "rating": 5, "user_ratings_total": 138}, "ChIJFcFg5scadkgRgsNHB7575Zc": {"geometry": {"location": {"lat": 51.52591719999999, "lng": -0.1633768}, "viewport": {"northeast": {"lat": 51.52725943029149, "lng": -0.162048319708498}, "southwest": {"lat": 51.52456146970849, "lng": -0.164746280291502}}}, "name": "KAST INTERNATIONAL LTD", "place_id": "ChIJFcFg5scadkgRgsNHB7575Zc", "types": ["point_of_interest", "establishment"]}, "ChIJu8P33scadkgR0_HRvvQGG5s": {"geometry": {"location": {"lat": 51.52562, "lng": -0.1629045}, "viewport": {"northeast": {"lat": 51.5269317302915, "lng": -0.161590619708498}, "southwest": {"lat": 51.5242337697085, "lng": -0.164288580291502}}}, "name": "Massage Angels", "place_id": "ChIJu8P33scadkgR0_HRvvQGG5s", "types": ["point_of_interest", "establishment"]}, "ChIJKQxsAcgadkgRw6GfjNOeXDs": {"geometry": {"location": {"lat": 51.5255424, "lng": -0.1630331}, "viewport": {"northeast": {"lat": 51.5268961302915, "lng": -0.161628169708498}, "southwest": {"lat": 51.5241981697085, "lng": -0.164326130291502}}}, "name": "Palgrave Gardens Gate", "place_id": "ChIJKQxsAcgadkgRw6GfjNOeXDs", "types": ["point_of_interest", "establishment"], "rating": 4.4, "user_ratings_total": 16}, "ChIJgSDQ3scadkgRaafggHqdJqI": {"geometry": {"location": {"lat": 51.5256234, "lng": -0.1628655}, "viewport": {"northeast": {"lat": 51.5269296802915, "lng": -0.161557769708498}, "southwest": {"lat": 51.5242317197085, "lng": -0.164255730291502}}}, "name": "The Rossmore Spa", "place_id": "ChIJgSDQ3scadkgRaafggHqdJqI", "types": ["spa", "point_of_interest", "establishment"], "rating": 4, "user_ratings_total": 4}, "ChIJp5um2McadkgRPPqHivt-Ups": {"geometry": {"location": {"lat": 51.5255288, "lng": -0.1626488}, "viewport": {"northeast": {"lat": 51.52687778029151, "lng": -0.161299819708498}, "southwest": {"lat": 51.52417981970851, "lng": -0.1639977802915021}}}, "name": "Manuel Galizia", "place_id": "ChIJp5um2McadkgRPPqHivt-Ups", "types": ["gym", "health", "point_of_interest", "establishment"], "rating": 5, "user_ratings_total": 2}, "ChIJB8j_am8bdkgRb9mHPWUGsIs": {"geometry": {"location": {"lat": 51.5255288, "lng": -0.1626488}, "viewport": {"northeast": {"lat": 51.5268324302915, "lng": -0.161278369708498}, "southwest": {"lat": 51.5241344697085, "lng": -0.163976330291502}}}, "name": "Tom Winterbottom Personal Training", "place_id": "ChIJB8j_am8bdkgRb9mHPWUGsIs", "types": ["gym", "health", "point_of_interest", "establishment"], "rating": 5, "user_ratings_total": 31}, "ChIJayv4wi4bdkgRW3IVtEs7Itw": {"geometry": {"location": {"lat": 51.5259742, "lng": -0.1638021}, "viewport": {"northeast": {"lat": 51.52740448029149, "lng": -0.162297919708498}, "southwest": {"lat": 51.5247065197085, "lng": -0.164995880291502}}}, "name": "Stephanie Harrison", "place_id": "ChIJayv4wi4bdkgRW3IVtEs7Itw", "types": ["point_of_interest", "establishment"]}, "ChIJP6c-28cadkgR1LwQmeHkWIQ": {"geometry": {"location": {"lat": 51.52600100000001, "lng": -0.162612}, "viewport": {"northeast": {"lat": 51.5272847302915, "lng": -0.160775919708498}, "southwest": {"lat": 51.5245867697085, "lng": -0.163473880291502}}}, "name": "Chargemaster Charging Station", "place_id": "ChIJP6c-28cadkgR1LwQmeHkWIQ", "types": ["point_of_interest", "establishment"]}, "ChIJAQDAm7gadkgReN4eztnvCnI": {"geometry": {"location": {"lat": 51.528938, "lng": -0.1650437}, "viewport": {"northeast": {"lat": 51.5300931302915, "lng": -0.164114319708498}, "southwest": {"lat": 51.52739516970851, "lng": -0.166812280291502}}}, "name": "S.M.Funerals Ltd", "place_id": "ChIJAQDAm7gadkgReN4eztnvCnI", "types": ["point_of_interest", "establishment"], "rating": 5, "user_ratings_total": 1}, "ChIJ8145WCUbdkgRwkqEVhlpThI": {"geometry": {"location": {"lat": 51.52901000000001, "lng": -0.1648717}, "viewport": {"northeast": {"lat": 51.5304661302915, "lng": -0.163285669708498}, "southwest": {"lat": 51.52776816970851, "lng": -0.165983630291502}}}, "name": "London Central Mosque", "place_id": "ChIJ8145WCUbdkgRwkqEVhlpThI", "types": ["mosque", "place_of_worship", "point_of_interest", "establishment"], "rating": 4.7, "user_ratings_total": 4122}, "ChIJmyUSk7gadkgR3gHm8HCia0M": {"geometry": {"location": {"lat": 51.528938, "lng": -0.1650437}, "viewport": {"northeast": {"lat": 51.5300931302915, "lng": -0.164114319708498}, "southwest": {"lat": 51.52739516970851, "lng": -0.166812280291502}}}, "name": "Madad Community Interest Company", "place_id": "ChIJmyUSk7gadkgR3gHm8HCia0M", "types": ["point_of_interest", "establishment"], "rating": 5, "user_ratings_total": 2}, "ChIJRfEPVU4bdkgRs6asniW_F18": {"geometry": {"location": {"lat": 51.5288972, "lng": -0.1647584}, "viewport": {"northeast": {"lat": 51.5300171302915, "lng": -0.163905269708498}, "southwest": {"lat": 51.52731916970851, "lng": -0.166603230291502}}}, "name": "Bookshop", "place_id": "ChIJRfEPVU4bdkgRs6asniW_F18", "types": ["book_store", "point_of_interest", "store", "establishment"], "rating": 5, "user_ratings_total": 4}, "ChIJKQOzjbgadkgRy-2MLpKVgnc": {"geometry": {"location": {"lat": 51.5288309, "lng": -0.1646264}, "viewport": {"northeast": {"lat": 51.5300391802915, "lng": -0.163209419708498}, "southwest": {"lat": 51.5273412197085, "lng": -0.165907380291502}}}, "name": "Darussalam International Publication Ltd", "place_id": "ChIJKQOzjbgadkgRy-2MLpKVgnc", "types": ["book_store", "point_of_interest", "store", "establishment"], "rating": 4.9, "user_ratings_total": 22}, "ChIJ2VU6ebgadkgR61dTwgpVhbI": {"geometry": {"location": {"lat": 51.52764333513107, "lng": -0.1647905710551426}, "viewport": {"northeast": {"lat": 51.52899593029151, "lng": -0.163435119708498}, "southwest": {"lat": 51.52629796970851, "lng": -0.166133080291502}}}, "name": "Park Road", "place_id": "ChIJ2VU6ebgadkgR61dTwgpVhbI", "types": ["route"]}, "ChIJx4r4ZLgadkgR7DyQeAxfwkc": {"geometry": {"location": {"lat": 51.5275647, "lng": -0.1653313}, "viewport": {"northeast": {"lat": 51.5290127802915, "lng": -0.163792669708498}, "southwest": {"lat": 51.5263148197085, "lng": -0.166490630291502}}}, "name": "CARE Fertility London", "place_id": "ChIJx4r4ZLgadkgR7DyQeAxfwkc", "types": ["hospital", "health", "point_of_interest", "establishment"], "rating": 4, "user_ratings_total": 47}, "ChIJx4r4ZLgadkgRBsvuEA24Gfw": {"geometry": {"location": {"lat": 51.52755399999999, "lng": -0.1654252}, "viewport": {"northeast": {"lat": 51.5290186802915, "lng": -0.163854769708498}, "southwest": {"lat": 51.5263207197085, "lng": -0.166552730291502}}}, "name": "Sen-Net", "place_id": "ChIJx4r4ZLgadkgRBsvuEA24Gfw", "types": ["point_of_interest", "establishment"]}, "ChIJq6rqgLgadkgR-QUERR0UuGc": {"geometry": {"location": {"lat": 51.5281168, "lng": -0.1648548}, "viewport": {"northeast": {"lat": 51.5294227302915, "lng": -0.163585919708498}, "southwest": {"lat": 51.5267247697085, "lng": -0.166283880291502}}}, "name": "Indie Global Ltd", "place_id": "ChIJq6rqgLgadkgR-QUERR0UuGc", "types": ["point_of_interest", "establishment"]}, "ChIJq6rqgLgadkgRRlMSuZlkxCc": {"geometry": {"location": {"lat": 51.5281168, "lng": -0.1648548}, "viewport": {"northeast": {"lat": 51.5294227302915, "lng": -0.163585919708498}, "southwest": {"lat": 51.5267247697085, "lng": -0.166283880291502}}}, "name": "Giving Impetus to Voluntary Effort", "place_id": "ChIJq6rqgLgadkgRRlMSuZlkxCc", "types": ["point_of_interest", "establishment"]}, "ChIJuXZsf7gadkgRKAf9pR_0wTA": {"geometry": {"location": {"lat": 51.5279384, "lng": -0.1645165}, "viewport": {"northeast": {"lat": 51.5292303802915, "lng": -0.1632735697084979}, "southwest": {"lat": 51.5265324197085, "lng": -0.165971530291502}}}, "name": "Abbey Lodge", "place_id": "ChIJuXZsf7gadkgRKAf9pR_0wTA", "types": ["lodging", "point_of_interest", "establishment"], "rating": 5, "user_ratings_total": 1}, "ChIJDYiQZrgadkgR9cdxSPrGKlc": {"geometry": {"location": {"lat": 51.5278759, "lng": -0.1654202}, "viewport": {"northeast": {"lat": 51.5291873302915, "lng": -0.164021569708498}, "southwest": {"lat": 51.5264893697085, "lng": -0.166719530291502}}}, "name": "Lorne Close LBS", "place_id": "ChIJDYiQZrgadkgR9cdxSPrGKlc", "types": ["point_of_interest", "establishment"], "rating": 5, "user_ratings_total": 1}, "ChIJdVKch8cadkgRMZSBNg4qhp8": {"geometry": {"location": {"lat": 51.527561, "lng": -0.164644}, "viewport": {"northeast": {"lat": 51.5289193302915, "lng": -0.163277069708498}, "southwest": {"lat": 51.5262213697085, "lng": -0.165975030291502}}}, "name": "Alpha Close (Stop LA)", "place_id": "ChIJdVKch8cadkgRMZSBNg4qhp8", "types": ["transit_station", "point_of_interest", "establishment"], "rating": 4, "user_ratings_total": 1}, "ChIJ85m61fgbdkgRemJJOLRGlAc": {"geometry": {"location": {"lat": 51.5276721, "lng": -0.1655044}, "viewport": {"northeast": {"lat": 51.5290175302915, "lng": -0.164150769708498}, "southwest": {"lat": 51.5263195697085, "lng": -0.166848730291502}}}, "name": "Granduer Watches", "place_id": "ChIJ85m61fgbdkgRemJJOLRGlAc", "types": ["point_of_interest", "store", "establishment"]}, "ChIJLxeNpKobdkgRulcf4Hf0UwA": {"geometry": {"location": {"lat": 51.5276663, "lng": -0.1655025}, "viewport": {"northeast": {"lat": 51.52911958029151, "lng": -0.163953869708498}, "southwest": {"lat": 51.52642161970851, "lng": -0.166651830291502}}}, "name": "Park Lorne", "place_id": "ChIJLxeNpKobdkgRulcf4Hf0UwA", "types": ["point_of_interest", "establishment"]}, "ChIJtXzhZLgadkgR7vvYqmLPsfg": {"geometry": {"location": {"lat": 51.5275537, "lng": -0.1654253}, "viewport": {"northeast": {"lat": 51.52901843029149, "lng": -0.163854719708498}, "southwest": {"lat": 51.5263204697085, "lng": -0.166552680291502}}}, "name": "KAX CONSULTANCY LIMITED", "place_id": "ChIJtXzhZLgadkgR7vvYqmLPsfg", "types": ["car_dealer", "point_of_interest", "store", "establishment"], "rating": 3.5, "user_ratings_total": 2}, "ChIJWZpDeLgadkgRHONrfhQf4Qo": {"geometry": {"location": {"lat": 51.52742440000001, "lng": -0.1648463}, "viewport": {"northeast": {"lat": 51.5288271802915, "lng": -0.163394319708498}, "southwest": {"lat": 51.52612921970851, "lng": -0.166092280291502}}}, "name": "Supercar Hire UK", "place_id": "ChIJWZpDeLgadkgRHONrfhQf4Qo", "types": ["car_rental", "point_of_interest", "establishment"], "rating": 4.1, "user_ratings_total": 11}, "ChIJJbNuL-0bdkgR0LILeGJAJ9s": {"geometry": {"location": {"lat": 51.5283732, "lng": -0.1653719}, "viewport": {"northeast": {"lat": 51.5296816802915, "lng": -0.164134969708498}, "southwest": {"lat": 51.5269837197085, "lng": -0.166832930291502}}}, "name": "Hanover Gate Guard House", "place_id": "ChIJJbNuL-0bdkgR0LILeGJAJ9s", "types": ["park", "point_of_interest", "establishment"], "rating": 5, "user_ratings_total": 1}, "ChIJ702ee7gadkgRfuzeHf3ZgQw": {"geometry": {"location": {"lat": 51.5276645, "lng": -0.1651741}, "viewport": {"northeast": {"lat": 51.52898381322885, "lng": -0.1637705744304332}, "southwest": {"lat": 51.52628585264585, "lng": -0.1664685350134373}}}, "name": "Parking lot", "place_id": "ChIJ702ee7gadkgRfuzeHf3ZgQw", "types": ["parking", "premise", "point_of_interest", "establishment"]}, "ChIJr6cK8bkbdkgRSQp94V56jv0": {"geometry": {"location": {"lat": 51.5272541, "lng": -0.1648957}, "viewport": {"northeast": {"lat": 51.5287088802915, "lng": -0.163369469708498}, "southwest": {"lat": 51.5260109197085, "lng": -0.166067430291502}}}, "name": "Top Events Videographer Marylebone", "place_id": "ChIJr6cK8bkbdkgRSQp94V56jv0", "types": ["point_of_interest", "establishment"]}, "ChIJgwYKGbgadkgR7ubNmhaYxUw": {"geometry": {"location": {"lat": 51.52583538162441, "lng": -0.165703276489874}, "viewport": {"northeast": {"lat": 51.52723878029149, "lng": -0.164421819708498}, "southwest": {"lat": 51.5245408197085, "lng": -0.167119780291502}}}, "name": "2-24 Paveley St", "place_id": "ChIJgwYKGbgadkgR7ubNmhaYxUw", "types": ["route"]}, "ChIJ8QPm6LgadkgRs3v1eD2ZRhk": {"geometry": {"location": {"lat": 51.52912246919747, "lng": -0.1666498207596755}, "viewport": {"northeast": {"lat": 51.5304715302915, "lng": -0.165300669708498}, "southwest": {"lat": 51.5277735697085, "lng": -0.167998630291502}}}, "name": "Park Road", "place_id": "ChIJ8QPm6LgadkgRs3v1eD2ZRhk", "types": ["route"]}, "ChIJg-2O57gadkgRaed8izZzfVY": {"geometry": {"location": {"lat": 51.529318, "lng": -0.1669155}, "viewport": {"northeast": {"lat": 51.53065503029151, "lng": -0.165592819708498}, "southwest": {"lat": 51.52795706970851, "lng": -0.168290780291502}}}, "name": "Park Road Lords Cricket Ground", "place_id": "ChIJg-2O57gadkgRaed8izZzfVY", "types": ["transit_station", "point_of_interest", "establishment"]}, "ChIJC2gK57gadkgRvaW97wkhR8g": {"geometry": {"location": {"lat": 51.52925099999999, "lng": -0.166983}, "viewport": {"northeast": {"lat": 51.53062488029149, "lng": -0.165579019708498}, "southwest": {"lat": 51.52792691970849, "lng": -0.168276980291502}}}, "name": "London Central Mosque (Stop N)", "place_id": "ChIJC2gK57gadkgRvaW97wkhR8g", "types": ["transit_station", "point_of_interest", "establishment"], "rating": 4.5, "user_ratings_total": 4}, "ChIJ6ZX68bgadkgRv5ikZNFgS3s": {"geometry": {"location": {"lat": 51.5286645, "lng": -0.1666536}, "viewport": {"northeast": {"lat": 51.5301012802915, "lng": -0.165127269708498}, "southwest": {"lat": 51.5274033197085, "lng": -0.1678252302915021}}}, "name": "Atrium Apartments", "place_id": "ChIJ6ZX68bgadkgRv5ikZNFgS3s", "types": ["point_of_interest", "establishment"], "rating": 4.5, "user_ratings_total": 20}, "ChIJVVUl8LgadkgR09tkSWkiAVk": {"geometry": {"location": {"lat": 51.5286482, "lng": -0.166652}, "viewport": {"northeast": {"lat": 51.5300358302915, "lng": -0.165079719708498}, "southwest": {"lat": 51.5273378697085, "lng": -0.167777680291502}}}, "name": "SENER CONSTRUCTION LTD", "place_id": "ChIJVVUl8LgadkgR09tkSWkiAVk", "types": ["general_contractor", "point_of_interest", "establishment"]}, "ChIJa89a3bgadkgRVLiM_s3nPiA": {"geometry": {"location": {"lat": 51.529377, "lng": -0.166834}, "viewport": {"northeast": {"lat": 51.5307069802915, "lng": -0.165526919708498}, "southwest": {"lat": 51.5280090197085, "lng": -0.168224880291502}}}, "name": "London Central Mosque (Stop P)", "place_id": "ChIJa89a3bgadkgRVLiM_s3nPiA", "types": ["transit_station", "point_of_interest", "establishment"], "rating": 4, "user_ratings_total": 6}, "ChIJYcFYVrgadkgRW3bm0R_0t8g": {"geometry": {"location": {"lat": 51.52787449156625, "lng": -0.1670320945211712}, "viewport": {"northeast": {"lat": 51.52922263029151, "lng": -0.165684669708498}, "southwest": {"lat": 51.52652466970851, "lng": -0.168382630291502}}}, "name": "Paveley Street", "place_id": "ChIJYcFYVrgadkgRW3bm0R_0t8g", "types": ["route"]}, "ChIJbxQdurEadkgRV8YOkEKagFU": {"geometry": {"location": {"lat": 51.5280372, "lng": -0.166685}, "viewport": {"northeast": {"lat": 51.5292965302915, "lng": -0.165497669708498}, "southwest": {"lat": 51.5265985697085, "lng": -0.168195630291502}}}, "name": "Hog Wartz", "place_id": "ChIJbxQdurEadkgRV8YOkEKagFU", "types": ["point_of_interest", "establishment"]}, "ChIJFdV0argadkgR5rdUSrSdvwc": {"geometry": {"location": {"lat": 51.52697870193796, "lng": -0.1659948976221475}, "viewport": {"northeast": {"lat": 51.52831898029149, "lng": -0.164675269708498}, "southwest": {"lat": 51.5256210197085, "lng": -0.167373230291502}}}, "name": "Paveley Street", "place_id": "ChIJFdV0argadkgR5rdUSrSdvwc", "types": ["route"]}, "ChIJddjADRUbdkgRDkW-YupSMaU": {"geometry": {"location": {"lat": 51.52683769999999, "lng": -0.1668746}, "viewport": {"northeast": {"lat": 51.5282427302915, "lng": -0.165610219708498}, "southwest": {"lat": 51.5255447697085, "lng": -0.168308180291502}}}, "name": "SP-Life-Energy - Reiki, Yoga, Meditation", "place_id": "ChIJddjADRUbdkgRDkW-YupSMaU", "types": ["school", "health", "point_of_interest", "establishment"], "rating": 5, "user_ratings_total": 13}, "ChIJs9JLPrgadkgR4ofB7FLMzSM": {"geometry": {"location": {"lat": 51.526536, "lng": -0.1661449}, "viewport": {"northeast": {"lat": 51.5278914302915, "lng": -0.164804619708498}, "southwest": {"lat": 51.5251934697085, "lng": -0.167502580291502}}}, "name": "ubitricity Charging Station", "place_id": "ChIJs9JLPrgadkgR4ofB7FLMzSM", "types": ["point_of_interest", "establishment"]}, "ChIJwTFBnk8bdkgRKI3hzRiw8qc": {"geometry": {"location": {"lat": 51.5264296, "lng": -0.1670973}, "viewport": {"northeast": {"lat": 51.5277557802915, "lng": -0.165793669708498}, "southwest": {"lat": 51.5250578197085, "lng": -0.168491630291502}}}, "name": "Eagles Marylebone Builders", "place_id": "ChIJwTFBnk8bdkgRKI3hzRiw8qc", "types": ["point_of_interest", "establishment"], "rating": 5, "user_ratings_total": 4}, "ChIJ84-LObgadkgR7aNSb9DuhB4": {"geometry": {"location": {"lat": 51.52643029999999, "lng": -0.1665467}, "viewport": {"northeast": {"lat": 51.52779395036384, "lng": -0.1652279469068554}, "southwest": {"lat": 51.52509598978084, "lng": -0.1679259074898594}}}, "name": "Parking lot", "place_id": "ChIJ84-LObgadkgR7aNSb9DuhB4", "types": ["parking", "premise", "point_of_interest", "establishment"]}, "ChIJdRW7MLgadkgRo42TgLoWkqU": {"geometry": {"location": {"lat": 51.5263478, "lng": -0.1668222}, "viewport": {"northeast": {"lat": 51.52768200645441, "lng": -0.1654792227948466}, "southwest": {"lat": 51.52498404587141, "lng": -0.1681771833778506}}}, "name": "Parking lot", "place_id": "ChIJdRW7MLgadkgRo42TgLoWkqU", "types": ["parking", "premise", "point_of_interest", "establishment"]}, "ChIJD6G3IbgadkgRplVyxeJWCI8": {"geometry": {"location": {"lat": 51.5256036, "lng": -0.1661384}, "viewport": {"northeast": {"lat": 51.5267514302915, "lng": -0.164617819708498}, "southwest": {"lat": 51.5240534697085, "lng": -0.167315780291502}}}, "name": "Hardwick House", "place_id": "ChIJD6G3IbgadkgRplVyxeJWCI8", "types": ["point_of_interest", "establishment"], "rating": 5, "user_ratings_total": 4}, "ChIJGbkdw8YadkgRkrG90hilX4E": {"geometry": {"location": {"lat": 51.5294878, "lng": -0.160617}, "viewport": {"northeast": {"lat": 51.5364287873967, "lng": -0.1446095762285824}, "southwest": {"lat": 51.52254575422788, "lng": -0.1766244237714176}}}, "name": "Arup PPM Summer Picnic", "place_id": "ChIJGbkdw8YadkgRkrG90hilX4E", "types": ["premise", "point_of_interest", "establishment"]}, "ChIJG9WdMMYadkgRI3crwPFSnL8": {"geometry": {"location": {"lat": 51.5261552, "lng": -0.160668}, "viewport": {"northeast": {"lat": 51.52733463029149, "lng": -0.159697219708498}, "southwest": {"lat": 51.5246366697085, "lng": -0.162395180291502}}}, "name": "London Business School", "place_id": "ChIJG9WdMMYadkgRI3crwPFSnL8", "types": ["university", "point_of_interest", "establishment"], "rating": 4.7, "user_ratings_total": 272}, "ChIJNWEYO8YadkgRLxtdvXayJC4": {"geometry": {"location": {"lat": 51.5261546, "lng": -0.1606692}, "viewport": {"northeast": {"lat": 51.5275375302915, "lng": -0.159547269708498}, "southwest": {"lat": 51.5248395697085, "lng": -0.162245230291502}}}, "name": "PropLabs\u200b", "place_id": "ChIJNWEYO8YadkgRLxtdvXayJC4", "types": ["finance", "point_of_interest", "establishment"]}, "ChIJe3XEMMYadkgRGJK9PJ6dOGk": {"geometry": {"location": {"lat": 51.52633549999999, "lng": -0.1610101}, "viewport": {"northeast": {"lat": 51.5276377302915, "lng": -0.159756169708498}, "southwest": {"lat": 51.5249397697085, "lng": -0.162454130291502}}}, "name": "London Business School Photography Club", "place_id": "ChIJe3XEMMYadkgRGJK9PJ6dOGk", "types": ["point_of_interest", "establishment"]}, "ChIJdWwTqOYbdkgRehh7W1lX3ys": {"geometry": {"location": {"lat": 51.52635590000001, "lng": -0.1610269}, "viewport": {"northeast": {"lat": 51.5276567302915, "lng": -0.159775769708498}, "southwest": {"lat": 51.5249587697085, "lng": -0.162473730291502}}}, "name": "Whisk Away", "place_id": "ChIJdWwTqOYbdkgRehh7W1lX3ys", "types": ["travel_agency", "point_of_interest", "establishment"], "rating": 4.2, "user_ratings_total": 5}, "ChIJAwDQMMYadkgRLBS5bvnImhg": {"geometry": {"location": {"lat": 51.526356, "lng": -0.1610269}, "viewport": {"northeast": {"lat": 51.5276568302915, "lng": -0.159775819708498}, "southwest": {"lat": 51.5249588697085, "lng": -0.162473780291502}}}, "name": "ELVO", "place_id": "ChIJAwDQMMYadkgRLBS5bvnImhg", "types": ["point_of_interest", "establishment"]}, "ChIJh3pewccadkgRfAB3-qjpXc8": {"geometry": {"location": {"lat": 51.52640891868296, "lng": -0.1627617176400659}, "viewport": {"northeast": {"lat": 51.52777083029149, "lng": -0.161397919708498}, "southwest": {"lat": 51.5250728697085, "lng": -0.164095880291502}}}, "name": "100 A41", "place_id": "ChIJh3pewccadkgRfAB3-qjpXc8", "types": ["route"]}, "ChIJkfUgL8YadkgR35n_vJTk9iw": {"geometry": {"location": {"lat": 51.5264472, "lng": -0.1621859}, "viewport": {"northeast": {"lat": 51.5277119302915, "lng": -0.160942269708498}, "southwest": {"lat": 51.5250139697085, "lng": -0.163640230291502}}}, "name": "The Windsor Castle Pub", "place_id": "ChIJkfUgL8YadkgR35n_vJTk9iw", "types": ["bar", "restaurant", "food", "point_of_interest", "establishment"], "rating": 4.2, "user_ratings_total": 309}, "ChIJUS53xccadkgR5C-Sh5wA5sw": {"geometry": {"location": {"lat": 51.5261779, "lng": -0.1623375}, "viewport": {"northeast": {"lat": 51.5275555802915, "lng": -0.160958669708498}, "southwest": {"lat": 51.5248576197085, "lng": -0.163656630291502}}}, "name": "ESB ecars Charging Station", "place_id": "ChIJUS53xccadkgR5C-Sh5wA5sw", "types": ["point_of_interest", "establishment"]}, "ChIJYwbfz8cadkgRb9rmKxqo_A8": {"geometry": {"location": {"lat": 51.5260607, "lng": -0.1622552}, "viewport": {"northeast": {"lat": 51.5274562802915, "lng": -0.160828069708498}, "southwest": {"lat": 51.5247583197085, "lng": -0.163526030291502}}}, "name": "Talk Home", "place_id": "ChIJYwbfz8cadkgRb9rmKxqo_A8", "types": ["store", "point_of_interest", "establishment"], "rating": 5, "user_ratings_total": 4}, "ChIJJf0u0McadkgR056s_rhQNp4": {"geometry": {"location": {"lat": 51.5260383, "lng": -0.1622088}, "viewport": {"northeast": {"lat": 51.5274422302915, "lng": -0.160789919708498}, "southwest": {"lat": 51.5247442697085, "lng": -0.163487880291502}}}, "name": "Rossmore Court", "place_id": "ChIJJf0u0McadkgR056s_rhQNp4", "types": ["point_of_interest", "establishment"], "rating": 4.7, "user_ratings_total": 9}, "ChIJJa2D2scadkgR3BQ8JU2eDH0": {"geometry": {"location": {"lat": 51.525931, "lng": -0.1623699}, "viewport": {"northeast": {"lat": 51.5273976802915, "lng": -0.1608919197084979}, "southwest": {"lat": 51.5246997197085, "lng": -0.163589880291502}}}, "name": "Source London Charging Station", "place_id": "ChIJJa2D2scadkgR3BQ8JU2eDH0", "types": ["point_of_interest", "establishment"]}, "ChIJzfSTiMcadkgRyYtl_bNMO9Y": {"geometry": {"location": {"lat": 51.5273115, "lng": -0.164322}, "viewport": {"northeast": {"lat": 51.5286454302915, "lng": -0.162997469708498}, "southwest": {"lat": 51.52594746970851, "lng": -0.165695430291502}}}, "name": "Alpha Close", "place_id": "ChIJzfSTiMcadkgRyYtl_bNMO9Y", "types": ["transit_station", "point_of_interest", "establishment"]}, "ChIJw8u8jscadkgRWBIMHS8EWyg": {"geometry": {"location": {"lat": 51.52709199999999, "lng": -0.164129}, "viewport": {"northeast": {"lat": 51.5284695302915, "lng": -0.162734569708498}, "southwest": {"lat": 51.5257715697085, "lng": -0.165432530291502}}}, "name": "Alpha Close (Stop LC)", "place_id": "ChIJw8u8jscadkgRWBIMHS8EWyg", "types": ["transit_station", "point_of_interest", "establishment"], "rating": 4, "user_ratings_total": 1}, "ChIJvwn1-7cadkgR-3BrF0I8jLU": {"geometry": {"location": {"lat": 51.5263517, "lng": -0.1640625}, "viewport": {"northeast": {"lat": 51.52774133029149, "lng": -0.162647069708498}, "southwest": {"lat": 51.5250433697085, "lng": -0.165345030291502}}}, "name": "energie personal trainer", "place_id": "ChIJvwn1-7cadkgR-3BrF0I8jLU", "types": ["health", "point_of_interest", "establishment"]}, "ChIJtSiHLs8adkgR935U3bjA-wE": {"geometry": {"location": {"lat": 51.5263218, "lng": -0.1646501}, "viewport": {"northeast": {"lat": 51.5276202302915, "lng": -0.163591869708498}, "southwest": {"lat": 51.5249222697085, "lng": -0.166289830291502}}}, "name": "London Miss Linda", "place_id": "ChIJtSiHLs8adkgR935U3bjA-wE", "types": ["point_of_interest", "establishment"]}, "ChIJAVIi98cadkgRr6g9EPdQNew": {"geometry": {"location": {"lat": 51.52619989999999, "lng": -0.1642814}, "viewport": {"northeast": {"lat": 51.5276608302915, "lng": -0.162749269708498}, "southwest": {"lat": 51.5249628697085, "lng": -0.165447230291502}}}, "name": "EG GROUP", "place_id": "ChIJAVIi98cadkgRr6g9EPdQNew", "types": ["point_of_interest", "establishment"]}, "ChIJ01RX7scadkgR11z_BreaBFQ": {"geometry": {"location": {"lat": 51.5262693, "lng": -0.163671}, "viewport": {"northeast": {"lat": 51.5276403802915, "lng": -0.162285919708498}, "southwest": {"lat": 51.5249424197085, "lng": -0.164983880291502}}}, "name": "Adam Saran Photography", "place_id": "ChIJ01RX7scadkgR11z_BreaBFQ", "types": ["point_of_interest", "establishment"]}, "ChIJhw4CjbgadkgR8SBn3IGCr3Y": {"geometry": {"location": {"lat": 51.52854350017378, "lng": -0.1658746992476657}, "viewport": {"northeast": {"lat": 51.5298924802915, "lng": -0.164525719708498}, "southwest": {"lat": 51.5271945197085, "lng": -0.167223680291502}}}, "name": "Park Road", "place_id": "ChIJhw4CjbgadkgR8SBn3IGCr3Y", "types": ["route"]}, "ChIJnQnNjLgadkgRgg5RdoskIks": {"geometry": {"location": {"lat": 51.52844529999999, "lng": -0.1661087}, "viewport": {"northeast": {"lat": 51.5298273802915, "lng": -0.164694019708498}, "southwest": {"lat": 51.5271294197085, "lng": -0.167391980291502}}}, "name": "125 Park Road", "place_id": "ChIJnQnNjLgadkgRgg5RdoskIks", "types": ["point_of_interest", "establishment"], "rating": 5, "user_ratings_total": 1}, "ChIJcxORZrgadkgR_egF5hmYkl4": {"geometry": {"location": {"lat": 51.5275954, "lng": -0.1657424}, "viewport": {"northeast": {"lat": 51.52891898029149, "lng": -0.164353219708498}, "southwest": {"lat": 51.5262210197085, "lng": -0.167051180291502}}}, "name": "AODS Building Contractors Limited", "place_id": "ChIJcxORZrgadkgR_egF5hmYkl4", "types": ["point_of_interest", "establishment"]}, "ChIJlw22NVUbdkgRaTGq9qcp5w8": {"geometry": {"location": {"lat": 51.5275954, "lng": -0.1657425}, "viewport": {"northeast": {"lat": 51.5289189302915, "lng": -0.164353269708498}, "southwest": {"lat": 51.5262209697085, "lng": -0.167051230291502}}}, "name": "Durham House", "place_id": "ChIJlw22NVUbdkgRaTGq9qcp5w8", "types": ["point_of_interest", "establishment"]}, "ChIJV1oa28QbdkgRkyroC5DVvjI": {"geometry": {"location": {"lat": 51.5275954, "lng": -0.1657425}, "viewport": {"northeast": {"lat": 51.5289189302915, "lng": -0.164353269708498}, "southwest": {"lat": 51.5262209697085, "lng": -0.167051230291502}}}, "name": "Phone Master", "place_id": "ChIJV1oa28QbdkgRkyroC5DVvjI", "types": ["point_of_interest", "store", "establishment"], "rating": 1, "user_ratings_total": 1}, "ChIJp3rTE7gadkgR07sxZGPwLvo": {"geometry": {"location": {"lat": 51.52643605226108, "lng": -0.1654232993219313}, "viewport": {"northeast": {"lat": 51.52777158029149, "lng": -0.164119219708498}, "southwest": {"lat": 51.52507361970849, "lng": -0.166817180291502}}}, "name": "Paveley Street", "place_id": "ChIJp3rTE7gadkgR07sxZGPwLvo", "types": ["route"]}, "ChIJeai7GbgadkgRPlJacaZvTmo": {"geometry": {"location": {"lat": 51.52594930000001, "lng": -0.1657936}, "viewport": {"northeast": {"lat": 51.5272559302915, "lng": -0.164375019708498}, "southwest": {"lat": 51.52455796970851, "lng": -0.167072980291502}}}, "name": "Enes Massage Mobile Therapist London", "place_id": "ChIJeai7GbgadkgRPlJacaZvTmo", "types": ["point_of_interest", "establishment"], "rating": 5, "user_ratings_total": 3}, "ChIJeai7GbgadkgR0b3PqwEEMtQ": {"geometry": {"location": {"lat": 51.525949, "lng": -0.165794}, "viewport": {"northeast": {"lat": 51.5272556302915, "lng": -0.164375469708498}, "southwest": {"lat": 51.5245576697085, "lng": -0.167073430291502}}}, "name": "ABC Massage - Mobile Massage Therapist London", "place_id": "ChIJeai7GbgadkgR0b3PqwEEMtQ", "types": ["point_of_interest", "establishment"], "rating": 5, "user_ratings_total": 4}, "ChIJsejMEbgadkgRCcQgwvQmNzA": {"geometry": {"location": {"lat": 51.5262329, "lng": -0.1653642}, "viewport": {"northeast": {"lat": 51.52770033029149, "lng": -0.1641212197084979}, "southwest": {"lat": 51.5250023697085, "lng": -0.166819180291502}}}, "name": "Linslade House", "place_id": "ChIJsejMEbgadkgRCcQgwvQmNzA", "types": ["point_of_interest", "establishment"], "rating": 3, "user_ratings_total": 1}, "ChIJ8-AiSbgadkgR7RZRjWKD11Y": {"geometry": {"location": {"lat": 51.5269732001613, "lng": -0.1670038004868813}, "viewport": {"northeast": {"lat": 51.5283221802915, "lng": -0.165654819708498}, "southwest": {"lat": 51.5256242197085, "lng": -0.168352780291502}}}, "name": "Swain Street", "place_id": "ChIJ8-AiSbgadkgR7RZRjWKD11Y", "types": ["route"]}}}