{"E00023497": {"ChIJVQgvFsoadkgR_mEGwQndxmo": {"geometry": {"location": {"lat": 51.5192959500226, "lng": -0.1630890997620615}, "viewport": {"northeast": {"lat": 51.5206449302915, "lng": -0.161740119708498}, "southwest": {"lat": 51.5179469697085, "lng": -0.164438080291502}}}, "name": "143-151 Seymour Pl", "place_id": "ChIJVQgvFsoadkgR_mEGwQndxmo", "types": ["route"]}, "ChIJMWhrzyEbdkgRzhx1MvnRROA": {"geometry": {"location": {"lat": 51.51918389999999, "lng": -0.1621935}, "viewport": {"northeast": {"lat": 51.52058838029151, "lng": -0.160872269708498}, "southwest": {"lat": 51.51789041970851, "lng": -0.163570230291502}}}, "name": "Express Rent a Car", "place_id": "ChIJMWhrzyEbdkgRzhx1MvnRROA", "types": ["car_rental", "point_of_interest", "establishment"], "rating": 4.6, "user_ratings_total": 43}, "ChIJTTTjGcoadkgRuXAftDFTUTw": {"geometry": {"location": {"lat": 51.5192269, "lng": -0.1621441}, "viewport": {"northeast": {"lat": 51.5206130802915, "lng": -0.160838919708498}, "southwest": {"lat": 51.5179151197085, "lng": -0.163536880291502}}}, "name": "Mayfair Prestige", "place_id": "ChIJTTTjGcoadkgRuXAftDFTUTw", "types": ["car_dealer", "point_of_interest", "store", "establishment"], "rating": 4.6, "user_ratings_total": 75}, "ChIJHy_mPcoadkgR88X3oAnpQx8": {"geometry": {"location": {"lat": 51.519101, "lng": -0.1628201}, "viewport": {"northeast": {"lat": 51.5204305302915, "lng": -0.161548769708498}, "southwest": {"lat": 51.5177325697085, "lng": -0.164246730291502}}}, "name": "York Estates", "place_id": "ChIJHy_mPcoadkgR88X3oAnpQx8", "types": ["real_estate_agency", "point_of_interest", "establishment"], "rating": 4.9, "user_ratings_total": 82}, "ChIJX5hYPMoadkgRbmsO5FNP9Ls": {"geometry": {"location": {"lat": 51.5192892, "lng": -0.1627594}, "viewport": {"northeast": {"lat": 51.52059568029149, "lng": -0.161390119708498}, "southwest": {"lat": 51.51789771970849, "lng": -0.164088080291502}}}, "name": "Central Plumbing Heating", "place_id": "ChIJX5hYPMoadkgRbmsO5FNP9Ls", "types": ["general_contractor", "point_of_interest", "store", "establishment"], "rating": 5, "user_ratings_total": 4}, "ChIJs3sUPcoadkgRw9_mGnfOvJY": {"geometry": {"location": {"lat": 51.5193623, "lng": -0.162981}, "viewport": {"northeast": {"lat": 51.52069908029151, "lng": -0.161696369708498}, "southwest": {"lat": 51.51800111970851, "lng": -0.164394330291502}}}, "name": "Repossession Saviour", "place_id": "ChIJs3sUPcoadkgRw9_mGnfOvJY", "types": ["church", "place_of_worship", "point_of_interest", "establishment"]}, "ChIJNRYgMsoadkgRS3C7JejEQSE": {"geometry": {"location": {"lat": 51.5193997, "lng": -0.1622297}, "viewport": {"northeast": {"lat": 51.5207025802915, "lng": -0.160857719708498}, "southwest": {"lat": 51.5180046197085, "lng": -0.163555680291502}}}, "name": "Crystal Palace Beauty and Nails", "place_id": "ChIJNRYgMsoadkgRS3C7JejEQSE", "types": ["beauty_salon", "point_of_interest", "establishment"], "rating": 3.8, "user_ratings_total": 202}, "ChIJB8muIsoadkgR15szjCG9jN0": {"geometry": {"location": {"lat": 51.519517, "lng": -0.163047}, "viewport": {"northeast": {"lat": 51.5208529302915, "lng": -0.161765369708498}, "southwest": {"lat": 51.5181549697085, "lng": -0.164463330291502}}}, "name": "Alex Paramithas & Co Chartered Certified Accountants", "place_id": "ChIJB8muIsoadkgR15szjCG9jN0", "types": ["accounting", "finance", "point_of_interest", "establishment"], "rating": 5, "user_ratings_total": 2}, "ChIJs3sUPcoadkgRoT8rX4kNulI": {"geometry": {"location": {"lat": 51.5193917, "lng": -0.1629409}, "viewport": {"northeast": {"lat": 51.52072373029149, "lng": -0.161681169708498}, "southwest": {"lat": 51.5180257697085, "lng": -0.164379130291502}}}, "name": "italfish limited", "place_id": "ChIJs3sUPcoadkgRoT8rX4kNulI", "types": ["electronics_store", "point_of_interest", "store", "establishment"]}, "ChIJL0p-Ky0FdkgRCfAFkQ2IK5M": {"geometry": {"location": {"lat": 51.519091, "lng": -0.162817}, "viewport": {"northeast": {"lat": 51.5204792302915, "lng": -0.161493169708498}, "southwest": {"lat": 51.5177812697085, "lng": -0.164191130291502}}}, "name": "Roth Associates", "place_id": "ChIJL0p-Ky0FdkgRCfAFkQ2IK5M", "types": ["finance", "real_estate_agency", "point_of_interest", "establishment"]}, "ChIJrZmIPMoadkgRuqFv8DlVdTI": {"geometry": {"location": {"lat": 51.51934079999999, "lng": -0.1626303}, "viewport": {"northeast": {"lat": 51.5206352302915, "lng": -0.161254069708498}, "southwest": {"lat": 51.5179372697085, "lng": -0.163952030291502}}}, "name": "Haine & Co", "place_id": "ChIJrZmIPMoadkgRuqFv8DlVdTI", "types": ["point_of_interest", "establishment"]}, "ChIJxUIRMMoadkgRbUdd034EV1Q": {"geometry": {"location": {"lat": 51.519394, "lng": -0.1622209}, "viewport": {"northeast": {"lat": 51.52070028029149, "lng": -0.160850569708498}, "southwest": {"lat": 51.51800231970849, "lng": -0.163548530291502}}}, "name": "Ian Kitson", "place_id": "ChIJxUIRMMoadkgRbUdd034EV1Q", "types": ["general_contractor", "point_of_interest", "establishment"]}, "ChIJt28RhSobdkgR5CDFC2Rhxtk": {"geometry": {"location": {"lat": 51.51973340000001, "lng": -0.1629444}, "viewport": {"northeast": {"lat": 51.5211232302915, "lng": -0.161614919708498}, "southwest": {"lat": 51.5184252697085, "lng": -0.164312880291502}}}, "name": "BIS Recruit", "place_id": "ChIJt28RhSobdkgR5CDFC2Rhxtk", "types": ["point_of_interest", "establishment"], "rating": 3.7, "user_ratings_total": 62}, "ChIJL3-aN8oadkgR38Ieee_-LWo": {"geometry": {"location": {"lat": 51.51910579999999, "lng": -0.1626528}, "viewport": {"northeast": {"lat": 51.5204937802915, "lng": -0.161411069708498}, "southwest": {"lat": 51.5177958197085, "lng": -0.164109030291502}}}, "name": "vDeskOnline", "place_id": "ChIJL3-aN8oadkgR38Ieee_-LWo", "types": ["point_of_interest", "establishment"]}, "ChIJ_Zj2O8oadkgRgTMGbV6skmg": {"geometry": {"location": {"lat": 51.51934079999999, "lng": -0.1626303}, "viewport": {"northeast": {"lat": 51.5206352302915, "lng": -0.161254069708498}, "southwest": {"lat": 51.5179372697085, "lng": -0.163952030291502}}}, "name": "Golden Goose P R", "place_id": "ChIJ_Zj2O8oadkgRgTMGbV6skmg", "types": ["point_of_interest", "establishment"]}, "ChIJ_Zj2O8oadkgRx_G0K4WhX3c": {"geometry": {"location": {"lat": 51.51934079999999, "lng": -0.1626303}, "viewport": {"northeast": {"lat": 51.5206352302915, "lng": -0.161254069708498}, "southwest": {"lat": 51.5179372697085, "lng": -0.163952030291502}}}, "name": "The Safety Business Ltd", "place_id": "ChIJ_Zj2O8oadkgRx_G0K4WhX3c", "types": ["local_government_office", "point_of_interest", "establishment"]}, "ChIJT_GqO8oadkgRe_rsyQdOQ3c": {"geometry": {"location": {"lat": 51.51932409999999, "lng": -0.1625136}, "viewport": {"northeast": {"lat": 51.52063618029149, "lng": -0.1611464197084979}, "southwest": {"lat": 51.51793821970849, "lng": -0.163844380291502}}}, "name": "eztestukela.com", "place_id": "ChIJT_GqO8oadkgRe_rsyQdOQ3c", "types": ["health", "point_of_interest", "establishment"]}, "ChIJL1eZO8oadkgRYt0k6Ykg21A": {"geometry": {"location": {"lat": 51.519308, "lng": -0.1626173}, "viewport": {"northeast": {"lat": 51.52061853029149, "lng": -0.161249119708498}, "southwest": {"lat": 51.51792056970849, "lng": -0.163947080291502}}}, "name": "Properta Estates", "place_id": "ChIJL1eZO8oadkgRYt0k6Ykg21A", "types": ["finance", "point_of_interest", "establishment"], "rating": 5, "user_ratings_total": 1}, "ChIJL1eZO8oadkgR0-0er1uOAq0": {"geometry": {"location": {"lat": 51.519308, "lng": -0.1626173}, "viewport": {"northeast": {"lat": 51.52061838029149, "lng": -0.161249269708498}, "southwest": {"lat": 51.5179204197085, "lng": -0.163947230291502}}}, "name": "The Peep Gallery", "place_id": "ChIJL1eZO8oadkgR0-0er1uOAq0", "types": ["art_gallery", "point_of_interest", "establishment"], "rating": 4, "user_ratings_total": 1}, "ChIJmZK93uEadkgRDFTX7HpaMAQ": {"geometry": {"location": {"lat": 51.519308, "lng": -0.1626173}, "viewport": {"northeast": {"lat": 51.52061838029149, "lng": -0.161249269708498}, "southwest": {"lat": 51.5179204197085, "lng": -0.163947230291502}}}, "name": "Dulo Properties", "place_id": "ChIJmZK93uEadkgRDFTX7HpaMAQ", "types": ["real_estate_agency", "point_of_interest", "establishment"], "rating": 4.8, "user_ratings_total": 12}, "ChIJSQiMOsoadkgR__146f06zkc": {"geometry": {"location": {"lat": 51.5193518, "lng": -0.1623924}, "viewport": {"northeast": {"lat": 51.5206617802915, "lng": -0.161024169708498}, "southwest": {"lat": 51.5179638197085, "lng": -0.1637221302915021}}}, "name": "Foremost 4 Media", "place_id": "ChIJSQiMOsoadkgR__146f06zkc", "types": ["point_of_interest", "establishment"]}, "ChIJiWiaMMoadkgRr5h0Ege9h8Q": {"geometry": {"location": {"lat": 51.5192769, "lng": -0.1622785}, "viewport": {"northeast": {"lat": 51.5206069802915, "lng": -0.160920119708498}, "southwest": {"lat": 51.5179090197085, "lng": -0.163618080291502}}}, "name": "A A P M Investigations", "place_id": "ChIJiWiaMMoadkgRr5h0Ege9h8Q", "types": ["point_of_interest", "establishment"]}, "ChIJmb5WSMoadkgRXvz1z65sjkQ": {"geometry": {"location": {"lat": 51.5191641, "lng": -0.1625139}, "viewport": {"northeast": {"lat": 51.52054938029151, "lng": -0.161041919708498}, "southwest": {"lat": 51.51785141970851, "lng": -0.163739880291502}}}, "name": "Horizon London", "place_id": "ChIJmb5WSMoadkgRXvz1z65sjkQ", "types": ["real_estate_agency", "point_of_interest", "establishment"], "rating": 5, "user_ratings_total": 1}, "ChIJt0aSMMoadkgR8R1MGOGtT-Q": {"geometry": {"location": {"lat": 51.5191773, "lng": -0.1623826}, "viewport": {"northeast": {"lat": 51.52056813029149, "lng": -0.160979069708498}, "southwest": {"lat": 51.51787016970849, "lng": -0.163677030291502}}}, "name": "Cameron Baum Davis", "place_id": "ChIJt0aSMMoadkgR8R1MGOGtT-Q", "types": ["accounting", "finance", "point_of_interest", "establishment"], "rating": 5, "user_ratings_total": 1}, "ChIJlYHgPsoadkgRGIAW_W9yTUc": {"geometry": {"location": {"lat": 51.519126, "lng": -0.162573}, "viewport": {"northeast": {"lat": 51.5205015302915, "lng": -0.161371169708498}, "southwest": {"lat": 51.51780356970851, "lng": -0.164069130291502}}}, "name": "Desirable Homes", "place_id": "ChIJlYHgPsoadkgRGIAW_W9yTUc", "types": ["real_estate_agency", "point_of_interest", "establishment"]}, "ChIJ40ajmqgEdkgRgYF2I5lzkHc": {"geometry": {"location": {"lat": 51.5190931, "lng": -0.1624636}, "viewport": {"northeast": {"lat": 51.5205151802915, "lng": -0.161035169708498}, "southwest": {"lat": 51.5178172197085, "lng": -0.163733130291502}}}, "name": "Wonga.com", "place_id": "ChIJ40ajmqgEdkgRgYF2I5lzkHc", "types": ["finance", "point_of_interest", "establishment"]}, "ChIJh5YWhNQadkgRqetJi1V1Yck": {"geometry": {"location": {"lat": 51.5194813, "lng": -0.1630575}, "viewport": {"northeast": {"lat": 51.52081898029149, "lng": -0.161764469708498}, "southwest": {"lat": 51.5181210197085, "lng": -0.164462430291502}}}, "name": "London Clinic of Nutrition", "place_id": "ChIJh5YWhNQadkgRqetJi1V1Yck", "types": ["health", "point_of_interest", "establishment"], "rating": 4.7, "user_ratings_total": 182}, "ChIJw_0BMsoadkgRlOdMpfDWM1Y": {"geometry": {"location": {"lat": 51.5194767, "lng": -0.1619524}, "viewport": {"northeast": {"lat": 51.5207682302915, "lng": -0.160575569708498}, "southwest": {"lat": 51.5180702697085, "lng": -0.163273530291502}}}, "name": "UES Education", "place_id": "ChIJw_0BMsoadkgRlOdMpfDWM1Y", "types": ["point_of_interest", "establishment"], "rating": 5, "user_ratings_total": 21}, "ChIJlYHgPsoadkgR3TZDVjMxAMw": {"geometry": {"location": {"lat": 51.51901310000001, "lng": -0.1627782}, "viewport": {"northeast": {"lat": 51.5203818302915, "lng": -0.161508969708498}, "southwest": {"lat": 51.5176838697085, "lng": -0.164206930291502}}}, "name": "Thomas St John LLP", "place_id": "ChIJlYHgPsoadkgR3TZDVjMxAMw", "types": ["accounting", "finance", "point_of_interest", "establishment"]}, "ChIJ5do4zssadkgRwq939Ll5BZI": {"geometry": {"location": {"lat": 51.51922880000001, "lng": -0.1619744}, "viewport": {"northeast": {"lat": 51.52063208029151, "lng": -0.160651719708498}, "southwest": {"lat": 51.51793411970851, "lng": -0.163349680291502}}}, "name": "Ginger & Juniper", "place_id": "ChIJ5do4zssadkgRwq939Ll5BZI", "types": ["health", "point_of_interest", "establishment"]}, "ChIJq6oGMsoadkgRlkIvHAJhJJc": {"geometry": {"location": {"lat": 51.5194753, "lng": -0.1619298}, "viewport": {"northeast": {"lat": 51.5207694302915, "lng": -0.160554219708498}, "southwest": {"lat": 51.5180714697085, "lng": -0.163252180291502}}}, "name": "Harrison & Partners", "place_id": "ChIJq6oGMsoadkgRlkIvHAJhJJc", "types": ["real_estate_agency", "point_of_interest", "establishment"]}, "ChIJ8zbRJcoadkgRjvQzQ6WXstQ": {"geometry": {"location": {"lat": 51.519801, "lng": -0.162477}, "viewport": {"northeast": {"lat": 51.52120043029151, "lng": -0.161152769708498}, "southwest": {"lat": 51.51850246970851, "lng": -0.163850730291502}}}, "name": "67 York Street", "place_id": "ChIJ8zbRJcoadkgRjvQzQ6WXstQ", "types": ["art_gallery", "point_of_interest", "establishment"], "rating": 4.4, "user_ratings_total": 7}, "ChIJBZY6f-MadkgR6qVvkmu2x_w": {"geometry": {"location": {"lat": 51.518985, "lng": -0.162429}, "viewport": {"northeast": {"lat": 51.52045938029151, "lng": -0.161044019708498}, "southwest": {"lat": 51.51776141970851, "lng": -0.163741980291502}}}, "name": "CRUDOLIFE", "place_id": "ChIJBZY6f-MadkgR6qVvkmu2x_w", "types": ["health", "point_of_interest", "establishment"]}, "ChIJE-9LOMoadkgRCFUoK-nP-ts": {"geometry": {"location": {"lat": 51.5189847, "lng": -0.162429}, "viewport": {"northeast": {"lat": 51.52045923029149, "lng": -0.161044069708498}, "southwest": {"lat": 51.51776126970849, "lng": -0.163742030291502}}}, "name": "OpenWonga", "place_id": "ChIJE-9LOMoadkgRCFUoK-nP-ts", "types": ["point_of_interest", "establishment"]}, "ChIJE-9LOMoadkgRtQXN4UcMIBk": {"geometry": {"location": {"lat": 51.5189847, "lng": -0.1624289}, "viewport": {"northeast": {"lat": 51.52045923029149, "lng": -0.161044069708498}, "southwest": {"lat": 51.51776126970849, "lng": -0.163742030291502}}}, "name": "Ranger Services Ltd", "place_id": "ChIJE-9LOMoadkgRtQXN4UcMIBk", "types": ["point_of_interest", "establishment"]}, "ChIJE-9LOMoadkgRi1TyDvYmFag": {"geometry": {"location": {"lat": 51.5189847, "lng": -0.1624289}, "viewport": {"northeast": {"lat": 51.52045923029149, "lng": -0.161044069708498}, "southwest": {"lat": 51.51776126970849, "lng": -0.163742030291502}}}, "name": "Green Harmony Ltd", "place_id": "ChIJE-9LOMoadkgRi1TyDvYmFag", "types": ["point_of_interest", "establishment"]}, "ChIJE-9LOMoadkgRyyW4Aw3c48U": {"geometry": {"location": {"lat": 51.5189847, "lng": -0.1624289}, "viewport": {"northeast": {"lat": 51.52045923029149, "lng": -0.161044069708498}, "southwest": {"lat": 51.51776126970849, "lng": -0.163742030291502}}}, "name": "Inspired Working Limited", "place_id": "ChIJE-9LOMoadkgRyyW4Aw3c48U", "types": ["point_of_interest", "establishment"]}, "ChIJlYHgPsoadkgR_5nkRjnkASo": {"geometry": {"location": {"lat": 51.5190452, "lng": -0.1621349}, "viewport": {"northeast": {"lat": 51.5205180802915, "lng": -0.160847819708498}, "southwest": {"lat": 51.5178201197085, "lng": -0.163545780291502}}}, "name": "IT-Logik Ltd - IT Support, Hosted Desktops, Cloud Services", "place_id": "ChIJlYHgPsoadkgR_5nkRjnkASo", "types": ["point_of_interest", "establishment"], "rating": 5, "user_ratings_total": 13}, "ChIJx013FsoadkgRESTvHQ-vLbQ": {"geometry": {"location": {"lat": 51.51921549999999, "lng": -0.1632335}, "viewport": {"northeast": {"lat": 51.5205148802915, "lng": -0.161861269708498}, "southwest": {"lat": 51.5178169197085, "lng": -0.1645592302915021}}}, "name": "Satellite Direct", "place_id": "ChIJx013FsoadkgRESTvHQ-vLbQ", "types": ["point_of_interest", "establishment"]}, "ChIJDVFp4dAadkgRmu63sgiN0xk": {"geometry": {"location": {"lat": 51.51981350000001, "lng": -0.1623801}, "viewport": {"northeast": {"lat": 51.5211729802915, "lng": -0.160970269708498}, "southwest": {"lat": 51.5184750197085, "lng": -0.163668230291502}}}, "name": "Eva Lychrou", "place_id": "ChIJDVFp4dAadkgRmu63sgiN0xk", "types": ["health", "point_of_interest", "establishment"], "rating": 5, "user_ratings_total": 7}, "ChIJf4OsUdUEdkgRYsrHtBJGYMw": {"geometry": {"location": {"lat": 51.519814, "lng": -0.16238}, "viewport": {"northeast": {"lat": 51.5212156802915, "lng": -0.161057669708498}, "southwest": {"lat": 51.5185177197085, "lng": -0.163755630291502}}}, "name": "Keller Williams Premier", "place_id": "ChIJf4OsUdUEdkgRYsrHtBJGYMw", "types": ["real_estate_agency", "point_of_interest", "establishment"]}, "ChIJJ0cfLsoadkgR5-V3ZHCOnBI": {"geometry": {"location": {"lat": 51.5192556, "lng": -0.1619003}, "viewport": {"northeast": {"lat": 51.5206045802915, "lng": -0.160551319708498}, "southwest": {"lat": 51.5179066197085, "lng": -0.1632492802915021}}}, "name": "MJM & Co", "place_id": "ChIJJ0cfLsoadkgR5-V3ZHCOnBI", "types": ["hair_care", "point_of_interest", "establishment"], "rating": 4.6, "user_ratings_total": 5}, "ChIJEzCZPcoadkgRnQu-cnHnAXc": {"geometry": {"location": {"lat": 51.5193084, "lng": -0.1629685}, "viewport": {"northeast": {"lat": 51.5206463802915, "lng": -0.1616774697084979}, "southwest": {"lat": 51.5179484197085, "lng": -0.164375430291502}}}, "name": "Regent Dry Cleaners", "place_id": "ChIJEzCZPcoadkgRnQu-cnHnAXc", "types": ["laundry", "point_of_interest", "establishment"], "rating": 3.7, "user_ratings_total": 9}, "ChIJA1VazssadkgROOjm44JtKhg": {"geometry": {"location": {"lat": 51.5192722, "lng": -0.1618495}, "viewport": {"northeast": {"lat": 51.5206663302915, "lng": -0.160522369708498}, "southwest": {"lat": 51.51796836970851, "lng": -0.163220330291502}}}, "name": "Esteem Hair Loss Consultancy", "place_id": "ChIJA1VazssadkgROOjm44JtKhg", "types": ["hair_care", "point_of_interest", "store", "establishment"], "rating": 5, "user_ratings_total": 6}, "ChIJfwCaP8oadkgR4f7TL2_DCsw": {"geometry": {"location": {"lat": 51.5192015, "lng": -0.163257}, "viewport": {"northeast": {"lat": 51.5205053802915, "lng": -0.161886869708498}, "southwest": {"lat": 51.5178074197085, "lng": -0.164584830291502}}}, "name": "Multivision", "place_id": "ChIJfwCaP8oadkgR4f7TL2_DCsw", "types": ["electronics_store", "home_goods_store", "point_of_interest", "store", "establishment"]}, "ChIJ0aS801cbdkgRbFkGLsnl-hA": {"geometry": {"location": {"lat": 51.5193473, "lng": -0.1633481}, "viewport": {"northeast": {"lat": 51.5207165802915, "lng": -0.161892169708498}, "southwest": {"lat": 51.5180186197085, "lng": -0.164590130291502}}}, "name": "Space Cucina", "place_id": "ChIJ0aS801cbdkgRbFkGLsnl-hA", "types": ["furniture_store", "home_goods_store", "point_of_interest", "store", "establishment"], "rating": 4.4, "user_ratings_total": 29}, "ChIJXewFJ8oadkgREY5GtyD11XM": {"geometry": {"location": {"lat": 51.5198878, "lng": -0.1625276}, "viewport": {"northeast": {"lat": 51.52121938029151, "lng": -0.161170019708498}, "southwest": {"lat": 51.51852141970851, "lng": -0.163867980291502}}}, "name": "DJM Costs Lawyers & Mediators", "place_id": "ChIJXewFJ8oadkgREY5GtyD11XM", "types": ["lawyer", "point_of_interest", "establishment"]}, "ChIJv4HgPsoadkgRfjHg4xGkgUU": {"geometry": {"location": {"lat": 51.5188959, "lng": -0.162769}, "viewport": {"northeast": {"lat": 51.5202340302915, "lng": -0.161477969708498}, "southwest": {"lat": 51.5175360697085, "lng": -0.164175930291502}}}, "name": "Research Research", "place_id": "ChIJv4HgPsoadkgRfjHg4xGkgUU", "types": ["point_of_interest", "establishment"]}, "ChIJRzV7Us4EdkgRXTKVQiW4Gg8": {"geometry": {"location": {"lat": 51.51940279999999, "lng": -0.1630108}, "viewport": {"northeast": {"lat": 51.5207404302915, "lng": -0.161721619708498}, "southwest": {"lat": 51.51804246970851, "lng": -0.164419580291502}}}, "name": "SMART MOVING MEDIA UK LTD", "place_id": "ChIJRzV7Us4EdkgRXTKVQiW4Gg8", "types": ["point_of_interest", "establishment"]}, "ChIJAfIRJbun2EcR7jzJ-WrumuU": {"geometry": {"location": {"lat": 51.51979240000001, "lng": -0.1626461}, "viewport": {"northeast": {"lat": 51.5211810302915, "lng": -0.1613166197084979}, "southwest": {"lat": 51.5184830697085, "lng": -0.164014580291502}}}, "name": "Raishma", "place_id": "ChIJAfIRJbun2EcR7jzJ-WrumuU", "types": ["point_of_interest", "clothing_store", "store", "establishment"], "rating": 4.3, "user_ratings_total": 23}, "ChIJw_0BMsoadkgRMLt8eBd77Ao": {"geometry": {"location": {"lat": 51.5194454, "lng": -0.1618854}, "viewport": {"northeast": {"lat": 51.5207600802915, "lng": -0.160511619708498}, "southwest": {"lat": 51.5180621197085, "lng": -0.163209580291502}}}, "name": "Moss Beachley Mullem & Coleman", "place_id": "ChIJw_0BMsoadkgRMLt8eBd77Ao", "types": ["lawyer", "point_of_interest", "establishment"], "rating": 3, "user_ratings_total": 12}, "ChIJv4HgPsoadkgRSgNlaJ7uHJ8": {"geometry": {"location": {"lat": 51.519188, "lng": -0.1623276}, "viewport": {"northeast": {"lat": 51.5205886802915, "lng": -0.160930669708498}, "southwest": {"lat": 51.5178907197085, "lng": -0.163628630291502}}}, "name": "Cameron Baum Hollander West End Accountants", "place_id": "ChIJv4HgPsoadkgRSgNlaJ7uHJ8", "types": ["accounting", "finance", "point_of_interest", "establishment"], "rating": 4.3, "user_ratings_total": 4}, "ChIJo4lEPMoadkgRqG5Bycnj4fM": {"geometry": {"location": {"lat": 51.5193046, "lng": -0.1628636}, "viewport": {"northeast": {"lat": 51.5205951802915, "lng": -0.161486669708498}, "southwest": {"lat": 51.5178972197085, "lng": -0.164184630291502}}}, "name": "Mayfair Recruitment Services", "place_id": "ChIJo4lEPMoadkgRqG5Bycnj4fM", "types": ["point_of_interest", "establishment"], "rating": 2.6, "user_ratings_total": 22}, "ChIJ3cQVJMoadkgRUdhyrWqpUSQ": {"geometry": {"location": {"lat": 51.51980500000001, "lng": -0.1626}, "viewport": {"northeast": {"lat": 51.5211918802915, "lng": -0.161269619708498}, "southwest": {"lat": 51.5184939197085, "lng": -0.163967580291502}}}, "name": "The Little Shoe Shop", "place_id": "ChIJ3cQVJMoadkgRUdhyrWqpUSQ", "types": ["shoe_store", "point_of_interest", "store", "establishment"], "rating": 4.4, "user_ratings_total": 25}, "ChIJO3UjP8oadkgRu7DqdOS-xPY": {"geometry": {"location": {"lat": 51.5189514, "lng": -0.1627897}, "viewport": {"northeast": {"lat": 51.5202620302915, "lng": -0.161480719708498}, "southwest": {"lat": 51.5175640697085, "lng": -0.164178680291502}}}, "name": "London Management Centre", "place_id": "ChIJO3UjP8oadkgRu7DqdOS-xPY", "types": ["point_of_interest", "establishment"], "rating": 5, "user_ratings_total": 9}, "ChIJvdFYFsoadkgR4DqYUqzF3Jc": {"geometry": {"location": {"lat": 51.5192565, "lng": -0.1632352}, "viewport": {"northeast": {"lat": 51.5206198302915, "lng": -0.161810519708498}, "southwest": {"lat": 51.5179218697085, "lng": -0.164508480291502}}}, "name": "Seymour News", "place_id": "ChIJvdFYFsoadkgR4DqYUqzF3Jc", "types": ["point_of_interest", "store", "establishment"], "rating": 3.3, "user_ratings_total": 20}, "ChIJ9Sn-I8oadkgRRXJtIhc83F8": {"geometry": {"location": {"lat": 51.519789, "lng": -0.1626726}, "viewport": {"northeast": {"lat": 51.52117688029149, "lng": -0.161342719708498}, "southwest": {"lat": 51.51847891970849, "lng": -0.164040680291502}}}, "name": "Imperial Estates", "place_id": "ChIJ9Sn-I8oadkgRRXJtIhc83F8", "types": ["real_estate_agency", "point_of_interest", "establishment"], "rating": 1, "user_ratings_total": 1}, "ChIJs1Z-4M4bdkgR1KpuTkOoO-I": {"geometry": {"location": {"lat": 51.51936140000002, "lng": -0.1625614}, "viewport": {"northeast": {"lat": 51.5206522302915, "lng": -0.161183719708498}, "southwest": {"lat": 51.51795426970851, "lng": -0.163881680291502}}}, "name": "PickThePlace", "place_id": "ChIJs1Z-4M4bdkgR1KpuTkOoO-I", "types": ["real_estate_agency", "point_of_interest", "establishment"], "rating": 4.3, "user_ratings_total": 12}, "ChIJxUeGO8oadkgRrI78qAQXQ0s": {"geometry": {"location": {"lat": 51.5193447, "lng": -0.1626272000000001}, "viewport": {"northeast": {"lat": 51.52063763029151, "lng": -0.161250219708498}, "southwest": {"lat": 51.51793966970851, "lng": -0.1639481802915021}}}, "name": "MAG Interiors", "place_id": "ChIJxUeGO8oadkgRrI78qAQXQ0s", "types": ["furniture_store", "home_goods_store", "point_of_interest", "store", "establishment"]}, "ChIJr7KNQMoadkgRuGSIvlXQnHE": {"geometry": {"location": {"lat": 51.5186676212159, "lng": -0.1627853089907953}, "viewport": {"northeast": {"lat": 51.52001658029149, "lng": -0.161436469708498}, "southwest": {"lat": 51.51731861970849, "lng": -0.164134430291502}}}, "name": "92-80 Seymour Pl", "place_id": "ChIJr7KNQMoadkgRuGSIvlXQnHE", "types": ["route"]}, "ChIJNfQFa8oadkgRD4_ZDiyeaao": {"geometry": {"location": {"lat": 51.51837869999999, "lng": -0.1631233}, "viewport": {"northeast": {"lat": 51.51985698029149, "lng": -0.161555769708498}, "southwest": {"lat": 51.51715901970849, "lng": -0.164253730291502}}}, "name": "West 1 Climbing Wall", "place_id": "ChIJNfQFa8oadkgRD4_ZDiyeaao", "types": ["point_of_interest", "establishment"], "rating": 4.2, "user_ratings_total": 84}, "ChIJW6SCWMoadkgRu6IgoaJSars": {"geometry": {"location": {"lat": 51.51836189999999, "lng": -0.1632576}, "viewport": {"northeast": {"lat": 51.51985933029149, "lng": -0.161670369708498}, "southwest": {"lat": 51.5171613697085, "lng": -0.164368330291502}}}, "name": "Seymour Leisure Centre", "place_id": "ChIJW6SCWMoadkgRu6IgoaJSars", "types": ["gym", "school", "health", "point_of_interest", "establishment"], "rating": 3.6, "user_ratings_total": 285}, "ChIJNXwL_T0FdkgR2aseUbzI-wA": {"geometry": {"location": {"lat": 51.51847859999999, "lng": -0.1625635}, "viewport": {"northeast": {"lat": 51.5198035302915, "lng": -0.161119669708498}, "southwest": {"lat": 51.5171055697085, "lng": -0.163817630291502}}}, "name": "International Andrology", "place_id": "ChIJNXwL_T0FdkgR2aseUbzI-wA", "types": ["health", "point_of_interest", "establishment"], "rating": 3.6, "user_ratings_total": 25}, "ChIJQcNvRMoadkgREhCqA5yH9QI": {"geometry": {"location": {"lat": 51.5185465, "lng": -0.1624871}, "viewport": {"northeast": {"lat": 51.5198324802915, "lng": -0.161081469708498}, "southwest": {"lat": 51.5171345197085, "lng": -0.163779430291502}}}, "name": "Happy Kids Dental Marylebone", "place_id": "ChIJQcNvRMoadkgREhCqA5yH9QI", "types": ["dentist", "insurance_agency", "doctor", "health", "point_of_interest", "establishment"], "rating": 4.7, "user_ratings_total": 197}, "ChIJNfQFa8oadkgRwBuNf7sa_oc": {"geometry": {"location": {"lat": 51.518612, "lng": -0.162959}, "viewport": {"northeast": {"lat": 51.5199779302915, "lng": -0.161518019708498}, "southwest": {"lat": 51.5172799697085, "lng": -0.164215980291502}}}, "name": "Xen-Do Martial Arts", "place_id": "ChIJNfQFa8oadkgRwBuNf7sa_oc", "types": ["gym", "health", "point_of_interest", "establishment"], "rating": 4.9, "user_ratings_total": 55}, "ChIJoWOSQcoadkgRgUrKrFbaOuk": {"geometry": {"location": {"lat": 51.518563, "lng": -0.162879}, "viewport": {"northeast": {"lat": 51.51994913029149, "lng": -0.161473369708498}, "southwest": {"lat": 51.51725116970849, "lng": -0.164171330291502}}}, "name": "London No 1 Scuba Diving Club", "place_id": "ChIJoWOSQcoadkgRgUrKrFbaOuk", "types": ["school", "point_of_interest", "store", "establishment"], "rating": 5, "user_ratings_total": 4}, "ChIJfaWXXMoadkgR07a6qkN1fvY": {"geometry": {"location": {"lat": 51.51859379999999, "lng": -0.1629449}, "viewport": {"northeast": {"lat": 51.51996453029149, "lng": -0.161506419708498}, "southwest": {"lat": 51.51726656970849, "lng": -0.164204380291502}}}, "name": "Marylebone Badminton Club", "place_id": "ChIJfaWXXMoadkgR07a6qkN1fvY", "types": ["point_of_interest", "establishment"], "rating": 4.9, "user_ratings_total": 13}, "ChIJM1e1RsoadkgRbgpHbMyQpqs": {"geometry": {"location": {"lat": 51.5186664, "lng": -0.1626593}, "viewport": {"northeast": {"lat": 51.5200399802915, "lng": -0.1613797697084979}, "southwest": {"lat": 51.51734201970851, "lng": -0.164077730291502}}}, "name": "Bluebird Travel", "place_id": "ChIJM1e1RsoadkgRbgpHbMyQpqs", "types": ["travel_agency", "point_of_interest", "establishment"], "rating": 4.8, "user_ratings_total": 5}, "ChIJccrjRcoadkgR7-aL2Es0VLM": {"geometry": {"location": {"lat": 51.5185111, "lng": -0.1623894}, "viewport": {"northeast": {"lat": 51.5198222302915, "lng": -0.161017469708498}, "southwest": {"lat": 51.5171242697085, "lng": -0.163715430291502}}}, "name": "Princess Court", "place_id": "ChIJccrjRcoadkgR7-aL2Es0VLM", "types": ["point_of_interest", "establishment"], "rating": 4.7, "user_ratings_total": 3}, "ChIJ246bUMoadkgRo8BGClAit20": {"geometry": {"location": {"lat": 51.5181143, "lng": -0.1623225}, "viewport": {"northeast": {"lat": 51.51947553029149, "lng": -0.160903119708498}, "southwest": {"lat": 51.51677756970849, "lng": -0.163601080291502}}}, "name": "Tasty Capers Catering", "place_id": "ChIJ246bUMoadkgRo8BGClAit20", "types": ["food", "point_of_interest", "establishment"], "rating": 5, "user_ratings_total": 2}, "ChIJNfQFa8oadkgR1ObeGhv-o-g": {"geometry": {"location": {"lat": 51.51837870000001, "lng": -0.1632359}, "viewport": {"northeast": {"lat": 51.5198569802915, "lng": -0.161616569708498}, "southwest": {"lat": 51.5171590197085, "lng": -0.164314530291502}}}, "name": "Amber Beauty Salon", "place_id": "ChIJNfQFa8oadkgR1ObeGhv-o-g", "types": ["beauty_salon", "point_of_interest", "establishment"], "rating": 4.7, "user_ratings_total": 30}, "ChIJ-WrjZ8oadkgR9L2kXcXt3i8": {"geometry": {"location": {"lat": 51.518164, "lng": -0.163101}, "viewport": {"northeast": {"lat": 51.5195764802915, "lng": -0.161818369708498}, "southwest": {"lat": 51.5168785197085, "lng": -0.164516330291502}}}, "name": "Source London Charging Station", "place_id": "ChIJ-WrjZ8oadkgR9L2kXcXt3i8", "types": ["point_of_interest", "establishment"]}, "ChIJMzME7awbdkgRYhgm6S0OtIE": {"geometry": {"location": {"lat": 51.5187146, "lng": -0.162546}, "viewport": {"northeast": {"lat": 51.52004193029151, "lng": -0.161317319708498}, "southwest": {"lat": 51.51734396970851, "lng": -0.164015280291502}}}, "name": "Health Travel", "place_id": "ChIJMzME7awbdkgRYhgm6S0OtIE", "types": ["travel_agency", "point_of_interest", "establishment"]}, "ChIJMVH1SMoadkgRgxOvtd3SOzA": {"geometry": {"location": {"lat": 51.5186726, "lng": -0.1622221}, "viewport": {"northeast": {"lat": 51.51997368029149, "lng": -0.161133119708498}, "southwest": {"lat": 51.5172757197085, "lng": -0.163831080291502}}}, "name": "Francesco Sansostri Architects Ltd", "place_id": "ChIJMVH1SMoadkgRgxOvtd3SOzA", "types": ["point_of_interest", "establishment"]}, "ChIJBSBkTcoadkgRCMScemtgnRE": {"geometry": {"location": {"lat": 51.5182695, "lng": -0.1617971}, "viewport": {"northeast": {"lat": 51.5196431802915, "lng": -0.160307169708498}, "southwest": {"lat": 51.5169452197085, "lng": -0.163005130291502}}}, "name": "Nataliya", "place_id": "ChIJBSBkTcoadkgRCMScemtgnRE", "types": ["point_of_interest", "establishment"]}, "ChIJhY5T8icbdkgRQCEfEnFVtRU": {"geometry": {"location": {"lat": 51.5183758, "lng": -0.1632589}, "viewport": {"northeast": {"lat": 51.51985553029149, "lng": -0.1616283697084979}, "southwest": {"lat": 51.5171575697085, "lng": -0.164326330291502}}}, "name": "Peak Body Coaching", "place_id": "ChIJhY5T8icbdkgRQCEfEnFVtRU", "types": ["gym", "health", "point_of_interest", "establishment"], "rating": 5, "user_ratings_total": 26}, "ChIJsbwgWsoadkgReha5K9sCTBM": {"geometry": {"location": {"lat": 51.51785509999999, "lng": -0.1624216}, "viewport": {"northeast": {"lat": 51.51920408029148, "lng": -0.1610726197084979}, "southwest": {"lat": 51.51650611970849, "lng": -0.163770580291502}}}, "name": "Building Projects group", "place_id": "ChIJsbwgWsoadkgReha5K9sCTBM", "types": ["general_contractor", "point_of_interest", "establishment"]}, "ChIJ6WNpgWAbdkgRZYmzVNYH1KM": {"geometry": {"location": {"lat": 51.51785509999999, "lng": -0.1624216}, "viewport": {"northeast": {"lat": 51.51920408029148, "lng": -0.1610726197084979}, "southwest": {"lat": 51.51650611970849, "lng": -0.163770580291502}}}, "name": "PlayFit Sports & Social", "place_id": "ChIJ6WNpgWAbdkgRZYmzVNYH1KM", "types": ["point_of_interest", "establishment"]}, "ChIJsbwgWsoadkgRF8hSNaA2LiE": {"geometry": {"location": {"lat": 51.51785509999999, "lng": -0.1624216}, "viewport": {"northeast": {"lat": 51.51920408029148, "lng": -0.1610726197084979}, "southwest": {"lat": 51.51650611970849, "lng": -0.163770580291502}}}, "name": "MRMARE", "place_id": "ChIJsbwgWsoadkgRF8hSNaA2LiE", "types": ["supermarket", "grocery_or_supermarket", "food", "point_of_interest", "store", "establishment"]}, "ChIJYwHaXcoadkgRFUxEJXWGG-8": {"geometry": {"location": {"lat": 51.5178731, "lng": -0.1629106}, "viewport": {"northeast": {"lat": 51.5191748302915, "lng": -0.161540719708498}, "southwest": {"lat": 51.51647686970851, "lng": -0.164238680291502}}}, "name": "Saryu Life Style Ltd", "place_id": "ChIJYwHaXcoadkgRFUxEJXWGG-8", "types": ["food", "health", "point_of_interest", "store", "establishment"]}, "ChIJHSPc21UbdkgR77pshTkXOa0": {"geometry": {"location": {"lat": 51.5181844, "lng": -0.1633438}, "viewport": {"northeast": {"lat": 51.51957428029149, "lng": -0.162012769708498}, "southwest": {"lat": 51.51687631970849, "lng": -0.164710730291502}}}, "name": "Sherwood Court Car Park - MY CAR PARKS", "place_id": "ChIJHSPc21UbdkgR77pshTkXOa0", "types": ["parking", "point_of_interest", "establishment"], "rating": 4.2, "user_ratings_total": 5}, "ChIJCeJYP8oadkgRnu-FROZgLKY": {"geometry": {"location": {"lat": 51.51884779999999, "lng": -0.1627465}, "viewport": {"northeast": {"lat": 51.5202098302915, "lng": -0.161455119708498}, "southwest": {"lat": 51.5175118697085, "lng": -0.164153080291502}}}, "name": "Business & Traning Consultants", "place_id": "ChIJCeJYP8oadkgRnu-FROZgLKY", "types": ["point_of_interest", "establishment"]}, "ChIJr6I7-MoadkgRfNGqtrFOieU": {"geometry": {"location": {"lat": 51.51742772732614, "lng": -0.1622312974931064}, "viewport": {"northeast": {"lat": 51.51877643029149, "lng": -0.160883819708498}, "southwest": {"lat": 51.51607846970849, "lng": -0.163581780291502}}}, "name": "83-109 Seymour Pl", "place_id": "ChIJr6I7-MoadkgRfNGqtrFOieU", "types": ["route"]}, "ChIJw6Ept7oPdkgRyGbQLRFughQ": {"geometry": {"location": {"lat": 51.5170968, "lng": -0.1624031}, "viewport": {"northeast": {"lat": 51.5183689802915, "lng": -0.161046269708498}, "southwest": {"lat": 51.5156710197085, "lng": -0.163744230291502}}}, "name": "Sylvia Young Theatre School", "place_id": "ChIJw6Ept7oPdkgRyGbQLRFughQ", "types": ["school", "point_of_interest", "establishment"], "rating": 4.7, "user_ratings_total": 23}, "ChIJTTk7-MoadkgRnSaOfex8VI8": {"geometry": {"location": {"lat": 51.51741519999999, "lng": -0.1622584}, "viewport": {"northeast": {"lat": 51.5187607302915, "lng": -0.160929419708498}, "southwest": {"lat": 51.5160627697085, "lng": -0.163627380291502}}}, "name": "The Musketeers Club", "place_id": "ChIJTTk7-MoadkgRnSaOfex8VI8", "types": ["point_of_interest", "establishment"], "rating": 1, "user_ratings_total": 1}, "ChIJMZzK8soadkgR3hFDJScRqUo": {"geometry": {"location": {"lat": 51.5170373, "lng": -0.1630341}, "viewport": {"northeast": {"lat": 51.5184320302915, "lng": -0.161578469708498}, "southwest": {"lat": 51.5157340697085, "lng": -0.164276430291502}}}, "name": "Nutford House, London", "place_id": "ChIJMZzK8soadkgR3hFDJScRqUo", "types": ["point_of_interest", "establishment"], "rating": 4.1, "user_ratings_total": 30}, "ChIJ4w7Ei8oadkgRal8hWFNEJmc": {"geometry": {"location": {"lat": 51.5171355, "lng": -0.1632829}, "viewport": {"northeast": {"lat": 51.5185579802915, "lng": -0.162004069708498}, "southwest": {"lat": 51.51586001970851, "lng": -0.164702030291502}}}, "name": "Prodigious", "place_id": "ChIJ4w7Ei8oadkgRal8hWFNEJmc", "types": ["point_of_interest", "establishment"], "rating": 4.8, "user_ratings_total": 6}, "ChIJU0hF8MoadkgRg8RIX6Bk1ig": {"geometry": {"location": {"lat": 51.5170342, "lng": -0.1623991}, "viewport": {"northeast": {"lat": 51.5183394302915, "lng": -0.161031219708498}, "southwest": {"lat": 51.51564146970851, "lng": -0.163729180291502}}}, "name": "Sylvia Young Agency", "place_id": "ChIJU0hF8MoadkgRg8RIX6Bk1ig", "types": ["point_of_interest", "establishment"], "rating": 3.4, "user_ratings_total": 5}, "ChIJecAv8coadkgR8J-WPHlvN7E": {"geometry": {"location": {"lat": 51.5171597, "lng": -0.1625314}, "viewport": {"northeast": {"lat": 51.5183961302915, "lng": -0.161133819708498}, "southwest": {"lat": 51.5156981697085, "lng": -0.163831780291502}}}, "name": "At Your Beat", "place_id": "ChIJecAv8coadkgR8J-WPHlvN7E", "types": ["point_of_interest", "establishment"]}, "ChIJF-y6rj0bdkgR_P9qg8muSUs": {"geometry": {"location": {"lat": 51.5171361, "lng": -0.1626308}, "viewport": {"northeast": {"lat": 51.51847103029151, "lng": -0.161372669708498}, "southwest": {"lat": 51.51577306970851, "lng": -0.164070630291502}}}, "name": "Barbabroad london", "place_id": "ChIJF-y6rj0bdkgR_P9qg8muSUs", "types": ["point_of_interest", "establishment"]}, "ChIJDcNOUSYbdkgRgtH1R3YpZi4": {"geometry": {"location": {"lat": 51.5170496, "lng": -0.1624923}, "viewport": {"northeast": {"lat": 51.51834038029151, "lng": -0.161118219708498}, "southwest": {"lat": 51.51564241970851, "lng": -0.1638161802915021}}}, "name": "Fitness Fun Machine Zumba class Central London", "place_id": "ChIJDcNOUSYbdkgRgtH1R3YpZi4", "types": ["point_of_interest", "establishment"], "rating": 5, "user_ratings_total": 3}, "ChIJ30ai1fobdkgR9KhqlHHOuSA": {"geometry": {"location": {"lat": 51.517167, "lng": -0.162323}, "viewport": {"northeast": {"lat": 51.5185320802915, "lng": -0.160878469708498}, "southwest": {"lat": 51.5158341197085, "lng": -0.163576430291502}}}, "name": "Young", "place_id": "ChIJ30ai1fobdkgR9KhqlHHOuSA", "types": ["point_of_interest", "clothing_store", "store", "establishment"]}, "ChIJy5LX8MoadkgRfdi7UH_vKKY": {"geometry": {"location": {"lat": 51.5171508, "lng": -0.1623166}, "viewport": {"northeast": {"lat": 51.5185159302915, "lng": -0.160871769708498}, "southwest": {"lat": 51.5158179697085, "lng": -0.163569730291502}}}, "name": "Eleventh Church of Christian Scientists", "place_id": "ChIJy5LX8MoadkgRfdi7UH_vKKY", "types": ["church", "place_of_worship", "point_of_interest", "establishment"], "rating": 5, "user_ratings_total": 1}, "ChIJsWJzp7pvdkgRbYVhONewPKc": {"geometry": {"location": {"lat": 51.5171112, "lng": -0.1633653}, "viewport": {"northeast": {"lat": 51.5185313802915, "lng": -0.162084269708498}, "southwest": {"lat": 51.5158334197085, "lng": -0.164782230291502}}}, "name": "Tangerine Films", "place_id": "ChIJsWJzp7pvdkgRbYVhONewPKc", "types": ["point_of_interest", "establishment"], "rating": 5, "user_ratings_total": 2}, "ChIJW6SCWMoadkgRczfzQ8NVg9c": {"geometry": {"location": {"lat": 51.5175762, "lng": -0.1625388}, "viewport": {"northeast": {"lat": 51.51894428029149, "lng": -0.161078069708498}, "southwest": {"lat": 51.51624631970849, "lng": -0.163776030291502}}}, "name": "Maria Fung - Graphics Print & Web", "place_id": "ChIJW6SCWMoadkgRczfzQ8NVg9c", "types": ["point_of_interest", "establishment"]}, "ChIJdwEPXNAbdkgR346cesoeHsI": {"geometry": {"location": {"lat": 51.5169022, "lng": -0.1630164}, "viewport": {"northeast": {"lat": 51.5182709302915, "lng": -0.161533669708498}, "southwest": {"lat": 51.5155729697085, "lng": -0.164231630291502}}}, "name": "Shouryan Kapoor", "place_id": "ChIJdwEPXNAbdkgR346cesoeHsI", "types": ["point_of_interest", "establishment"], "rating": 3.5, "user_ratings_total": 4}, "ChIJceixKMsadkgRWkSztOXVrZI": {"geometry": {"location": {"lat": 51.51748320000001, "lng": -0.1620792}, "viewport": {"northeast": {"lat": 51.51881803029151, "lng": -0.160813069708498}, "southwest": {"lat": 51.51612006970851, "lng": -0.163511030291502}}}, "name": "Allure", "place_id": "ChIJceixKMsadkgRWkSztOXVrZI", "types": ["health", "point_of_interest", "establishment"]}, "ChIJQ1fv-8oadkgRVgq8GuvH0u0": {"geometry": {"location": {"lat": 51.5170425, "lng": -0.1619293}, "viewport": {"northeast": {"lat": 51.5183808802915, "lng": -0.160642419708498}, "southwest": {"lat": 51.5156829197085, "lng": -0.163340380291502}}}, "name": "Seymour Place Music", "place_id": "ChIJQ1fv-8oadkgRVgq8GuvH0u0", "types": ["point_of_interest", "establishment"]}, "ChIJW6SCWMoadkgRMPD2lWOluUk": {"geometry": {"location": {"lat": 51.51769039999999, "lng": -0.1625866}, "viewport": {"northeast": {"lat": 51.5190582802915, "lng": -0.161127119708498}, "southwest": {"lat": 51.5163603197085, "lng": -0.163825080291502}}}, "name": "Taylor & Crawley Ltd", "place_id": "ChIJW6SCWMoadkgRMPD2lWOluUk", "types": ["car_dealer", "point_of_interest", "store", "establishment"]}, "ChIJV0SWbxcbdkgRqAq9biEcOE0": {"geometry": {"location": {"lat": 51.51759999999999, "lng": -0.16215}, "viewport": {"northeast": {"lat": 51.5189363302915, "lng": -0.160874919708498}, "southwest": {"lat": 51.5162383697085, "lng": -0.163572880291502}}}, "name": "UPS Access Point", "place_id": "ChIJV0SWbxcbdkgRqAq9biEcOE0", "types": ["point_of_interest", "establishment"], "rating": 3.7, "user_ratings_total": 3}, "ChIJRT-4V8oadkgRhVfZLsQiECU": {"geometry": {"location": {"lat": 51.5176125, "lng": -0.1621774}, "viewport": {"northeast": {"lat": 51.5189505802915, "lng": -0.160892169708498}, "southwest": {"lat": 51.5162526197085, "lng": -0.163590130291502}}}, "name": "Mertoun Terrace", "place_id": "ChIJRT-4V8oadkgRhVfZLsQiECU", "types": ["point_of_interest", "establishment"]}, "ChIJm5lHicoadkgRpX7u6Zuaxow": {"geometry": {"location": {"lat": 51.51721790000001, "lng": -0.1634341}, "viewport": {"northeast": {"lat": 51.5185844802915, "lng": -0.162101969708498}, "southwest": {"lat": 51.5158865197085, "lng": -0.164799930291502}}}, "name": "102.2 Smooth Radio", "place_id": "ChIJm5lHicoadkgRpX7u6Zuaxow", "types": ["point_of_interest", "establishment"], "rating": 3.7, "user_ratings_total": 3}, "ChIJh0cE9soadkgRuZDFLO01z7w": {"geometry": {"location": {"lat": 51.517503, "lng": -0.162608}, "viewport": {"northeast": {"lat": 51.51884480736712, "lng": -0.1611956396491429}, "southwest": {"lat": 51.51614684678412, "lng": -0.1638936002321469}}}, "name": "Parking lot", "place_id": "ChIJh0cE9soadkgRuZDFLO01z7w", "types": ["parking", "premise", "point_of_interest", "establishment"]}, "ChIJ7eaDicoadkgRoAiPxYayNkg": {"geometry": {"location": {"lat": 51.5173375, "lng": -0.1635267}, "viewport": {"northeast": {"lat": 51.51872346660637, "lng": -0.1620900612092831}, "southwest": {"lat": 51.51602550602338, "lng": -0.1647880217922871}}}, "name": "Parking lot", "place_id": "ChIJ7eaDicoadkgRoAiPxYayNkg", "types": ["parking", "premise", "point_of_interest", "establishment"]}, "ChIJh8017soadkgRHio7XTj4GxY": {"geometry": {"location": {"lat": 51.5166614, "lng": -0.1624422}, "viewport": {"northeast": {"lat": 51.5181371302915, "lng": -0.161113869708498}, "southwest": {"lat": 51.5154391697085, "lng": -0.163811830291502}}}, "name": "Brown Street Recruitment", "place_id": "ChIJh8017soadkgRHio7XTj4GxY", "types": ["point_of_interest", "establishment"]}, "ChIJLerWBMoadkgRrb--WHnR8A0": {"geometry": {"location": {"lat": 51.51966755789746, "lng": -0.1638065722694685}, "viewport": {"northeast": {"lat": 51.52102068029149, "lng": -0.162458519708498}, "southwest": {"lat": 51.51832271970849, "lng": -0.165156480291502}}}, "name": "87-97 York St", "place_id": "ChIJLerWBMoadkgRrb--WHnR8A0", "types": ["route"]}, "ChIJ2woqBsoadkgRv2--WTicXmQ": {"geometry": {"location": {"lat": 51.51953869999999, "lng": -0.1641311}, "viewport": {"northeast": {"lat": 51.52094198029149, "lng": -0.162735419708498}, "southwest": {"lat": 51.51824401970849, "lng": -0.165433380291502}}}, "name": "The Harcourt", "place_id": "ChIJ2woqBsoadkgRv2--WTicXmQ", "types": ["bar", "restaurant", "food", "point_of_interest", "establishment"], "rating": 4.2, "user_ratings_total": 334}, "ChIJYSYt-bUadkgRWynUg_VJ1gg": {"geometry": {"location": {"lat": 51.51984299999999, "lng": -0.1646916}, "viewport": {"northeast": {"lat": 51.5212260802915, "lng": -0.163301669708498}, "southwest": {"lat": 51.51852811970851, "lng": -0.165999630291502}}}, "name": "Dinings", "place_id": "ChIJYSYt-bUadkgRWynUg_VJ1gg", "types": ["restaurant", "food", "point_of_interest", "establishment"], "rating": 4.5, "user_ratings_total": 402}, "ChIJh_vLDcoadkgREj84kypYcjM": {"geometry": {"location": {"lat": 51.51914000000001, "lng": -0.163908}, "viewport": {"northeast": {"lat": 51.5204221302915, "lng": -0.162498969708498}, "southwest": {"lat": 51.5177241697085, "lng": -0.165196930291502}}}, "name": "Briciole", "place_id": "ChIJh_vLDcoadkgREj84kypYcjM", "types": ["grocery_or_supermarket", "meal_takeaway", "cafe", "restaurant", "food", "point_of_interest", "store", "establishment"], "rating": 4.4, "user_ratings_total": 766}, "ChIJgUtfBsoadkgRFQpRrECbb4w": {"geometry": {"location": {"lat": 51.519626, "lng": -0.1643103}, "viewport": {"northeast": {"lat": 51.52097498029149, "lng": -0.162961319708498}, "southwest": {"lat": 51.51827701970849, "lng": -0.165659280291502}}}, "name": "Saunders & Co", "place_id": "ChIJgUtfBsoadkgRFQpRrECbb4w", "types": ["accounting", "finance", "point_of_interest", "establishment"]}, "ChIJv4HgPsoadkgRgm9CT2Rsx3M": {"geometry": {"location": {"lat": 51.5198009, "lng": -0.1646071}, "viewport": {"northeast": {"lat": 51.5211848302915, "lng": -0.163216069708498}, "southwest": {"lat": 51.5184868697085, "lng": -0.165914030291502}}}, "name": "The Ed Psych Practice - Marylebone", "place_id": "ChIJv4HgPsoadkgRgm9CT2Rsx3M", "types": ["doctor", "health", "point_of_interest", "establishment"], "rating": 3, "user_ratings_total": 2}, "ChIJiUfb-bUadkgRjYQk-MadhZY": {"geometry": {"location": {"lat": 51.5194817, "lng": -0.1646544}, "viewport": {"northeast": {"lat": 51.5207940802915, "lng": -0.163347919708498}, "southwest": {"lat": 51.5180961197085, "lng": -0.166045880291502}}}, "name": "CSG Lighting Consultancy Ltd", "place_id": "ChIJiUfb-bUadkgRjYQk-MadhZY", "types": ["point_of_interest", "establishment"]}, "ChIJeYOsktkQdkgRF0MSBCfjT5A": {"geometry": {"location": {"lat": 51.5195768, "lng": -0.1642025}, "viewport": {"northeast": {"lat": 51.52097258029151, "lng": -0.162799269708498}, "southwest": {"lat": 51.51827461970851, "lng": -0.165497230291502}}}, "name": "Great Minds Design", "place_id": "ChIJeYOsktkQdkgRF0MSBCfjT5A", "types": ["point_of_interest", "establishment"]}, "ChIJ397mCsoadkgRMALDGse-zQc": {"geometry": {"location": {"lat": 51.5190043, "lng": -0.1643325}, "viewport": {"northeast": {"lat": 51.5203105302915, "lng": -0.162963069708498}, "southwest": {"lat": 51.5176125697085, "lng": -0.165661030291502}}}, "name": "World Avenues Ltd", "place_id": "ChIJ397mCsoadkgRMALDGse-zQc", "types": ["travel_agency", "point_of_interest", "establishment"]}, "ChIJ__9QBsoadkgRUFWyeiSB6O4": {"geometry": {"location": {"lat": 51.519626, "lng": -0.1643103}, "viewport": {"northeast": {"lat": 51.5210215302915, "lng": -0.162904769708498}, "southwest": {"lat": 51.5183235697085, "lng": -0.165602730291502}}}, "name": "LDN Investments", "place_id": "ChIJ__9QBsoadkgRUFWyeiSB6O4", "types": ["point_of_interest", "establishment"]}, "ChIJkcp6DMoadkgR8kNvCOKtNlU": {"geometry": {"location": {"lat": 51.5190511, "lng": -0.1642057}, "viewport": {"northeast": {"lat": 51.52034613029149, "lng": -0.162831819708498}, "southwest": {"lat": 51.51764816970849, "lng": -0.165529780291502}}}, "name": "London Colonic Hydrotherapy Clinic", "place_id": "ChIJkcp6DMoadkgR8kNvCOKtNlU", "types": ["health", "point_of_interest", "establishment"], "rating": 5, "user_ratings_total": 7}, "ChIJHYgR_7UadkgRQBMx-LtATaE": {"geometry": {"location": {"lat": 51.5196796, "lng": -0.164412}, "viewport": {"northeast": {"lat": 51.5210733302915, "lng": -0.163009219708498}, "southwest": {"lat": 51.5183753697085, "lng": -0.165707180291502}}}, "name": "Alex Best", "place_id": "ChIJHYgR_7UadkgRQBMx-LtATaE", "types": ["point_of_interest", "establishment"]}, "ChIJEzwo97UadkgRMccAA1uiMRM": {"geometry": {"location": {"lat": 51.519331, "lng": -0.1648559}, "viewport": {"northeast": {"lat": 51.5207226802915, "lng": -0.1634573697084979}, "southwest": {"lat": 51.5180247197085, "lng": -0.166155330291502}}}, "name": "REC Technologies Ltd", "place_id": "ChIJEzwo97UadkgRMccAA1uiMRM", "types": ["point_of_interest", "establishment"]}, "ChIJ_wquC8oadkgR_9CS_zmlLrg": {"geometry": {"location": {"lat": 51.5190362, "lng": -0.1643177}, "viewport": {"northeast": {"lat": 51.5203288302915, "lng": -0.162942719708498}, "southwest": {"lat": 51.5176308697085, "lng": -0.165640680291502}}}, "name": "Lighter & Brighter", "place_id": "ChIJ_wquC8oadkgR_9CS_zmlLrg", "types": ["physiotherapist", "health", "point_of_interest", "establishment"]}, "ChIJV2WHC8oadkgRdj3qCU6RljQ": {"geometry": {"location": {"lat": 51.519028, "lng": -0.1641602}, "viewport": {"northeast": {"lat": 51.5203370302915, "lng": -0.162795119708498}, "southwest": {"lat": 51.5176390697085, "lng": -0.165493080291502}}}, "name": "ASAAN Property Maintenance", "place_id": "ChIJV2WHC8oadkgRdj3qCU6RljQ", "types": ["point_of_interest", "establishment"], "rating": 5, "user_ratings_total": 11}, "ChIJ6d9dBMoadkgRcnMfk8LRhEI": {"geometry": {"location": {"lat": 51.519734, "lng": -0.1640009}, "viewport": {"northeast": {"lat": 51.5210479802915, "lng": -0.162667769708498}, "southwest": {"lat": 51.5183500197085, "lng": -0.165365730291502}}}, "name": "Wizard University", "place_id": "ChIJ6d9dBMoadkgRcnMfk8LRhEI", "types": ["school", "point_of_interest", "establishment"]}, "ChIJjTL0CsoadkgRo5pUhpb9lvA": {"geometry": {"location": {"lat": 51.51898869999999, "lng": -0.1644132}, "viewport": {"northeast": {"lat": 51.52029483029149, "lng": -0.163046169708498}, "southwest": {"lat": 51.51759686970849, "lng": -0.165744130291502}}}, "name": "Inspired Beauty", "place_id": "ChIJjTL0CsoadkgRo5pUhpb9lvA", "types": ["point_of_interest", "establishment"]}, "ChIJV5FNEsoadkgRoS5ffemHR5w": {"geometry": {"location": {"lat": 51.51898559999999, "lng": -0.1644184}, "viewport": {"northeast": {"lat": 51.5202931302915, "lng": -0.163049569708498}, "southwest": {"lat": 51.5175951697085, "lng": -0.165747530291502}}}, "name": "G.M.G", "place_id": "ChIJV5FNEsoadkgRoS5ffemHR5w", "types": ["beauty_salon", "point_of_interest", "establishment"]}, "ChIJfQFkBMoadkgRzbQoDrZWbvc": {"geometry": {"location": {"lat": 51.5197606, "lng": -0.1640021}, "viewport": {"northeast": {"lat": 51.5210524302915, "lng": -0.162614419708498}, "southwest": {"lat": 51.5183544697085, "lng": -0.165312380291502}}}, "name": "The Marylebone Kitchen", "place_id": "ChIJfQFkBMoadkgRzbQoDrZWbvc", "types": ["cafe", "food", "point_of_interest", "establishment"], "rating": 4.7, "user_ratings_total": 168}, "ChIJAd3ABMoadkgRA4J76Te1PzQ": {"geometry": {"location": {"lat": 51.5197312, "lng": -0.1638677}, "viewport": {"northeast": {"lat": 51.5210445302915, "lng": -0.162503619708498}, "southwest": {"lat": 51.5183465697085, "lng": -0.1652015802915021}}}, "name": "Luscious Locks @ B&K Lifestyle Spa", "place_id": "ChIJAd3ABMoadkgRA4J76Te1PzQ", "types": ["hair_care", "point_of_interest", "establishment"]}, "ChIJny1b_7UadkgRvbVNfmuRDzA": {"geometry": {"location": {"lat": 51.5198259, "lng": -0.1646068}, "viewport": {"northeast": {"lat": 51.5212017302915, "lng": -0.163225369708498}, "southwest": {"lat": 51.5185037697085, "lng": -0.165923330291502}}}, "name": "FactEntry", "place_id": "ChIJny1b_7UadkgRvbVNfmuRDzA", "types": ["point_of_interest", "establishment"], "rating": 4, "user_ratings_total": 2}, "ChIJq04y8rUadkgRz4sCR_JQC6w": {"geometry": {"location": {"lat": 51.5191219, "lng": -0.1650316}, "viewport": {"northeast": {"lat": 51.5204347302915, "lng": -0.163738819708498}, "southwest": {"lat": 51.5177367697085, "lng": -0.166436780291502}}}, "name": "Top Hat Property Services", "place_id": "ChIJq04y8rUadkgRz4sCR_JQC6w", "types": ["point_of_interest", "establishment"], "rating": 5, "user_ratings_total": 1}, "ChIJKTz3EcoadkgRLNeQq1MD1sM": {"geometry": {"location": {"lat": 51.5191435, "lng": -0.1637917}, "viewport": {"northeast": {"lat": 51.52042908029149, "lng": -0.162412569708498}, "southwest": {"lat": 51.51773111970849, "lng": -0.165110530291502}}}, "name": "Crescent Dental", "place_id": "ChIJKTz3EcoadkgRLNeQq1MD1sM", "types": ["dentist", "doctor", "health", "point_of_interest", "establishment"], "rating": 4.7, "user_ratings_total": 14}, "ChIJKTz3EcoadkgRzZxnAgiSpiM": {"geometry": {"location": {"lat": 51.519149, "lng": -0.163605}, "viewport": {"northeast": {"lat": 51.5204414802915, "lng": -0.162286069708498}, "southwest": {"lat": 51.5177435197085, "lng": -0.164984030291502}}}, "name": "Seymour Pharmacy", "place_id": "ChIJKTz3EcoadkgRzZxnAgiSpiM", "types": ["pharmacy", "health", "point_of_interest", "store", "establishment"], "rating": 4.8, "user_ratings_total": 17}, "ChIJnUgwviwFdkgRa9vine9T8Go": {"geometry": {"location": {"lat": 51.51985209999999, "lng": -0.1641277}, "viewport": {"northeast": {"lat": 51.5211450302915, "lng": -0.162835819708498}, "southwest": {"lat": 51.5184470697085, "lng": -0.165533780291502}}}, "name": "Charles Brice Limited", "place_id": "ChIJnUgwviwFdkgRa9vine9T8Go", "types": ["point_of_interest", "establishment"], "rating": 3, "user_ratings_total": 2}, "ChIJwwmaBcoadkgRZqYs44LgXqM": {"geometry": {"location": {"lat": 51.5195507, "lng": -0.1639897}, "viewport": {"northeast": {"lat": 51.52094333029149, "lng": -0.162642569708498}, "southwest": {"lat": 51.5182453697085, "lng": -0.165340530291502}}}, "name": "Central Estates Property Specialists Sales, Lettings & Property Management In Central London", "place_id": "ChIJwwmaBcoadkgRZqYs44LgXqM", "types": ["real_estate_agency", "point_of_interest", "establishment"], "rating": 4.2, "user_ratings_total": 21}, "ChIJMbNlCsoadkgRtzisErIGCcQ": {"geometry": {"location": {"lat": 51.5190199, "lng": -0.1642701}, "viewport": {"northeast": {"lat": 51.5203239802915, "lng": -0.162900419708498}, "southwest": {"lat": 51.5176260197085, "lng": -0.1655983802915021}}}, "name": "Saasha clinic", "place_id": "ChIJMbNlCsoadkgRtzisErIGCcQ", "types": ["beauty_salon", "hair_care", "spa", "health", "point_of_interest", "establishment"], "rating": 2.8, "user_ratings_total": 26}, "ChIJxYF-D8oadkgRuDv6H7LV0Ak": {"geometry": {"location": {"lat": 51.51955450000001, "lng": -0.1639766}, "viewport": {"northeast": {"lat": 51.5209468302915, "lng": -0.162627319708498}, "southwest": {"lat": 51.5182488697085, "lng": -0.165325280291502}}}, "name": "Parkers Estate Agents", "place_id": "ChIJxYF-D8oadkgRuDv6H7LV0Ak", "types": ["real_estate_agency", "point_of_interest", "establishment"], "rating": 2.3, "user_ratings_total": 3}, "ChIJIQ7kCMoadkgRMcZyQlP1VNU": {"geometry": {"location": {"lat": 51.5193279, "lng": -0.1643036}, "viewport": {"northeast": {"lat": 51.5206389802915, "lng": -0.162998769708498}, "southwest": {"lat": 51.5179410197085, "lng": -0.165696730291502}}}, "name": "Lee's Clearances", "place_id": "ChIJIQ7kCMoadkgRMcZyQlP1VNU", "types": ["point_of_interest", "establishment"], "rating": 4, "user_ratings_total": 1}, "ChIJq3_yv2kbdkgRsTwznSronsA": {"geometry": {"location": {"lat": 51.5195674, "lng": -0.1641901}, "viewport": {"northeast": {"lat": 51.52096418029149, "lng": -0.162784569708498}, "southwest": {"lat": 51.51826621970849, "lng": -0.165482530291502}}}, "name": "London Top Nails & Beauty", "place_id": "ChIJq3_yv2kbdkgRsTwznSronsA", "types": ["beauty_salon", "hair_care", "spa", "point_of_interest", "establishment"], "rating": 4.3, "user_ratings_total": 36}, "ChIJ__9QBsoadkgRMySzhMDWJrU": {"geometry": {"location": {"lat": 51.519626, "lng": -0.1643103}, "viewport": {"northeast": {"lat": 51.52102173029149, "lng": -0.162905119708498}, "southwest": {"lat": 51.51832376970849, "lng": -0.165603080291502}}}, "name": "Yuzefi Limited", "place_id": "ChIJ__9QBsoadkgRMySzhMDWJrU", "types": ["point_of_interest", "establishment"]}, "ChIJ__9QBsoadkgRP89RBzALKfY": {"geometry": {"location": {"lat": 51.519626, "lng": -0.1643103}, "viewport": {"northeast": {"lat": 51.5210215302915, "lng": -0.162904769708498}, "southwest": {"lat": 51.5183235697085, "lng": -0.165602730291502}}}, "name": "Nalex International Development Corp.", "place_id": "ChIJ__9QBsoadkgRP89RBzALKfY", "types": ["point_of_interest", "establishment"], "rating": 5, "user_ratings_total": 1}, "ChIJF27PaGQbdkgRu9qf10inCGE": {"geometry": {"location": {"lat": 51.519081, "lng": -0.164177}, "viewport": {"northeast": {"lat": 51.5203645802915, "lng": -0.162797819708498}, "southwest": {"lat": 51.5176666197085, "lng": -0.165495780291502}}}, "name": "Han Hair & Beauty", "place_id": "ChIJF27PaGQbdkgRu9qf10inCGE", "types": ["hair_care", "point_of_interest", "establishment"], "rating": 5, "user_ratings_total": 6}, "ChIJg61bDMoadkgRm59rdGfc2h8": {"geometry": {"location": {"lat": 51.519081, "lng": -0.164177}, "viewport": {"northeast": {"lat": 51.5203645802915, "lng": -0.162797819708498}, "southwest": {"lat": 51.5176666197085, "lng": -0.165495780291502}}}, "name": "GULF LIGHTS SALO", "place_id": "ChIJg61bDMoadkgRm59rdGfc2h8", "types": ["hair_care", "cafe", "food", "health", "point_of_interest", "store", "establishment"], "rating": 3.5, "user_ratings_total": 4}, "ChIJDTwo97UadkgRAqC8gE0W4Co": {"geometry": {"location": {"lat": 51.519331, "lng": -0.164856}, "viewport": {"northeast": {"lat": 51.5207226802915, "lng": -0.163457419708498}, "southwest": {"lat": 51.5180247197085, "lng": -0.166155380291502}}}, "name": "Diamond Locations & Co Ltd", "place_id": "ChIJDTwo97UadkgRAqC8gE0W4Co", "types": ["real_estate_agency", "point_of_interest", "establishment"], "rating": 4.9, "user_ratings_total": 45}, "ChIJ-0Um_jobdkgRtfLOnxaRpbk": {"geometry": {"location": {"lat": 51.519348, "lng": -0.164872}, "viewport": {"northeast": {"lat": 51.52073643029151, "lng": -0.163477169708498}, "southwest": {"lat": 51.51803846970851, "lng": -0.166175130291502}}}, "name": "Define Media Group Ltd", "place_id": "ChIJ-0Um_jobdkgRtfLOnxaRpbk", "types": ["point_of_interest", "establishment"]}, "ChIJJfsqdrEbdkgRkFiK73_Z0Nk": {"geometry": {"location": {"lat": 51.5190511, "lng": -0.1642057}, "viewport": {"northeast": {"lat": 51.52034558029149, "lng": -0.162834719708498}, "southwest": {"lat": 51.5176476197085, "lng": -0.165532680291502}}}, "name": "Darren Rose Feng Shui & Bazi Astrology", "place_id": "ChIJJfsqdrEbdkgRkFiK73_Z0Nk", "types": ["point_of_interest", "establishment"], "rating": 5, "user_ratings_total": 2}, "ChIJdSkt97UadkgR-vAsvkrgA4I": {"geometry": {"location": {"lat": 51.5193589, "lng": -0.1648933}, "viewport": {"northeast": {"lat": 51.52074693029149, "lng": -0.163498969708498}, "southwest": {"lat": 51.5180489697085, "lng": -0.166196930291502}}}, "name": "Macartin& Co", "place_id": "ChIJdSkt97UadkgR-vAsvkrgA4I", "types": ["point_of_interest", "establishment"], "rating": 5, "user_ratings_total": 3}, "ChIJyViYEJQbdkgRYlKG2Orvlt8": {"geometry": {"location": {"lat": 51.5190219, "lng": -0.1643213}, "viewport": {"northeast": {"lat": 51.5203209302915, "lng": -0.162948819708498}, "southwest": {"lat": 51.5176229697085, "lng": -0.165646780291502}}}, "name": "Evgenia Beauty & Aesthetics", "place_id": "ChIJyViYEJQbdkgRYlKG2Orvlt8", "types": ["health", "point_of_interest", "establishment"]}, "ChIJ8V94b68bdkgRsOmHlJBqn48": {"geometry": {"location": {"lat": 51.5190219, "lng": -0.1643213}, "viewport": {"northeast": {"lat": 51.5203209302915, "lng": -0.162948819708498}, "southwest": {"lat": 51.5176229697085, "lng": -0.165646780291502}}}, "name": "Earth's glory", "place_id": "ChIJ8V94b68bdkgRsOmHlJBqn48", "types": ["point_of_interest", "establishment"]}, "ChIJnYHDCX8bdkgRRLpvvdastrU": {"geometry": {"location": {"lat": 51.5190219, "lng": -0.1643213}, "viewport": {"northeast": {"lat": 51.5203210302915, "lng": -0.162948119708498}, "southwest": {"lat": 51.5176230697085, "lng": -0.165646080291502}}}, "name": "Sandra's Brows & Lashes", "place_id": "ChIJnYHDCX8bdkgRRLpvvdastrU", "types": ["beauty_salon", "point_of_interest", "store", "establishment"], "rating": 5, "user_ratings_total": 2}, "ChIJYz9c6xwbdkgRCJ6S1Lz0I5k": {"geometry": {"location": {"lat": 51.5190251, "lng": -0.16442}, "viewport": {"northeast": {"lat": 51.5203137302915, "lng": -0.163045769708498}, "southwest": {"lat": 51.5176157697085, "lng": -0.165743730291502}}}, "name": "Perfectress Hair & Beauty - Marylebone", "place_id": "ChIJYz9c6xwbdkgRCJ6S1Lz0I5k", "types": ["beauty_salon", "hair_care", "spa", "point_of_interest", "establishment"], "rating": 5, "user_ratings_total": 38}, "ChIJAQBUCsoadkgR4GBgH3kVyNw": {"geometry": {"location": {"lat": 51.5190201, "lng": -0.1643642}, "viewport": {"northeast": {"lat": 51.5203163802915, "lng": -0.1629900197084979}, "southwest": {"lat": 51.5176184197085, "lng": -0.165687980291502}}}, "name": "Darren Rose Fertility Acupuncture", "place_id": "ChIJAQBUCsoadkgR4GBgH3kVyNw", "types": ["health", "point_of_interest", "establishment"], "rating": 5, "user_ratings_total": 3}, "ChIJMbNlCsoadkgR9abSQhGATNI": {"geometry": {"location": {"lat": 51.5190201, "lng": -0.1643642}, "viewport": {"northeast": {"lat": 51.5203163802915, "lng": -0.1629900197084979}, "southwest": {"lat": 51.5176184197085, "lng": -0.165687980291502}}}, "name": "Mado News", "place_id": "ChIJMbNlCsoadkgR9abSQhGATNI", "types": ["point_of_interest", "store", "establishment"]}, "ChIJ-aeEz7obdkgRXzq5f4m1Lts": {"geometry": {"location": {"lat": 51.519028, "lng": -0.1641602}, "viewport": {"northeast": {"lat": 51.52033743029151, "lng": -0.162792969708498}, "southwest": {"lat": 51.51763946970851, "lng": -0.165490930291502}}}, "name": "APM Electrical Wholesalers", "place_id": "ChIJ-aeEz7obdkgRXzq5f4m1Lts", "types": ["point_of_interest", "establishment"], "rating": 5, "user_ratings_total": 5}, "ChIJV2WHC8oadkgRi7T_loX6YdA": {"geometry": {"location": {"lat": 51.519028, "lng": -0.1641602}, "viewport": {"northeast": {"lat": 51.5203370302915, "lng": -0.162795119708498}, "southwest": {"lat": 51.5176390697085, "lng": -0.165493080291502}}}, "name": "Wutzu - Same Day Grocery Delivery London", "place_id": "ChIJV2WHC8oadkgRi7T_loX6YdA", "types": ["food", "point_of_interest", "establishment"], "rating": 4.5, "user_ratings_total": 24}, "ChIJSYRBog4bdkgRbANfQ5ogtzI": {"geometry": {"location": {"lat": 51.5194096, "lng": -0.1649496}, "viewport": {"northeast": {"lat": 51.5207900802915, "lng": -0.163564419708498}, "southwest": {"lat": 51.5180921197085, "lng": -0.166262380291502}}}, "name": "Delta Accountancy Ltd", "place_id": "ChIJSYRBog4bdkgRbANfQ5ogtzI", "types": ["accounting", "finance", "point_of_interest", "establishment"]}, "ChIJ1W6S8LUadkgRa-L9gPG8Hsg": {"geometry": {"location": {"lat": 51.5194096, "lng": -0.1649496}, "viewport": {"northeast": {"lat": 51.5207900802915, "lng": -0.163564419708498}, "southwest": {"lat": 51.5180921197085, "lng": -0.166262380291502}}}, "name": "The HLD Group of Companies", "place_id": "ChIJ1W6S8LUadkgRa-L9gPG8Hsg", "types": ["point_of_interest", "establishment"]}, "ChIJ8_2I6EAbdkgRGYOGzd19CHk": {"geometry": {"location": {"lat": 51.5194096, "lng": -0.1649496}, "viewport": {"northeast": {"lat": 51.5207900802915, "lng": -0.163564419708498}, "southwest": {"lat": 51.5180921197085, "lng": -0.166262380291502}}}, "name": "PRP Solutions (PREMIUM RECRUITMENT PAYROLL SOLUTIONS LIMITED)", "place_id": "ChIJ8_2I6EAbdkgRGYOGzd19CHk", "types": ["accounting", "finance", "point_of_interest", "establishment"], "rating": 5, "user_ratings_total": 6}, "ChIJh6z4DcoadkgR7sV3612BnjI": {"geometry": {"location": {"lat": 51.5191435, "lng": -0.1637917}, "viewport": {"northeast": {"lat": 51.52042908029149, "lng": -0.162412569708498}, "southwest": {"lat": 51.51773111970849, "lng": -0.165110530291502}}}, "name": "Dr L J Shindler - Crescent Dental Clinic", "place_id": "ChIJh6z4DcoadkgR7sV3612BnjI", "types": ["dentist", "health", "point_of_interest", "establishment"]}, "ChIJKTz3EcoadkgRGJn65V4Mj9Q": {"geometry": {"location": {"lat": 51.5191435, "lng": -0.1637917}, "viewport": {"northeast": {"lat": 51.52042908029149, "lng": -0.162412569708498}, "southwest": {"lat": 51.51773111970849, "lng": -0.165110530291502}}}, "name": "Jalal-Uddin Dr M K", "place_id": "ChIJKTz3EcoadkgRGJn65V4Mj9Q", "types": ["doctor", "health", "point_of_interest", "establishment"]}, "ChIJ_Uv7fIEbdkgRhn-EAZ_hEqQ": {"geometry": {"location": {"lat": 51.5198054, "lng": -0.1643935}, "viewport": {"northeast": {"lat": 51.5211309302915, "lng": -0.163073119708498}, "southwest": {"lat": 51.5184329697085, "lng": -0.165771080291502}}}, "name": "luxury stay marylebone", "place_id": "ChIJ_Uv7fIEbdkgRhn-EAZ_hEqQ", "types": ["lodging", "point_of_interest", "establishment"], "rating": 1.8, "user_ratings_total": 6}, "ChIJHd-tirsRdkgRQTPKhpzm2rs": {"geometry": {"location": {"lat": 51.5197606, "lng": -0.1640021}, "viewport": {"northeast": {"lat": 51.5210675802915, "lng": -0.162681569708498}, "southwest": {"lat": 51.5183696197085, "lng": -0.165379530291502}}}, "name": "Fuego London", "place_id": "ChIJHd-tirsRdkgRQTPKhpzm2rs", "types": ["restaurant", "food", "point_of_interest", "establishment"], "rating": 5, "user_ratings_total": 1}, "ChIJY3Vpg5sRdkgRmp3KMWnXeVw": {"geometry": {"location": {"lat": 51.5197606, "lng": -0.1640021}, "viewport": {"northeast": {"lat": 51.5210675802915, "lng": -0.162681569708498}, "southwest": {"lat": 51.5183696197085, "lng": -0.165379530291502}}}, "name": "Buddha's Bowl London", "place_id": "ChIJY3Vpg5sRdkgRmp3KMWnXeVw", "types": ["restaurant", "food", "point_of_interest", "establishment"], "rating": 5, "user_ratings_total": 2}, "ChIJ_VRazssadkgRPBvfzI2UgRI": {"geometry": {"location": {"lat": 51.5197418, "lng": -0.1638813}, "viewport": {"northeast": {"lat": 51.5210503302915, "lng": -0.1625135197084979}, "southwest": {"lat": 51.5183523697085, "lng": -0.165211480291502}}}, "name": "Steve Grant Health", "place_id": "ChIJ_VRazssadkgRPBvfzI2UgRI", "types": ["health", "point_of_interest", "establishment"], "rating": 5, "user_ratings_total": 22}, "ChIJ2Z6WBMoadkgR7U6VdrifExw": {"geometry": {"location": {"lat": 51.5197611, "lng": -0.1639022}, "viewport": {"northeast": {"lat": 51.52105898029149, "lng": -0.162529469708498}, "southwest": {"lat": 51.51836101970849, "lng": -0.165227430291502}}}, "name": "Charterhouse Clinic", "place_id": "ChIJ2Z6WBMoadkgR7U6VdrifExw", "types": ["point_of_interest", "establishment"]}, "ChIJqYI_0AEPdkgREa7WtSl_XtQ": {"geometry": {"location": {"lat": 51.5197611, "lng": -0.1639022}, "viewport": {"northeast": {"lat": 51.52105898029149, "lng": -0.162529469708498}, "southwest": {"lat": 51.51836101970849, "lng": -0.165227430291502}}}, "name": "MOTS Live", "place_id": "ChIJqYI_0AEPdkgREa7WtSl_XtQ", "types": ["point_of_interest", "establishment"], "rating": 5, "user_ratings_total": 2}, "ChIJmSyBEcoadkgRudA7ko5Dp9o": {"geometry": {"location": {"lat": 51.51917659999999, "lng": -0.163629}, "viewport": {"northeast": {"lat": 51.52046078029149, "lng": -0.162249169708498}, "southwest": {"lat": 51.51776281970849, "lng": -0.164947130291502}}}, "name": "Winchester International", "place_id": "ChIJmSyBEcoadkgRudA7ko5Dp9o", "types": ["real_estate_agency", "general_contractor", "point_of_interest", "establishment"], "rating": 5, "user_ratings_total": 1}, "ChIJd3Cuo4IbdkgRYl6IcrY04Lw": {"geometry": {"location": {"lat": 51.5197621, "lng": -0.1638266}, "viewport": {"northeast": {"lat": 51.5210657802915, "lng": -0.162456569708498}, "southwest": {"lat": 51.5183678197085, "lng": -0.165154530291502}}}, "name": "Recovery Circle", "place_id": "ChIJd3Cuo4IbdkgRYl6IcrY04Lw", "types": ["health", "point_of_interest", "establishment"]}, "ChIJo1cfdMoadkgRKQmGE3i6ZZk": {"geometry": {"location": {"lat": 51.51856631300851, "lng": -0.1643049445251332}, "viewport": {"northeast": {"lat": 51.51991573029149, "lng": -0.162954569708498}, "southwest": {"lat": 51.51721776970849, "lng": -0.165652530291502}}}, "name": "16-3 Shouldham St", "place_id": "ChIJo1cfdMoadkgRKQmGE3i6ZZk", "types": ["route"]}, "ChIJkVdaeMoadkgRBHV-q378NVE": {"geometry": {"location": {"lat": 51.5180653, "lng": -0.1643241}, "viewport": {"northeast": {"lat": 51.51938258029151, "lng": -0.163033619708498}, "southwest": {"lat": 51.51668461970851, "lng": -0.165731580291502}}}, "name": "High Commission of Tonga, London", "place_id": "ChIJkVdaeMoadkgRBHV-q378NVE", "types": ["embassy", "point_of_interest", "establishment"], "rating": 5, "user_ratings_total": 1}, "ChIJuZ_yE9UTdkgRdGgXeApSn2w": {"geometry": {"location": {"lat": 51.5183793, "lng": -0.1642488}, "viewport": {"northeast": {"lat": 51.5197597802915, "lng": -0.162841469708498}, "southwest": {"lat": 51.5170618197085, "lng": -0.165539430291502}}}, "name": "Dominvs Group", "place_id": "ChIJuZ_yE9UTdkgRdGgXeApSn2w", "types": ["finance", "real_estate_agency", "general_contractor", "point_of_interest", "establishment"], "rating": 4.3, "user_ratings_total": 4}, "ChIJz-rZfMoadkgRNfaHLJxzm1c": {"geometry": {"location": {"lat": 51.51814669999999, "lng": -0.1648994}, "viewport": {"northeast": {"lat": 51.5195350802915, "lng": -0.163477669708498}, "southwest": {"lat": 51.5168371197085, "lng": -0.166175630291502}}}, "name": "AIMS Accountants For Business - Nick Feeny", "place_id": "ChIJz-rZfMoadkgRNfaHLJxzm1c", "types": ["accounting", "finance", "point_of_interest", "establishment"]}, "ChIJ73-XjyobdkgR9oV227a_saM": {"geometry": {"location": {"lat": 51.518696, "lng": -0.1647144}, "viewport": {"northeast": {"lat": 51.52008448029149, "lng": -0.163309269708498}, "southwest": {"lat": 51.5173865197085, "lng": -0.1660072302915021}}}, "name": "The 10 Group", "place_id": "ChIJ73-XjyobdkgR9oV227a_saM", "types": ["point_of_interest", "establishment"], "rating": 5, "user_ratings_total": 1}, "ChIJbTo4c8oadkgR9ZT3223Cdto": {"geometry": {"location": {"lat": 51.5187912, "lng": -0.1640556}, "viewport": {"northeast": {"lat": 51.5202186302915, "lng": -0.162742819708498}, "southwest": {"lat": 51.5175206697085, "lng": -0.165440780291502}}}, "name": "Focus Detectives", "place_id": "ChIJbTo4c8oadkgR9ZT3223Cdto", "types": ["point_of_interest", "establishment"]}, "ChIJPUxNt84bdkgRJHoCQWbPD5M": {"geometry": {"location": {"lat": 51.5183793, "lng": -0.1642488}, "viewport": {"northeast": {"lat": 51.5197603302915, "lng": -0.162842169708498}, "southwest": {"lat": 51.5170623697085, "lng": -0.165540130291502}}}, "name": "Dominvs Aviation", "place_id": "ChIJPUxNt84bdkgRJHoCQWbPD5M", "types": ["point_of_interest", "establishment"]}, "ChIJ-f9Ld8oadkgRO5PfL4NN35Y": {"geometry": {"location": {"lat": 51.5183793, "lng": -0.1642488}, "viewport": {"northeast": {"lat": 51.5197603302915, "lng": -0.162842169708498}, "southwest": {"lat": 51.5170623697085, "lng": -0.165540130291502}}}, "name": "CHRISTOPHER SCHOLEY", "place_id": "ChIJ-f9Ld8oadkgRO5PfL4NN35Y", "types": ["point_of_interest", "establishment"]}, "ChIJqQ1x0r4bdkgRTBs-pFpp6gY": {"geometry": {"location": {"lat": 51.5182403, "lng": -0.1640322}, "viewport": {"northeast": {"lat": 51.5196177802915, "lng": -0.162632019708498}, "southwest": {"lat": 51.51691981970851, "lng": -0.1653299802915021}}}, "name": "Marbel arch inn", "place_id": "ChIJqQ1x0r4bdkgRTBs-pFpp6gY", "types": ["lodging", "point_of_interest", "establishment"]}, "ChIJccYPiLUadkgRKDch6_nBfJY": {"geometry": {"location": {"lat": 51.5182151, "lng": -0.1645746}, "viewport": {"northeast": {"lat": 51.5195386802915, "lng": -0.163272469708498}, "southwest": {"lat": 51.5168407197085, "lng": -0.165970430291502}}}, "name": "Barham House", "place_id": "ChIJccYPiLUadkgRKDch6_nBfJY", "types": ["point_of_interest", "establishment"]}, "ChIJZV7bh7UadkgRJPtfjVbQZ6s": {"geometry": {"location": {"lat": 51.5180886, "lng": -0.1647362}, "viewport": {"northeast": {"lat": 51.5194643802915, "lng": -0.163337769708498}, "southwest": {"lat": 51.5167664197085, "lng": -0.166035730291502}}}, "name": "Ro\u2019ya Petro Services Ltd.", "place_id": "ChIJZV7bh7UadkgRJPtfjVbQZ6s", "types": ["point_of_interest", "establishment"]}, "ChIJVXvGmIYbdkgRRQRHd6UfFe4": {"geometry": {"location": {"lat": 51.5179172, "lng": -0.1640646}, "viewport": {"northeast": {"lat": 51.5192264302915, "lng": -0.162789019708498}, "southwest": {"lat": 51.5165284697085, "lng": -0.165486980291502}}}, "name": "Veeve Star Of Marylebone", "place_id": "ChIJVXvGmIYbdkgRRQRHd6UfFe4", "types": ["lodging", "point_of_interest", "establishment"]}, "ChIJr3BZh7UadkgRsuB8_M3FI1c": {"geometry": {"location": {"lat": 51.5179022, "lng": -0.1645386}, "viewport": {"northeast": {"lat": 51.51928768029151, "lng": -0.1631222197084979}, "southwest": {"lat": 51.51658971970851, "lng": -0.165820180291502}}}, "name": "DAVID PEACE", "place_id": "ChIJr3BZh7UadkgRsuB8_M3FI1c", "types": ["point_of_interest", "establishment"]}, "ChIJqRbpAvUbdkgR5zbmWXCnBe8": {"geometry": {"location": {"lat": 51.518164, "lng": -0.163632}, "viewport": {"northeast": {"lat": 51.5195379802915, "lng": -0.162293869708498}, "southwest": {"lat": 51.5168400197085, "lng": -0.164991830291502}}}, "name": "JustPark | London, Bryanston Place", "place_id": "ChIJqRbpAvUbdkgR5zbmWXCnBe8", "types": ["parking", "point_of_interest", "establishment"]}, "ChIJ6cFHc8oadkgRFn8-9K3i5u4": {"geometry": {"location": {"lat": 51.5187905, "lng": -0.16407}, "viewport": {"northeast": {"lat": 51.52021708029149, "lng": -0.162756819708498}, "southwest": {"lat": 51.5175191197085, "lng": -0.165454780291502}}}, "name": "Make Life Happen", "place_id": "ChIJ6cFHc8oadkgRFn8-9K3i5u4", "types": ["health", "point_of_interest", "establishment"]}, "ChIJc-UKZcoadkgRQ5QHw81cES4": {"geometry": {"location": {"lat": 51.51809, "lng": -0.163609}, "viewport": {"northeast": {"lat": 51.5194496302915, "lng": -0.162240219708498}, "southwest": {"lat": 51.5167516697085, "lng": -0.164938180291502}}}, "name": "Santander Cycles", "place_id": "ChIJc-UKZcoadkgRQ5QHw81cES4", "types": ["point_of_interest", "establishment"], "rating": 5, "user_ratings_total": 2}, "ChIJ64OzhbUadkgRyh3gqa23MJI": {"geometry": {"location": {"lat": 51.51802429999999, "lng": -0.1650039}, "viewport": {"northeast": {"lat": 51.51936548029151, "lng": -0.163669519708498}, "southwest": {"lat": 51.51666751970851, "lng": -0.166367480291502}}}, "name": "The Westminister Society", "place_id": "ChIJ64OzhbUadkgRyh3gqa23MJI", "types": ["point_of_interest", "establishment"]}, "ChIJ2RjDgcoadkgRT65zGyDx-i8": {"geometry": {"location": {"lat": 51.51729217781452, "lng": -0.1644205700080504}, "viewport": {"northeast": {"lat": 51.5186420802915, "lng": -0.163072519708498}, "southwest": {"lat": 51.5159441197085, "lng": -0.165770480291502}}}, "name": "11 Harrowby St", "place_id": "ChIJ2RjDgcoadkgRT65zGyDx-i8", "types": ["route"]}, "ChIJO5D5f7UadkgRWDXcRVpNjJk": {"geometry": {"location": {"lat": 51.5174675, "lng": -0.1646263}, "viewport": {"northeast": {"lat": 51.5188855802915, "lng": -0.163221619708498}, "southwest": {"lat": 51.5161876197085, "lng": -0.165919580291502}}}, "name": "Rosenthal", "place_id": "ChIJO5D5f7UadkgRWDXcRVpNjJk", "types": ["accounting", "finance", "point_of_interest", "establishment"]}, "ChIJA6KAfcoadkgRS3qUq6Z7U_Q": {"geometry": {"location": {"lat": 51.5175316, "lng": -0.1640164}, "viewport": {"northeast": {"lat": 51.5189165302915, "lng": -0.1626001197084979}, "southwest": {"lat": 51.5162185697085, "lng": -0.165298080291502}}}, "name": "The Duke Rooms London", "place_id": "ChIJA6KAfcoadkgRS3qUq6Z7U_Q", "types": ["lodging", "bar", "restaurant", "food", "point_of_interest", "establishment"], "rating": 4, "user_ratings_total": 222}, "ChIJXfidgMoadkgRZ7c5B6-0Mss": {"geometry": {"location": {"lat": 51.5174906, "lng": -0.1642058}, "viewport": {"northeast": {"lat": 51.5187972302915, "lng": -0.162816469708498}, "southwest": {"lat": 51.5160992697085, "lng": -0.1655144302915021}}}, "name": "Hai Gallery", "place_id": "ChIJXfidgMoadkgRZ7c5B6-0Mss", "types": ["art_gallery", "point_of_interest", "establishment"]}, "ChIJtRMjqz8bdkgRT1jW8Z9GZ40": {"geometry": {"location": {"lat": 51.5174906, "lng": -0.1642058}, "viewport": {"northeast": {"lat": 51.51883958029149, "lng": -0.162856819708498}, "southwest": {"lat": 51.51614161970849, "lng": -0.1655547802915021}}}, "name": "VovoKa Cleaning Services", "place_id": "ChIJtRMjqz8bdkgRT1jW8Z9GZ40", "types": ["point_of_interest", "establishment"]}, "ChIJtfzKV9MEdkgRUTKN1xqS7wY": {"geometry": {"location": {"lat": 51.51748509999999, "lng": -0.1642072}, "viewport": {"northeast": {"lat": 51.51879353029149, "lng": -0.162819619708498}, "southwest": {"lat": 51.51609556970849, "lng": -0.165517580291502}}}, "name": "Orped Studio", "place_id": "ChIJtfzKV9MEdkgRUTKN1xqS7wY", "types": ["point_of_interest", "establishment"]}, "ChIJN5D5f7UadkgRTzbjmmituM0": {"geometry": {"location": {"lat": 51.5175032, "lng": -0.1645542}, "viewport": {"northeast": {"lat": 51.51890343029151, "lng": -0.163204219708498}, "southwest": {"lat": 51.51620546970851, "lng": -0.165902180291502}}}, "name": "Base Associates Ltd", "place_id": "ChIJN5D5f7UadkgRTzbjmmituM0", "types": ["point_of_interest", "establishment"]}, "ChIJqVrofcoadkgRtIzvbxbvo3c": {"geometry": {"location": {"lat": 51.5176064, "lng": -0.1640943}, "viewport": {"northeast": {"lat": 51.5189876802915, "lng": -0.162686619708498}, "southwest": {"lat": 51.5162897197085, "lng": -0.165384580291502}}}, "name": "Property International", "place_id": "ChIJqVrofcoadkgRtIzvbxbvo3c", "types": ["point_of_interest", "establishment"]}, "ChIJ2X0AfsoadkgR8bxMB719MOw": {"geometry": {"location": {"lat": 51.5174993, "lng": -0.1642456}, "viewport": {"northeast": {"lat": 51.5187969802915, "lng": -0.162847369708498}, "southwest": {"lat": 51.5160990197085, "lng": -0.165545330291502}}}, "name": "Park Estates London Limited", "place_id": "ChIJ2X0AfsoadkgR8bxMB719MOw", "types": ["real_estate_agency", "finance", "point_of_interest", "establishment"], "rating": 4.7, "user_ratings_total": 14}, "ChIJW6SCWMoadkgROfslQls0uj8": {"geometry": {"location": {"lat": 51.5172326, "lng": -0.1651124}, "viewport": {"northeast": {"lat": 51.5185078302915, "lng": -0.163691269708498}, "southwest": {"lat": 51.5158098697085, "lng": -0.166389230291502}}}, "name": "A A P M Investigations", "place_id": "ChIJW6SCWMoadkgROfslQls0uj8", "types": ["point_of_interest", "establishment"]}, "ChIJbfWLYsoadkgRwiBcg6JfC6M": {"geometry": {"location": {"lat": 51.51766259999999, "lng": -0.1637465}, "viewport": {"northeast": {"lat": 51.51897458029149, "lng": -0.162454819708498}, "southwest": {"lat": 51.51627661970849, "lng": -0.165152780291502}}}, "name": "Tourists Travel Bureau UK Limited", "place_id": "ChIJbfWLYsoadkgRwiBcg6JfC6M", "types": ["point_of_interest", "establishment"], "rating": 5, "user_ratings_total": 6}, "ChIJBXZVYcoadkgRM1GHKJvxc_g": {"geometry": {"location": {"lat": 51.5173466, "lng": -0.1642822}, "viewport": {"northeast": {"lat": 51.5187208302915, "lng": -0.1629594197084979}, "southwest": {"lat": 51.5160228697085, "lng": -0.165657380291502}}}, "name": "Hacker Own Brand Ltd", "place_id": "ChIJBXZVYcoadkgRM1GHKJvxc_g", "types": ["point_of_interest", "establishment"], "rating": 4.3, "user_ratings_total": 10}, "ChIJ8QzZgMoadkgRJpNa1516v4I": {"geometry": {"location": {"lat": 51.51737199999999, "lng": -0.164207}, "viewport": {"northeast": {"lat": 51.5187490302915, "lng": -0.162885819708498}, "southwest": {"lat": 51.5160510697085, "lng": -0.165583780291502}}}, "name": "Santander Cycles", "place_id": "ChIJ8QzZgMoadkgRJpNa1516v4I", "types": ["point_of_interest", "establishment"], "rating": 5, "user_ratings_total": 1}, "ChIJ74VoQwAbdkgRft4KwIwVKx8": {"geometry": {"location": {"lat": 51.5174353, "lng": -0.1643851}, "viewport": {"northeast": {"lat": 51.51873783029151, "lng": -0.162990119708498}, "southwest": {"lat": 51.51603986970851, "lng": -0.165688080291502}}}, "name": "RefriTech LTD", "place_id": "ChIJ74VoQwAbdkgRft4KwIwVKx8", "types": ["point_of_interest", "establishment"], "rating": 5, "user_ratings_total": 5}, "ChIJZXNx_H4bdkgRwcRYee4lHNI": {"geometry": {"location": {"lat": 51.5174624, "lng": -0.1643167}, "viewport": {"northeast": {"lat": 51.5187650802915, "lng": -0.162919519708498}, "southwest": {"lat": 51.5160671197085, "lng": -0.165617480291502}}}, "name": "Samer dry cleaners \u0645\u063a\u0633\u0644\u0629 \u0633\u0627\u0645\u0631", "place_id": "ChIJZXNx_H4bdkgRwcRYee4lHNI", "types": ["laundry", "point_of_interest", "establishment"], "rating": 4.3, "user_ratings_total": 7}, "ChIJiQtZFSUbdkgRtyRmAcw8ww0": {"geometry": {"location": {"lat": 51.5173702, "lng": -0.1645942}, "viewport": {"northeast": {"lat": 51.5186672802915, "lng": -0.163193819708498}, "southwest": {"lat": 51.5159693197085, "lng": -0.165891780291502}}}, "name": "Richmond Global Link Ltd", "place_id": "ChIJiQtZFSUbdkgRtyRmAcw8ww0", "types": ["point_of_interest", "establishment"]}, "ChIJN8T7TGMbdkgRv0xOeLPoMJM": {"geometry": {"location": {"lat": 51.517298, "lng": -0.1646509}, "viewport": {"northeast": {"lat": 51.5186124802915, "lng": -0.163270869708498}, "southwest": {"lat": 51.5159145197085, "lng": -0.165968830291502}}}, "name": "Victoria Salon \u0635\u0627\u0644\u0648\u0646 \u0641\u064a\u0643\u062a\u0648\u0631\u064a\u0627", "place_id": "ChIJN8T7TGMbdkgRv0xOeLPoMJM", "types": ["hair_care", "health", "point_of_interest", "establishment"], "rating": 4.6, "user_ratings_total": 11}, "ChIJex30xugbdkgRW6b0_twMkDY": {"geometry": {"location": {"lat": 51.5174848, "lng": -0.1642112}, "viewport": {"northeast": {"lat": 51.5187925302915, "lng": -0.162822619708498}, "southwest": {"lat": 51.5160945697085, "lng": -0.165520580291502}}}, "name": "Akura Furnishings Ltd", "place_id": "ChIJex30xugbdkgRW6b0_twMkDY", "types": ["general_contractor", "point_of_interest", "establishment"]}, "ChIJAb6WgMoadkgRO_pQEyA2H-o": {"geometry": {"location": {"lat": 51.5174993, "lng": -0.1642456}, "viewport": {"northeast": {"lat": 51.5187969802915, "lng": -0.162847369708498}, "southwest": {"lat": 51.5160990197085, "lng": -0.165545330291502}}}, "name": "\u0635\u0627\u0644\u0648\u0646 \u0633\u0627\u0645\u0631 Samer Salon", "place_id": "ChIJAb6WgMoadkgRO_pQEyA2H-o", "types": ["hair_care", "health", "point_of_interest", "establishment"], "rating": 4.1, "user_ratings_total": 89}, "ChIJrfOmgMoadkgR31EAf2iIG-0": {"geometry": {"location": {"lat": 51.5175067, "lng": -0.164208}, "viewport": {"northeast": {"lat": 51.51880703029151, "lng": -0.162812719708498}, "southwest": {"lat": 51.51610906970851, "lng": -0.165510680291502}}}, "name": "Resilience Training and Coaching", "place_id": "ChIJrfOmgMoadkgR31EAf2iIG-0", "types": ["point_of_interest", "establishment"]}, "ChIJj1Kpf7UadkgRl7K4CptzHSo": {"geometry": {"location": {"lat": 51.51737929999999, "lng": -0.164677}, "viewport": {"northeast": {"lat": 51.5186615802915, "lng": -0.163261919708498}, "southwest": {"lat": 51.5159636197085, "lng": -0.1659598802915021}}}, "name": "Cctv Supply & Sales", "place_id": "ChIJj1Kpf7UadkgRl7K4CptzHSo", "types": ["point_of_interest", "establishment"]}, "ChIJkYvrfrUadkgRMWvG9v7vFdY": {"geometry": {"location": {"lat": 51.517396, "lng": -0.1646923}, "viewport": {"northeast": {"lat": 51.5187108302915, "lng": -0.163406569708498}, "southwest": {"lat": 51.5160128697085, "lng": -0.166104530291502}}}, "name": "Apartamento Final", "place_id": "ChIJkYvrfrUadkgRMWvG9v7vFdY", "types": ["lodging", "point_of_interest", "establishment"], "rating": 5, "user_ratings_total": 2}, "ChIJO5D5f7UadkgRsYzXfjWXWfg": {"geometry": {"location": {"lat": 51.5175032, "lng": -0.1645542}, "viewport": {"northeast": {"lat": 51.51890343029151, "lng": -0.163204219708498}, "southwest": {"lat": 51.51620546970851, "lng": -0.165902180291502}}}, "name": "Angus Dundee Distillers PLC", "place_id": "ChIJO5D5f7UadkgRsYzXfjWXWfg", "types": ["point_of_interest", "establishment"], "rating": 3, "user_ratings_total": 2}, "ChIJ7x-SfcoadkgR6OZ1ghFR48k": {"geometry": {"location": {"lat": 51.5175449, "lng": -0.16407}, "viewport": {"northeast": {"lat": 51.5189320302915, "lng": -0.162639119708498}, "southwest": {"lat": 51.5162340697085, "lng": -0.165337080291502}}}, "name": "The Duke of York Gastro Pub", "place_id": "ChIJ7x-SfcoadkgR6OZ1ghFR48k", "types": ["bar", "restaurant", "food", "point_of_interest", "establishment"], "rating": 4.4, "user_ratings_total": 23}, "ChIJcQ3p0T4bdkgRHd9Z8O56M1A": {"geometry": {"location": {"lat": 51.5173758, "lng": -0.1638111}, "viewport": {"northeast": {"lat": 51.51877848029149, "lng": -0.162513669708498}, "southwest": {"lat": 51.5160805197085, "lng": -0.165211630291502}}}, "name": "Creatiun", "place_id": "ChIJcQ3p0T4bdkgRHd9Z8O56M1A", "types": ["point_of_interest", "establishment"], "rating": 5, "user_ratings_total": 11}, "ChIJ50mPXZUbdkgRhl9sSvRP25E": {"geometry": {"location": {"lat": 51.5173178, "lng": -0.1648966}, "viewport": {"northeast": {"lat": 51.5186743302915, "lng": -0.163533569708498}, "southwest": {"lat": 51.5159763697085, "lng": -0.166231530291502}}}, "name": "London home", "place_id": "ChIJ50mPXZUbdkgRhl9sSvRP25E", "types": ["point_of_interest", "establishment"]}, "ChIJE3VifLUadkgRViA6QBJEtH4": {"geometry": {"location": {"lat": 51.517028, "lng": -0.1648185}, "viewport": {"northeast": {"lat": 51.51841848029149, "lng": -0.163510119708498}, "southwest": {"lat": 51.5157205197085, "lng": -0.166208080291502}}}, "name": "Richbourne Court", "place_id": "ChIJE3VifLUadkgRViA6QBJEtH4", "types": ["lodging", "point_of_interest", "establishment"], "rating": 4.9, "user_ratings_total": 13}, "ChIJ76V1e7UadkgROkC2XT5WpAI": {"geometry": {"location": {"lat": 51.5174062, "lng": -0.1648956}, "viewport": {"northeast": {"lat": 51.5187658302915, "lng": -0.163526969708498}, "southwest": {"lat": 51.5160678697085, "lng": -0.166224930291502}}}, "name": "London Queen's - Hyde Park", "place_id": "ChIJ76V1e7UadkgROkC2XT5WpAI", "types": ["lodging", "point_of_interest", "establishment"], "rating": 1, "user_ratings_total": 1}, "ChIJL-1cfsoadkgRDtocVu9jN4A": {"geometry": {"location": {"lat": 51.5176517, "lng": -0.1642583}, "viewport": {"northeast": {"lat": 51.5190479802915, "lng": -0.162821969708498}, "southwest": {"lat": 51.5163500197085, "lng": -0.1655199302915021}}}, "name": "Single Invoice Finance Ltd", "place_id": "ChIJL-1cfsoadkgRDtocVu9jN4A", "types": ["finance", "point_of_interest", "establishment"]}, "ChIJTew8fcoadkgRquKcNGYm4mU": {"geometry": {"location": {"lat": 51.517638, "lng": -0.163857}, "viewport": {"northeast": {"lat": 51.5189377302915, "lng": -0.162460919708498}, "southwest": {"lat": 51.5162397697085, "lng": -0.1651588802915021}}}, "name": "ubitricity Charging Station", "place_id": "ChIJTew8fcoadkgRquKcNGYm4mU", "types": ["point_of_interest", "establishment"]}, "ChIJE1tEncoadkgR487IxtZNCiI": {"geometry": {"location": {"lat": 51.516741, "lng": -0.1642818}, "viewport": {"northeast": {"lat": 51.51801508029151, "lng": -0.162879019708498}, "southwest": {"lat": 51.51531711970851, "lng": -0.165576980291502}}}, "name": "Hampden Gurney C Of E Primary School", "place_id": "ChIJE1tEncoadkgR487IxtZNCiI", "types": ["primary_school", "school", "point_of_interest", "establishment"], "rating": 4, "user_ratings_total": 2}, "ChIJ0euOGOIbdkgRwzcZ4LVp9sw": {"geometry": {"location": {"lat": 51.5172326, "lng": -0.1651124}, "viewport": {"northeast": {"lat": 51.5185078302915, "lng": -0.163691269708498}, "southwest": {"lat": 51.5158098697085, "lng": -0.166389230291502}}}, "name": "Access Marble Arch Apartments", "place_id": "ChIJ0euOGOIbdkgRwzcZ4LVp9sw", "types": ["lodging", "point_of_interest", "establishment"]}, "ChIJL3v9ObIbdkgRIX_w4d7OiPM": {"geometry": {"location": {"lat": 51.51777939999999, "lng": -0.1642987}, "viewport": {"northeast": {"lat": 51.5191543802915, "lng": -0.162901719708498}, "southwest": {"lat": 51.5164564197085, "lng": -0.165599680291502}}}, "name": "Snapr", "place_id": "ChIJL3v9ObIbdkgRIX_w4d7OiPM", "types": ["point_of_interest", "establishment"], "rating": 1, "user_ratings_total": 1}, "ChIJRfKWsPgbdkgRLVPJ-1qCPHU": {"geometry": {"location": {"lat": 51.51766259999999, "lng": -0.1637465}, "viewport": {"northeast": {"lat": 51.5193033802915, "lng": -0.1627038000000001}, "southwest": {"lat": 51.5166054197085, "lng": -0.1668746}}}, "name": "BioLab London", "place_id": "ChIJRfKWsPgbdkgRLVPJ-1qCPHU", "types": ["hospital", "health", "point_of_interest", "establishment"], "rating": 5, "user_ratings_total": 21}, "ChIJmaTACL-RcUgRienFgYeO5R0": {"geometry": {"location": {"lat": 51.516462, "lng": -0.164354}, "viewport": {"northeast": {"lat": 51.5178410802915, "lng": -0.162952319708498}, "southwest": {"lat": 51.5151431197085, "lng": -0.165650280291502}}}, "name": "Research Autism", "place_id": "ChIJmaTACL-RcUgRienFgYeO5R0", "types": ["point_of_interest", "establishment"]}, "ChIJDdzQncoadkgR-CtDChZZRAQ": {"geometry": {"location": {"lat": 51.5164848, "lng": -0.1643127}, "viewport": {"northeast": {"lat": 51.5178664302915, "lng": -0.162941869708498}, "southwest": {"lat": 51.5151684697085, "lng": -0.165639830291502}}}, "name": "westminster plastering and drylining ltd", "place_id": "ChIJDdzQncoadkgR-CtDChZZRAQ", "types": ["point_of_interest", "establishment"]}, "ChIJ9a_TncoadkgR35tk4lncqO0": {"geometry": {"location": {"lat": 51.5165068, "lng": -0.1643086}, "viewport": {"northeast": {"lat": 51.51786763029151, "lng": -0.162911919708498}, "southwest": {"lat": 51.51516966970851, "lng": -0.1656098802915021}}}, "name": "Roelens Solicitors", "place_id": "ChIJ9a_TncoadkgR35tk4lncqO0", "types": ["point_of_interest", "establishment"], "rating": 5, "user_ratings_total": 1}, "ChIJ9XA_Z7UadkgRq4x714hZ6Y8": {"geometry": {"location": {"lat": 51.5165558, "lng": -0.1648312}, "viewport": {"northeast": {"lat": 51.51794753029149, "lng": -0.1636068697084979}, "southwest": {"lat": 51.51524956970849, "lng": -0.166304830291502}}}, "name": "Al Arez Express Lebanese Restaurant and Shisha", "place_id": "ChIJ9XA_Z7UadkgRq4x714hZ6Y8", "types": ["restaurant", "food", "point_of_interest", "establishment"], "rating": 3.8, "user_ratings_total": 1978}, "ChIJCeU0ZbUadkgRPaU9MePrfso": {"geometry": {"location": {"lat": 51.51662839999999, "lng": -0.1645736}, "viewport": {"northeast": {"lat": 51.51800513029149, "lng": -0.163589119708498}, "southwest": {"lat": 51.51530716970849, "lng": -0.166287080291502}}}, "name": "Safa Restaurant", "place_id": "ChIJCeU0ZbUadkgRPaU9MePrfso", "types": ["restaurant", "food", "point_of_interest", "establishment"], "rating": 3.7, "user_ratings_total": 67}, "ChIJpwRgnsoadkgRuhrEfIf5zuw": {"geometry": {"location": {"lat": 51.5164558, "lng": -0.1643276}, "viewport": {"northeast": {"lat": 51.5178519302915, "lng": -0.162949319708498}, "southwest": {"lat": 51.5151539697085, "lng": -0.165647280291502}}}, "name": "Brysons Solicitors", "place_id": "ChIJpwRgnsoadkgRuhrEfIf5zuw", "types": ["lawyer", "point_of_interest", "establishment"]}, "ChIJe_9zfSMbdkgROS5muAOfjy4": {"geometry": {"location": {"lat": 51.5165036, "lng": -0.1641921}, "viewport": {"northeast": {"lat": 51.51786488029148, "lng": -0.162821669708498}, "southwest": {"lat": 51.51516691970848, "lng": -0.165519630291502}}}, "name": "Jaiye lounge", "place_id": "ChIJe_9zfSMbdkgROS5muAOfjy4", "types": ["night_club", "bar", "point_of_interest", "establishment"]}, "ChIJLy53nsoadkgRP0Jr-JOz53Q": {"geometry": {"location": {"lat": 51.5165168, "lng": -0.1643812}, "viewport": {"northeast": {"lat": 51.51788938029149, "lng": -0.163045919708498}, "southwest": {"lat": 51.51519141970849, "lng": -0.165743880291502}}}, "name": "Santander Cycles", "place_id": "ChIJLy53nsoadkgRP0Jr-JOz53Q", "types": ["point_of_interest", "establishment"], "rating": 5, "user_ratings_total": 2}, "ChIJFcUnnMoadkgRwlTb5NVuzjI": {"geometry": {"location": {"lat": 51.51654300000001, "lng": -0.1642774}, "viewport": {"northeast": {"lat": 51.51789198029151, "lng": -0.1629284197084979}, "southwest": {"lat": 51.51519401970851, "lng": -0.165626380291502}}}, "name": "Certified Corporate Governance Officer", "place_id": "ChIJFcUnnMoadkgRwlTb5NVuzjI", "types": ["point_of_interest", "establishment"]}, "ChIJjcsSwrUadkgR5OLTIcTCBPQ": {"geometry": {"location": {"lat": 51.51923733962717, "lng": -0.1660003742898233}, "viewport": {"northeast": {"lat": 51.5205991802915, "lng": -0.164693919708498}, "southwest": {"lat": 51.51790121970851, "lng": -0.167391880291502}}}, "name": "209-217 A501", "place_id": "ChIJjcsSwrUadkgR5OLTIcTCBPQ", "types": ["route"]}, "ChIJa-rw3bUadkgRnGR2kYCSC5I": {"geometry": {"location": {"lat": 51.5198455, "lng": -0.1662128}, "viewport": {"northeast": {"lat": 51.52123213029149, "lng": -0.164885119708498}, "southwest": {"lat": 51.5185341697085, "lng": -0.167583080291502}}}, "name": "The Chapel", "place_id": "ChIJa-rw3bUadkgRnGR2kYCSC5I", "types": ["bar", "restaurant", "food", "point_of_interest", "establishment"], "rating": 4.1, "user_ratings_total": 568}, "ChIJq2LF67UadkgRGsuMxrWwJXc": {"geometry": {"location": {"lat": 51.51911029999999, "lng": -0.1657434}, "viewport": {"northeast": {"lat": 51.5205110802915, "lng": -0.164532869708498}, "southwest": {"lat": 51.5178131197085, "lng": -0.167230830291502}}}, "name": "Catholic Church of Our Lady of the Rosary", "place_id": "ChIJq2LF67UadkgRGsuMxrWwJXc", "types": ["church", "place_of_worship", "point_of_interest", "establishment"], "rating": 4.4, "user_ratings_total": 54}, "ChIJNWf03bUadkgRLOyL_KkA298": {"geometry": {"location": {"lat": 51.5195264, "lng": -0.1660601}, "viewport": {"northeast": {"lat": 51.5208667302915, "lng": -0.164626619708498}, "southwest": {"lat": 51.5181687697085, "lng": -0.167324580291502}}}, "name": "Maria Hair Salon", "place_id": "ChIJNWf03bUadkgRLOyL_KkA298", "types": ["hair_care", "point_of_interest", "establishment"], "rating": 3.6, "user_ratings_total": 39}, "ChIJ1-eO3bUadkgRX1dmGgy7ZQo": {"geometry": {"location": {"lat": 51.5196408, "lng": -0.1660526}, "viewport": {"northeast": {"lat": 51.5209795302915, "lng": -0.164607519708498}, "southwest": {"lat": 51.5182815697085, "lng": -0.167305480291502}}}, "name": "Self Storage Concierge", "place_id": "ChIJ1-eO3bUadkgRX1dmGgy7ZQo", "types": ["storage", "point_of_interest", "establishment"], "rating": 5, "user_ratings_total": 17}, "ChIJByFQ5bUadkgRUnpAFxXwKYQ": {"geometry": {"location": {"lat": 51.5196794, "lng": -0.1660358}, "viewport": {"northeast": {"lat": 51.52101858029151, "lng": -0.164594019708498}, "southwest": {"lat": 51.51832061970851, "lng": -0.167291980291502}}}, "name": "Mobile Home Sales and Lettings", "place_id": "ChIJByFQ5bUadkgRUnpAFxXwKYQ", "types": ["finance", "point_of_interest", "establishment"]}, "ChIJ_2Vf77UadkgRyjoM0G_CbMA": {"geometry": {"location": {"lat": 51.5194882, "lng": -0.1655554}, "viewport": {"northeast": {"lat": 51.5208543802915, "lng": -0.164372369708498}, "southwest": {"lat": 51.5181564197085, "lng": -0.167070330291502}}}, "name": "N1 Therapist", "place_id": "ChIJ_2Vf77UadkgRyjoM0G_CbMA", "types": ["health", "point_of_interest", "establishment"]}, "ChIJ84AT77UadkgRYxQK2M9yQ4s": {"geometry": {"location": {"lat": 51.5193976, "lng": -0.1655157}, "viewport": {"northeast": {"lat": 51.5207669802915, "lng": -0.164363769708498}, "southwest": {"lat": 51.5180690197085, "lng": -0.167061730291502}}}, "name": "Chesterfield", "place_id": "ChIJ84AT77UadkgRYxQK2M9yQ4s", "types": ["point_of_interest", "establishment"], "rating": 5, "user_ratings_total": 1}, "ChIJLezn5bUadkgRL2t_jDunXUw": {"geometry": {"location": {"lat": 51.51956959999999, "lng": -0.1655905}, "viewport": {"northeast": {"lat": 51.52093328029149, "lng": -0.164379419708498}, "southwest": {"lat": 51.5182353197085, "lng": -0.167077380291502}}}, "name": "En.One Energy Management Ltd", "place_id": "ChIJLezn5bUadkgRL2t_jDunXUw", "types": ["point_of_interest", "establishment"]}, "ChIJq6ruz7UadkgRMASJRoHth-Y": {"geometry": {"location": {"lat": 51.5194274, "lng": -0.1668038}, "viewport": {"northeast": {"lat": 51.5207554302915, "lng": -0.165566369708498}, "southwest": {"lat": 51.5180574697085, "lng": -0.168264330291502}}}, "name": "My Plus One Ltd", "place_id": "ChIJq6ruz7UadkgRMASJRoHth-Y", "types": ["point_of_interest", "establishment"], "rating": 1, "user_ratings_total": 1}, "ChIJ82lQ5bUadkgR_I7-BdA9T6E": {"geometry": {"location": {"lat": 51.51952559999999, "lng": -0.1653045}, "viewport": {"northeast": {"lat": 51.52091958029148, "lng": -0.163903269708498}, "southwest": {"lat": 51.51822161970848, "lng": -0.166601230291502}}}, "name": "Knight Mobile Homes Ltd", "place_id": "ChIJ82lQ5bUadkgR_I7-BdA9T6E", "types": ["point_of_interest", "establishment"], "rating": 3.7, "user_ratings_total": 6}, "ChIJ82lQ5bUadkgRh4dDMfNUuS0": {"geometry": {"location": {"lat": 51.51952559999999, "lng": -0.1653045}, "viewport": {"northeast": {"lat": 51.52091958029148, "lng": -0.163903269708498}, "southwest": {"lat": 51.51822161970848, "lng": -0.166601230291502}}}, "name": "M H I", "place_id": "ChIJ82lQ5bUadkgRh4dDMfNUuS0", "types": ["point_of_interest", "establishment"], "rating": 1, "user_ratings_total": 1}, "ChIJ4frxhbAadkgRVXlzeAlGZR0": {"geometry": {"location": {"lat": 51.5196972, "lng": -0.1667413}, "viewport": {"northeast": {"lat": 51.5210982802915, "lng": -0.165421819708498}, "southwest": {"lat": 51.5184003197085, "lng": -0.168119780291502}}}, "name": "Reform The Nation", "place_id": "ChIJ4frxhbAadkgRVXlzeAlGZR0", "types": ["point_of_interest", "establishment"]}, "ChIJO0ad0LUadkgR6cTmDGL8fHo": {"geometry": {"location": {"lat": 51.5196972, "lng": -0.1667413}, "viewport": {"northeast": {"lat": 51.5210983302915, "lng": -0.165421769708498}, "southwest": {"lat": 51.5184003697085, "lng": -0.168119730291502}}}, "name": "Hear Women Foundation", "place_id": "ChIJO0ad0LUadkgR6cTmDGL8fHo", "types": ["point_of_interest", "establishment"], "rating": 3, "user_ratings_total": 2}, "ChIJOUad0LUadkgRK2qQplabYuQ": {"geometry": {"location": {"lat": 51.5196973, "lng": -0.1667413}, "viewport": {"northeast": {"lat": 51.5210983802915, "lng": -0.165421769708498}, "southwest": {"lat": 51.5184004197085, "lng": -0.168119730291502}}}, "name": "Greenhouse Tourism Agency", "place_id": "ChIJOUad0LUadkgRK2qQplabYuQ", "types": ["travel_agency", "point_of_interest", "establishment"]}, "ChIJOUad0LUadkgRH5Mbm8tO-PY": {"geometry": {"location": {"lat": 51.5196973, "lng": -0.1667413}, "viewport": {"northeast": {"lat": 51.5210983802915, "lng": -0.165421769708498}, "southwest": {"lat": 51.5184004197085, "lng": -0.168119730291502}}}, "name": "Sudanese Supplementary School", "place_id": "ChIJOUad0LUadkgRH5Mbm8tO-PY", "types": ["school", "point_of_interest", "establishment"]}, "ChIJOUad0LUadkgRZvK8iwgR3Gw": {"geometry": {"location": {"lat": 51.5196973, "lng": -0.1667413}, "viewport": {"northeast": {"lat": 51.5210983802915, "lng": -0.165421769708498}, "southwest": {"lat": 51.5184004197085, "lng": -0.168119730291502}}}, "name": "National Association of Black Supplementary Schools", "place_id": "ChIJOUad0LUadkgRZvK8iwgR3Gw", "types": ["point_of_interest", "establishment"]}, "ChIJOUad0LUadkgREif1atrdpbk": {"geometry": {"location": {"lat": 51.5196973, "lng": -0.1667413}, "viewport": {"northeast": {"lat": 51.5210983802915, "lng": -0.165421769708498}, "southwest": {"lat": 51.5184004197085, "lng": -0.168119730291502}}}, "name": "Memorial 2007", "place_id": "ChIJOUad0LUadkgREif1atrdpbk", "types": ["point_of_interest", "establishment"]}, "ChIJOUad0LUadkgRRRA00Ywc-zI": {"geometry": {"location": {"lat": 51.5196973, "lng": -0.1667413}, "viewport": {"northeast": {"lat": 51.5210983802915, "lng": -0.165421769708498}, "southwest": {"lat": 51.5184004197085, "lng": -0.168119730291502}}}, "name": "Arab Family Centre", "place_id": "ChIJOUad0LUadkgRRRA00Ywc-zI", "types": ["point_of_interest", "establishment"]}, "ChIJOUad0LUadkgROkOxIZcw5kY": {"geometry": {"location": {"lat": 51.5196973, "lng": -0.1667413}, "viewport": {"northeast": {"lat": 51.5210983802915, "lng": -0.165421769708498}, "southwest": {"lat": 51.5184004197085, "lng": -0.168119730291502}}}, "name": "Galeforce Productions Universal LTD", "place_id": "ChIJOUad0LUadkgROkOxIZcw5kY", "types": ["point_of_interest", "establishment"]}, "ChIJOUad0LUadkgRbKIkW_1fCCc": {"geometry": {"location": {"lat": 51.5196973, "lng": -0.1667413}, "viewport": {"northeast": {"lat": 51.5210983802915, "lng": -0.165421769708498}, "southwest": {"lat": 51.5184004197085, "lng": -0.168119730291502}}}, "name": "Iraqi Fine Artists Association", "place_id": "ChIJOUad0LUadkgRbKIkW_1fCCc", "types": ["point_of_interest", "establishment"]}, "ChIJe9B63bUadkgR3ZtfyjwawQw": {"geometry": {"location": {"lat": 51.519699, "lng": -0.1661091}, "viewport": {"northeast": {"lat": 51.5210339802915, "lng": -0.164628769708498}, "southwest": {"lat": 51.5183360197085, "lng": -0.167326730291502}}}, "name": "Daker Estates", "place_id": "ChIJe9B63bUadkgR3ZtfyjwawQw", "types": ["point_of_interest", "establishment"], "rating": 5, "user_ratings_total": 4}, "ChIJuSBYdAIbdkgRjWq1OzShl2E": {"geometry": {"location": {"lat": 51.5194122, "lng": -0.1659168}, "viewport": {"northeast": {"lat": 51.52076118029151, "lng": -0.164567819708498},