{"E00023679": {"ChIJU36BHUUFdkgR5wSSOxRuTz4": {"geometry": {"location": {"lat": 51.50178031867915, "lng": -0.1740813184243552}, "viewport": {"northeast": {"lat": 51.50312493029151, "lng": -0.172731569708498}, "southwest": {"lat": 51.50042696970851, "lng": -0.175429530291502}}}, "name": "47-45 Kensington Rd", "place_id": "ChIJU36BHUUFdkgR5wSSOxRuTz4", "types": ["route"]}, "ChIJD_fprPAFdkgRgAKmG8V9ZKg": {"geometry": {"location": {"lat": 51.5019972, "lng": -0.1742759}, "viewport": {"northeast": {"lat": 51.5032320302915, "lng": -0.172903469708498}, "southwest": {"lat": 51.5005340697085, "lng": -0.175601430291502}}}, "name": "Guard house", "place_id": "ChIJD_fprPAFdkgRgAKmG8V9ZKg", "types": ["park", "point_of_interest", "establishment"], "rating": 5, "user_ratings_total": 1}, "ChIJWyvJM0UFdkgRpI4g4k5b11I": {"geometry": {"location": {"lat": 51.5026396, "lng": -0.1759193}, "viewport": {"northeast": {"lat": 51.50400536590551, "lng": -0.174485259833431}, "southwest": {"lat": 51.50130740532251, "lng": -0.177183220416435}}}, "name": "East Albert Lawn", "place_id": "ChIJWyvJM0UFdkgRpI4g4k5b11I", "types": ["park", "premise", "point_of_interest", "establishment"]}, "ChIJ0fi34EQFdkgR4liSEcMLGVE": {"geometry": {"location": {"lat": 51.50136745000063, "lng": -0.1746212999467257}, "viewport": {"northeast": {"lat": 51.5027164302915, "lng": -0.173272319708498}, "southwest": {"lat": 51.5000184697085, "lng": -0.175970280291502}}}, "name": "Exhibition Road", "place_id": "ChIJ0fi34EQFdkgR4liSEcMLGVE", "types": ["route"]}, "ChIJRfFU2UQFdkgRUF7TqMpcnlU": {"geometry": {"location": {"lat": 51.50136079999999, "lng": -0.1751214}, "viewport": {"northeast": {"lat": 51.50283968029151, "lng": -0.173681969708498}, "southwest": {"lat": 51.50014171970851, "lng": -0.176379930291502}}}, "name": "The Royal Geographical Society (with IBG)", "place_id": "ChIJRfFU2UQFdkgRUF7TqMpcnlU", "types": ["point_of_interest", "establishment"], "rating": 4.6, "user_ratings_total": 458}, "ChIJLa3g3kQFdkgR-0l2wxLRSmo": {"geometry": {"location": {"lat": 51.5014914, "lng": -0.1749927}, "viewport": {"northeast": {"lat": 51.5029458802915, "lng": -0.173665519708498}, "southwest": {"lat": 51.50024791970851, "lng": -0.176363480291502}}}, "name": "Permanent Committee on Geographical Names for British Official Use", "place_id": "ChIJLa3g3kQFdkgR-0l2wxLRSmo", "types": ["point_of_interest", "establishment"]}, "ChIJNS5j2UQFdkgR9dGig0imHI8": {"geometry": {"location": {"lat": 51.5015416, "lng": -0.1749382}, "viewport": {"northeast": {"lat": 51.5029735302915, "lng": -0.173606319708498}, "southwest": {"lat": 51.5002755697085, "lng": -0.176304280291502}}}, "name": "Dhu Limited", "place_id": "ChIJNS5j2UQFdkgR9dGig0imHI8", "types": ["clothing_store", "point_of_interest", "store", "establishment"]}, "ChIJhY_n3kQFdkgRIWKsVcjuk6I": {"geometry": {"location": {"lat": 51.50154, "lng": -0.1749907}, "viewport": {"northeast": {"lat": 51.50297063029149, "lng": -0.173658569708498}, "southwest": {"lat": 51.50027266970849, "lng": -0.176356530291502}}}, "name": "International Association of Institutes of Navigation", "place_id": "ChIJhY_n3kQFdkgRIWKsVcjuk6I", "types": ["point_of_interest", "establishment"]}, "ChIJLa3g3kQFdkgRlRfRV4i8rHA": {"geometry": {"location": {"lat": 51.50154, "lng": -0.1749908}, "viewport": {"northeast": {"lat": 51.50297063029149, "lng": -0.173658669708498}, "southwest": {"lat": 51.50027266970849, "lng": -0.176356630291502}}}, "name": "British Exploring Society", "place_id": "ChIJLa3g3kQFdkgRlRfRV4i8rHA", "types": ["point_of_interest", "establishment"], "rating": 4, "user_ratings_total": 5}, "ChIJQdhP4UQFdkgRLWqtuynQHJ4": {"geometry": {"location": {"lat": 51.50140570000001, "lng": -0.1743612}, "viewport": {"northeast": {"lat": 51.5028394302915, "lng": -0.173028169708498}, "southwest": {"lat": 51.5001414697085, "lng": -0.175726130291502}}}, "name": "Embassy of Afghanistan in London", "place_id": "ChIJQdhP4UQFdkgRLWqtuynQHJ4", "types": ["embassy", "point_of_interest", "establishment"], "rating": 3.4, "user_ratings_total": 317}, "ChIJVVUV2UQFdkgR_4N6ONf8IV8": {"geometry": {"location": {"lat": 51.5014911, "lng": -0.1751766}, "viewport": {"northeast": {"lat": 51.5029384802915, "lng": -0.173847919708498}, "southwest": {"lat": 51.50024051970851, "lng": -0.176545880291502}}}, "name": "Nextek Ltd", "place_id": "ChIJVVUV2UQFdkgR_4N6ONf8IV8", "types": ["point_of_interest", "establishment"]}, "ChIJpWdr1EQFdkgRbJVSeYuXzrE": {"geometry": {"location": {"lat": 51.50151029999999, "lng": -0.1751441}, "viewport": {"northeast": {"lat": 51.50294953029149, "lng": -0.173813769708498}, "southwest": {"lat": 51.50025156970849, "lng": -0.176511730291502}}}, "name": "Courtenay Investments", "place_id": "ChIJpWdr1EQFdkgRbJVSeYuXzrE", "types": ["general_contractor", "point_of_interest", "establishment"]}, "ChIJq1_d4kQFdkgRXitB-PRX2OY": {"geometry": {"location": {"lat": 51.5014794, "lng": -0.1742226}, "viewport": {"northeast": {"lat": 51.5028817802915, "lng": -0.172883669708498}, "southwest": {"lat": 51.5001838197085, "lng": -0.175581630291502}}}, "name": "Embassy of Tunisia", "place_id": "ChIJq1_d4kQFdkgRXitB-PRX2OY", "types": ["embassy", "point_of_interest", "establishment"], "rating": 3.2, "user_ratings_total": 138}, "ChIJCeH8K1sFdkgR_uFNbIbNgW0": {"geometry": {"location": {"lat": 51.5014914, "lng": -0.1749927}, "viewport": {"northeast": {"lat": 51.5029458802915, "lng": -0.173665519708498}, "southwest": {"lat": 51.50024791970851, "lng": -0.176363480291502}}}, "name": "Royal Institute Of Navigation", "place_id": "ChIJCeH8K1sFdkgR_uFNbIbNgW0", "types": ["point_of_interest", "establishment"], "rating": 5, "user_ratings_total": 1}, "ChIJ-dfoYFIFdkgRGl3EnzdF1rM": {"geometry": {"location": {"lat": 51.50155220000001, "lng": -0.1747573}, "viewport": {"northeast": {"lat": 51.5029026302915, "lng": -0.173345969708498}, "southwest": {"lat": 51.5002046697085, "lng": -0.176043930291502}}}, "name": "Shackleton Statue", "place_id": "ChIJ-dfoYFIFdkgRGl3EnzdF1rM", "types": ["point_of_interest", "establishment"], "rating": 5, "user_ratings_total": 3}, "ChIJ13sM2UQFdkgRT7dc5uHI_Us": {"geometry": {"location": {"lat": 51.50154, "lng": -0.174991}, "viewport": {"northeast": {"lat": 51.50297063029149, "lng": -0.173658869708498}, "southwest": {"lat": 51.50027266970849, "lng": -0.1763568302915021}}}, "name": "The Conservation Foundation", "place_id": "ChIJ13sM2UQFdkgRT7dc5uHI_Us", "types": ["point_of_interest", "establishment"]}, "ChIJpfz63kQFdkgRfUz7uBpKOXA": {"geometry": {"location": {"lat": 51.5015416, "lng": -0.1749382}, "viewport": {"northeast": {"lat": 51.5029735302915, "lng": -0.173606319708498}, "southwest": {"lat": 51.5002755697085, "lng": -0.176304280291502}}}, "name": "Living Earth", "place_id": "ChIJpfz63kQFdkgRfUz7uBpKOXA", "types": ["point_of_interest", "establishment"]}, "ChIJLa3g3kQFdkgRNGpc4gl0OEY": {"geometry": {"location": {"lat": 51.50155299999999, "lng": -0.1749907}, "viewport": {"northeast": {"lat": 51.5029772302915, "lng": -0.173657269708498}, "southwest": {"lat": 51.50027926970851, "lng": -0.176355230291502}}}, "name": "Association for Geographic Information", "place_id": "ChIJLa3g3kQFdkgRNGpc4gl0OEY", "types": ["point_of_interest", "establishment"]}, "ChIJ__8_2UQFdkgRSd4UesfcUIM": {"geometry": {"location": {"lat": 51.5014911, "lng": -0.1751765}, "viewport": {"northeast": {"lat": 51.5029384802915, "lng": -0.173847819708498}, "southwest": {"lat": 51.50024051970851, "lng": -0.176545780291502}}}, "name": "The Geographical Club", "place_id": "ChIJ__8_2UQFdkgRSd4UesfcUIM", "types": ["point_of_interest", "establishment"]}, "ChIJQ-8H30QFdkgR_8RNIr0vYGY": {"geometry": {"location": {"lat": 51.5016119, "lng": -0.1749055}, "viewport": {"northeast": {"lat": 51.5030105302915, "lng": -0.173566769708498}, "southwest": {"lat": 51.5003125697085, "lng": -0.176264730291502}}}, "name": "Milestone", "place_id": "ChIJQ-8H30QFdkgR_8RNIr0vYGY", "types": ["point_of_interest", "establishment"]}, "ChIJjSdIxkQFdkgR497Qc4Nkl7U": {"geometry": {"location": {"lat": 51.5007107, "lng": -0.1754015}, "viewport": {"northeast": {"lat": 51.50197021140371, "lng": -0.1741213827811229}, "southwest": {"lat": 51.49927225082071, "lng": -0.1768193433641269}}}, "name": "Parking lot", "place_id": "ChIJjSdIxkQFdkgR497Qc4Nkl7U", "types": ["parking", "premise", "point_of_interest", "establishment"]}, "ChIJx1Rpl0QFdkgR8u_WBxSCwVo": {"geometry": {"location": {"lat": 51.4998887000008, "lng": -0.1744245499739634}, "viewport": {"northeast": {"lat": 51.5012376802915, "lng": -0.173075569708498}, "southwest": {"lat": 51.4985397197085, "lng": -0.175773530291502}}}, "name": "Exhibition Road", "place_id": "ChIJx1Rpl0QFdkgR8u_WBxSCwVo", "types": ["route"]}, "ChIJUyY7vkQFdkgRSDGUf1PFkUw": {"geometry": {"location": {"lat": 51.50020800000001, "lng": -0.1747583}, "viewport": {"northeast": {"lat": 51.5014888802915, "lng": -0.173405069708498}, "southwest": {"lat": 51.4987909197085, "lng": -0.176103030291502}}}, "name": "Jampro", "place_id": "ChIJUyY7vkQFdkgRSDGUf1PFkUw", "types": ["local_government_office", "point_of_interest", "establishment"], "rating": 3.5, "user_ratings_total": 2}, "ChIJN_4HjkQFdkgRF_0DBQNqnEo": {"geometry": {"location": {"lat": 51.5001224, "lng": -0.1741989}, "viewport": {"northeast": {"lat": 51.5014502302915, "lng": -0.172924169708498}, "southwest": {"lat": 51.4987522697085, "lng": -0.175622130291502}}}, "name": "Advantage Austria", "place_id": "ChIJN_4HjkQFdkgRF_0DBQNqnEo", "types": ["point_of_interest", "establishment"], "rating": 4.8, "user_ratings_total": 6}, "ChIJkW1QcUQFdkgRCmGkzhb6nBk": {"geometry": {"location": {"lat": 51.499928, "lng": -0.1741534}, "viewport": {"northeast": {"lat": 51.5012259802915, "lng": -0.1727933197084979}, "southwest": {"lat": 51.4985280197085, "lng": -0.175491280291502}}}, "name": "Imperial College London, Prince's Gardens", "place_id": "ChIJkW1QcUQFdkgRCmGkzhb6nBk", "types": ["lodging", "point_of_interest", "establishment"], "rating": 3.9, "user_ratings_total": 218}, "ChIJUyY7vkQFdkgRH-IydXXn-i8": {"geometry": {"location": {"lat": 51.5001664, "lng": -0.1747822}, "viewport": {"northeast": {"lat": 51.5014678802915, "lng": -0.173425669708498}, "southwest": {"lat": 51.4987699197085, "lng": -0.176123630291502}}}, "name": "High Commission of Jamaica", "place_id": "ChIJUyY7vkQFdkgRH-IydXXn-i8", "types": ["embassy", "point_of_interest", "establishment"], "rating": 3.4, "user_ratings_total": 90}, "ChIJP1Z1gkQFdkgR6s3TDU9Zahw": {"geometry": {"location": {"lat": 51.49966569999999, "lng": -0.174039}, "viewport": {"northeast": {"lat": 51.5010972302915, "lng": -0.172708019708498}, "southwest": {"lat": 51.4983992697085, "lng": -0.175405980291502}}}, "name": "Stickilicious", "place_id": "ChIJP1Z1gkQFdkgR6s3TDU9Zahw", "types": ["point_of_interest", "establishment"]}, "ChIJAwDEmkQFdkgRH3G-tVjeW_Y": {"geometry": {"location": {"lat": 51.49966569999999, "lng": -0.1740389}, "viewport": {"northeast": {"lat": 51.50100218029149, "lng": -0.172860619708498}, "southwest": {"lat": 51.49830421970849, "lng": -0.175558580291502}}}, "name": "LANGUAGE MAGICIAN", "place_id": "ChIJAwDEmkQFdkgRH3G-tVjeW_Y", "types": ["point_of_interest", "establishment"]}, "ChIJUyY7vkQFdkgRwrhRa4w8vYw": {"geometry": {"location": {"lat": 51.5001483, "lng": -0.1747928}, "viewport": {"northeast": {"lat": 51.5014584302915, "lng": -0.173435569708498}, "southwest": {"lat": 51.4987604697085, "lng": -0.176133530291502}}}, "name": "The Jamaica Tourist Board", "place_id": "ChIJUyY7vkQFdkgRwrhRa4w8vYw", "types": ["travel_agency", "point_of_interest", "establishment"]}, "ChIJBUesl0QFdkgRuPUqfbQCbt4": {"geometry": {"location": {"lat": 51.49991699999999, "lng": -0.174554}, "viewport": {"northeast": {"lat": 51.5012978302915, "lng": -0.173181319708498}, "southwest": {"lat": 51.4985998697085, "lng": -0.175879280291502}}}, "name": "Santander Cycles", "place_id": "ChIJBUesl0QFdkgRuPUqfbQCbt4", "types": ["point_of_interest", "establishment"], "rating": 5, "user_ratings_total": 2}, "ChIJKww480IFdkgRfrFCQYhuoM4": {"geometry": {"location": {"lat": 51.4998502, "lng": -0.174279}, "viewport": {"northeast": {"lat": 51.5011949302915, "lng": -0.172999069708498}, "southwest": {"lat": 51.4984969697085, "lng": -0.175697030291502}}}, "name": "Biology Tuition", "place_id": "ChIJKww480IFdkgRfrFCQYhuoM4", "types": ["university", "point_of_interest", "establishment"]}, "ChIJPavkMx4FdkgR6Ge4DrYzGII": {"geometry": {"location": {"lat": 51.5002174, "lng": -0.1741698}, "viewport": {"northeast": {"lat": 51.5016043802915, "lng": -0.172825519708498}, "southwest": {"lat": 51.4989064197085, "lng": -0.175523480291502}}}, "name": "Montrose House Princes Gate", "place_id": "ChIJPavkMx4FdkgR6Ge4DrYzGII", "types": ["point_of_interest", "establishment"]}, "ChIJGRzhHIsFdkgRvb_2ddplXOg": {"geometry": {"location": {"lat": 51.5000581, "lng": -0.1751928}, "viewport": {"northeast": {"lat": 51.5013945802915, "lng": -0.1739238197084979}, "southwest": {"lat": 51.4986966197085, "lng": -0.176621780291502}}}, "name": "www.renzomolinari.com", "place_id": "ChIJGRzhHIsFdkgRvb_2ddplXOg", "types": ["health", "point_of_interest", "establishment"]}, "ChIJ-VkqtnYFdkgRkX5cJ3LxoRk": {"geometry": {"location": {"lat": 51.5004555, "lng": -0.1746638}, "viewport": {"northeast": {"lat": 51.5018060802915, "lng": -0.1732553197084979}, "southwest": {"lat": 51.4991081197085, "lng": -0.175953280291502}}}, "name": "Dutch Ambassador\u2019s Residence", "place_id": "ChIJ-VkqtnYFdkgRkX5cJ3LxoRk", "types": ["point_of_interest", "establishment"]}, "ChIJY1tAukQFdkgRc2fHo0F5Ey8": {"geometry": {"location": {"lat": 51.5000063, "lng": -0.175342}, "viewport": {"northeast": {"lat": 51.50135528029149, "lng": -0.173993019708498}, "southwest": {"lat": 51.49865731970849, "lng": -0.176690980291502}}}, "name": "Mainsol", "place_id": "ChIJY1tAukQFdkgRc2fHo0F5Ey8", "types": ["finance", "point_of_interest", "establishment"]}, "ChIJr7kB7UQFdkgRhnYMmabhNx0": {"geometry": {"location": {"lat": 51.5000986, "lng": -0.1739081}, "viewport": {"northeast": {"lat": 51.5015501302915, "lng": -0.172569169708498}, "southwest": {"lat": 51.4988521697085, "lng": -0.175267130291502}}}, "name": "The Chambers of Andrew Veen", "place_id": "ChIJr7kB7UQFdkgRhnYMmabhNx0", "types": ["lawyer", "point_of_interest", "establishment"], "rating": 5, "user_ratings_total": 1}, "ChIJ5Q6MC48FdkgR81aAv3AI1Ko": {"geometry": {"location": {"lat": 51.49983899999999, "lng": -0.1739898}, "viewport": {"northeast": {"lat": 51.5012181802915, "lng": -0.172647419708498}, "southwest": {"lat": 51.4985202197085, "lng": -0.175345380291502}}}, "name": "Zipcar", "place_id": "ChIJ5Q6MC48FdkgR81aAv3AI1Ko", "types": ["point_of_interest", "establishment"]}, "ChIJOwvFKMEFdkgRdhdvhls-lcA": {"geometry": {"location": {"lat": 51.4999301, "lng": -0.173924}, "viewport": {"northeast": {"lat": 51.5012365302915, "lng": -0.172566469708498}, "southwest": {"lat": 51.4985385697085, "lng": -0.175264430291502}}}, "name": "United Arab Emirates Consulate", "place_id": "ChIJOwvFKMEFdkgRdhdvhls-lcA", "types": ["embassy", "point_of_interest", "establishment"], "rating": 3.1, "user_ratings_total": 8}, "ChIJD1W8kkQFdkgRn9X-IGsCyC0": {"geometry": {"location": {"lat": 51.50035399999999, "lng": -0.1740323}, "viewport": {"northeast": {"lat": 51.50168043029149, "lng": -0.1726811197084979}, "southwest": {"lat": 51.4989824697085, "lng": -0.175379080291502}}}, "name": "BRIGHT WAY (India Branch)", "place_id": "ChIJD1W8kkQFdkgRn9X-IGsCyC0", "types": ["point_of_interest", "establishment"]}, "ChIJBXqsu0QFdkgROF_S6HLaVqE": {"geometry": {"location": {"lat": 51.4999617, "lng": -0.1752014}, "viewport": {"northeast": {"lat": 51.50130801206607, "lng": -0.1738956605542271}, "southwest": {"lat": 51.49861005148307, "lng": -0.1765936211372312}}}, "name": "Parking lot", "place_id": "ChIJBXqsu0QFdkgROF_S6HLaVqE", "types": ["parking", "premise", "point_of_interest", "establishment"]}, "ChIJBTjBnUQFdkgRFPRmdagz1xQ": {"geometry": {"location": {"lat": 51.49921791653001, "lng": -0.1743078690293946}, "viewport": {"northeast": {"lat": 51.5005674302915, "lng": -0.172951619708498}, "southwest": {"lat": 51.4978694697085, "lng": -0.175649580291502}}}, "name": "Exhibition Road", "place_id": "ChIJBTjBnUQFdkgRFPRmdagz1xQ", "types": ["route"]}, "ChIJAQoi2mcFdkgRhi5pHDcbkTE": {"geometry": {"location": {"lat": 51.49882220000001, "lng": -0.1748735}, "viewport": {"northeast": {"lat": 51.50060905000002, "lng": -0.17172185}, "southwest": {"lat": 51.49684685, "lng": -0.1818320500000001}}}, "name": "Imperial College London", "place_id": "ChIJAQoi2mcFdkgRhi5pHDcbkTE", "types": ["university", "point_of_interest", "establishment"], "rating": 4.5, "user_ratings_total": 796}, "ChIJAQoi2mcFdkgRMoqBXBw92Is": {"geometry": {"location": {"lat": 51.49933, "lng": -0.174786}, "viewport": {"northeast": {"lat": 51.50204274999999, "lng": -0.16827295}, "southwest": {"lat": 51.49639735, "lng": -0.18340235}}}, "name": "Imperial College Business School", "place_id": "ChIJAQoi2mcFdkgRMoqBXBw92Is", "types": ["university", "point_of_interest", "establishment"], "rating": 4.5, "user_ratings_total": 59}, "ChIJO52ag0QFdkgRxzfl9L8Ruhg": {"geometry": {"location": {"lat": 51.4990067, "lng": -0.1739002}, "viewport": {"northeast": {"lat": 51.5002897802915, "lng": -0.172723569708498}, "southwest": {"lat": 51.4975918197085, "lng": -0.1754215302915021}}}, "name": "Pepperdine University", "place_id": "ChIJO52ag0QFdkgRxzfl9L8Ruhg", "types": ["university", "point_of_interest", "establishment"], "rating": 4.8, "user_ratings_total": 5}, "ChIJa3dgXkMFdkgRV9zySPrksT0": {"geometry": {"location": {"lat": 51.49886299999999, "lng": -0.174876}, "viewport": {"northeast": {"lat": 51.50032558029149, "lng": -0.173212369708498}, "southwest": {"lat": 51.4976276197085, "lng": -0.175910330291502}}}, "name": "The Biomechanics Group", "place_id": "ChIJa3dgXkMFdkgRV9zySPrksT0", "types": ["point_of_interest", "establishment"]}, "ChIJdXJ-XkMFdkgRAkpYW96VLt0": {"geometry": {"location": {"lat": 51.4987998, "lng": -0.1748771}, "viewport": {"northeast": {"lat": 51.5002939802915, "lng": -0.173206619708498}, "southwest": {"lat": 51.4975960197085, "lng": -0.175904580291502}}}, "name": "ISBeRG is an international benchmarking group", "place_id": "ChIJdXJ-XkMFdkgRAkpYW96VLt0", "types": ["point_of_interest", "establishment"]}, "ChIJdXJ-XkMFdkgR5Sve_XFjrVg": {"geometry": {"location": {"lat": 51.4987998, "lng": -0.1748771}, "viewport": {"northeast": {"lat": 51.5002939802915, "lng": -0.173206619708498}, "southwest": {"lat": 51.4975960197085, "lng": -0.175904580291502}}}, "name": "Pilio Ltd", "place_id": "ChIJdXJ-XkMFdkgR5Sve_XFjrVg", "types": ["point_of_interest", "establishment"]}, "ChIJdXJ-XkMFdkgRoW6iCdlJ1jM": {"geometry": {"location": {"lat": 51.4987998, "lng": -0.1748771}, "viewport": {"northeast": {"lat": 51.5002939802915, "lng": -0.173206619708498}, "southwest": {"lat": 51.4975960197085, "lng": -0.175904580291502}}}, "name": "Portugal Visa", "place_id": "ChIJdXJ-XkMFdkgRoW6iCdlJ1jM", "types": ["travel_agency", "point_of_interest", "establishment"], "rating": 5, "user_ratings_total": 1}, "ChIJ_2X8qVwFdkgR0PTAAIygkwc": {"geometry": {"location": {"lat": 51.498884, "lng": -0.174255}, "viewport": {"northeast": {"lat": 51.5002306302915, "lng": -0.172938969708498}, "southwest": {"lat": 51.4975326697085, "lng": -0.175636930291502}}}, "name": "Faculty of Medicine Imperial College London", "place_id": "ChIJ_2X8qVwFdkgR0PTAAIygkwc", "types": ["point_of_interest", "establishment"], "rating": 5, "user_ratings_total": 2}, "ChIJP0SVYkMFdkgRdb91Ugz0fNU": {"geometry": {"location": {"lat": 51.49903280000001, "lng": -0.1740621}, "viewport": {"northeast": {"lat": 51.50037443029151, "lng": -0.172813469708498}, "southwest": {"lat": 51.49767646970852, "lng": -0.175511430291502}}}, "name": "Polish Professionals In London", "place_id": "ChIJP0SVYkMFdkgRdb91Ugz0fNU", "types": ["point_of_interest", "establishment"]}, "ChIJM8miYkMFdkgRZkG1amhhiF0": {"geometry": {"location": {"lat": 51.49907229999999, "lng": -0.1740496}, "viewport": {"northeast": {"lat": 51.5004131802915, "lng": -0.172810819708498}, "southwest": {"lat": 51.4977152197085, "lng": -0.175508780291502}}}, "name": "Ammonite Media", "place_id": "ChIJM8miYkMFdkgRZkG1amhhiF0", "types": ["point_of_interest", "establishment"]}, "ChIJnWxVZkQFdkgRe1Zkxq11Mts": {"geometry": {"location": {"lat": 51.49935669999999, "lng": -0.1747955}, "viewport": {"northeast": {"lat": 51.5005880302915, "lng": -0.173217669708498}, "southwest": {"lat": 51.4978900697085, "lng": -0.1759156302915021}}}, "name": "Dr I Weinreb - Imperial College Health Centre", "place_id": "ChIJnWxVZkQFdkgRe1Zkxq11Mts", "types": ["doctor", "health", "point_of_interest", "establishment"], "rating": 1, "user_ratings_total": 1}, "ChIJLwxQfUMFdkgRnjIHTIoDCCQ": {"geometry": {"location": {"lat": 51.49907459999999, "lng": -0.1739225}, "viewport": {"northeast": {"lat": 51.50042358029148, "lng": -0.172573519708498}, "southwest": {"lat": 51.49772561970849, "lng": -0.175271480291502}}}, "name": "Mad Bison Media", "place_id": "ChIJLwxQfUMFdkgRnjIHTIoDCCQ", "types": ["point_of_interest", "establishment"]}, "ChIJjVuWYkMFdkgR-SqE0_PAIy8": {"geometry": {"location": {"lat": 51.4990706, "lng": -0.1739204}, "viewport": {"northeast": {"lat": 51.50041958029149, "lng": -0.172571419708498}, "southwest": {"lat": 51.4977216197085, "lng": -0.1752693802915021}}}, "name": "Artstur", "place_id": "ChIJjVuWYkMFdkgR-SqE0_PAIy8", "types": ["point_of_interest", "establishment"]}, "ChIJjVuWYkMFdkgR9loe_EJtB9s": {"geometry": {"location": {"lat": 51.4990706, "lng": -0.1739204}, "viewport": {"northeast": {"lat": 51.50041958029149, "lng": -0.172571419708498}, "southwest": {"lat": 51.4977216197085, "lng": -0.1752693802915021}}}, "name": "Ospre UK Ltd", "place_id": "ChIJjVuWYkMFdkgR9loe_EJtB9s", "types": ["point_of_interest", "establishment"]}, "ChIJ2fe3ZEMFdkgRadal9z9NbDw": {"geometry": {"location": {"lat": 51.49880379999999, "lng": -0.1738958}, "viewport": {"northeast": {"lat": 51.5000827302915, "lng": -0.172509319708498}, "southwest": {"lat": 51.4973847697085, "lng": -0.175207280291502}}}, "name": "Imperial Consultants", "place_id": "ChIJ2fe3ZEMFdkgRadal9z9NbDw", "types": ["point_of_interest", "establishment"], "rating": 5, "user_ratings_total": 1}, "ChIJP1Z1gkQFdkgRsyjCnpNoYsM": {"geometry": {"location": {"lat": 51.4991011, "lng": -0.1739026}, "viewport": {"northeast": {"lat": 51.5004352802915, "lng": -0.172741819708498}, "southwest": {"lat": 51.49773731970851, "lng": -0.175439780291502}}}, "name": "Ognisko Restaurant", "place_id": "ChIJP1Z1gkQFdkgRsyjCnpNoYsM", "types": ["bar", "restaurant", "food", "point_of_interest", "establishment"], "rating": 4.6, "user_ratings_total": 1048}, "ChIJm9l9-8wPdkgRoHG2NlCSdZQ": {"geometry": {"location": {"lat": 51.4990971, "lng": -0.1738865}, "viewport": {"northeast": {"lat": 51.5004460802915, "lng": -0.172537519708498}, "southwest": {"lat": 51.4977481197085, "lng": -0.175235480291502}}}, "name": "Just Associates", "place_id": "ChIJm9l9-8wPdkgRoHG2NlCSdZQ", "types": ["point_of_interest", "establishment"]}, "ChIJSYQWYkMFdkgRiBOCbjCPIZo": {"geometry": {"location": {"lat": 51.49933449999999, "lng": -0.1741173}, "viewport": {"northeast": {"lat": 51.50067608029151, "lng": -0.172869519708498}, "southwest": {"lat": 51.49797811970851, "lng": -0.175567480291502}}}, "name": "S-Cube", "place_id": "ChIJSYQWYkMFdkgRiBOCbjCPIZo", "types": ["point_of_interest", "establishment"]}, "ChIJw2yKV0MFdkgRi1FqidSfYEo": {"geometry": {"location": {"lat": 51.4990122, "lng": -0.1754406}, "viewport": {"northeast": {"lat": 51.5003364302915, "lng": -0.1740681697084979}, "southwest": {"lat": 51.49763846970851, "lng": -0.176766130291502}}}, "name": "The National Wind Tunnel Facility, Department of Aeronautics, Imperial College, London", "place_id": "ChIJw2yKV0MFdkgRi1FqidSfYEo", "types": ["point_of_interest", "establishment"]}, "ChIJHVjRnEQFdkgRuie0dQVupS0": {"geometry": {"location": {"lat": 51.49929890000001, "lng": -0.173991}, "viewport": {"northeast": {"lat": 51.5006361802915, "lng": -0.172802219708498}, "southwest": {"lat": 51.4979382197085, "lng": -0.175500180291502}}}, "name": "Andrea Buraschi", "place_id": "ChIJHVjRnEQFdkgRuie0dQVupS0", "types": ["finance", "point_of_interest", "establishment"]}, "ChIJabN7Z0MFdkgR5O9oqsX0wDA": {"geometry": {"location": {"lat": 51.4989356, "lng": -0.1748894}, "viewport": {"northeast": {"lat": 51.5003618802915, "lng": -0.173226419708498}, "southwest": {"lat": 51.4976639197085, "lng": -0.175924380291502}}}, "name": "Department of Mechanical Engineering, Imperial College London", "place_id": "ChIJabN7Z0MFdkgR5O9oqsX0wDA", "types": ["point_of_interest", "establishment"], "rating": 4.3, "user_ratings_total": 12}, "ChIJ7bNOgkQFdkgRbSJungcSnOQ": {"geometry": {"location": {"lat": 51.4990746, "lng": -0.173922}, "viewport": {"northeast": {"lat": 51.5004235802915, "lng": -0.172573019708498}, "southwest": {"lat": 51.4977256197085, "lng": -0.175270980291502}}}, "name": "Ognisko Polskie - The Polish Hearth Club", "place_id": "ChIJ7bNOgkQFdkgRbSJungcSnOQ", "types": ["restaurant", "food", "point_of_interest", "establishment"], "rating": 4.7, "user_ratings_total": 133}, "ChIJqUzwoEQFdkgRzeYup95peb4": {"geometry": {"location": {"lat": 51.4989784, "lng": -0.1748583}, "viewport": {"northeast": {"lat": 51.5003832802915, "lng": -0.1732149197084979}, "southwest": {"lat": 51.4976853197085, "lng": -0.175912880291502}}}, "name": "College Cafe", "place_id": "ChIJqUzwoEQFdkgRzeYup95peb4", "types": ["cafe", "food", "point_of_interest", "establishment"], "rating": 3.7, "user_ratings_total": 17}, "ChIJETwk3aIFdkgRVPfONbz3-Vg": {"geometry": {"location": {"lat": 51.4988171, "lng": -0.1744615}, "viewport": {"northeast": {"lat": 51.5003026302915, "lng": -0.173011969708498}, "southwest": {"lat": 51.4976046697085, "lng": -0.175709930291502}}}, "name": "EM-IT", "place_id": "ChIJETwk3aIFdkgRVPfONbz3-Vg", "types": ["point_of_interest", "establishment"], "rating": 4.2, "user_ratings_total": 6}, "ChIJcUBkn0QFdkgRWiEcpzEHv9c": {"geometry": {"location": {"lat": 51.4988171, "lng": -0.1744614}, "viewport": {"northeast": {"lat": 51.5003026302915, "lng": -0.173011969708498}, "southwest": {"lat": 51.4976046697085, "lng": -0.175709930291502}}}, "name": "Imperial College Business School Cafe", "place_id": "ChIJcUBkn0QFdkgRWiEcpzEHv9c", "types": ["cafe", "food", "point_of_interest", "establishment"], "rating": 4.3, "user_ratings_total": 12}, "ChIJdXJ-XkMFdkgRoEJEYqfOmpw": {"geometry": {"location": {"lat": 51.4987998, "lng": -0.1748771}, "viewport": {"northeast": {"lat": 51.5002939802915, "lng": -0.173206619708498}, "southwest": {"lat": 51.4975960197085, "lng": -0.175904580291502}}}, "name": "Algae Printing", "place_id": "ChIJdXJ-XkMFdkgRoEJEYqfOmpw", "types": ["point_of_interest", "establishment"]}, "ChIJdXJ-XkMFdkgRETPc3BIxy0s": {"geometry": {"location": {"lat": 51.4987998, "lng": -0.1748771}, "viewport": {"northeast": {"lat": 51.5002939802915, "lng": -0.173206619708498}, "southwest": {"lat": 51.4975960197085, "lng": -0.175904580291502}}}, "name": "Ali Shafti", "place_id": "ChIJdXJ-XkMFdkgRETPc3BIxy0s", "types": ["point_of_interest", "establishment"]}, "ChIJdXJ-XkMFdkgRCypS9xsCcqA": {"geometry": {"location": {"lat": 51.4987998, "lng": -0.1748771}, "viewport": {"northeast": {"lat": 51.5002939802915, "lng": -0.173206619708498}, "southwest": {"lat": 51.4975960197085, "lng": -0.175904580291502}}}, "name": "Cellular and Molecular Biomechanics Laboratory", "place_id": "ChIJdXJ-XkMFdkgRCypS9xsCcqA", "types": ["point_of_interest", "establishment"]}, "ChIJdXJ-XkMFdkgRC_JmoiQnh7s": {"geometry": {"location": {"lat": 51.4987998, "lng": -0.1748771}, "viewport": {"northeast": {"lat": 51.5002939802915, "lng": -0.173206619708498}, "southwest": {"lat": 51.4975960197085, "lng": -0.175904580291502}}}, "name": "Carbonate Research", "place_id": "ChIJdXJ-XkMFdkgRC_JmoiQnh7s", "types": ["point_of_interest", "establishment"]}, "ChIJdXJ-XkMFdkgRLHF0xI_sNe0": {"geometry": {"location": {"lat": 51.4987998, "lng": -0.1748771}, "viewport": {"northeast": {"lat": 51.5002939802915, "lng": -0.173206619708498}, "southwest": {"lat": 51.4975960197085, "lng": -0.175904580291502}}}, "name": "The National Phenome Centre", "place_id": "ChIJdXJ-XkMFdkgRLHF0xI_sNe0", "types": ["health", "point_of_interest", "establishment"]}, "ChIJs_mBiY0FdkgRLlJdcY-KnVA": {"geometry": {"location": {"lat": 51.4992229, "lng": -0.1748306}, "viewport": {"northeast": {"lat": 51.5005231302915, "lng": -0.173223769708498}, "southwest": {"lat": 51.4978251697085, "lng": -0.175921730291502}}}, "name": "Newborn & Nanny Education Services & Training (NNEST)", "place_id": "ChIJs_mBiY0FdkgRLlJdcY-KnVA", "types": ["point_of_interest", "establishment"]}, "ChIJTRe-MFMFdkgRPPgKCTuqtoA": {"geometry": {"location": {"lat": 51.4993098, "lng": -0.1746923}, "viewport": {"northeast": {"lat": 51.50056138029149, "lng": -0.173161369708498}, "southwest": {"lat": 51.49786341970849, "lng": -0.175859330291502}}}, "name": "Santander", "place_id": "ChIJTRe-MFMFdkgRPPgKCTuqtoA", "types": ["bank", "finance", "point_of_interest", "establishment"]}, "ChIJo5OaIIwFdkgRxiVq6UMsMbc": {"geometry": {"location": {"lat": 51.49903279999999, "lng": -0.1740622}, "viewport": {"northeast": {"lat": 51.5003744302915, "lng": -0.172813519708498}, "southwest": {"lat": 51.4976764697085, "lng": -0.175511480291502}}}, "name": "Polish Your Polish Toastmasters", "place_id": "ChIJo5OaIIwFdkgRxiVq6UMsMbc", "types": ["point_of_interest", "establishment"]}, "ChIJP0SVYkMFdkgRVjboSJ5iDm8": {"geometry": {"location": {"lat": 51.49903280000001, "lng": -0.1740621}, "viewport": {"northeast": {"lat": 51.50037443029151, "lng": -0.172813469708498}, "southwest": {"lat": 51.49767646970852, "lng": -0.175511430291502}}}, "name": "Life mentoring", "place_id": "ChIJP0SVYkMFdkgRVjboSJ5iDm8", "types": ["point_of_interest", "establishment"]}, "ChIJM8miYkMFdkgRY1k0HHDee9Y": {"geometry": {"location": {"lat": 51.4990721, "lng": -0.1740512}, "viewport": {"northeast": {"lat": 51.5004131302915, "lng": -0.172811619708498}, "southwest": {"lat": 51.4977151697085, "lng": -0.175509580291502}}}, "name": "William Adlington Construction Limited", "place_id": "ChIJM8miYkMFdkgRY1k0HHDee9Y", "types": ["point_of_interest", "establishment"]}, "ChIJM8miYkMFdkgR09xRHq0BNzM": {"geometry": {"location": {"lat": 51.4990721, "lng": -0.1740512}, "viewport": {"northeast": {"lat": 51.50041308029149, "lng": -0.172811619708498}, "southwest": {"lat": 51.4977151197085, "lng": -0.175509580291502}}}, "name": "Security Sure Solutions Ltd", "place_id": "ChIJM8miYkMFdkgR09xRHq0BNzM", "types": ["point_of_interest", "establishment"]}, "ChIJM8miYkMFdkgRSLnlV_LxQGs": {"geometry": {"location": {"lat": 51.49907229999999, "lng": -0.1740496}, "viewport": {"northeast": {"lat": 51.5004131802915, "lng": -0.172810819708498}, "southwest": {"lat": 51.4977152197085, "lng": -0.175508780291502}}}, "name": "Ultimate Staffing Solutions Limited", "place_id": "ChIJM8miYkMFdkgRSLnlV_LxQGs", "types": ["point_of_interest", "establishment"]}, "ChIJIdwBTqUFdkgR9KMQ7-Kqv-c": {"geometry": {"location": {"lat": 51.49889080000001, "lng": -0.1740129}, "viewport": {"northeast": {"lat": 51.5002315802915, "lng": -0.172775319708498}, "southwest": {"lat": 51.49753361970851, "lng": -0.175473280291502}}}, "name": "Careerhub", "place_id": "ChIJIdwBTqUFdkgR9KMQ7-Kqv-c", "types": ["point_of_interest", "establishment"], "rating": 5, "user_ratings_total": 20}, "ChIJd4sXe0MFdkgRpSUx2nYEJ04": {"geometry": {"location": {"lat": 51.4990471, "lng": -0.1739482}, "viewport": {"northeast": {"lat": 51.5003845302915, "lng": -0.172757069708498}, "southwest": {"lat": 51.4976865697085, "lng": -0.175455030291502}}}, "name": "M&K ROOFING", "place_id": "ChIJd4sXe0MFdkgRpSUx2nYEJ04", "types": ["roofing_contractor", "point_of_interest", "establishment"], "rating": 3.9, "user_ratings_total": 7}, "ChIJd4sXe0MFdkgRpSfrkPtsSlI": {"geometry": {"location": {"lat": 51.4990471, "lng": -0.1739482}, "viewport": {"northeast": {"lat": 51.5003845302915, "lng": -0.172757069708498}, "southwest": {"lat": 51.4976865697085, "lng": -0.175455030291502}}}, "name": "Precedence Training", "place_id": "ChIJd4sXe0MFdkgRpSfrkPtsSlI", "types": ["point_of_interest", "establishment"]}, "ChIJc4sXe0MFdkgRQvNQ3WXKIg4": {"geometry": {"location": {"lat": 51.4990471, "lng": -0.1739478}, "viewport": {"northeast": {"lat": 51.5003834802915, "lng": -0.172759369708498}, "southwest": {"lat": 51.4976855197085, "lng": -0.175457330291502}}}, "name": "International Protection Ltd", "place_id": "ChIJc4sXe0MFdkgRQvNQ3WXKIg4", "types": ["point_of_interest", "establishment"]}, "ChIJXepyU7sFdkgRntMWB-YgUm0": {"geometry": {"location": {"lat": 51.4990551, "lng": -0.1739495}, "viewport": {"northeast": {"lat": 51.5003914802915, "lng": -0.172761019708498}, "southwest": {"lat": 51.49769351970851, "lng": -0.175458980291502}}}, "name": "BM Properties", "place_id": "ChIJXepyU7sFdkgRntMWB-YgUm0", "types": ["real_estate_agency", "point_of_interest", "establishment"], "rating": 5, "user_ratings_total": 2}, "ChIJLQxQfUMFdkgRfbQzpjxW8qg": {"geometry": {"location": {"lat": 51.4990746, "lng": -0.1739226}, "viewport": {"northeast": {"lat": 51.5004235802915, "lng": -0.1725736197084979}, "southwest": {"lat": 51.4977256197085, "lng": -0.1752715802915019}}}, "name": "Ennismore Business Services", "place_id": "ChIJLQxQfUMFdkgRfbQzpjxW8qg", "types": ["accounting", "finance", "point_of_interest", "establishment"], "rating": 5, "user_ratings_total": 1}, "ChIJBwxQfUMFdkgRyK8iNorh7zM": {"geometry": {"location": {"lat": 51.4990746, "lng": -0.1739219}, "viewport": {"northeast": {"lat": 51.5004108802915, "lng": -0.172746319708498}, "southwest": {"lat": 51.4977129197085, "lng": -0.175444280291502}}}, "name": "London Capital Advisors", "place_id": "ChIJBwxQfUMFdkgRyK8iNorh7zM", "types": ["finance", "point_of_interest", "establishment"]}, "ChIJ7dl5iesFdkgRjxPErTxPjMo": {"geometry": {"location": {"lat": 51.4990706, "lng": -0.1739204}, "viewport": {"northeast": {"lat": 51.5004068802915, "lng": -0.172745169708498}, "southwest": {"lat": 51.4977089197085, "lng": -0.175443130291502}}}, "name": "EEL Events", "place_id": "ChIJ7dl5iesFdkgRjxPErTxPjMo", "types": ["point_of_interest", "establishment"]}, "ChIJ7bNOgkQFdkgR8uSONMCy7vk": {"geometry": {"location": {"lat": 51.49911019999999, "lng": -0.1739119}, "viewport": {"northeast": {"lat": 51.50045918029149, "lng": -0.172562919708498}, "southwest": {"lat": 51.49776121970849, "lng": -0.175260880291502}}}, "name": "Relief Society for Poles", "place_id": "ChIJ7bNOgkQFdkgR8uSONMCy7vk", "types": ["point_of_interest", "establishment"]}, "ChIJz_GD3t0FdkgRaBemYXfzgjE": {"geometry": {"location": {"lat": 51.49910079999999, "lng": -0.1738984}, "viewport": {"northeast": {"lat": 51.50043608029149, "lng": -0.1727368197084979}, "southwest": {"lat": 51.4977381197085, "lng": -0.175434780291502}}}, "name": "IPG Transport", "place_id": "ChIJz_GD3t0FdkgRaBemYXfzgjE", "types": ["point_of_interest", "establishment"], "rating": 5, "user_ratings_total": 1}, "ChIJo_VefUMFdkgRU2iGFz4nn6g": {"geometry": {"location": {"lat": 51.4990971, "lng": -0.1738865}, "viewport": {"northeast": {"lat": 51.5004460802915, "lng": -0.172537519708498}, "southwest": {"lat": 51.4977481197085, "lng": -0.175235480291502}}}, "name": "The Pedestal", "place_id": "ChIJo_VefUMFdkgRU2iGFz4nn6g", "types": ["point_of_interest", "establishment"]}, "ChIJ2SNBZCwFdkgREzaQSPCsdgo": {"geometry": {"location": {"lat": 51.4990971, "lng": -0.1738865}, "viewport": {"northeast": {"lat": 51.5004460802915, "lng": -0.172537519708498}, "southwest": {"lat": 51.4977481197085, "lng": -0.175235480291502}}}, "name": "Realia Capital Group", "place_id": "ChIJ2SNBZCwFdkgREzaQSPCsdgo", "types": ["finance", "point_of_interest", "establishment"]}, "ChIJ7XljqdsFdkgRvxnzrZoyYYs": {"geometry": {"location": {"lat": 51.4990971, "lng": -0.1738865}, "viewport": {"northeast": {"lat": 51.5004460802915, "lng": -0.172537519708498}, "southwest": {"lat": 51.4977481197085, "lng": -0.175235480291502}}}, "name": "The Voice Productions", "place_id": "ChIJ7XljqdsFdkgRvxnzrZoyYYs", "types": ["point_of_interest", "establishment"]}, "ChIJ8UPTnEQFdkgR4M6il0YSmjA": {"geometry": {"location": {"lat": 51.4992963, "lng": -0.1739908}, "viewport": {"northeast": {"lat": 51.50063178029149, "lng": -0.172805169708498}, "southwest": {"lat": 51.4979338197085, "lng": -0.175503130291502}}}, "name": "Imperial College London, 53 Prince's Gate", "place_id": "ChIJ8UPTnEQFdkgR4M6il0YSmjA", "types": ["university", "point_of_interest", "establishment"]}, "ChIJM0EgNN4FdkgRBRETY-y2Rbo": {"geometry": {"location": {"lat": 51.49929890000001, "lng": -0.173991}, "viewport": {"northeast": {"lat": 51.5006361802915, "lng": -0.172802219708498}, "southwest": {"lat": 51.4979382197085, "lng": -0.175500180291502}}}, "name": "Imperial College Executive Education", "place_id": "ChIJM0EgNN4FdkgRBRETY-y2Rbo", "types": ["point_of_interest", "establishment"]}, "ChIJy4-lLkUFdkgRxWzGARwey3k": {"geometry": {"location": {"lat": 51.50211781007166, "lng": -0.1759627854184662}, "viewport": {"northeast": {"lat": 51.5034530302915, "lng": -0.17404655}, "southwest": {"lat": 51.5007550697085, "lng": -0.17787515}}}, "name": "South Carriage Drive", "place_id": "ChIJy4-lLkUFdkgRxWzGARwey3k", "types": ["route"]}, "ChIJ0_DCMg4FdkgRukkUdsTWyqE": {"geometry": {"location": {"lat": 51.5021064, "lng": -0.1758787}, "viewport": {"northeast": {"lat": 51.5034651302915, "lng": -0.173926119708498}, "southwest": {"lat": 51.5007671697085, "lng": -0.176624080291502}}}, "name": "Easy Rollers Skateboard Lessons", "place_id": "ChIJ0_DCMg4FdkgRukkUdsTWyqE", "types": ["school", "point_of_interest", "establishment"], "rating": 5, "user_ratings_total": 15}, "ChIJUeyFY3EFdkgRoSnaUspRlCM": {"geometry": {"location": {"lat": 51.5025273, "lng": -0.1768226}, "viewport": {"northeast": {"lat": 51.5038762802915, "lng": -0.175473619708498}, "southwest": {"lat": 51.5011783197085, "lng": -0.178171580291502}}}, "name": "Van Gogh Alive (the experience)", "place_id": "ChIJUeyFY3EFdkgRoSnaUspRlCM", "types": ["tourist_attraction", "point_of_interest", "establishment"], "rating": 4, "user_ratings_total": 12}, "ChIJa_mr1VoFdkgR0TuNaBcWdY0": {"geometry": {"location": {"lat": 51.5016944, "lng": -0.1763382}, "viewport": {"northeast": {"lat": 51.5029937302915, "lng": -0.174980119708498}, "southwest": {"lat": 51.5002957697085, "lng": -0.177678080291502}}}, "name": "Royal Albert Hall (Stop RL)", "place_id": "ChIJa_mr1VoFdkgR0TuNaBcWdY0", "types": ["transit_station", "point_of_interest", "establishment"], "rating": 4.7, "user_ratings_total": 10}, "ChIJPckzKlsFdkgRH5FA_WohBoI": {"geometry": {"location": {"lat": 51.50157155030297, "lng": -0.1766386500670706}, "viewport": {"northeast": {"lat": 51.5029205302915, "lng": -0.175289669708498}, "southwest": {"lat": 51.5002225697085, "lng": -0.177987630291502}}}, "name": "406 Kensington Rd", "place_id": "ChIJPckzKlsFdkgRH5FA_WohBoI", "types": ["route"]}, "ChIJhyInMlsFdkgRvKU5lKEB0wA": {"geometry": {"location": {"lat": 51.5009764, "lng": -0.1765099}, "viewport": {"northeast": {"lat": 51.5023149302915, "lng": -0.175220519708498}, "southwest": {"lat": 51.4996169697085, "lng": -0.177918480291502}}}, "name": "Platinum Global Enterprise Limited", "place_id": "ChIJhyInMlsFdkgRvKU5lKEB0wA", "types": ["point_of_interest", "establishment"]}, "ChIJ6fJbIlsFdkgRvxewp_1GLiI": {"geometry": {"location": {"lat": 51.50105240000001, "lng": -0.1769723}, "viewport": {"northeast": {"lat": 51.5023078802915, "lng": -0.175557619708498}, "southwest": {"lat": 51.4996099197085, "lng": -0.178255580291502}}}, "name": "Laurent-Perrier Champagne Bar at the Royal Albert Hall", "place_id": "ChIJ6fJbIlsFdkgRvxewp_1GLiI", "types": ["bar", "restaurant", "food", "point_of_interest", "establishment"], "rating": 4.2, "user_ratings_total": 32}, "ChIJQ-CG00QFdkgRfG9wDiok5ac": {"geometry": {"location": {"lat": 51.5013971, "lng": -0.1759742}, "viewport": {"northeast": {"lat": 51.5028015302915, "lng": -0.174493719708498}, "southwest": {"lat": 51.5001035697085, "lng": -0.177191680291502}}}, "name": "Nordscript Ltd", "place_id": "ChIJQ-CG00QFdkgRfG9wDiok5ac", "types": ["point_of_interest", "establishment"]}, "ChIJ6Xr0zkQFdkgR5CV4pD294eA": {"geometry": {"location": {"lat": 51.5008985, "lng": -0.1756861}, "viewport": {"northeast": {"lat": 51.5022337802915, "lng": -0.174516519708498}, "southwest": {"lat": 51.49953581970851, "lng": -0.177214480291502}}}, "name": "Testprep", "place_id": "ChIJ6Xr0zkQFdkgR5CV4pD294eA", "types": ["university", "point_of_interest", "establishment"]}, "ChIJxXr0zkQFdkgRFNrCDMBLWcM": {"geometry": {"location": {"lat": 51.50089699999999, "lng": -0.17571}, "viewport": {"northeast": {"lat": 51.5022331802915, "lng": -0.174528519708498}, "southwest": {"lat": 51.49953521970851, "lng": -0.177226480291502}}}, "name": "CEC Water Limited", "place_id": "ChIJxXr0zkQFdkgRFNrCDMBLWcM", "types": ["point_of_interest", "establishment"], "rating": 5, "user_ratings_total": 1}, "ChIJ6Xr0zkQFdkgRDe-RqNdAQOE": {"geometry": {"location": {"lat": 51.5009108, "lng": -0.1756689}, "viewport": {"northeast": {"lat": 51.50224533029151, "lng": -0.174508969708498}, "southwest": {"lat": 51.49954736970851, "lng": -0.177206930291502}}}, "name": "Gradmed", "place_id": "ChIJ6Xr0zkQFdkgRDe-RqNdAQOE", "types": ["point_of_interest", "establishment"], "rating": 4.4, "user_ratings_total": 7}, "ChIJbTHZE1sFdkgRcb5V1WJZSl0": {"geometry": {"location": {"lat": 51.5010372, "lng": -0.1769296}, "viewport": {"northeast": {"lat": 51.5023274802915, "lng": -0.175536769708498}, "southwest": {"lat": 51.4996295197085, "lng": -0.178234730291502}}}, "name": "Coda Restaurant", "place_id": "ChIJbTHZE1sFdkgRcb5V1WJZSl0", "types": ["restaurant", "food", "point_of_interest", "establishment"], "rating": 4.7, "user_ratings_total": 51}, "ChIJhyInMlsFdkgROvIfAGDTlS4": {"geometry": {"location": {"lat": 51.5009632, "lng": -0.1765042}, "viewport": {"northeast": {"lat": 51.5023063302915, "lng": -0.175215719708498}, "southwest": {"lat": 51.4996083697085, "lng": -0.177913680291502}}}, "name": "Albert Hall Mansions", "place_id": "ChIJhyInMlsFdkgROvIfAGDTlS4", "types": ["point_of_interest", "establishment"], "rating": 4.8, "user_ratings_total": 29}, "ChIJ9_iggaoPdkgRXAILfFKeDSY": {"geometry": {"location": {"lat": 51.5008883, "lng": -0.1763251}, "viewport": {"northeast": {"lat": 51.50219208029151, "lng": -0.175055919708498}, "southwest": {"lat": 51.49949411970851, "lng": -0.177753880291502}}}, "name": "Elite London Tutors", "place_id": "ChIJ9_iggaoPdkgRXAILfFKeDSY", "types": ["point_of_interest", "establishment"], "rating": 5, "user_ratings_total": 3}, "ChIJxUE0NfIFdkgRC6EQxbx-t9M": {"geometry": {"location": {"lat": 51.5009132, "lng": -0.1766086}, "viewport": {"northeast": {"lat": 51.5022725802915, "lng": -0.175212119708498}, "southwest": {"lat": 51.4995746197085, "lng": -0.177910080291502}}}, "name": "Septal Wholesale", "place_id": "ChIJxUE0NfIFdkgRC6EQxbx-t9M", "types": ["point_of_interest", "establishment"], "rating": 5, "user_ratings_total": 2}, "ChIJ6Xr0zkQFdkgRuLCLhIdPqhc": {"geometry": {"location": {"lat": 51.5014636, "lng": -0.1765707}, "viewport": {"northeast": {"lat": 51.50286928029149, "lng": -0.175229619708498}, "southwest": {"lat": 51.50017131970849, "lng": -0.177927580291502}}}, "name": "R D Residential", "place_id": "ChIJ6Xr0zkQFdkgRuLCLhIdPqhc", "types": ["point_of_interest", "establishment"], "rating": 5, "user_ratings_total": 1}, "ChIJF0_9zEQFdkgRwyGQha9JaT0": {"geometry": {"location": {"lat": 51.5009108, "lng": -0.1756689}, "viewport": {"northeast": {"lat": 51.5021165302915, "lng": -0.174453119708498}, "southwest": {"lat": 51.4994185697085, "lng": -0.177151080291502}}}, "name": "Ganes", "place_id": "ChIJF0_9zEQFdkgRwyGQha9JaT0", "types": ["accounting", "finance", "point_of_interest", "establishment"]}, "ChIJo4QhNVsFdkgR5LUgHNExM-I": {"geometry": {"location": {"lat": 51.50056799999999, "lng": -0.176264}, "viewport": {"northeast": {"lat": 51.50198608029149, "lng": -0.174874969708498}, "southwest": {"lat": 51.4992881197085, "lng": -0.1775729302915021}}}, "name": "Charles Kendall Procurement & Consulting", "place_id": "ChIJo4QhNVsFdkgR5LUgHNExM-I", "types": ["finance", "point_of_interest", "establishment"]}, "ChIJj6AGTVsFdkgRQo3mBiuJgSw": {"geometry": {"location": {"lat": 51.49992402624689, "lng": -0.1763450339646354}, "viewport": {"northeast": {"lat": 51.5012756302915, "lng": -0.17470965}, "southwest": {"lat": 51.4985776697085, "lng": -0.17798145}}}, "name": "60-37 Prince Consort Rd", "place_id": "ChIJj6AGTVsFdkgRQo3mBiuJgSw", "types": ["route"]}, "ChIJgwO-RFsFdkgRZbKhZkNxU6c": {"geometry": {"location": {"lat": 51.5003393, "lng": -0.1766402}, "viewport": {"northeast": {"lat": 51.5014729802915, "lng": -0.175251919708498}, "southwest": {"lat": 51.4987750197085, "lng": -0.177949880291502}}}, "name": "TopiVert Pharma Ltd", "place_id": "ChIJgwO-RFsFdkgRZbKhZkNxU6c", "types": ["health", "point_of_interest", "establishment"]}, "ChIJAwDArkQFdkgR9hykA_n_Ln8": {"geometry": {"location": {"lat": 51.5003393, "lng": -0.1766402}, "viewport": {"northeast": {"lat": 51.5014729802915, "lng": -0.175251919708498}, "southwest": {"lat": 51.4987750197085, "lng": -0.177949880291502}}}, "name": "SalutarisMD", "place_id": "ChIJAwDArkQFdkgR9hykA_n_Ln8", "types": ["health", "point_of_interest", "establishment"]}, "ChIJhXGRUVsFdkgR0mUImvb8PlU": {"geometry": {"location": {"lat": 51.4997228, "lng": -0.1761022}, "viewport": {"northeast": {"lat": 51.5011795802915, "lng": -0.174772919708498}, "southwest": {"lat": 51.4984816197085, "lng": -0.177470880291502}}}, "name": "Department of Earth Science and Engineering", "place_id": "ChIJhXGRUVsFdkgR0mUImvb8PlU", "types": ["point_of_interest", "establishment"], "rating": 5, "user_ratings_total": 2}, "ChIJcRYjS1sFdkgRoHWcrcdJuzw": {"geometry": {"location": {"lat": 51.5003529, "lng": -0.1763211}, "viewport": {"northeast": {"lat": 51.5014909302915, "lng": -0.174935069708498}, "southwest": {"lat": 51.4987929697085, "lng": -0.177633030291502}}}, "name": "Charles Kendall Group (HQ)", "place_id": "ChIJcRYjS1sFdkgRoHWcrcdJuzw", "types": ["finance", "point_of_interest", "establishment"], "rating": 5, "user_ratings_total": 1}, "ChIJHxzJlwwFdkgRbkrwIGTmnxU": {"geometry": {"location": {"lat": 51.500189, "lng": -0.1763183}, "viewport": {"northeast": {"lat": 51.5014081302915, "lng": -0.174945619708498}, "southwest": {"lat": 51.4987101697085, "lng": -0.177643580291502}}}, "name": "Former home of Howard Carter", "place_id": "ChIJHxzJlwwFdkgRbkrwIGTmnxU", "types": ["point_of_interest", "establishment"]}, "ChIJcRYjS1sFdkgRLPrGpmLY_8A": {"geometry": {"location": {"lat": 51.5002223, "lng": -0.1762561}, "viewport": {"northeast": {"lat": 51.5014271302915, "lng": -0.174880819708498}, "southwest": {"lat": 51.4987291697085, "lng": -0.177578780291502}}}, "name": "Orbach Design", "place_id": "ChIJcRYjS1sFdkgRLPrGpmLY_8A", "types": ["point_of_interest", "establishment"]}, "ChIJcRYjS1sFdkgRJ2f1olgvQKc": {"geometry": {"location": {"lat": 51.5002223, "lng": -0.1762561}, "viewport": {"northeast": {"lat": 51.5014271302915, "lng": -0.174880819708498}, "southwest": {"lat": 51.4987291697085, "lng": -0.177578780291502}}}, "name": "Albert", "place_id": "ChIJcRYjS1sFdkgRJ2f1olgvQKc", "types": ["point_of_interest", "establishment"]}, "ChIJcRYjS1sFdkgRB8wASdLglHY": {"geometry": {"location": {"lat": 51.5002223, "lng": -0.1762561}, "viewport": {"northeast": {"lat": 51.5014271302915, "lng": -0.174880819708498}, "southwest": {"lat": 51.4987291697085, "lng": -0.177578780291502}}}, "name": "C H Field Services Ltd", "place_id": "ChIJcRYjS1sFdkgRB8wASdLglHY", "types": ["point_of_interest", "establishment"]}, "ChIJhSeQTVsFdkgRM6b9igSzImA": {"geometry": {"location": {"lat": 51.499806, "lng": -0.176415}, "viewport": {"northeast": {"lat": 51.5012107802915, "lng": -0.1750762197084979}, "southwest": {"lat": 51.4985128197085, "lng": -0.177774180291502}}}, "name": "Santander Cycles", "place_id": "ChIJhSeQTVsFdkgRM6b9igSzImA", "types": ["point_of_interest", "establishment"]}, "ChIJ1_7bTVsFdkgRPzVc86ad0i4": {"geometry": {"location": {"lat": 51.4999617, "lng": -0.1767775}, "viewport": {"northeast": {"lat": 51.50127743029149, "lng": -0.175416019708498}, "southwest": {"lat": 51.4985794697085, "lng": -0.178113980291502}}}, "name": "ubitricity Charging Station", "place_id": "ChIJ1_7bTVsFdkgRPzVc86ad0i4", "types": ["point_of_interest", "establishment"]}, "ChIJ6UmJlv4FdkgRBPOyY74b7Zs": {"geometry": {"location": {"lat": 51.5003094, "lng": -0.1763722}, "viewport": {"northeast": {"lat": 51.5014671802915, "lng": -0.174988319708498}, "southwest": {"lat": 51.4987692197085, "lng": -0.177686280291502}}}, "name": "w Stern Minyan", "place_id": "ChIJ6UmJlv4FdkgRBPOyY74b7Zs", "types": ["point_of_interest", "establishment"]}, "ChIJgZuWV7UFdkgR5KNfxsiBUOI": {"geometry": {"location": {"lat": 51.5000332, "lng": -0.1759117}, "viewport": {"northeast": {"lat": 51.5013441302915, "lng": -0.174554669708498}, "southwest": {"lat": 51.4986461697085, "lng": -0.177252630291502}}}, "name": "The Bench of J\u00e1ra Cimrman", "place_id": "ChIJgZuWV7UFdkgR5KNfxsiBUOI", "types": ["point_of_interest", "establishment"]}, "ChIJ3VLpRFsFdkgRhXbk22RHbtU": {"geometry": {"location": {"lat": 51.4999981, "lng": -0.1768606}, "viewport": {"northeast": {"lat": 51.5012924802915, "lng": -0.175501669708498}, "southwest": {"lat": 51.4985945197085, "lng": -0.178199630291502}}}, "name": "Global Printing Machinery", "place_id": "ChIJ3VLpRFsFdkgRhXbk22RHbtU", "types": ["point_of_interest", "establishment"]}, "ChIJHzFItEQFdkgRCDurgDHttZE": {"geometry": {"location": {"lat": 51.5002256, "lng": -0.1759079}, "viewport": {"northeast": {"lat": 51.50144213029149, "lng": -0.174530969708498}, "southwest": {"lat": 51.4987441697085, "lng": -0.177228930291502}}}, "name": "The Virtual Event Company", "place_id": "ChIJHzFItEQFdkgRCDurgDHttZE", "types": ["point_of_interest", "establishment"]}, "ChIJHzFItEQFdkgRNn57FYrI-CQ": {"geometry": {"location": {"lat": 51.5002256, "lng": -0.1759079}, "viewport": {"northeast": {"lat": 51.50156448029149, "lng": -0.174396519708498}, "southwest": {"lat": 51.4988665197085, "lng": -0.177094480291502}}}, "name": "Anglo China Education Foundation", "place_id": "ChIJHzFItEQFdkgRNn57FYrI-CQ", "types": ["point_of_interest", "establishment"]}, "ChIJHzFItEQFdkgRisRaj017KVU": {"geometry": {"location": {"lat": 51.5002256, "lng": -0.1759079}, "viewport": {"northeast": {"lat": 51.50156448029149, "lng": -0.174396519708498}, "southwest": {"lat": 51.4988665197085, "lng": -0.177094480291502}}}, "name": "Anglo China Education Foundation", "place_id": "ChIJHzFItEQFdkgRisRaj017KVU", "types": ["point_of_interest", "establishment"]}, "ChIJHzFItEQFdkgR0uCa2nNj64s": {"geometry": {"location": {"lat": 51.5002256, "lng": -0.1759079}, "viewport": {"northeast": {"lat": 51.50144213029149, "lng": -0.174530969708498}, "southwest": {"lat": 51.4987441697085, "lng": -0.177228930291502}}}, "name": "First Penthouse", "place_id": "ChIJHzFItEQFdkgR0uCa2nNj64s", "types": ["lodging", "point_of_interest", "establishment"]}, "ChIJQ4Te6pgFdkgRplIGGDlCP60": {"geometry": {"location": {"lat": 51.5002256, "lng": -0.1759079}, "viewport": {"northeast": {"lat": 51.50144213029149, "lng": -0.174530969708498}, "southwest": {"lat": 51.4987441697085, "lng": -0.177228930291502}}}, "name": "Lower 48 Energy Ltd.", "place_id": "ChIJQ4Te6pgFdkgRplIGGDlCP60", "types": ["point_of_interest", "establishment"]}, "ChIJHzFItEQFdkgRzpqDrDCsXzA": {"geometry": {"location": {"lat": 51.5002256, "lng": -0.1759079}, "viewport": {"northeast": {"lat": 51.50156448029149, "lng": -0.174396519708498}, "southwest": {"lat": 51.4988665197085, "lng": -0.177094480291502}}}, "name": "Origination Global Ltd", "place_id": "ChIJHzFItEQFdkgRzpqDrDCsXzA", "types": ["point_of_interest", "establishment"]}, "ChIJHzFItEQFdkgRkqZ9cPQEePM": {"geometry": {"location": {"lat": 51.5002256, "lng": -0.1759079}, "viewport": {"northeast": {"lat": 51.50144213029149, "lng": -0.174530969708498}, "southwest": {"lat": 51.4987441697085, "lng": -0.177228930291502}}}, "name": "Portland Private Office Ltd", "place_id": "ChIJHzFItEQFdkgRkqZ9cPQEePM", "types": ["real_estate_agency", "point_of_interest", "establishment"]}, "ChIJhQyer0QFdkgR1suIymp9rL4": {"geometry": {"location": {"lat": 51.4997514, "lng": -0.1760019}, "viewport": {"northeast": {"lat": 51.50119758029149, "lng": -0.174670669708498}, "southwest": {"lat": 51.4984996197085, "lng": -0.177368630291502}}}, "name": "RSM Cafe", "place_id": "ChIJhQyer0QFdkgR1suIymp9rL4", "types": ["cafe", "food", "point_of_interest", "establishment"], "rating": 3.8, "user_ratings_total": 11}, "ChIJfRlocUUFdkgRf-pk4iBKu1k": {"geometry": {"location": {"lat": 51.49973, "lng": -0.1768403}, "viewport": {"northeast": {"lat": 51.5011574302915, "lng": -0.175505669708498}, "southwest": {"lat": 51.49845946970851, "lng": -0.178203630291502}}}, "name": "Britten Theatre", "place_id": "ChIJfRlocUUFdkgRf-pk4iBKu1k", "types": ["point_of_interest", "establishment"], "rating": 5, "user_ratings_total": 1}, "ChIJkavXTuUFdkgRKZSzSrlFSvY": {"geometry": {"location": {"lat": 51.49972289999999, "lng": -0.1769343}, "viewport": {"northeast": {"lat": 51.50115058029149, "lng": -0.175599669708498}, "southwest": {"lat": 51.4984526197085, "lng": -0.178297630291502}}}, "name": "Corelli Room", "place_id": "ChIJkavXTuUFdkgRKZSzSrlFSvY", "types": ["point_of_interest", "establishment"]}, "ChIJPb9ZqEQFdkgRmupXGepHq4E": {"geometry": {"location": {"lat": 51.49985110000001, "lng": -0.1756634}, "viewport": {"northeast": {"lat": 51.50120008029151, "lng": -0.174314419708498}, "southwest": {"lat": 51.49850211970851, "lng": -0.177012380291502}}}, "name": "London DNA Foundry", "place_id": "ChIJPb9ZqEQFdkgRmupXGepHq4E", "types": ["point_of_interest", "establishment"]}, "ChIJL0CJUlsFdkgRl53aFa9J0r8": {"geometry": {"location": {"lat": 51.4997627, "lng": -0.1756911}, "viewport": {"northeast": {"lat": 51.5012154302915, "lng": -0.1743640197084979}, "southwest": {"lat": 51.4985174697085, "lng": -0.177061980291502}}}, "name": "Royal School of Mines", "place_id": "ChIJL0CJUlsFdkgRl53aFa9J0r8", "types": ["point_of_interest", "establishment"], "rating": 4.1, "user_ratings_total": 9}, "ChIJnYXhss8FdkgRRnKSQvmrbsw": {"geometry": {"location": {"lat": 51.4998661, "lng": -0.1771635}, "viewport": {"northeast": {"lat": 51.50121508029149, "lng": -0.175814519708498}, "southwest": {"lat": 51.4985171197085, "lng": -0.178512480291502}}}, "name": "DR Q HEMP RANGE LTD", "place_id": "ChIJnYXhss8FdkgRRnKSQvmrbsw", "types": ["point_of_interest", "establishment"]}, "ChIJ3VLpRFsFdkgRLOa8_dZGPbQ": {"geometry": {"location": {"lat": 51.4998661, "lng": -0.1771635}, "viewport": {"northeast": {"lat": 51.50121508029149, "lng": -0.175814519708498}, "southwest": {"lat": 51.4985171197085, "lng": -0.178512480291502}}}, "name": "Dr. Matthew R. Foreman", "place_id": "ChIJ3VLpRFsFdkgRLOa8_dZGPbQ", "types": ["point_of_interest", "establishment"]}, "ChIJRTJvw9AFdkgRDFuHPmG_0UM": {"geometry": {"location": {"lat": 51.4998661, "lng": -0.1771635}, "viewport": {"northeast": {"lat": 51.50121508029149, "lng": -0.175814519708498}, "southwest": {"lat": 51.4985171197085, "lng": -0.178512480291502}}}, "name": "Holy Faith multispeciality hospital", "place_id": "ChIJRTJvw9AFdkgRDFuHPmG_0UM", "types": ["hospital", "health", "point_of_interest", "establishment"], "rating": 3, "user_ratings_total": 12}, "ChIJiwYuTVsFdkgR7AHX1TBPV2k": {"geometry": {"location": {"lat": 51.49989859999999, "lng": -0.1762122}, "viewport": {"northeast": {"lat": 51.50123924014677, "lng": -0.1748528779449702}, "southwest": {"lat": 51.49854127956377, "lng": -0.1775508385279743}}}, "name": "Parking lot", "place_id": "ChIJiwYuTVsFdkgR7AHX1TBPV2k", "types": ["parking", "premise", "point_of_interest", "establishment"]}, "ChIJ53jhVEMFdkgRG6G73_kOP2U": {"geometry": {"location": {"lat": 51.49895888887392, "lng": -0.1759352722478379}, "viewport": {"northeast": {"lat": 51.50030538029149, "lng": -0.174587919708498}, "southwest": {"lat": 51.49760741970849, "lng": -0.177285880291502}}}, "name": "Ayrton Road", "place_id": "ChIJ53jhVEMFdkgRG6G73_kOP2U", "types": ["route"]}, "ChIJM3mGVkMFdkgRfXs98DnH8UA": {"geometry": {"location": {"lat": 51.4990201, "lng": -0.1763361}, "viewport": {"northeast": {"lat": 51.5003194302915, "lng": -0.175074819708498}, "southwest": {"lat": 51.49762146970851, "lng": -0.177772780291502}}}, "name": "Amazon Locker - Gemstone", "place_id": "ChIJM3mGVkMFdkgRfXs98DnH8UA", "types": ["point_of_interest", "establishment"], "rating": 3, "user_ratings_total": 3}, "ChIJVaVgq0QFdkgRGvYONd1xGu8": {"geometry": {"location": {"lat": 51.499419, "lng": -0.17608}, "viewport": {"northeast": {"lat": 51.5010265302915, "lng": -0.174778219708498}, "southwest": {"lat": 51.4983285697085, "lng": -0.177476180291502}}}, "name": "Aqix Limited", "place_id": "ChIJVaVgq0QFdkgRGvYONd1xGu8", "types": ["point_of_interest", "establishment"]}, "ChIJh7l8qlwFdkgRpYgl-tny-WY": {"geometry": {"location": {"lat": 51.49907, "lng": -0.176375}, "viewport": {"northeast": {"lat": 51.50034438029149, "lng": -0.175094269708498}, "southwest": {"lat": 51.4976464197085, "lng": -0.177792230291502}}}, "name": "Department of Electrical & Electronic Engineering", "place_id": "ChIJh7l8qlwFdkgRpYgl-tny-WY", "types": ["university", "point_of_interest", "establishment"], "rating": 4.4, "user_ratings_total": 8}, "ChIJmyxHsVQFdkgRQjg-qihzBFM": {"geometry": {"location": {"lat": 51.499132, "lng": -0.1763207}, "viewport": {"northeast": {"lat": 51.5003753802915, "lng": -0.175067119708498}, "southwest": {"lat": 51.4976774197085, "lng": -0.177765080291502}}}, "name": "Electrical Engineering Cafe", "place_id": "ChIJmyxHsVQFdkgRQjg-qihzBFM", "types": ["cafe", "food", "point_of_interest", "establishment"], "rating": 5, "user_ratings_total": 2}, "ChIJJT9IqVwFdkgRLg87ug3LcXs": {"geometry": {"location": {"lat": 51.498814, "lng": -0.1766254}, "viewport": {"northeast": {"lat": 51.50012783029149, "lng": -0.17592885}, "southwest": {"lat": 51.4974298697085, "lng": -0.17871505}}}, "name": "The Royal College Of Science Union Office", "place_id": "ChIJJT9IqVwFdkgRLg87ug3LcXs", "types": ["university", "point_of_interest", "establishment"], "rating": 4.5, "user_ratings_total": 2}, "ChIJzYu0rloFdkgRAS83k50wMNw": {"geometry": {"location": {"lat": 51.49878709999999, "lng": -0.1768162}, "viewport": {"northeast": {"lat": 51.50012478029149, "lng": -0.176068369708498}, "southwest": {"lat": 51.49742681970849, "lng": -0.178766330291502}}}, "name": "Starbucks Coffee", "place_id": "ChIJzYu0rloFdkgRAS83k50wMNw", "types": ["cafe", "food", "point_of_interest", "establishment"], "rating": 3, "user_ratings_total": 1}, "ChIJw5HgElsFdkgRWfUbYW8vgi4": {"geometry": {"location": {"lat": 51.49882280000001, "lng": -0.1771219}, "viewport": {"northeast": {"lat": 51.5001322302915, "lng": -0.176221219708498}, "southwest": {"lat": 51.4974342697085, "lng": -0.178919180291502}}}, "name": "Royal Commission For The Exhibition Of 1851", "place_id": "ChIJw5HgElsFdkgRWfUbYW8vgi4", "types": ["point_of_interest", "establishment"], "rating": 2.5, "user_ratings_total": 2}, "ChIJw_ZwbEQFdkgR7unGORdYyvc": {"geometry": {"location": {"lat": 51.49875429999999, "lng": -0.1756655}, "viewport": {"northeast": {"lat": 51.50011718029149, "lng": -0.174133669708498}, "southwest": {"lat": 51.4974192197085, "lng": -0.176831630291502}}}, "name": "Institute of Global Health Innovation", "place_id": "ChIJw_ZwbEQFdkgR7unGORdYyvc", "types": ["university", "point_of_interest", "establishment"]}, "ChIJAQAwUUMFdkgRpHfDGicHx_E": {"geometry": {"location": {"lat": 51.49873960000001, "lng": -0.1756649}, "viewport": {"northeast": {"lat": 51.5001025802915, "lng": -0.174131969708498}, "southwest": {"lat": 51.4974046197085, "lng": -0.176829930291502}}}, "name": "Faculty Building", "place_id": "ChIJAQAwUUMFdkgRpHfDGicHx_E", "types": ["point_of_interest", "establishment"]}, "ChIJreLr4FoFdkgRuiykksW0ht4": {"geometry": {"location": {"lat": 51.50197615131191, "lng": -0.1777351005540142}, "viewport": {"northeast": {"lat": 51.50332513029149, "lng": -0.176386119708498}, "southwest": {"lat": 51.50062716970849, "lng": -0.179084080291502}}}, "name": "South Carriage Drive", "place_id": "ChIJreLr4FoFdkgRuiykksW0ht4", "types": ["route"]}, "ChIJlbSG51oFdkgRLEF7gT6hWDM": {"geometry": {"location": {"lat": 51.5023516, "lng": -0.177707}, "viewport": {"northeast": {"lat": 51.50354133029149, "lng": -0.1763031}, "southwest": {"lat": 51.50084336970849, "lng": -0.1791335}}}, "name": "The Albert Memorial", "place_id": "ChIJlbSG51oFdkgRLEF7gT6hWDM", "types": ["tourist_attraction", "point_of_interest", "establishment"], "rating": 4.6, "user_ratings_total": 2713}, "ChIJuXV7Sv8PdkgR-a4Ti3vcJug": {"geometry": {"location": {"lat": 51.5025773, "lng": -0.1780517}, "viewport": {"northeast": {"lat": 51.5039262802915, "lng": -0.1767027197084979}, "southwest": {"lat": 51.5012283197085, "lng": -0.179400680291502}}}, "name": "The Albert Memorial Kiosk", "place_id": "ChIJuXV7Sv8PdkgR-a4Ti3vcJug", "types": ["cafe", "meal_takeaway", "restaurant", "food", "point_of_interest", "establishment"], "rating": 4.1, "user_ratings_total": 31}, "ChIJZyNDY-0FdkgROleSgpBjCCk": {"geometry": {"location": {"lat": 51.5024726, "lng": -0.1777569}, "viewport": {"northeast": {"lat": 51.5038215802915, "lng": -0.176407919708498}, "southwest": {"lat": 51.5011236197085, "lng": -0.179105880291502}}}, "name": "Skates & Ladders Hyde Park", "place_id": "ChIJZyNDY-0FdkgROleSgpBjCCk", "types": ["point_of_interest", "establishment"], "rating": 5, "user_ratings_total": 41}, "ChIJVVUV6FoFdkgRmBWL3x3onZM": {"geometry": {"location": {"lat": 51.5024726, "lng": -0.1777569}, "viewport": {"northeast": {"lat": 51.5038215802915, "lng": -0.176407919708498}, "southwest": {"lat": 51.5011236197085, "lng": -0.179105880291502}}}, "name": "Frieze of Parnassus", "place_id": "ChIJVVUV6FoFdkgRmBWL3x3onZM", "types": ["point_of_interest", "establishment"]}, "ChIJkXkIH1sFdkgR8715cq3IQeg": {"geometry": {"location": {"lat": 51.50156415055207, "lng": -0.1777929499403009}, "viewport": {"northeast": {"lat": 51.5029131302915, "lng": -0.176443969708498}, "southwest": {"lat": 51.50021516970851, "lng": -0.179141930291502}}}, "name": "Kensington Road", "place_id": "ChIJkXkIH1sFdkgR8715cq3IQeg", "types": ["route"]}, "ChIJ0XqGIVsFdkgR2S_aNe6c_l4": {"geometry": {"location": {"lat": 51.5009088, "lng": -0.177366}, "viewport": {"northeast": {"lat": 51.5024111, "lng": -0.17594285}, "southwest": {"lat": 51.49899629999998, "lng": -0.17893025}}}, "name": "Royal Albert Hall", "place_id": "ChIJ0XqGIVsFdkgR2S_aNe6c_l4", "types": ["tourist_attraction", "point_of_interest", "establishment"], "rating": 4.8, "user_ratings_total": 25255}, "ChIJZ9eRGFsFdkgRKgkcuZhziBQ": {"geometry": {"location": {"lat": 51.5012827, "lng": -0.1777173}, "viewport": {"northeast": {"lat": 51.5027440302915, "lng": -0.176337869708498}, "southwest": {"lat": 51.5000460697085, "lng": -0.179035830291502}}}, "name": "Old Speckled Hen Bar", "place_id": "ChIJZ9eRGFsFdkgRKgkcuZhziBQ", "types": ["bar", "food", "point_of_interest", "establishment"], "rating": 3.8, "user_ratings_total": 18}, "ChIJvWUwFlsFdkgROoc1dsPeALM": {"geometry": {"location": {"lat": 51.5008748, "lng": -0.1777098}, "viewport": {"northeast": {"lat": 51.5021684302915, "lng": -0.175942669708498}, "southwest": {"lat": 51.4994704697085, "lng": -0.178640630291502}}}, "name": "Loading Bay at the Royal Albert Hall", "place_id": "ChIJvWUwFlsFdkgROoc1dsPeALM", "types": ["point_of_interest", "establishment"], "rating": 4.5, "user_ratings_total": 17}, "ChIJ6fJbIlsFdkgRnh2HT0Kv8So": {"geometry": {"location": {"lat": 51.501031, "lng": -0.1774807}, "viewport": {"northeast": {"lat": 51.5022637302915, "lng": -0.175983969708498}, "southwest": {"lat": 51.4995657697085, "lng": -0.178681930291502}}}, "name": "Schweppes Alchemy Bar", "place_id": "ChIJ6fJbIlsFdkgRnh2HT0Kv8So", "types": ["bar", "food", "point_of_interest", "establishment"], "rating": 5, "user_ratings_total": 2}, "ChIJm_68BFsFdkgRZ3Dt0u7tm64": {"geometry": {"location": {"lat": 51.5013539, "lng": -0.1784729}, "viewport": {"northeast": {"lat": 51.5027027802915, "lng": -0.176962069708498}, "southwest": {"lat": 51.5000048197085, "lng": -0.179660030291502}}}, "name": "Azadeh Fatehrad", "place_id": "ChIJm_68BFsFdkgRZ3Dt0u7tm64", "types": ["point_of_interest", "establishment"]}, "ChIJ35UnIlsFdkgROJKSdm4G1Z8": {"geometry": {"location": {"lat": 51.5014075, "lng": -0.1775049}, "viewport": {"northeast": {"lat": 51.50278868029149, "lng": -0.176165569708498}, "southwest": {"lat": 51.5000907197085, "lng": -0.178863530291502}}}, "name": "North Circle Bar", "place_id": "ChIJ35UnIlsFdkgROJKSdm4G1Z8", "types": ["bar", "point_of_interest", "establishment"], "rating": 4.1, "user_ratings_total": 23}, "ChIJQ532I1sFdkgRfNZrE8CwrOc": {"geometry": {"location": {"lat": 51.50137340000001, "lng": -0.177407}, "viewport": {"northeast": {"lat": 51.5028095302915, "lng": -0.176033219708498}, "southwest": {"lat": 51.5001115697085, "lng": -0.178731180291502}}}, "name": "Aspall Bar at the Royal Albert Hall", "place_id": "ChIJQ532I1sFdkgRfNZrE8CwrOc", "types": ["bar", "point_of_interest", "establishment"], "rating": 4.2, "user_ratings_total": 23}, "ChIJ1--tIlsFdkgRnT71jcBfbNM": {"geometry": {"location": {"lat": 51.5011788, "lng": -0.1772742}, "viewport": {"northeast": {"lat": 51.5025934302915, "lng": -0.175740819708498}, "southwest": {"lat": 51.49989546970851, "lng": -0.178438780291502}}}, "name": "Berry Bros. & Rudd No.3 Bar at the Royal Albert Hall", "place_id": "ChIJ1--tIlsFdkgRnT71jcBfbNM", "types": ["bar", "restaurant", "food", "point_of_interest", "establishment"], "rating": 2.8, "user_ratings_total": 14}, "ChIJbTHZE1sFdkgRP5ch6qREPRA": {"geometry": {"location": {"lat": 51.5009706, "lng": -0.1779641}, "viewport": {"northeast": {"lat": 51.5025958802915, "lng": -0.176433519708498}, "southwest": {"lat": 51.4998979197085, "lng": -0.179131480291502}}}, "name": "The Elgar Room Brasserie at the Royal Albert Hall", "place_id": "ChIJbTHZE1sFdkgRP5ch6qREPRA", "types": ["bar", "restaurant", "food", "point_of_interest", "establishment"], "rating": 4.2, "user_ratings_total": 154}, "ChIJa9lvGlsFdkgRohxKkNGQb9I": {"geometry": {"location": {"lat": 51.5011181, "lng": -0.1781544}, "viewport": {"northeast": {"lat": 51.5024682302915, "lng": -0.176855969708498}, "southwest": {"lat": 51.4997702697085, "lng": -0.179553930291502}}}, "name": "Cecilie Waagner Falkenstr\u00f8m", "place_id": "ChIJa9lvGlsFdkgRohxKkNGQb9I", "types": ["point_of_interest", "establishment"]}, "ChIJ6fJbIlsFdkgRrKKRpIjuzIQ": {"geometry": {"location": {"lat": 51.50097479999999, "lng": -0.1778739}, "viewport": {"northeast": {"lat": 51.5026122302915, "lng": -0.1763884197084979}, "southwest": {"lat": 51.4999142697085, "lng": -0.179086380291502}}}, "name": "Stella Artois Bar", "place_id": "ChIJ6fJbIlsFdkgRrKKRpIjuzIQ", "types": ["bar", "point_of_interest", "establishment"], "rating": 4, "user_ratings_total": 2}, "ChIJqS-GFNQFdkgRjHTYJ8YBxtQ": {"geometry": {"location": {"lat": 51.5010504, "lng": -0.1777922}, "viewport": {"northeast": {"lat": 51.5026542302915, "lng": -0.176347569708498}, "southwest": {"lat": 51.4999562697085, "lng": -0.179045530291502}}}, "name": "Heineken Green Room at the Royal Albert Hall", "place_id": "ChIJqS-GFNQFdkgRjHTYJ8YBxtQ", "types": ["bar", "point_of_interest", "establishment"], "rating": 3, "user_ratings_total": 1}, "ChIJJRhoEVsFdkgRxTD6mefPuDc": {"geometry": {"location": {"lat": 51.5007934, "lng": -0.1781167}, "viewport": {"northeast": {"lat": 51.5021383802915, "lng": -0.176817819708498}, "southwest": {"lat": 51.4994404197085, "lng": -0.179515780291502}}}, "name": "Suheyl Onal", "place_id": "ChIJJRhoEVsFdkgRxTD6mefPuDc", "types": ["point_of_interest", "establishment"]}, "ChIJm_68BFsFdkgRsTxDGDSdF4w": {"geometry": {"location": {"lat": 51.5013539, "lng": -0.1784729}, "viewport": {"northeast": {"lat": 51.5027027802915, "lng": -0.176962069708498}, "southwest": {"lat": 51.5000048197085, "lng": -0.179660030291502}}}, "name": "Global Innovation Design", "place_id": "ChIJm_68BFsFdkgRsTxDGDSdF4w", "types": ["point_of_interest", "establishment"]}, "ChIJh1gQ7hUFdkgRnqIRkLECaJA": {"geometry": {"location": {"lat": 51.501026, "lng": -0.177445}, "viewport": {"northeast": {"lat": 51.50224403029149, "lng": -0.1758102697084979}, "southwest": {"lat": 51.4995460697085, "lng": -0.178508230291502}}}, "name": "Afternoon Tea at Royal Albert Hall", "place_id": "ChIJh1gQ7hUFdkgRnqIRkLECaJA", "types": ["restaurant", "food", "point_of_interest", "establishment"], "rating": 5, "user_ratings_total": 1}, "ChIJf1CMA1sFdkgREsnZAOrasII": {"geometry": {"location": {"lat": 51.501432, "lng": -0.178656}, "viewport": {"northeast": {"lat": 51.5028496802915, "lng": -0.177309419708498}, "southwest": {"lat": 51.50015171970851, "lng": -0.180007380291502}}}, "name": "Santander Cycles", "place_id": "ChIJf1CMA1sFdkgREsnZAOrasII", "types": ["point_of_interest", "establishment"]}, "ChIJz-CfDlsFdkgRshmAxrIbsBU": {"geometry": {"location": {"lat": 51.5006406, "lng": -0.1785001}, "viewport": {"northeast": {"lat": 51.5019539302915, "lng": -0.177126619708498}, "southwest": {"lat": 51.4992559697085, "lng": -0.179824580291502}}}, "name": "Queen Alexandras House", "place_id": "ChIJz-CfDlsFdkgRshmAxrIbsBU", "types": ["lodging", "point_of_interest", "establishment"], "rating": 3.7, "user_ratings_total": 20}, "ChIJ66sVvisFdkgRA5E5FiIUhUs": {"geometry": {"location": {"lat": 51.5007457, "lng": -0.1786846}, "viewport": {"northeast": {"lat": 51.5021452302915, "lng": -0.177413769708498}, "southwest": {"lat": 51.4994472697085, "lng": -0.180111730291502}}}, "name": "RCM Jay Mews", "place_id": "ChIJ66sVvisFdkgRA5E5FiIUhUs", "types": ["point_of_interest", "establishment"]}, "ChIJdcCgH1sFdkgRxusnhPinPnY": {"geometry": {"location": {"lat": 51.5015745, "lng": -0.1777689}, "viewport": {"northeast": {"lat": 51.5029441802915, "lng": -0.176418819708498}, "southwest": {"lat": 51.5002462197085, "lng": -0.179116780291502}}}, "name": "Kensington Royal Albert Hall", "place_id": "ChIJdcCgH1sFdkgRxusnhPinPnY", "types": ["transit_station", "point_of_interest", "establishment"]}, "ChIJmwinQlsFdkgRuckqFD4s9Uo": {"geometry": {"location": {"lat": 51.49983340087476, "lng": -0.1776171003254546}, "viewport": {"northeast": {"lat": 51.5011823802915, "lng": -0.176268119708498}, "southwest": {"lat": 51.4984844197085, "lng": -0.178966080291502}}}, "name": "20 Prince Consort Rd", "place_id": "ChIJmwinQlsFdkgRuckqFD4s9Uo", "types": ["route"]}, "ChIJs_3Eg0MFdkgRhCCYc3RReo8": {"geometry": {"location": {"lat": 51.4999388, "lng": -0.1780609}, "viewport": {"northeast": {"lat": 51.5012186302915, "lng": -0.176727719708498}, "southwest": {"lat": 51.4985206697085, "lng": -0.179425680291502}}}, "name": "Beit Hall", "place_id": "ChIJs_3Eg0MFdkgRhCCYc3RReo8", "types": ["lodging", "point_of_interest", "establishment"], "rating": 4, "user_ratings_total": 267}, "ChIJXUisT1sFdkgRpz6Aotu1pgk": {"geometry": {"location": {"lat": 51.5004415, "lng": -0.178179}, "viewport": {"northeast": {"lat": 51.5014711802915, "lng": -0.176760869708498}, "southwest": {"lat": 51.4987732197085, "lng": -0.179458830291502}}}, "name": "Imperial College Union", "place_id": "ChIJXUisT1sFdkgRpz6Aotu1pgk", "types": ["point_of_interest", "establishment"], "rating": 4.2, "user_ratings_total": 259}, "ChIJe76MdlsFdkgRr0d60cAqHis": {"geometry": {"location": {"lat": 51.4998776, "lng": -0.1787865}, "viewport": {"northeast": {"lat": 51.50116323029149, "lng": -0.177431419708498}, "southwest": {"lat": 51.4984652697085, "lng": -0.180129380291502}}}, "name": "Holy Trinity Church", "place_id": "ChIJe76MdlsFdkgRr0d60cAqHis", "types": ["church", "place_of_worship", "point_of_interest", "establishment"], "rating": 4.2, "user_ratings_total": 21}, "ChIJs8yuFFsFdkgR1ZblW_VQ0Gk": {"geometry": {"location": {"lat": 51.50024480000001, "lng": -0.1777061}, "viewport": {"northeast": {"lat": 51.5013716302915, "lng": -0.176550319708498}, "southwest": {"lat": 51.49867366970851, "lng": -0.179248280291502}}}, "name": "Union Concert Hall", "place_id": "ChIJs8yuFFsFdkgR1ZblW_VQ0Gk", "types": ["point_of_interest", "establishment"], "rating": 4.7, "user_ratings_total": 9}, "ChIJKQRFSVsFdkgRQRS5yrXTnyc": {"geometry": {"location": {"lat": 51.4996899, "lng": -0.1780372}, "viewport": {"northeast": {"lat": 51.5010947302915, "lng": -0.1766986197084979}, "southwest": {"lat": 51.49839676970851, "lng": -0.179396580291502}}}, "name": "Department of Chemical Engineering, Imperial College London", "place_id": "ChIJKQRFSVsFdkgRQRS5yrXTnyc", "types": ["point_of_interest", "establishment"], "rating": 3.8, "user_ratings_total": 5}, "ChIJNWxLDVsFdkgRKbDjoO2va7k": {"geometry": {"location": {"lat": 51.5004039, "lng": -0.178255}, "viewport": {"northeast": {"lat": 51.50175143029151, "lng": -0.176936969708498}, "southwest": {"lat": 51.49905346970851, "lng": -0.179634930291502}}}, "name": "Metric", "place_id": "ChIJNWxLDVsFdkgRKbDjoO2va7k", "types": ["night_club", "point_of_interest", "establishment"], "rating": 3.7, "user_ratings_total": 48}, "ChIJyw0mb1sFdkgRxuGSLIeQLms": {"geometry": {"location": {"lat": 51.5004484, "lng": -0.1779401}, "viewport": {"northeast": {"lat": 51.5014734302915, "lng": -0.176662669708498}, "southwest": {"lat": 51.4987754697085, "lng": -0.179360630291502}}}, "name": "Imperial Cinema", "place_id": "ChIJyw0mb1sFdkgRxuGSLIeQLms", "types": ["movie_theater", "point_of_interest", "establishment"], "rating": 4.4, "user_ratings_total": 25}, "ChIJw5HgElsFdkgR1ki_Ovtv4T4": {"geometry": {"location": {"lat": 51.5005046, "lng": -0.1782187}, "viewport": {"northeast": {"lat": 51.5015015302915, "lng": -0.176796919708498}, "southwest": {"lat": 51.4988035697085, "lng": -0.179494880291502}}}, "name": "Move Imperial", "place_id": "ChIJw5HgElsFdkgR1ki_Ovtv4T4", "types": ["point_of_interest", "establishment"], "rating": 5, "user_ratings_total": 3}, "ChIJTVL0cVsFdkgRBWwmQICW7Ms": {"geometry": {"location": {"lat": 51.49988270000001, "lng": -0.1784307}, "viewport": {"northeast": {"lat": 51.50120288029149, "lng": -0.176902919708498}, "southwest": {"lat": 51.49850491970849, "lng": -0.179600880291502}}}, "name": "Felix - Student Newspaper of Imperial College London", "place_id": "ChIJTVL0cVsFdkgRBWwmQICW7Ms", "types": ["point_of_interest", "establishment"]}, "ChIJa4vHdlsFdkgRUhjBVTGl_Ic": {"geometry": {"location": {"lat": 51.4999016, "lng": -0.1785739}, "viewport": {"northeast": {"lat": 51.50120288029149, "lng": -0.176974519708498}, "southwest": {"lat": 51.49850491970849, "lng": -0.179672480291502}}}, "name": "Willcocks Nursery School", "place_id": "ChIJa4vHdlsFdkgRUhjBVTGl_Ic", "types": ["school", "point_of_interest", "establishment"], "rating": 4.5, "user_ratings_total": 8}, "ChIJdXvXblsFdkgRjVYkSq4fHKQ": {"geometry": {"location": {"lat": 51.4999388, "lng": -0.1780608}, "viewport": {"northeast": {"lat": 51.5012186302915, "lng": -0.176727669708498}, "southwest": {"lat": 51.4985206697085, "lng": -0.179425630291502}}}, "name": "GSU", "place_id": "ChIJdXvXblsFdkgRjVYkSq4fHKQ", "types": ["point_of_interest", "establishment"]}, "ChIJE3z46dcFdkgR8r1uADnWxeE": {"geometry": {"location": {"lat": 51.4999289, "lng": -0.1781869}, "viewport": {"northeast": {"lat": 51.5012136802915, "lng": -0.176781019708498}, "southwest": {"lat": 51.49851571970851, "lng": -0.179478980291502}}}, "name": "PRS for Music Heritage Award: Queen first performance in London", "place_id": "ChIJE3z46dcFdkgR8r1uADnWxeE", "types": ["point_of_interest", "establishment"], "rating": 5, "user_ratings_total": 2}, "ChIJ-f015voFdkgRr09Lqb-B5jg": {"geometry": {"location": {"lat": 51.49995849999999, "lng": -0.1782574}, "viewport": {"northeast": {"lat": 51.50122848029149, "lng": -0.176816269708498}, "southwest": {"lat": 51.4985305197085, "lng": -0.179514230291502}}}, "name": "Imperial College Comedy Society", "place_id": "ChIJ-f015voFdkgRr09Lqb-B5jg", "types": ["point_of_interest", "establishment"]}, "ChIJ2YDRblsFdkgR-ukFVMACiUg": {"geometry": {"location": {"lat": 51.4998905, "lng": -0.1780112}, "viewport": {"northeast": {"lat": 51.5011972802915, "lng": -0.176654369708498}, "southwest": {"lat": 51.4984993197085, "lng": -0.179352330291502}}}, "name": "Beit Security Office", "place_id": "ChIJ2YDRblsFdkgR-ukFVMACiUg", "types": ["point_of_interest", "establishment"], "rating": 5, "user_ratings_total": 1}, "ChIJq7Yzb1sFdkgRVl1MyMXVmMM": {"geometry": {"location": {"lat": 51.49987400000001, "lng": -0.178032}, "viewport": {"northeast": {"lat": 51.5011894802915, "lng": -0.176658719708498}, "southwest": {"lat": 51.4984915197085, "lng": -0.179356680291502}}}, "name": "Prince Consort Road (Stop RZ)", "place_id": "ChIJq7Yzb1sFdkgRVl1MyMXVmMM", "types": ["bus_station", "transit_station", "point_of_interest", "establishment"], "rating": 5, "user_ratings_total": 1}, "ChIJ2xqvFFsFdkgRfUKr7U0Db2Q": {"geometry": {"location": {"lat": 51.5004399, "lng": -0.1779968}, "viewport": {"northeast": {"lat": 51.5017980302915, "lng": -0.176649619708498}, "southwest": {"lat": 51.4991000697085, "lng": -0.179347580291502}}}, "name": "FiveSixEight", "place_id": "ChIJ2xqvFFsFdkgRfUKr7U0Db2Q", "types": ["point_of_interest", "establishment"], "rating": 3.7, "user_ratings_total": 58}, "ChIJ9-YMelsFdkgR5PQzzurY8Bs": {"geometry": {"location": {"lat": 51.4997325, "lng": -0.1786655}, "viewport": {"northeast": {"lat": 51.5010760302915, "lng": -0.177315469708498}, "southwest": {"lat": 51.4983780697085, "lng": -0.180013430291502}}}, "name": "SEMdoctor", "place_id": "ChIJ9-YMelsFdkgR5PQzzurY8Bs", "types": ["point_of_interest", "establishment"]}, "ChIJ55gfE1sFdkgRdszP0OYk_aI": {"geometry": {"location": {"lat": 51.50050580000001, "lng": -0.1781944}, "viewport": {"northeast": {"lat": 51.50150213029151, "lng": -0.176784769708498}, "southwest": {"lat": 51.49880416970851, "lng": -0.179482730291502}}}, "name": "Raincatcher Within Imperial College", "place_id": "ChIJ55gfE1sFdkgRdszP0OYk_aI", "types": ["point_of_interest", "establishment"]}, "ChIJJfhkhFwFdkgRRF-hGm6OZnc": {"geometry": {"location": {"lat": 51.49875482870962, "lng": -0.1785545382900859}, "viewport": {"northeast": {"lat": 51.50009603029149, "lng": -0.177198819708498}, "southwest": {"lat": 51.4973980697085, "lng": -0.1798967802915021}}}, "name": "Ayrton Road", "place_id": "ChIJJfhkhFwFdkgRRF-hGm6OZnc", "types": ["route"]}, "ChIJYcKBnFwFdkgRTaldrqQqyis": {"geometry": {"location": {"lat": 51.4987389, "lng": -0.1782018}, "viewport": {"northeast": {"lat": 51.50012238029149, "lng": -0.176754969708498}, "southwest": {"lat": 51.49742441970849, "lng": -0.179452930291502}}}, "name": "Amazon Locker - Ecstatic", "place_id": "ChIJYcKBnFwFdkgRTaldrqQqyis", "types": ["point_of_interest", "establishment"], "rating": 3.8, "user_ratings_total": 4}, "ChIJlYn_oVwFdkgR8-vaaqdXYME": {"geometry": {"location": {"lat": 51.49875189999999, "lng": -0.1778039}, "viewport": {"northeast": {"lat": 51.50012478029149, "lng": -0.176562219708498}, "southwest": {"lat": 51.49742681970849, "lng": -0.179260180291502}}}, "name": "Imperial College Union Shop", "place_id": "ChIJlYn_oVwFdkgR8-vaaqdXYME", "types": ["clothing_store", "electronics_store", "point_of_interest", "store", "establishment"], "rating": 4.3, "user_ratings_total": 40}, "ChIJPaxdwR4FdkgRbjrK090-YiI": {"geometry": {"location": {"lat": 51.4990359, "lng": -0.1773792}, "viewport": {"northeast": {"lat": 51.50029593029149, "lng": -0.176013169708498}, "southwest": {"lat": 51.49759796970849, "lng": -0.178711130291502}}}, "name": "Royal School of Mines Motor Club", "place_id": "ChIJPaxdwR4FdkgRbjrK090-YiI", "types": ["point_of_interest", "establishment"]}, "ChIJAfjbo1wFdkgR_2eVJe8kePc": {"geometry": {"location": {"lat": 51.4987472, "lng": -0.1774}, "viewport": {"northeast": {"lat": 51.50008683029149, "lng": -0.176360269708498}, "southwest": {"lat": 51.49738886970849, "lng": -0.179058230291502}}}, "name": "Fuel Cafe", "place_id": "ChIJAfjbo1wFdkgR_2eVJe8kePc", "types": ["cafe", "food", "point_of_interest", "establishment"], "rating": 4, "user_ratings_total": 2}, "ChIJ3WPlVFoFdkgRcGICU8LdhWI": {"geometry": {"location": {"lat": 51.50185385390239, "lng": -0.179316001619367}, "viewport": {"northeast": {"lat": 51.5032028302915, "lng": -0.1772652}, "southwest": {"lat": 51.5005048697085, "lng": -0.1813668000000001}}}, "name": "South Carriage Drive", "place_id": "ChIJ3WPlVFoFdkgRcGICU8LdhWI", "types": ["route"]}, "ChIJTYIv4loFdkgRhUi47GhSBTY": {"geometry": {"location": {"lat": 51.50192999999999, "lng": -0.179232}, "viewport": {"northeast": {"lat": 51.50327898029149, "lng": -0.177883019708498}, "southwest": {"lat": 51.5005810197085, "lng": -0.180580980291502}}}, "name": "Zebra Skate London", "place_id": "ChIJTYIv4loFdkgRhUi47GhSBTY", "types": ["point_of_interest", "establishment"], "rating": 4.5, "user_ratings_total": 25}, "ChIJM8PHBFsFdkgRFJMllTutvtg": {"geometry": {"location": {"lat": 51.5011441, "lng": -0.1792847}, "viewport": {"northeast": {"lat": 51.5025245302915, "lng": -0.177403919708498}, "southwest": {"lat": 51.4998265697085, "lng": -0.180101880291502}}}, "name": "Royal College of Art", "place_id": "ChIJM8PHBFsFdkgRFJMllTutvtg", "types": ["university", "point_of_interest", "establishment"], "rating": 4.3, "user_ratings_total": 109}, "ChIJnzytqFsFdkgRK--xchQ5yGY": {"geometry": {"location": {"lat": 51.5011077, "lng": -0.1794907}, "viewport": {"northeast": {"lat": 51.5024676802915, "lng": -0.178072969708498}, "southwest": {"lat": 51.4997697197085, "lng": -0.180770930291502}}}, "name": "Studio Tutti Frutti", "place_id": "ChIJnzytqFsFdkgRK--xchQ5yGY", "types": ["university", "point_of_interest", "establishment"]}, "ChIJHZQAplsFdkgRKSf0rdmDU8s": {"geometry": {"location": {"lat": 51.50110809999999, "lng": -0.1794222}, "viewport": {"northeast": {"lat": 51.50246093029151, "lng": -0.178049119708498}, "southwest": {"lat": 51.49976296970851, "lng": -0.180747080291502}}}, "name": "School of Communication", "place_id": "ChIJHZQAplsFdkgRKSf0rdmDU8s", "types": ["school", "point_of_interest", "establishment"]}, "ChIJazqcoVsFdkgR1bOO3G27ehs": {"geometry": {"location": {"lat": 51.5009304, "lng": -0.1794249000000001}, "viewport": {"northeast": {"lat": 51.50228678029149, "lng": -0.178007419708498}, "southwest": {"lat": 51.49958881970849, "lng": -0.180705380291502}}}, "name": "Marsdin Malcolm & Co", "place_id": "ChIJazqcoVsFdkgR1bOO3G27ehs", "types": ["point_of_interest", "establishment"]}, "ChIJBdtmqFsFdkgRRI6h_zUeLdE": {"geometry": {"location": {"lat": 51.5011441, "lng": -0.1792847}, "viewport": {"northeast": {"lat": 51.5024759302915, "lng": -0.177370869708498}, "southwest": {"lat": 51.4997779697085, "lng": -0.180068830291502}}}, "name": "Ryan Mario Yasin", "place_id": "ChIJBdtmqFsFdkgRRI6h_zUeLdE", "types": ["point_of_interest", "establishment"]}, "ChIJvcY1mVsFdkgRw4GvoUzATTk": {"geometry": {"location": {"lat": 51.50017740000001, "lng": -0.1795075}, "viewport": {"northeast": {"lat": 51.50149698029149, "lng": -0.178151919708498}, "southwest": {"lat": 51.4987990197085, "lng": -0.180849880291502}}}, "name": "Basbug Cove", "place_id": "ChIJvcY1mVsFdkgRw4GvoUzATTk", "types": ["night_club", "point_of_interest", "establishment"]}, "ChIJDTyRnFsFdkgRfcHmR376Rqs": {"geometry": {"location": {"lat": 51.4998669, "lng": -0.1794256}, "viewport": {"northeast": {"lat": 51.5011330302915, "lng": -0.178057919708498}, "southwest": {"lat": 51.4984350697085, "lng": -0.180755880291502}}}, "name": "Bulgarian Cultural Institute", "place_id": "ChIJDTyRnFsFdkgRfcHmR376Rqs", "types": ["point_of_interest", "establishment"], "rating": 4.8, "user_ratings_total": 12}, "ChIJ4QJGd1sFdkgRJrB9aqPPGhI": {"geometry": {"location": {"lat": 51.4998048, "lng": -0.1790449}, "viewport": {"northeast": {"lat": 51.5011172802915, "lng": -0.177686319708498}, "southwest": {"lat": 51.4984193197085, "lng": -0.180384280291502}}}, "name": "Prince Consort Road Imperial / College (Stop RW)", "place_id": "ChIJ4QJGd1sFdkgRJrB9aqPPGhI", "types": ["transit_station", "point_of_interest", "establishment"]}, "ChIJOWoifFwFdkgRl8Fb05zus64": {"geometry": {"location": {"lat": 51.498947, "lng": -0.1791185}, "viewport": {"northeast": {"lat": 51.5001782302915, "lng": -0.178047219708498}, "southwest": {"lat": 51.4974802697085, "lng": -0.1807451802915021}}}, "name": "Department of Computing", "place_id": "ChIJOWoifFwFdkgRl8Fb05zus64", "types": ["point_of_interest", "establishment"], "rating": 5, "user_ratings_total": 1}, "ChIJ35pggFwFdkgRB-s7gw8vels": {"geometry": {"location": {"lat": 51.4989529, "lng": -0.1790237}, "viewport": {"northeast": {"lat": 51.5001811802915, "lng": -0.177999419708498}, "southwest": {"lat": 51.4974832197085, "lng": -0.180697380291502}}}, "name": "Department Of Mathematics", "place_id": "ChIJ35pggFwFdkgRB-s7gw8vels", "types": ["point_of_interest", "establishment"], "rating": 5, "user_ratings_total": 3}, "ChIJN8X3fVwFdkgR4F_fdQ5HQSU": {"geometry": {"location": {"lat": 51.4989034, "lng": -0.1789927}, "viewport": {"northeast": {"lat": 51.5001530802915, "lng": -0.177952669708498}, "southwest": {"lat": 51.4974551197085, "lng": -0.180650630291502}}}, "name": "Huxley Building", "place_id": "ChIJN8X3fVwFdkgR4F_fdQ5HQSU", "types": ["point_of_interest", "establishment"], "rating": 4.3, "user_ratings_total": 18}, "ChIJmerxgFwFdkgRBGjS2BGEkQA": {"geometry": {"location": {"lat": 51.4989035, "lng": -0.1789926}, "viewport": {"northeast": {"lat": 51.5001564802915, "lng": -0.177972019708498}, "southwest": {"lat": 51.4974585197085, "lng": -0.180669980291502}}}, "name": "Imperial DoCSoc", "place_id": "ChIJmerxgFwFdkgRBGjS2BGEkQA", "types": ["lodging", "point_of_interest", "establishment"], "rating": 5, "user_ratings_total": 4}, "ChIJ78G6vVIadkgRVfOJvDOgxEA": {"geometry": {"location": {"lat": 51.4989167, "lng": -0.1789906}, "viewport": {"northeast": {"lat": 51.5001630802915, "lng": -0.177973119708498}, "southwest": {"lat": 51.4974651197085, "lng": -0.180671080291502}}}, "name": "iBUG", "place_id": "ChIJ78G6vVIadkgRVfOJvDOgxEA", "types": ["point_of_interest", "establishment"]}, "ChIJmerxgFwFdkgRtP9wrHMXcZA": {"geometry": {"location": {"lat": 51.4989035, "lng": -0.1789926}, "viewport": {"northeast": {"lat": 51.5001564802915, "lng": -0.177972019708498}, "southwest": {"lat": 51.4974585197085, "lng": -0.180669980291502}}}, "name": "AU4DM Networks", "place_id": "ChIJmerxgFwFdkgRtP9wrHMXcZA", "types": ["point_of_interest", "establishment"]}, "ChIJmerxgFwFdkgR7SZjfqJWojg": {"geometry": {"location": {"lat": 51.4989035, "lng": -0.1789926}, "viewport": {"northeast": {"lat": 51.5001564802915, "lng": -0.177972019708498}, "southwest": {"lat": 51.4974585197085, "lng": -0.180669980291502}}}, "name": "Emanuele D'Osualdo", "place_id": "ChIJmerxgFwFdkgR7SZjfqJWojg", "types": ["point_of_interest", "establishment"]}, "ChIJW0TOF0UFdkgRZQhU1uMrADc": {"geometry": {"location": {"lat": 51.50264214950861, "lng": -0.1746506624117246}, "viewport": {"northeast": {"lat": 51.5039911302915, "lng": -0.1733015697084979}, "southwest": {"lat": 51.5012931697085, "lng": -0.175999530291502}}}, "name": "West Carriage Drive", "place_id": "ChIJW0TOF0UFdkgRZQhU1uMrADc", "types": ["route"]}, "ChIJl-DWlEQFdkgRtKmARDq5ajw": {"geometry": {"location": {"lat": 51.50041805000057, "lng": -0.1744001999646353}, "viewport": {"northeast": {"lat": 51.5017670302915, "lng": -0.173051219708498}, "southwest": {"lat": 51.4990690697085, "lng": -0.175749180291502}}}, "name": "Exhibition Road", "place_id": "ChIJl-DWlEQFdkgRtKmARDq5ajw", "types": ["route"]}, "ChIJzVZz7UQFdkgR66Rr8G0huMI": {"geometry": {"location": {"lat": 51.5005677, "lng": -0.1740657}, "viewport": {"northeast": {"lat": 51.50191418029149, "lng": -0.172797969708498}, "southwest": {"lat": 51.49921621970849, "lng": -0.175495930291502}}}, "name": "NJH Studio", "place_id": "ChIJzVZz7UQFdkgR66Rr8G0huMI", "types": ["general_contractor", "point_of_interest", "establishment"]}, "ChIJe97jmkQFdkgRhPtPWJD1uk8": {"geometry": {"location": {"lat": 51.49957359999999, "lng": -0.1740761}, "viewport": {"northeast": {"lat": 51.5009346302915, "lng": -0.172875269708498}, "southwest": {"lat": 51.4982366697085, "lng": -0.175573230291502}}}, "name": "Goethe-Institut London", "place_id": "ChIJe97jmkQFdkgRhPtPWJD1uk8", "types": ["library", "point_of_interest", "establishment"], "rating": 4.1, "user_ratings_total": 20}, "ChIJs6dWmkQFdkgRZuzMl9IB6uM": {"geometry": {"location": {"lat": 51.4995856, "lng": -0.1739907}, "viewport": {"northeast": {"lat": 51.5009277302915, "lng": -0.172830419708498}, "southwest": {"lat": 51.4982297697085, "lng": -0.175528380291502}}}, "name": "Goethe-Institut London Library", "place_id": "ChIJs6dWmkQFdkgRZuzMl9IB6uM", "types": ["library", "point_of_interest", "establishment"], "rating": 4, "user_ratings_total": 1}, "ChIJE1Z1gkQFdkgREk1o9SKHSAQ": {"geometry": {"location": {"lat": 51.4994712, "lng": -0.1741162}, "viewport": {"northeast": {"lat": 51.50081223029149, "lng": -0.172883969708498}, "southwest": {"lat": 51.4981142697085, "lng": -0.175581930291502}}}, "name": "Georgiou Inc", "place_id": "ChIJE1Z1gkQFdkgREk1o9SKHSAQ", "types": ["point_of_interest", "establishment"]}, "ChIJiRoTdLgFdkgRuFFisYnavbw": {"geometry": {"location": {"lat": 51.49948989999999, "lng": -0.1739822}, "viewport": {"northeast": {"lat": 51.5008255302915, "lng": -0.172815519708498}, "southwest": {"lat": 51.4981275697085, "lng": -0.175513480291502}}}, "name": "Stein's Berlin", "place_id": "ChIJiRoTdLgFdkgRuFFisYnavbw", "types": ["restaurant", "cafe", "bar", "food", "point_of_interest", "establishment"], "rating": 4.2, "user_ratings_total": 328}, "ChIJDf2tnEQFdkgRzdweWEnVxos": {"geometry": {"location": {"lat": 51.49940099999999, "lng": -0.173991}, "viewport": {"northeast": {"lat": 51.5007382302915, "lng": -0.172814519708498}, "southwest": {"lat": 51.4980402697085, "lng": -0.175512480291502}}}, "name": "Solar Flow", "place_id": "ChIJDf2tnEQFdkgRzdweWEnVxos", "types": ["point_of_interest", "establishment"]}, "ChIJDf2tnEQFdkgRY9EXRPm4MBI": {"geometry": {"location": {"lat": 51.49940099999999, "lng": -0.173991}, "viewport": {"northeast": {"lat": 51.50074998029149, "lng": -0.1726420197084979}, "southwest": {"lat": 51.4980520197085, "lng": -0.175339980291502}}}, "name": "Zihipp Ltd", "place_id": "ChIJDf2tnEQFdkgRY9EXRPm4MBI", "types": ["point_of_interest", "establishment"]}, "ChIJDf2tnEQFdkgR_A6iSZ_ffSA": {"geometry": {"location": {"lat": 51.49940099999999, "lng": -0.173991}, "viewport": {"northeast": {"lat": 51.50074998029149, "lng": -0.1726420197084979}, "southwest": {"lat": 51.4980520197085, "lng": -0.175339980291502}}}, "name": "Digital Care Planning Limited", "place_id": "ChIJDf2tnEQFdkgR_A6iSZ_ffSA", "types": ["point_of_interest", "establishment"]}, "ChIJDf2tnEQFdkgR6wP8-3N8qk4": {"geometry": {"location": {"lat": 51.49940099999999, "lng": -0.173991}, "viewport": {"northeast": {"lat": 51.50074998029149, "lng": -0.1726420197084979}, "southwest": {"lat": 51.4980520197085, "lng": -0.175339980291502}}}, "name": "Imperial Innovations", "place_id": "ChIJDf2tnEQFdkgR6wP8-3N8qk4", "types": ["point_of_interest", "establishment"], "rating": 4, "user_ratings_total": 1}, "ChIJydVAnEQFdkgR5MDJ8RSin6o": {"geometry": {"location": {"lat": 51.4994009, "lng": -0.173991}, "viewport": {"northeast": {"lat": 51.50074988029149, "lng": -0.1726420197084979}, "southwest": {"lat": 51.49805191970849, "lng": -0.175339980291502}}}, "name": "SweetGen Limited", "place_id": "ChIJydVAnEQFdkgR5MDJ8RSin6o", "types": ["point_of_interest", "establishment"]}, "ChIJy9VAnEQFdkgRK9EIFvpSwPw": {"geometry": {"location": {"lat": 51.4994163, "lng": -0.1740163}, "viewport": {"northeast": {"lat": 51.5007536802915, "lng": -0.172825969708498}, "southwest": {"lat": 51.4980557197085, "lng": -0.175523930291502}}}, "name": "Orthonika", "place_id": "ChIJy9VAnEQFdkgRK9EIFvpSwPw", "types": ["point_of_interest", "establishment"]}, "ChIJPSil1UQFdkgRZ83ADk7JWs4": {"geometry": {"location": {"lat": 51.50162038391898, "lng": -0.1759620008843284}, "viewport": {"northeast": {"lat": 51.50297123029151, "lng": -0.174613469708498}, "southwest": {"lat": 51.50027326970851, "lng": -0.177311430291502}}}, "name": "32-33 Kensington Rd", "place_id": "ChIJPSil1UQFdkgRZ83ADk7JWs4", "types": ["route"]}, "ChIJaf1MlvIFdkgRIa2y0QgsPyM": {"geometry": {"location": {"lat": 51.5016547, "lng": -0.174785}, "viewport": {"northeast": {"lat": 51.50303703029149, "lng": -0.173442919708498}, "southwest": {"lat": 51.5003390697085, "lng": -0.176140880291502}}}, "name": "Livingstone Statue", "place_id": "ChIJaf1MlvIFdkgRIa2y0QgsPyM", "types": ["point_of_interest", "establishment"], "rating": 5, "user_ratings_total": 4}, "ChIJu9IBykQFdkgRcg9eEnvnY5g": {"geometry": {"location": {"lat": 51.50050588841191, "lng": -0.1757489247115}, "viewport": {"northeast": {"lat": 51.50181663029149, "lng": -0.174480719708498}, "southwest": {"lat": 51.4991186697085, "lng": -0.177178680291502}}}, "name": "Kensington Gore", "place_id": "ChIJu9IBykQFdkgRcg9eEnvnY5g", "types": ["route"]}, "ChIJBaO-SMcFdkgR3XW6LaITE7U": {"geometry": {"location": {"lat": 51.5003764, "lng": -0.1755623}, "viewport": {"northeast": {"lat": 51.50172188029151, "lng": -0.174228369708498}, "southwest": {"lat": 51.49902391970851, "lng": -0.176926330291502}}}, "name": "South Kensington Osteopath", "place_id": "ChIJBaO-SMcFdkgR3XW6LaITE7U", "types": ["health", "point_of_interest", "establishment"], "rating": 5, "user_ratings_total": 20}, "ChIJX9R3MVsFdkgR2I1DiorhFjw": {"geometry": {"location": {"lat": 51.5003261, "lng": -0.175435}, "viewport": {"northeast": {"lat": 51.5016613802915, "lng": -0.174163269708498}, "southwest": {"lat": 51.4989634197085, "lng": -0.176861230291502}}}, "name": "MGB Associates", "place_id": "ChIJX9R3MVsFdkgR2I1DiorhFjw", "types": ["point_of_interest", "establishment"], "rating": 5, "user_ratings_total": 1}, "ChIJ8UBoxkQFdkgR_wPnyxBlMOw": {"geometry": {"location": {"lat": 51.500629, "lng": -0.1751252}, "viewport": {"northeast": {"lat": 51.5019805302915, "lng": -0.173665169708498}, "southwest": {"lat": 51.4992825697085, "lng": -0.1763631302915021}}}, "name": "Princes Gate Court Residents Ltd", "place_id": "ChIJ8UBoxkQFdkgR_wPnyxBlMOw", "types": ["real_estate_agency", "point_of_interest", "establishment"], "rating": 4.8, "user_ratings_total": 4}, "ChIJKYpzukQFdkgRbkI9x4ZpxyA": {"geometry": {"location": {"lat": 51.49999675003661, "lng": -0.1754348000194457}, "viewport": {"northeast": {"lat": 51.5013457302915, "lng": -0.174085819708498}, "southwest": {"lat": 51.4986477697085, "lng": -0.176783780291502}}}, "name": "29-28 Prince Consort Rd", "place_id": "ChIJKYpzukQFdkgRbkI9x4ZpxyA", "types": ["route"]}, "ChIJfVARpkQFdkgRba4bTGk8yi4": {"geometry": {"location": {"lat": 51.4993788, "lng": -0.1753723}, "viewport": {"northeast": {"lat": 51.50052738029151, "lng": -0.173995819708498}, "southwest": {"lat": 51.49782941970851, "lng": -0.176693780291502}}}, "name": "Centre for Nuclear Engineering", "place_id": "ChIJfVARpkQFdkgRba4bTGk8yi4", "types": ["point_of_interest", "establishment"]}, "ChIJ__-_frIadkgR4w6HE_UcL8w": {"geometry": {"location": {"lat": 51.499393, "lng": -0.175792}, "viewport": {"northeast": {"lat": 51.50079098029151, "lng": -0.173638}, "southwest": {"lat": 51.49809301970851, "lng": -0.1765100000000001}}}, "name": "Hamlyn Centre", "place_id": "ChIJ__-_frIadkgR4w6HE_UcL8w", "types": ["point_of_interest", "establishment"], "rating": 5, "user_ratings_total": 3}, "ChIJux1RqEQFdkgRvdJq0AkwXec": {"geometry": {"location": {"lat": 51.49929299999999, "lng": -0.1755972}, "viewport": {"northeast": {"lat": 51.5004844802915, "lng": -0.174102819708498}, "southwest": {"lat": 51.4977865197085, "lng": -0.1768007802915021}}}, "name": "Blockchain Business Board", "place_id": "ChIJux1RqEQFdkgRvdJq0AkwXec", "types": ["point_of_interest", "establishment"]}, "ChIJcfxDqEQFdkgRAMmiu4vsCEQ": {"geometry": {"location": {"lat": 51.499213, "lng": -0.175551}, "viewport": {"northeast": {"lat": 51.50044448029151, "lng": -0.174079719708498}, "southwest": {"lat": 51.49774651970851, "lng": -0.176777680291502}}}, "name": "SynbiCITE", "place_id": "ChIJcfxDqEQFdkgRAMmiu4vsCEQ", "types": ["university", "point_of_interest", "establishment"]}, "ChIJ72SWwxUFdkgR-ciCb0F2334": {"geometry": {"location": {"lat": 51.4994679, "lng": -0.1755618}, "viewport": {"northeast": {"lat": 51.5005719302915, "lng": -0.174081069708498}, "southwest": {"lat": 51.49787396970851, "lng": -0.176779030291502}}}, "name": "Bessemer Building", "place_id": "ChIJ72SWwxUFdkgR-ciCb0F2334", "types": ["point_of_interest", "establishment"]}, "ChIJAQDArkQFdkgRSZkKdMTPcy8": {"geometry": {"location": {"lat": 51.4995195, "lng": -0.1757157}, "viewport": {"northeast": {"lat": 51.5010907802915, "lng": -0.174413669708498}, "southwest": {"lat": 51.4983928197085, "lng": -0.177111630291502}}}, "name": "Materialize.X", "place_id": "ChIJAQDArkQFdkgRSZkKdMTPcy8", "types": ["point_of_interest", "establishment"]}, "ChIJe2IvtFwFdkgRUnIrtatu5XE": {"geometry": {"location": {"lat": 51.49959970000001, "lng": -0.1756548000000001}, "viewport": {"northeast": {"lat": 51.5011340302915, "lng": -0.174344969708498}, "southwest": {"lat": 51.4984360697085, "lng": -0.177042930291502}}}, "name": "Desolenator", "place_id": "ChIJe2IvtFwFdkgRUnIrtatu5XE", "types": ["point_of_interest", "establishment"]}, "ChIJp8VZqUQFdkgRSwemFmQLIVI": {"geometry": {"location": {"lat": 51.499393, "lng": -0.175792}, "viewport": {"northeast": {"lat": 51.5005344802915, "lng": -0.174200219708498}, "southwest": {"lat": 51.4978365197085, "lng": -0.176898180291502}}}, "name": "Dr. Huai-Ti Lin's lab", "place_id": "ChIJp8VZqUQFdkgRSwemFmQLIVI", "types": ["point_of_interest", "establishment"]}, "ChIJ65rUJlsFdkgRxO0mEie0GB4": {"geometry": {"location": {"lat": 51.5015564001054, "lng": -0.177275149999309}, "viewport": {"northeast": {"lat": 51.5029053802915, "lng": -0.175926169708498}, "southwest": {"lat": 51.5002074197085, "lng": -0.178624130291502}}}, "name": "5 Kensington Rd", "place_id": "ChIJ65rUJlsFdkgRxO0mEie0GB4", "types": ["route"]}, "ChIJjSCBKFsFdkgROtiWq8MDoGA": {"geometry": {"location": {"lat": 51.50156010000001, "lng": -0.1769056}, "viewport": {"northeast": {"lat": 51.5029090802915, "lng": -0.175556619708498}, "southwest": {"lat": 51.5002111197085, "lng": -0.178254580291502}}}, "name": "Tutto Risarcimento Danni", "place_id": "ChIJjSCBKFsFdkgROtiWq8MDoGA", "types": ["point_of_interest", "establishment"], "rating": 5, "user_ratings_total": 1}, "ChIJIUJ8MVsFdkgRVX0n7_qYJaw": {"geometry": {"location": {"lat": 51.50086400442114, "lng": -0.1765660568504978}, "viewport": {"northeast": {"lat": 51.5022213302915, "lng": -0.175193669708498}, "southwest": {"lat": 51.49952336970851, "lng": -0.177891630291502}}}, "name": "16 Kensington Gore", "place_id": "ChIJIUJ8MVsFdkgRVX0n7_qYJaw", "types": ["route"]}, "ChIJRykdTVsFdkgRCIybsE3Cw7c": {"geometry": {"location": {"lat": 51.5006733, "lng": -0.1773558}, "viewport": {"northeast": {"lat": 51.5020669302915, "lng": -0.1757666697084979}, "southwest": {"lat": 51.4993689697085, "lng": -0.178464630291502}}}, "name": "Verdi - Italian Kitchen at the Royal Albert Hall", "place_id": "ChIJRykdTVsFdkgRCIybsE3Cw7c", "types": ["restaurant", "food", "point_of_interest", "establishment"], "rating": 4.1, "user_ratings_total": 248}, "ChIJhWV8hhoFdkgRHQLnRCVwuv4": {"geometry": {"location": {"lat": 51.5005743, "lng": -0.1773328}, "viewport": {"northeast": {"lat": 51.5020454302915, "lng": -0.175754169708498}, "southwest": {"lat": 51.4993474697085, "lng": -0.178452130291502}}}, "name": "Royal Albert Hall Caf\u00e9 Bar", "place_id": "ChIJhWV8hhoFdkgRHQLnRCVwuv4", "types": ["cafe", "food", "point_of_interest", "establishment"], "rating": 3, "user_ratings_total": 2}, "ChIJB8DZNJUFdkgRuAF7jgoQ67k": {"geometry": {"location": {"lat": 51.5003986, "lng": -0.1772914}, "viewport": {"northeast": {"lat": 51.5017475802915, "lng": -0.175942419708498}, "southwest": {"lat": 51.4990496197085, "lng": -0.178640380291502}}}, "name": "Great Exhibition Memorial", "place_id": "ChIJB8DZNJUFdkgRuAF7jgoQ67k", "types": ["point_of_interest", "establishment"]}, "ChIJbdvSeVsFdkgRcmnwiG3O7wE": {"geometry": {"location": {"lat": 51.4994415, "lng": -0.1770874}, "viewport": {"northeast": {"lat": 51.50100443029149, "lng": -0.175754519708498}, "southwest": {"lat": 51.4983064697085, "lng": -0.178452480291502}}},