{"E00024090": {"ChIJHyVO5AcQdkgRVwXfXFMagWk": {"geometry": {"location": {"lat": 51.52507870008967, "lng": -0.1885767501652374}, "viewport": {"northeast": {"lat": 51.5264276802915, "lng": -0.187227769708498}, "southwest": {"lat": 51.5237297197085, "lng": -0.189925730291502}}}, "name": "Sutherland Avenue", "place_id": "ChIJHyVO5AcQdkgRVwXfXFMagWk", "types": ["route"]}, "ChIJZy3iB6gadkgR_uhRB20CZRo": {"geometry": {"location": {"lat": 51.52517499999999, "lng": -0.1879654}, "viewport": {"northeast": {"lat": 51.52657168029149, "lng": -0.186659019708498}, "southwest": {"lat": 51.52387371970849, "lng": -0.189356980291502}}}, "name": "Wytham Hall", "place_id": "ChIJZy3iB6gadkgR_uhRB20CZRo", "types": ["point_of_interest", "establishment"], "rating": 4.4, "user_ratings_total": 5}, "ChIJ_5qHJNEEdkgR14lnsTeZCzE": {"geometry": {"location": {"lat": 51.5252977, "lng": -0.1876564000000001}, "viewport": {"northeast": {"lat": 51.5266902302915, "lng": -0.186348769708498}, "southwest": {"lat": 51.5239922697085, "lng": -0.189046730291502}}}, "name": "Daria Tiesler Wellness", "place_id": "ChIJ_5qHJNEEdkgR14lnsTeZCzE", "types": ["health", "point_of_interest", "establishment"], "rating": 5, "user_ratings_total": 63}, "ChIJgUq8_wcQdkgR5lm6IN97vW0": {"geometry": {"location": {"lat": 51.525263, "lng": -0.188221}, "viewport": {"northeast": {"lat": 51.52660948029149, "lng": -0.186816169708498}, "southwest": {"lat": 51.5239115197085, "lng": -0.189514130291502}}}, "name": "ubitricity Charging Station", "place_id": "ChIJgUq8_wcQdkgR5lm6IN97vW0", "types": ["point_of_interest", "establishment"]}, "ChIJJ0HOaQ4RdkgRV1d1qHDHl64": {"geometry": {"location": {"lat": 51.5253466, "lng": -0.1881292}, "viewport": {"northeast": {"lat": 51.5266955802915, "lng": -0.186780219708498}, "southwest": {"lat": 51.5239976197085, "lng": -0.1894781802915021}}}, "name": "GT Rooters & Heating", "place_id": "ChIJJ0HOaQ4RdkgRV1d1qHDHl64", "types": ["plumber", "general_contractor", "point_of_interest", "establishment"]}, "ChIJYSEjMb4RdkgRqmaWZxB7hQ8": {"geometry": {"location": {"lat": 51.5253466, "lng": -0.1881292}, "viewport": {"northeast": {"lat": 51.5266955802915, "lng": -0.186780219708498}, "southwest": {"lat": 51.5239976197085, "lng": -0.1894781802915021}}}, "name": "NRG CCTV & Intercom Systems", "place_id": "ChIJYSEjMb4RdkgRqmaWZxB7hQ8", "types": ["point_of_interest", "establishment"]}, "ChIJaZbHRgYQdkgRSZDRaB6xU0Y": {"geometry": {"location": {"lat": 51.5253466, "lng": -0.1881292}, "viewport": {"northeast": {"lat": 51.5266955802915, "lng": -0.186780219708498}, "southwest": {"lat": 51.5239976197085, "lng": -0.1894781802915021}}}, "name": "Endy Engel Photography", "place_id": "ChIJaZbHRgYQdkgRSZDRaB6xU0Y", "types": ["point_of_interest", "establishment"], "rating": 5, "user_ratings_total": 2}, "ChIJVVXhAagadkgRlLzNBvAFYyM": {"geometry": {"location": {"lat": 51.5251041, "lng": -0.1880927}, "viewport": {"northeast": {"lat": 51.5265090302915, "lng": -0.186796819708498}, "southwest": {"lat": 51.5238110697085, "lng": -0.189494780291502}}}, "name": "neosmile", "place_id": "ChIJVVXhAagadkgRlLzNBvAFYyM", "types": ["dentist", "health", "point_of_interest", "establishment"]}, "ChIJ9xGb_6cadkgRiB_lbehVg-0": {"geometry": {"location": {"lat": 51.52550840000001, "lng": -0.188064}, "viewport": {"northeast": {"lat": 51.52680598029151, "lng": -0.186666669708498}, "southwest": {"lat": 51.52410801970851, "lng": -0.189364630291502}}}, "name": "E C S T", "place_id": "ChIJ9xGb_6cadkgRiB_lbehVg-0", "types": ["point_of_interest", "establishment"]}, "ChIJqbTssOsbdkgR0NydawpDSPM": {"geometry": {"location": {"lat": 51.52550840000001, "lng": -0.188064}, "viewport": {"northeast": {"lat": 51.52680598029151, "lng": -0.186666619708498}, "southwest": {"lat": 51.52410801970851, "lng": -0.189364580291502}}}, "name": "Hanimpex", "place_id": "ChIJqbTssOsbdkgR0NydawpDSPM", "types": ["point_of_interest", "store", "establishment"]}, "ChIJjdlxM00bdkgRTPZ-IbaquKk": {"geometry": {"location": {"lat": 51.525578, "lng": -0.1878477}, "viewport": {"northeast": {"lat": 51.5268789802915, "lng": -0.186453569708498}, "southwest": {"lat": 51.52418101970851, "lng": -0.189151530291502}}}, "name": "AcademicsOnDemand", "place_id": "ChIJjdlxM00bdkgRTPZ-IbaquKk", "types": ["point_of_interest", "establishment"], "rating": 5, "user_ratings_total": 4}, "ChIJmWm430sbdkgRUAU4VexJ5hU": {"geometry": {"location": {"lat": 51.5256383, "lng": -0.1879122000000001}, "viewport": {"northeast": {"lat": 51.5269080802915, "lng": -0.186488719708498}, "southwest": {"lat": 51.52421011970851, "lng": -0.1891866802915021}}}, "name": "Cryptopros", "place_id": "ChIJmWm430sbdkgRUAU4VexJ5hU", "types": ["finance", "point_of_interest", "establishment"]}, "ChIJcy_5_KcadkgRVSFnFhmbwV0": {"geometry": {"location": {"lat": 51.5255879, "lng": -0.1876647}, "viewport": {"northeast": {"lat": 51.5269102802915, "lng": -0.186289719708498}, "southwest": {"lat": 51.5242123197085, "lng": -0.188987680291502}}}, "name": "ubitricity Charging Station", "place_id": "ChIJcy_5_KcadkgRVSFnFhmbwV0", "types": ["point_of_interest", "establishment"]}, "ChIJA8yc4gcQdkgRlVG-WOBE7Io": {"geometry": {"location": {"lat": 51.52536079999999, "lng": -0.1889993}, "viewport": {"northeast": {"lat": 51.5267398302915, "lng": -0.187615519708498}, "southwest": {"lat": 51.5240418697085, "lng": -0.190313480291502}}}, "name": "Source London Charging Station", "place_id": "ChIJA8yc4gcQdkgRlVG-WOBE7Io", "types": ["point_of_interest", "establishment"]}, "ChIJV3DnIKgadkgRKBilKC7rJj4": {"geometry": {"location": {"lat": 51.52382254137436, "lng": -0.1879585555959858}, "viewport": {"northeast": {"lat": 51.52517153029149, "lng": -0.1859756500000001}, "southwest": {"lat": 51.5224735697085, "lng": -0.18994145}}}, "name": "55-3 B413", "place_id": "ChIJV3DnIKgadkgRKBilKC7rJj4", "types": ["route"]}, "ChIJTVAX9QcQdkgRBxz9dqOgPUI": {"geometry": {"location": {"lat": 51.5241694, "lng": -0.1882819}, "viewport": {"northeast": {"lat": 51.5254596802915, "lng": -0.1870067697084979}, "southwest": {"lat": 51.52276171970851, "lng": -0.189704730291502}}}, "name": "La Jolie Ronde Languages for Children", "place_id": "ChIJTVAX9QcQdkgRBxz9dqOgPUI", "types": ["point_of_interest", "establishment"]}, "ChIJOcJM8gcQdkgRw7niTi5dWtc": {"geometry": {"location": {"lat": 51.52431259999999, "lng": -0.188628}, "viewport": {"northeast": {"lat": 51.52561078029151, "lng": -0.187342969708498}, "southwest": {"lat": 51.52291281970851, "lng": -0.190040930291502}}}, "name": "Moda Studios", "place_id": "ChIJOcJM8gcQdkgRw7niTi5dWtc", "types": ["point_of_interest", "establishment"], "rating": 4.7, "user_ratings_total": 44}, "ChIJTVAX9QcQdkgRmghFECElvJ8": {"geometry": {"location": {"lat": 51.5242456, "lng": -0.1885137}, "viewport": {"northeast": {"lat": 51.5255392802915, "lng": -0.187207419708498}, "southwest": {"lat": 51.5228413197085, "lng": -0.189905380291502}}}, "name": "Da Daniela", "place_id": "ChIJTVAX9QcQdkgRmghFECElvJ8", "types": ["cafe", "restaurant", "food", "point_of_interest", "store", "establishment"], "rating": 4.3, "user_ratings_total": 468}, "ChIJTVAX9QcQdkgRGhgi0QCFxkM": {"geometry": {"location": {"lat": 51.5242808, "lng": -0.1885671}, "viewport": {"northeast": {"lat": 51.52557228029151, "lng": -0.187266169708498}, "southwest": {"lat": 51.52287431970851, "lng": -0.189964130291502}}}, "name": "Londonwide Estates Ltd", "place_id": "ChIJTVAX9QcQdkgRGhgi0QCFxkM", "types": ["real_estate_agency", "point_of_interest", "establishment"], "rating": 5, "user_ratings_total": 1}, "ChIJEUCV9AcQdkgRPV5LxumqT5k": {"geometry": {"location": {"lat": 51.524186, "lng": -0.188451}, "viewport": {"northeast": {"lat": 51.5254948802915, "lng": -0.187146519708498}, "southwest": {"lat": 51.5227969197085, "lng": -0.189844480291502}}}, "name": "Sun Dry Cleaners", "place_id": "ChIJEUCV9AcQdkgRPV5LxumqT5k", "types": ["laundry", "point_of_interest", "establishment"], "rating": 4.5, "user_ratings_total": 4}, "ChIJ-dwsiwcQdkgRbwIrfzRvMe0": {"geometry": {"location": {"lat": 51.52399399999999, "lng": -0.18814}, "viewport": {"northeast": {"lat": 51.52531723029149, "lng": -0.1868234197084979}, "southwest": {"lat": 51.52261926970849, "lng": -0.189521380291502}}}, "name": "Charfield Court (Stop MH)", "place_id": "ChIJ-dwsiwcQdkgRbwIrfzRvMe0", "types": ["transit_station", "point_of_interest", "establishment"]}, "ChIJPW52z64RdkgRgC4xzn-Brvs": {"geometry": {"location": {"lat": 51.5243192, "lng": -0.1887497}, "viewport": {"northeast": {"lat": 51.5256435802915, "lng": -0.187456769708498}, "southwest": {"lat": 51.5229456197085, "lng": -0.190154730291502}}}, "name": "The Hero of Maida", "place_id": "ChIJPW52z64RdkgRgC4xzn-Brvs", "types": ["lodging", "bar", "restaurant", "food", "point_of_interest", "establishment"], "rating": 4.2, "user_ratings_total": 405}, "ChIJq_6X8gcQdkgRV1JKjE1cOeo": {"geometry": {"location": {"lat": 51.52423100000001, "lng": -0.188881}, "viewport": {"northeast": {"lat": 51.5255805802915, "lng": -0.187531319708498}, "southwest": {"lat": 51.5228826197085, "lng": -0.190229280291502}}}, "name": "Sutherland Avenue (Stop MJ)", "place_id": "ChIJq_6X8gcQdkgRV1JKjE1cOeo", "types": ["transit_station", "point_of_interest", "establishment"]}, "ChIJt30lHagadkgRobUt4rshJqQ": {"geometry": {"location": {"lat": 51.5246725, "lng": -0.1879651}, "viewport": {"northeast": {"lat": 51.5260916802915, "lng": -0.186530419708498}, "southwest": {"lat": 51.5233937197085, "lng": -0.189228380291502}}}, "name": "DR GAWDAT MAGD", "place_id": "ChIJt30lHagadkgRobUt4rshJqQ", "types": ["health", "point_of_interest", "establishment"]}, "ChIJs_mu1KkadkgRfbIeYOAvXbc": {"geometry": {"location": {"lat": 51.522764, "lng": -0.1877486}, "viewport": {"northeast": {"lat": 51.52408418029149, "lng": -0.186298519708498}, "southwest": {"lat": 51.52138621970849, "lng": -0.188996480291502}}}, "name": "The Waterway", "place_id": "ChIJs_mu1KkadkgRfbIeYOAvXbc", "types": ["restaurant", "bar", "food", "point_of_interest", "establishment"], "rating": 4.1, "user_ratings_total": 1458}, "ChIJ1S0xiAcQdkgRxyPP-LxvRsg": {"geometry": {"location": {"lat": 51.52353489999999, "lng": -0.1881727}, "viewport": {"northeast": {"lat": 51.5248873802915, "lng": -0.186819319708498}, "southwest": {"lat": 51.52218941970851, "lng": -0.189517280291502}}}, "name": "Maha rugs", "place_id": "ChIJ1S0xiAcQdkgRxyPP-LxvRsg", "types": ["laundry", "home_goods_store", "point_of_interest", "store", "establishment"], "rating": 5, "user_ratings_total": 1}, "ChIJ22SCg9ARdkgR8kE3HAN_OH4": {"geometry": {"location": {"lat": 51.5232593, "lng": -0.1882171}, "viewport": {"northeast": {"lat": 51.52468923029149, "lng": -0.186764719708498}, "southwest": {"lat": 51.5219912697085, "lng": -0.189462680291502}}}, "name": "Nearby park", "place_id": "ChIJ22SCg9ARdkgR8kE3HAN_OH4", "types": ["park", "point_of_interest", "establishment"], "rating": 4, "user_ratings_total": 1}, "ChIJmT3qIO4RdkgR6VGcZ_sndXY": {"geometry": {"location": {"lat": 51.5228999, "lng": -0.1883526}, "viewport": {"northeast": {"lat": 51.5243128302915, "lng": -0.186951969708498}, "southwest": {"lat": 51.5216148697085, "lng": -0.189649930291502}}}, "name": "Excellent breathwork practitioner- Power of the Breath", "place_id": "ChIJmT3qIO4RdkgR6VGcZ_sndXY", "types": ["health", "point_of_interest", "establishment"], "rating": 5, "user_ratings_total": 5}, "ChIJy08B2FQRdkgRRxlOqJQ1v7k": {"geometry": {"location": {"lat": 51.5228999, "lng": -0.1883526}, "viewport": {"northeast": {"lat": 51.5243128302915, "lng": -0.186951969708498}, "southwest": {"lat": 51.5216148697085, "lng": -0.189649930291502}}}, "name": "Maida Vale SINGING and PIANO Teacher", "place_id": "ChIJy08B2FQRdkgRRxlOqJQ1v7k", "types": ["electronics_store", "home_goods_store", "point_of_interest", "store", "establishment"], "rating": 5, "user_ratings_total": 4}, "ChIJD7VpKKgadkgRwt7Dp_q3yNk": {"geometry": {"location": {"lat": 51.52332320000001, "lng": -0.1879777000000001}, "viewport": {"northeast": {"lat": 51.52469728029151, "lng": -0.186596669708498}, "southwest": {"lat": 51.52199931970851, "lng": -0.189294630291502}}}, "name": "Working-With-Men", "place_id": "ChIJD7VpKKgadkgRwt7Dp_q3yNk", "types": ["point_of_interest", "establishment"]}, "ChIJI5IkJqgadkgRnaNXv7r9uGk": {"geometry": {"location": {"lat": 51.52343370000001, "lng": -0.1878558}, "viewport": {"northeast": {"lat": 51.52475543029151, "lng": -0.186541569708498}, "southwest": {"lat": 51.52205746970851, "lng": -0.189239530291502}}}, "name": "Beatsahead", "place_id": "ChIJI5IkJqgadkgRnaNXv7r9uGk", "types": ["point_of_interest", "establishment"]}, "ChIJ723GKKgadkgRiczr9oVX74A": {"geometry": {"location": {"lat": 51.523452, "lng": -0.1878203}, "viewport": {"northeast": {"lat": 51.52489498029149, "lng": -0.186353069708498}, "southwest": {"lat": 51.5221970197085, "lng": -0.189051030291502}}}, "name": "Charfield Court", "place_id": "ChIJ723GKKgadkgRiczr9oVX74A", "types": ["point_of_interest", "establishment"], "rating": 3.7, "user_ratings_total": 3}, "ChIJu59WK6gadkgRa5bdhBc6vTA": {"geometry": {"location": {"lat": 51.522764, "lng": -0.1877486}, "viewport": {"northeast": {"lat": 51.5241533302915, "lng": -0.186378119708498}, "southwest": {"lat": 51.52145536970851, "lng": -0.189076080291502}}}, "name": "The Igloo At The Waterway", "place_id": "ChIJu59WK6gadkgRa5bdhBc6vTA", "types": ["point_of_interest", "establishment"], "rating": 3.5, "user_ratings_total": 2}, "ChIJLadGTSoRdkgRmnF8zyuUQwg": {"geometry": {"location": {"lat": 51.52353489999999, "lng": -0.1881727}, "viewport": {"northeast": {"lat": 51.5248873802915, "lng": -0.186819319708498}, "southwest": {"lat": 51.52218941970851, "lng": -0.189517280291502}}}, "name": "Kun office", "place_id": "ChIJLadGTSoRdkgRmnF8zyuUQwg", "types": ["point_of_interest", "establishment"]}, "ChIJ16UHJqgadkgRU4oVKI3_9f8": {"geometry": {"location": {"lat": 51.5234323, "lng": -0.1877444}, "viewport": {"northeast": {"lat": 51.5248699302915, "lng": -0.186283869708498}, "southwest": {"lat": 51.5221719697085, "lng": -0.188981830291502}}}, "name": "Monopolize Ltd", "place_id": "ChIJ16UHJqgadkgRU4oVKI3_9f8", "types": ["finance", "point_of_interest", "establishment"]}, "ChIJAcQaPBsbdkgRxIawWUvnsIA": {"geometry": {"location": {"lat": 51.5234323, "lng": -0.1877444}, "viewport": {"northeast": {"lat": 51.5248699302915, "lng": -0.186283869708498}, "southwest": {"lat": 51.5221719697085, "lng": -0.188981830291502}}}, "name": "digitalstarsagency", "place_id": "ChIJAcQaPBsbdkgRxIawWUvnsIA", "types": ["point_of_interest", "establishment"]}, "ChIJ30YphwcQdkgRW44mhIxZvhk": {"geometry": {"location": {"lat": 51.5230913, "lng": -0.1882632}, "viewport": {"northeast": {"lat": 51.52444469019188, "lng": -0.1869182363771457}, "southwest": {"lat": 51.52174672960888, "lng": -0.1896161969601498}}}, "name": "Parking lot", "place_id": "ChIJ30YphwcQdkgRW44mhIxZvhk", "types": ["parking", "premise", "point_of_interest", "establishment"]}, "ChIJx7ZYcAcQdkgRKVDXOH-nmlc": {"geometry": {"location": {"lat": 51.5223325, "lng": -0.1888437}, "viewport": {"northeast": {"lat": 51.52373598029151, "lng": -0.187710069708498}, "southwest": {"lat": 51.52103801970851, "lng": -0.190408030291502}}}, "name": "St Mary Magdalene CE Primary School", "place_id": "ChIJx7ZYcAcQdkgRKVDXOH-nmlc", "types": ["primary_school", "school", "point_of_interest", "establishment"], "rating": 4, "user_ratings_total": 4}, "ChIJ1cShegcQdkgRdYzvtwEblmg": {"geometry": {"location": {"lat": 51.52236109999999, "lng": -0.188729}, "viewport": {"northeast": {"lat": 51.5236963302915, "lng": -0.1876359197084979}, "southwest": {"lat": 51.5209983697085, "lng": -0.190333880291502}}}, "name": "Saint Mary Magdalene Church", "place_id": "ChIJ1cShegcQdkgRdYzvtwEblmg", "types": ["church", "place_of_worship", "point_of_interest", "establishment"], "rating": 4.6, "user_ratings_total": 47}, "ChIJ_78SxH0RdkgRu084NhLQS74": {"geometry": {"location": {"lat": 51.5223392, "lng": -0.188803}, "viewport": {"northeast": {"lat": 51.5236963302915, "lng": -0.187672919708498}, "southwest": {"lat": 51.5209983697085, "lng": -0.190370880291502}}}, "name": "Canalside Cafe", "place_id": "ChIJ_78SxH0RdkgRu084NhLQS74", "types": ["restaurant", "food", "point_of_interest", "establishment"]}, "ChIJiwxR2gcQdkgRZ71f2s67Psk": {"geometry": {"location": {"lat": 51.52490405010153, "lng": -0.1901685497466281}, "viewport": {"northeast": {"lat": 51.52625303029149, "lng": -0.188819569708498}, "southwest": {"lat": 51.52355506970849, "lng": -0.191517530291502}}}, "name": "62 B413", "place_id": "ChIJiwxR2gcQdkgRZ71f2s67Psk", "types": ["route"]}, "ChIJRU9lodUEdkgREBrj-elY6Bw": {"geometry": {"location": {"lat": 51.5251443, "lng": -0.1902155}, "viewport": {"northeast": {"lat": 51.5264256302915, "lng": -0.188951519708498}, "southwest": {"lat": 51.5237276697085, "lng": -0.191649480291502}}}, "name": "Andreas Lind", "place_id": "ChIJRU9lodUEdkgREBrj-elY6Bw", "types": ["health", "point_of_interest", "establishment"]}, "ChIJZe0CgAgQdkgRxY5WLFv-WDs": {"geometry": {"location": {"lat": 51.5251151, "lng": -0.1902767}, "viewport": {"northeast": {"lat": 51.5264147302915, "lng": -0.188989669708498}, "southwest": {"lat": 51.5237167697085, "lng": -0.191687630291502}}}, "name": "North London Counselling", "place_id": "ChIJZe0CgAgQdkgRxY5WLFv-WDs", "types": ["health", "point_of_interest", "establishment"]}, "ChIJW7g82gcQdkgRlehmT5wwTfU": {"geometry": {"location": {"lat": 51.5249949, "lng": -0.190214}, "viewport": {"northeast": {"lat": 51.5263220802915, "lng": -0.188891169708498}, "southwest": {"lat": 51.5236241197085, "lng": -0.191589130291502}}}, "name": "ubitricity Charging Station", "place_id": "ChIJW7g82gcQdkgRlehmT5wwTfU", "types": ["point_of_interest", "establishment"]}, "ChIJwcUO4QcQdkgRATMGVr4pPV4": {"geometry": {"location": {"lat": 51.5249564, "lng": -0.1896833}, "viewport": {"northeast": {"lat": 51.5262421302915, "lng": -0.188272019708498}, "southwest": {"lat": 51.5235441697085, "lng": -0.190969980291502}}}, "name": "Vonziechmann", "place_id": "ChIJwcUO4QcQdkgRATMGVr4pPV4", "types": ["health", "point_of_interest", "establishment"]}, "ChIJgXPUzgcQdkgR3nwSmINLWyY": {"geometry": {"location": {"lat": 51.52442603153056, "lng": -0.1904471796958388}, "viewport": {"northeast": {"lat": 51.5257760802915, "lng": -0.18902165}, "southwest": {"lat": 51.52307811970851, "lng": -0.19187465}}}, "name": "101-75 Sutherland Ave", "place_id": "ChIJgXPUzgcQdkgR3nwSmINLWyY", "types": ["route"]}, "ChIJu6w_6gcQdkgRJPV1rJgFSc4": {"geometry": {"location": {"lat": 51.524332, "lng": -0.189431}, "viewport": {"northeast": {"lat": 51.5257444302915, "lng": -0.188004219708498}, "southwest": {"lat": 51.5230464697085, "lng": -0.190702180291502}}}, "name": "The Amadeus", "place_id": "ChIJu6w_6gcQdkgRJPV1rJgFSc4", "types": ["point_of_interest", "establishment"], "rating": 4.4, "user_ratings_total": 70}, "ChIJpQkjwgcQdkgR2LF1pXl5Gb4": {"geometry": {"location": {"lat": 51.5239475, "lng": -0.1894053}, "viewport": {"northeast": {"lat": 51.52534273029151, "lng": -0.187998419708498}, "southwest": {"lat": 51.52264476970851, "lng": -0.190696380291502}}}, "name": "Kumon Maths & English", "place_id": "ChIJpQkjwgcQdkgR2LF1pXl5Gb4", "types": ["secondary_school", "university", "school", "point_of_interest", "establishment"], "rating": 5, "user_ratings_total": 4}, "ChIJh_UkwgcQdkgRCDJV7nU9mxk": {"geometry": {"location": {"lat": 51.5243225, "lng": -0.1894556}, "viewport": {"northeast": {"lat": 51.52574163029149, "lng": -0.188020619708498}, "southwest": {"lat": 51.52304366970849, "lng": -0.190718580291502}}}, "name": "Topham Supper", "place_id": "ChIJh_UkwgcQdkgRCDJV7nU9mxk", "types": ["restaurant", "food", "point_of_interest", "establishment"]}, "ChIJY8AovgcQdkgRd_luzCsgxss": {"geometry": {"location": {"lat": 51.52397499999999, "lng": -0.1894329}, "viewport": {"northeast": {"lat": 51.52532398029149, "lng": -0.1880839197084979}, "southwest": {"lat": 51.52262601970849, "lng": -0.190781880291502}}}, "name": "Amberley Youth Project", "place_id": "ChIJY8AovgcQdkgRd_luzCsgxss", "types": ["point_of_interest", "establishment"], "rating": 4.8, "user_ratings_total": 5}, "ChIJHRhm0wcQdkgRUwQlbiv2t6o": {"geometry": {"location": {"lat": 51.524721, "lng": -0.1899966}, "viewport": {"northeast": {"lat": 51.5261000802915, "lng": -0.188608469708498}, "southwest": {"lat": 51.5234021197085, "lng": -0.191306430291502}}}, "name": "Windmill Montessori Nursery School", "place_id": "ChIJHRhm0wcQdkgRUwQlbiv2t6o", "types": ["school", "point_of_interest", "establishment"], "rating": 4, "user_ratings_total": 2}, "ChIJiYNhrgcQdkgRA8F4njJdHRo": {"geometry": {"location": {"lat": 51.52330443626915, "lng": -0.1905943057141544}, "viewport": {"northeast": {"lat": 51.52459338029149, "lng": -0.1890694}, "southwest": {"lat": 51.5218954197085, "lng": -0.1920709999999999}}}, "name": "31 Aldsworth Cl", "place_id": "ChIJiYNhrgcQdkgRA8F4njJdHRo", "types": ["route"]}, "ChIJpWLFpAcQdkgRMAmKs0KQ9G4": {"geometry": {"location": {"lat": 51.5233552, "lng": -0.1900741}, "viewport": {"northeast": {"lat": 51.5247360302915, "lng": -0.188732669708498}, "southwest": {"lat": 51.5220380697085, "lng": -0.191430630291502}}}, "name": "Maia Management Consulting Ltd", "place_id": "ChIJpWLFpAcQdkgRMAmKs0KQ9G4", "types": ["point_of_interest", "establishment"]}, "ChIJIZIwi2URdkgRgi4kY9Ql_Nk": {"geometry": {"location": {"lat": 51.5233793, "lng": -0.1902631}, "viewport": {"northeast": {"lat": 51.5247212302915, "lng": -0.188912569708498}, "southwest": {"lat": 51.52202326970851, "lng": -0.191610530291502}}}, "name": "Downtime Studios", "place_id": "ChIJIZIwi2URdkgRgi4kY9Ql_Nk", "types": ["point_of_interest", "establishment"], "rating": 5, "user_ratings_total": 3}, "ChIJs6otrgcQdkgRH1KOmcjs2rQ": {"geometry": {"location": {"lat": 51.5233752, "lng": -0.1904738}, "viewport": {"northeast": {"lat": 51.52471386760202, "lng": -0.1891595109559283}, "southwest": {"lat": 51.52201590701902, "lng": -0.1918574715389323}}}, "name": "Parking lot", "place_id": "ChIJs6otrgcQdkgRH1KOmcjs2rQ", "types": ["parking", "premise", "point_of_interest", "establishment"]}, "ChIJb0SgDAcQdkgRNfi5PqPUSxc": {"geometry": {"location": {"lat": 51.5222881, "lng": -0.1897071}, "viewport": {"northeast": {"lat": 51.5233612802915, "lng": -0.188238319708498}, "southwest": {"lat": 51.5206633197085, "lng": -0.190936280291502}}}, "name": "St Mary Magdalene's Church of England Primary School, Paddington", "place_id": "ChIJb0SgDAcQdkgRNfi5PqPUSxc", "types": ["primary_school", "school", "point_of_interest", "establishment"], "rating": 5, "user_ratings_total": 1}, "ChIJm05SAQcQdkgRL_jTZL-68Ks": {"geometry": {"location": {"lat": 51.5224506, "lng": -0.1908126}, "viewport": {"northeast": {"lat": 51.5237908565549, "lng": -0.1893408289381164}, "southwest": {"lat": 51.5210928959719, "lng": -0.1920387895211204}}}, "name": "Parking lot", "place_id": "ChIJm05SAQcQdkgRL_jTZL-68Ks", "types": ["parking", "premise", "point_of_interest", "establishment"]}, "ChIJa40SLgYQdkgRaZCQy-CRxEQ": {"geometry": {"location": {"lat": 51.5247826, "lng": -0.1914781}, "viewport": {"northeast": {"lat": 51.52616958029149, "lng": -0.190052569708498}, "southwest": {"lat": 51.52347161970849, "lng": -0.192750530291502}}}, "name": "Hurrah Pictures Limited", "place_id": "ChIJa40SLgYQdkgRaZCQy-CRxEQ", "types": ["point_of_interest", "establishment"]}, "ChIJWyH-kysFdkgRj2oLfi5dWwE": {"geometry": {"location": {"lat": 51.525388, "lng": -0.190908}, "viewport": {"northeast": {"lat": 51.5266983302915, "lng": -0.189607469708498}, "southwest": {"lat": 51.5240003697085, "lng": -0.192305430291502}}}, "name": "Shirland Ventures Limited", "place_id": "ChIJWyH-kysFdkgRj2oLfi5dWwE", "types": ["point_of_interest", "establishment"]}, "ChIJjaTwLwYQdkgRsvLlgcTJWeI": {"geometry": {"location": {"lat": 51.5247532, "lng": -0.1918704}, "viewport": {"northeast": {"lat": 51.52607143029149, "lng": -0.190587119708498}, "southwest": {"lat": 51.5233734697085, "lng": -0.193285080291502}}}, "name": "CaseCheck Employment Lawyers London", "place_id": "ChIJjaTwLwYQdkgRsvLlgcTJWeI", "types": ["lawyer", "point_of_interest", "establishment"]}, "ChIJDXgCKAYQdkgR09mS5moO8l4": {"geometry": {"location": {"lat": 51.525365, "lng": -0.191767}, "viewport": {"northeast": {"lat": 51.5266935302915, "lng": -0.190389569708498}, "southwest": {"lat": 51.5239955697085, "lng": -0.193087530291502}}}, "name": "ubitricity Charging Station", "place_id": "ChIJDXgCKAYQdkgR09mS5moO8l4", "types": ["point_of_interest", "establishment"]}, "ChIJF3YGgwgQdkgR2TiGcayMHqE": {"geometry": {"location": {"lat": 51.525564, "lng": -0.191639}, "viewport": {"northeast": {"lat": 51.52692173029151, "lng": -0.190279169708498}, "southwest": {"lat": 51.52422376970851, "lng": -0.192977130291502}}}, "name": "ubitricity Charging Station", "place_id": "ChIJF3YGgwgQdkgR2TiGcayMHqE", "types": ["point_of_interest", "establishment"]}, "ChIJjdCEKgYQdkgRndP3qiodlHY": {"geometry": {"location": {"lat": 51.52533700000001, "lng": -0.191203}, "viewport": {"northeast": {"lat": 51.52670753029151, "lng": -0.1898265197084979}, "southwest": {"lat": 51.52400956970851, "lng": -0.192524480291502}}}, "name": "ubitricity Charging Station", "place_id": "ChIJjdCEKgYQdkgRndP3qiodlHY", "types": ["point_of_interest", "establishment"]}, "ChIJa40SLgYQdkgRHql7OyoL6LM": {"geometry": {"location": {"lat": 51.5247826, "lng": -0.1914781}, "viewport": {"northeast": {"lat": 51.52616958029149, "lng": -0.190052569708498}, "southwest": {"lat": 51.52347161970849, "lng": -0.192750530291502}}}, "name": "Rhapsody Opera", "place_id": "ChIJa40SLgYQdkgRHql7OyoL6LM", "types": ["point_of_interest", "establishment"]}, "ChIJ5SCEfwgQdkgRLofPZzW7IKI": {"geometry": {"location": {"lat": 51.52538759999999, "lng": -0.1909084}, "viewport": {"northeast": {"lat": 51.5266981302915, "lng": -0.189607619708498}, "southwest": {"lat": 51.5240001697085, "lng": -0.192305580291502}}}, "name": "Soleil Relocation", "place_id": "ChIJ5SCEfwgQdkgRLofPZzW7IKI", "types": ["moving_company", "storage", "point_of_interest", "establishment"]}, "ChIJD5u9RwYQdkgRXdl11rPIMoQ": {"geometry": {"location": {"lat": 51.52399775029346, "lng": -0.1918239505461462}, "viewport": {"northeast": {"lat": 51.52534673029151, "lng": -0.190474969708498}, "southwest": {"lat": 51.52264876970851, "lng": -0.193172930291502}}}, "name": "Sutherland Avenue", "place_id": "ChIJD5u9RwYQdkgRXdl11rPIMoQ", "types": ["route"]}, "ChIJd9xZNgYQdkgRlpc8DSm2uvk": {"geometry": {"location": {"lat": 51.5241847, "lng": -0.1916858}, "viewport": {"northeast": {"lat": 51.5254823302915, "lng": -0.190289019708498}, "southwest": {"lat": 51.52278436970851, "lng": -0.192986980291502}}}, "name": "The Marriage Development Company Ltd.", "place_id": "ChIJd9xZNgYQdkgRlpc8DSm2uvk", "types": ["point_of_interest", "establishment"]}, "ChIJeVr_OAYQdkgRRrRvcCU9xWU": {"geometry": {"location": {"lat": 51.5241603, "lng": -0.1917672}, "viewport": {"northeast": {"lat": 51.5254560802915, "lng": -0.1903687197084979}, "southwest": {"lat": 51.5227581197085, "lng": -0.193066680291502}}}, "name": "Mint Kitchens", "place_id": "ChIJeVr_OAYQdkgRRrRvcCU9xWU", "types": ["home_goods_store", "general_contractor", "point_of_interest", "store", "establishment"], "rating": 5, "user_ratings_total": 2}, "ChIJ9SJ20CIRdkgRR2fifuy2oKw": {"geometry": {"location": {"lat": 51.52421030000001, "lng": -0.1919577}, "viewport": {"northeast": {"lat": 51.5254616302915, "lng": -0.190517869708498}, "southwest": {"lat": 51.52276366970851, "lng": -0.193215830291502}}}, "name": "MUSIC GEMS LTD", "place_id": "ChIJ9SJ20CIRdkgRR2fifuy2oKw", "types": ["point_of_interest", "establishment"]}, "ChIJc4GVRwYQdkgR9AZMpj84e-4": {"geometry": {"location": {"lat": 51.52396950000001, "lng": -0.1918937}, "viewport": {"northeast": {"lat": 51.5253468802915, "lng": -0.190571169708498}, "southwest": {"lat": 51.52264891970851, "lng": -0.193269130291502}}}, "name": "ubitricity Charging Station", "place_id": "ChIJc4GVRwYQdkgR9AZMpj84e-4", "types": ["point_of_interest", "establishment"]}, "ChIJxamlvm0RdkgRtVjgQGCNcX8": {"geometry": {"location": {"lat": 51.5238837, "lng": -0.1915979}, "viewport": {"northeast": {"lat": 51.52528293029149, "lng": -0.190295219708498}, "southwest": {"lat": 51.52258496970849, "lng": -0.192993180291502}}}, "name": "Private Yoga London", "place_id": "ChIJxamlvm0RdkgRtVjgQGCNcX8", "types": ["school", "point_of_interest", "establishment"], "rating": 5, "user_ratings_total": 1}, "ChIJjaTwLwYQdkgRz_NuGg87-hc": {"geometry": {"location": {"lat": 51.52443029999999, "lng": -0.1920341}, "viewport": {"northeast": {"lat": 51.5258313302915, "lng": -0.1905738697084979}, "southwest": {"lat": 51.5231333697085, "lng": -0.193271830291502}}}, "name": "Loft King Ltd", "place_id": "ChIJjaTwLwYQdkgRz_NuGg87-hc", "types": ["general_contractor", "point_of_interest", "establishment"], "rating": 2, "user_ratings_total": 3}, "ChIJx1wP6FURdkgRtI9j8keC7DY": {"geometry": {"location": {"lat": 51.5243867, "lng": -0.1911871}, "viewport": {"northeast": {"lat": 51.5256780802915, "lng": -0.189780769708498}, "southwest": {"lat": 51.5229801197085, "lng": -0.192478730291502}}}, "name": "All Out Service", "place_id": "ChIJx1wP6FURdkgRtI9j8keC7DY", "types": ["finance", "point_of_interest", "establishment"]}, "ChIJx4clN48RdkgRoQf3hcNVH4A": {"geometry": {"location": {"lat": 51.5243867, "lng": -0.1911871}, "viewport": {"northeast": {"lat": 51.5256767302915, "lng": -0.1897825697084979}, "southwest": {"lat": 51.5229787697085, "lng": -0.192480530291502}}}, "name": "Rasa Medic", "place_id": "ChIJx4clN48RdkgRoQf3hcNVH4A", "types": ["point_of_interest", "establishment"]}, "ChIJWVUYXgYQdkgRAdICP-o58S8": {"geometry": {"location": {"lat": 51.5230228678722, "lng": -0.1924576674127585}, "viewport": {"northeast": {"lat": 51.52435883029149, "lng": -0.19051355}, "southwest": {"lat": 51.52166086970849, "lng": -0.19438055}}}, "name": "82-78 Amberley Rd", "place_id": "ChIJWVUYXgYQdkgRAdICP-o58S8", "types": ["route"]}, "ChIJrYY6WgYQdkgRZqbAS7FuFP4": {"geometry": {"location": {"lat": 51.52304029999999, "lng": -0.1918499999999999}, "viewport": {"northeast": {"lat": 51.52445618029149, "lng": -0.1905526197084979}, "southwest": {"lat": 51.5217582197085, "lng": -0.193250580291502}}}, "name": "Westminster Adult Education Service", "place_id": "ChIJrYY6WgYQdkgRZqbAS7FuFP4", "types": ["university", "point_of_interest", "establishment"], "rating": 4.8, "user_ratings_total": 4}, "ChIJSc6kHRcQdkgR0OaVEcc7rBo": {"geometry": {"location": {"lat": 51.52303190000001, "lng": -0.1920013}, "viewport": {"northeast": {"lat": 51.5244328302915, "lng": -0.190692419708498}, "southwest": {"lat": 51.5217348697085, "lng": -0.193390380291502}}}, "name": "ARK Atwood Primary Academy", "place_id": "ChIJSc6kHRcQdkgR0OaVEcc7rBo", "types": ["school", "point_of_interest", "establishment"], "rating": 4.5, "user_ratings_total": 18}, "ChIJf9xzWc8RdkgRErBLIvKkB2U": {"geometry": {"location": {"lat": 51.52279590000001, "lng": -0.1918397000000001}, "viewport": {"northeast": {"lat": 51.5243123802915, "lng": -0.190619869708498}, "southwest": {"lat": 51.5216144197085, "lng": -0.193317830291502}}}, "name": "Waterfront Apartments", "place_id": "ChIJf9xzWc8RdkgRErBLIvKkB2U", "types": ["lodging", "point_of_interest", "establishment"], "rating": 5, "user_ratings_total": 1}, "ChIJ-fTmdgMRdkgRoVxADnzneIU": {"geometry": {"location": {"lat": 51.5227328, "lng": -0.1919898}, "viewport": {"northeast": {"lat": 51.5242566802915, "lng": -0.190775719708498}, "southwest": {"lat": 51.5215587197085, "lng": -0.193473680291502}}}, "name": "Boat 25 October 2020", "place_id": "ChIJ-fTmdgMRdkgRoVxADnzneIU", "types": ["lodging", "point_of_interest", "establishment"]}, "ChIJW0h5zUkRdkgR9hVG21Q-BwE": {"geometry": {"location": {"lat": 51.5227313, "lng": -0.1920895}, "viewport": {"northeast": {"lat": 51.52408028029151, "lng": -0.190740519708498}, "southwest": {"lat": 51.52138231970851, "lng": -0.1934384802915021}}}, "name": "Mentorink Limited", "place_id": "ChIJW0h5zUkRdkgR9hVG21Q-BwE", "types": ["point_of_interest", "establishment"]}, "ChIJlz-5GQYQdkgRoHlLDTOKKjA": {"geometry": {"location": {"lat": 51.52482034570949, "lng": -0.1927959981227193}, "viewport": {"northeast": {"lat": 51.5261675802915, "lng": -0.1914449197084979}, "southwest": {"lat": 51.5234696197085, "lng": -0.194142880291502}}}, "name": "32-53 Marylands Rd", "place_id": "ChIJlz-5GQYQdkgRoHlLDTOKKjA", "types": ["route"]}, "ChIJaxnuqQgQdkgRP0JKxNFb-HM": {"geometry": {"location": {"lat": 51.52558310000001, "lng": -0.1929485}, "viewport": {"northeast": {"lat": 51.52689128029151, "lng": -0.191649219708498}, "southwest": {"lat": 51.52419331970851, "lng": -0.194347180291502}}}, "name": "ERH", "place_id": "ChIJaxnuqQgQdkgRP0JKxNFb-HM", "types": ["point_of_interest", "establishment"]}, "ChIJvyMaujYRdkgRo5nP7cP5378": {"geometry": {"location": {"lat": 51.5244197, "lng": -0.1927177}, "viewport": {"northeast": {"lat": 51.52573383029149, "lng": -0.191447619708498}, "southwest": {"lat": 51.52303586970849, "lng": -0.194145580291502}}}, "name": "methodist church", "place_id": "ChIJvyMaujYRdkgRo5nP7cP5378", "types": ["church", "place_of_worship", "point_of_interest", "establishment"]}, "ChIJ65mG1R0RdkgR-I5w_lhDfnk": {"geometry": {"location": {"lat": 51.5242714, "lng": -0.1926344}, "viewport": {"northeast": {"lat": 51.5255985802915, "lng": -0.191333969708498}, "southwest": {"lat": 51.5229006197085, "lng": -0.194031930291502}}}, "name": "Ficticity", "place_id": "ChIJ65mG1R0RdkgR-I5w_lhDfnk", "types": ["point_of_interest", "establishment"]}, "ChIJq6pqbwYQdkgR9w6iGzSmO6M": {"geometry": {"location": {"lat": 51.5234738, "lng": -0.1929824}, "viewport": {"northeast": {"lat": 51.5248235802915, "lng": -0.191634219708498}, "southwest": {"lat": 51.5221256197085, "lng": -0.194332180291502}}}, "name": "HIWINE", "place_id": "ChIJq6pqbwYQdkgR9w6iGzSmO6M", "types": ["liquor_store", "food", "point_of_interest", "store", "establishment"]}, "ChIJiYj__KcadkgRQohBYCN1Huk": {"geometry": {"location": {"lat": 51.52551405089844, "lng": -0.187669451690737}, "viewport": {"northeast": {"lat": 51.5268630302915, "lng": -0.186320469708498}, "southwest": {"lat": 51.5241650697085, "lng": -0.189018430291502}}}, "name": "114-130 Sutherland Ave", "place_id": "ChIJiYj__KcadkgRQohBYCN1Huk", "types": ["route"]}, "ChIJNZv7-6cadkgRWuVwo7b1PWY": {"geometry": {"location": {"lat": 51.5257294, "lng": -0.1877258}, "viewport": {"northeast": {"lat": 51.5269905302915, "lng": -0.186294169708498}, "southwest": {"lat": 51.5242925697085, "lng": -0.188992130291502}}}, "name": "Iam Experts", "place_id": "ChIJNZv7-6cadkgRWuVwo7b1PWY", "types": ["point_of_interest", "establishment"]}, "ChIJQ1AX9QcQdkgRe4vcO7jGICg": {"geometry": {"location": {"lat": 51.523801, "lng": -0.1874742}, "viewport": {"northeast": {"lat": 51.5250835302915, "lng": -0.186208869708498}, "southwest": {"lat": 51.5223855697085, "lng": -0.188906830291502}}}, "name": "KSA Executive Research", "place_id": "ChIJQ1AX9QcQdkgRe4vcO7jGICg", "types": ["point_of_interest", "establishment"]}, "ChIJEQ1oI6gadkgRFs8dpVv9_rk": {"geometry": {"location": {"lat": 51.52377240000001, "lng": -0.1874678}, "viewport": {"northeast": {"lat": 51.5250628302915, "lng": -0.186192519708498}, "southwest": {"lat": 51.5223648697085, "lng": -0.188890480291502}}}, "name": "Junk & Disorderly", "place_id": "ChIJEQ1oI6gadkgRFs8dpVv9_rk", "types": ["point_of_interest", "establishment"]}, "ChIJ5-YfJKgadkgR1PsYDws4Frk": {"geometry": {"location": {"lat": 51.523651, "lng": -0.1877359}, "viewport": {"northeast": {"lat": 51.5250142802915, "lng": -0.186368919708498}, "southwest": {"lat": 51.5223163197085, "lng": -0.189066880291502}}}, "name": "ubitricity Charging Station", "place_id": "ChIJ5-YfJKgadkgR1PsYDws4Frk", "types": ["point_of_interest", "establishment"]}, "ChIJ66194gcQdkgRO0qGq5ctngA": {"geometry": {"location": {"lat": 51.525341, "lng": -0.189048}, "viewport": {"northeast": {"lat": 51.5267335302915, "lng": -0.187647719708498}, "southwest": {"lat": 51.5240355697085, "lng": -0.1903456802915021}}}, "name": "ubitricity Charging Station", "place_id": "ChIJ66194gcQdkgRO0qGq5ctngA", "types": ["point_of_interest", "establishment"]}, "ChIJHyVO5AcQdkgRTP9ogbH4RnQ": {"geometry": {"location": {"lat": 51.52485245109025, "lng": -0.1892284519402889}, "viewport": {"northeast": {"lat": 51.52620143029149, "lng": -0.187879469708498}, "southwest": {"lat": 51.5235034697085, "lng": -0.190577430291502}}}, "name": "Sutherland Avenue", "place_id": "ChIJHyVO5AcQdkgRTP9ogbH4RnQ", "types": ["route"]}, "ChIJA_U_7gcQdkgRFcXuQ23hMVc": {"geometry": {"location": {"lat": 51.52445239999999, "lng": -0.1890103}, "viewport": {"northeast": {"lat": 51.5257636802915, "lng": -0.187707569708498}, "southwest": {"lat": 51.5230657197085, "lng": -0.190405530291502}}}, "name": "Ludmilla Salon", "place_id": "ChIJA_U_7gcQdkgRFcXuQ23hMVc", "types": ["beauty_salon", "hair_care", "point_of_interest", "establishment"], "rating": 4.6, "user_ratings_total": 36}, "ChIJHXil5QcQdkgRCxvxcTB8ENQ": {"geometry": {"location": {"lat": 51.524833, "lng": -0.1890689}, "viewport": {"northeast": {"lat": 51.5262104802915, "lng": -0.187745269708498}, "southwest": {"lat": 51.52351251970851, "lng": -0.190443230291502}}}, "name": "ubitricity Charging Station", "place_id": "ChIJHXil5QcQdkgRCxvxcTB8ENQ", "types": ["point_of_interest", "establishment"]}, "ChIJEwIxMv8RdkgR2vbmxfs4bRI": {"geometry": {"location": {"lat": 51.5245493, "lng": -0.1891093}, "viewport": {"northeast": {"lat": 51.52584478029149, "lng": -0.187825869708498}, "southwest": {"lat": 51.5231468197085, "lng": -0.190523830291502}}}, "name": "Pristine Lash Professional Studio", "place_id": "ChIJEwIxMv8RdkgR2vbmxfs4bRI", "types": ["point_of_interest", "establishment"], "rating": 5, "user_ratings_total": 11}, "ChIJawdfUrQRdkgRRUHmAeL2WDk": {"geometry": {"location": {"lat": 51.5245493, "lng": -0.1891093}, "viewport": {"northeast": {"lat": 51.52584478029149, "lng": -0.187825869708498}, "southwest": {"lat": 51.5231468197085, "lng": -0.190523830291502}}}, "name": "Kynd Clinic", "place_id": "ChIJawdfUrQRdkgRRUHmAeL2WDk", "types": ["beauty_salon", "hair_care", "health", "point_of_interest", "establishment"], "rating": 4.1, "user_ratings_total": 42}, "ChIJTVAX9QcQdkgR7Huwpjpo0qA": {"geometry": {"location": {"lat": 51.5244864, "lng": -0.1890788}, "viewport": {"northeast": {"lat": 51.5257971802915, "lng": -0.187776619708498}, "southwest": {"lat": 51.5230992197085, "lng": -0.190474580291502}}}, "name": "Buy Well Food", "place_id": "ChIJTVAX9QcQdkgR7Huwpjpo0qA", "types": ["grocery_or_supermarket", "food", "point_of_interest", "store", "establishment"], "rating": 4, "user_ratings_total": 11}, "ChIJEecNcQcQdkgRjArL7PTmm80": {"geometry": {"location": {"lat": 51.52237058362277, "lng": -0.1892252449715197}, "viewport": {"northeast": {"lat": 51.5237020302915, "lng": -0.187891319708498}, "southwest": {"lat": 51.5210040697085, "lng": -0.190589280291502}}}, "name": "7 Rowington Cl", "place_id": "ChIJEecNcQcQdkgRjArL7PTmm80", "types": ["route"]}, "ChIJQYR1hC4RdkgRgNxA7d4R0aM": {"geometry": {"location": {"lat": 51.5224941, "lng": -0.1894004}, "viewport": {"northeast": {"lat": 51.5238079802915, "lng": -0.188054519708498}, "southwest": {"lat": 51.52111001970851, "lng": -0.190752480291502}}}, "name": "Grand Junction", "place_id": "ChIJQYR1hC4RdkgRgNxA7d4R0aM", "types": ["point_of_interest", "establishment"], "rating": 4.8, "user_ratings_total": 54}, "ChIJybGs1QcQdkgROq5hksjHwD4": {"geometry": {"location": {"lat": 51.52523223122817, "lng": -0.1908438210193178}, "viewport": {"northeast": {"lat": 51.5265810302915, "lng": -0.189495069708498}, "southwest": {"lat": 51.5238830697085, "lng": -0.192193030291502}}}, "name": "64-78 B413", "place_id": "ChIJybGs1QcQdkgROq5hksjHwD4", "types": ["route"]}, "ChIJRU9lodUEdkgRpf4DhngDkWs": {"geometry": {"location": {"lat": 51.525526, "lng": -0.190849}, "viewport": {"northeast": {"lat": 51.5267845302915, "lng": -0.189613419708498}, "southwest": {"lat": 51.5240865697085, "lng": -0.192311380291502}}}, "name": "The Green Gate Practice", "place_id": "ChIJRU9lodUEdkgRpf4DhngDkWs", "types": ["health", "point_of_interest", "establishment"]}, "ChIJx0CW1QcQdkgR_Mp3AdPYcb0": {"geometry": {"location": {"lat": 51.52529, "lng": -0.190816}, "viewport": {"northeast": {"lat": 51.5266195802915, "lng": -0.189491519708498}, "southwest": {"lat": 51.52392161970851, "lng": -0.192189480291502}}}, "name": "ubitricity Charging Station", "place_id": "ChIJx0CW1QcQdkgR_Mp3AdPYcb0", "types": ["point_of_interest", "establishment"]}, "ChIJL9DAzgcQdkgRFBnzDcvexE8": {"geometry": {"location": {"lat": 51.52448063594285, "lng": -0.1905032757479291}, "viewport": {"northeast": {"lat": 51.5258270802915, "lng": -0.18912815}, "southwest": {"lat": 51.5231291197085, "lng": -0.19187355}}}, "name": "68-84 Sutherland Ave", "place_id": "ChIJL9DAzgcQdkgRFBnzDcvexE8", "types": ["route"]}, "ChIJSc-Ctg8QdkgRi-qyBkEFw8E": {"geometry": {"location": {"lat": 51.52465830000001, "lng": -0.1904119}, "viewport": {"northeast": {"lat": 51.5261383802915, "lng": -0.189044169708498}, "southwest": {"lat": 51.5234404197085, "lng": -0.191742130291502}}}, "name": "Body Back Up Osteopath Healthcare", "place_id": "ChIJSc-Ctg8QdkgRi-qyBkEFw8E", "types": ["health", "point_of_interest", "establishment"], "rating": 4.8, "user_ratings_total": 6}, "ChIJnWfMzAcQdkgRzzN7-fKyJXs": {"geometry": {"location": {"lat": 51.52457440000001, "lng": -0.1906411}, "viewport": {"northeast": {"lat": 51.5258686802915, "lng": -0.189240619708498}, "southwest": {"lat": 51.5231707197085, "lng": -0.191938580291502}}}, "name": "captured by Juliana", "place_id": "ChIJnWfMzAcQdkgRzzN7-fKyJXs", "types": ["point_of_interest", "establishment"], "rating": 5, "user_ratings_total": 3}, "ChIJeWak1g8QdkgR5Z7dxcnnweM": {"geometry": {"location": {"lat": 51.52465830000001, "lng": -0.1904119}, "viewport": {"northeast": {"lat": 51.5261383802915, "lng": -0.189044169708498}, "southwest": {"lat": 51.5234404197085, "lng": -0.191742130291502}}}, "name": "Bodybackup", "place_id": "ChIJeWak1g8QdkgR5Z7dxcnnweM", "types": ["health", "point_of_interest", "store", "establishment"], "rating": 5, "user_ratings_total": 4}, "ChIJBaxu_qcadkgRqk8lGm1L0BA": {"geometry": {"location": {"lat": 51.52465830000001, "lng": -0.1904119}, "viewport": {"northeast": {"lat": 51.52613788029149, "lng": -0.189048569708498}, "southwest": {"lat": 51.52343991970849, "lng": -0.191746530291502}}}, "name": "Maida Vale Library", "place_id": "ChIJBaxu_qcadkgRqk8lGm1L0BA", "types": ["library", "point_of_interest", "establishment"], "rating": 4.4, "user_ratings_total": 34}, "ChIJSVgvNEIRdkgRZvPu50i7JbI": {"geometry": {"location": {"lat": 51.52491, "lng": -0.1906588}, "viewport": {"northeast": {"lat": 51.5263309802915, "lng": -0.189219369708498}, "southwest": {"lat": 51.5236330197085, "lng": -0.191917330291502}}}, "name": "Super International Removals London", "place_id": "ChIJSVgvNEIRdkgRZvPu50i7JbI", "types": ["moving_company", "point_of_interest", "establishment"]}, "ChIJpwCPywcQdkgRDQsozFx6bxI": {"geometry": {"location": {"lat": 51.5244644, "lng": -0.1906853}, "viewport": {"northeast": {"lat": 51.5257814302915, "lng": -0.189312369708498}, "southwest": {"lat": 51.5230834697085, "lng": -0.192010330291502}}}, "name": "ubitricity Charging Station", "place_id": "ChIJpwCPywcQdkgRDQsozFx6bxI", "types": ["point_of_interest", "establishment"]}, "ChIJ2WxrJMYRdkgRBbtEH5kt4KY": {"geometry": {"location": {"lat": 51.5224213, "lng": -0.1906266}, "viewport": {"northeast": {"lat": 51.52377603029149, "lng": -0.189374769708498}, "southwest": {"lat": 51.5210780697085, "lng": -0.192072730291502}}}, "name": "Max Effect Builders", "place_id": "ChIJ2WxrJMYRdkgRBbtEH5kt4KY", "types": ["point_of_interest", "establishment"]}, "ChIJFQMcoAgQdkgRkQNH65pW1Lo": {"geometry": {"location": {"lat": 51.5254245, "lng": -0.1925562}, "viewport": {"northeast": {"lat": 51.5267245802915, "lng": -0.1912781197084979}, "southwest": {"lat": 51.5240266197085, "lng": -0.193976080291502}}}, "name": "Even Flow Lifestyle Fitness", "place_id": "ChIJFQMcoAgQdkgRkQNH65pW1Lo", "types": ["gym", "health", "point_of_interest", "establishment"]}, "ChIJh_xYGAYQdkgRoeZVTzEqcbQ": {"geometry": {"location": {"lat": 51.5248617, "lng": -0.1926561}, "viewport": {"northeast": {"lat": 51.5261996302915, "lng": -0.191294219708498}, "southwest": {"lat": 51.5235016697085, "lng": -0.193992180291502}}}, "name": "Dancing Tao", "place_id": "ChIJh_xYGAYQdkgRoeZVTzEqcbQ", "types": ["point_of_interest", "establishment"]}, "ChIJLbqnaCzyd0gRe2g3CKtzoHk": {"geometry": {"location": {"lat": 51.5248617, "lng": -0.1926561}, "viewport": {"northeast": {"lat": 51.5261996302915, "lng": -0.191294219708498}, "southwest": {"lat": 51.5235016697085, "lng": -0.193992180291502}}}, "name": "United Teaching", "place_id": "ChIJLbqnaCzyd0gRe2g3CKtzoHk", "types": ["point_of_interest", "establishment"]}, "ChIJweb2GQYQdkgRif2tw1ijrGA": {"geometry": {"location": {"lat": 51.524759, "lng": -0.192883}, "viewport": {"northeast": {"lat": 51.52609683029149, "lng": -0.191521019708498}, "southwest": {"lat": 51.52339886970849, "lng": -0.194218980291502}}}, "name": "Caramelo Latin Dance", "place_id": "ChIJweb2GQYQdkgRif2tw1ijrGA", "types": ["point_of_interest", "establishment"], "rating": 4.4, "user_ratings_total": 81}, "ChIJ9a9lxIgRdkgRJa2p4LHImHI": {"geometry": {"location": {"lat": 51.52462200000001, "lng": -0.1924624}, "viewport": {"northeast": {"lat": 51.52605243029151, "lng": -0.190939419708498}, "southwest": {"lat": 51.52335446970851, "lng": -0.193637380291502}}}, "name": "SA GLOBAL ENGINEERING", "place_id": "ChIJ9a9lxIgRdkgRJa2p4LHImHI", "types": ["plumber", "point_of_interest", "establishment"]}, "ChIJ-eAoBkwRdkgRbLM5234JIg0": {"geometry": {"location": {"lat": 51.5248617, "lng": -0.1926561}, "viewport": {"northeast": {"lat": 51.5261996302915, "lng": -0.191294219708498}, "southwest": {"lat": 51.5235016697085, "lng": -0.193992180291502}}}, "name": "Bluebirds Ballet School", "place_id": "ChIJ-eAoBkwRdkgRbLM5234JIg0", "types": ["point_of_interest", "establishment"]}, "ChIJ9a11aQYQdkgROmDzKpg2sBY": {"geometry": {"location": {"lat": 51.52363304207664, "lng": -0.1928358679463774}, "viewport": {"northeast": {"lat": 51.5249662302915, "lng": -0.191463369708498}, "southwest": {"lat": 51.5222682697085, "lng": -0.194161330291502}}}, "name": "Sutherland Avenue", "place_id": "ChIJ9a11aQYQdkgROmDzKpg2sBY", "types": ["route"]}, "ChIJP2nNo7gRdkgRLlGAf0rjKhA": {"geometry": {"location": {"lat": 51.52366439999999, "lng": -0.1925066}, "viewport": {"northeast": {"lat": 51.5250026302915, "lng": -0.191147519708498}, "southwest": {"lat": 51.5223046697085, "lng": -0.193845480291502}}}, "name": "Samuel Grayson Ltd", "place_id": "ChIJP2nNo7gRdkgRLlGAf0rjKhA", "types": ["general_contractor", "point_of_interest", "establishment"]}, "ChIJ7fiHQgYQdkgRCOPsR3tzLko": {"geometry": {"location": {"lat": 51.5235564, "lng": -0.1924786999999999}, "viewport": {"northeast": {"lat": 51.5249575302915, "lng": -0.191178919708498}, "southwest": {"lat": 51.5222595697085, "lng": -0.193876880291502}}}, "name": "London Hostess Agency Limited", "place_id": "ChIJ7fiHQgYQdkgRCOPsR3tzLko", "types": ["point_of_interest", "establishment"], "rating": 1, "user_ratings_total": 1}, "ChIJ60RjQQYQdkgR5LAmdvroHyM": {"geometry": {"location": {"lat": 51.523739, "lng": -0.19229}, "viewport": {"northeast": {"lat": 51.52509683029151, "lng": -0.190952719708498}, "southwest": {"lat": 51.52239886970851, "lng": -0.193650680291502}}}, "name": "Chargemaster Charging Station", "place_id": "ChIJ60RjQQYQdkgR5LAmdvroHyM", "types": ["point_of_interest", "establishment"]}, "ChIJPf-PagYQdkgRfkvbamcmGsw": {"geometry": {"location": {"lat": 51.52392529999999, "lng": -0.1925718}, "viewport": {"northeast": {"lat": 51.5252005302915, "lng": -0.191154119708498}, "southwest": {"lat": 51.5225025697085, "lng": -0.193852080291502}}}, "name": "SCL Consultancy", "place_id": "ChIJPf-PagYQdkgRfkvbamcmGsw", "types": ["point_of_interest", "establishment"]}, "ChIJZ-U5rqQRdkgRNCzk43AO2GE": {"geometry": {"location": {"lat": 51.52260259999999, "lng": -0.1924146}, "viewport": {"northeast": {"lat": 51.52412033029149, "lng": -0.191211269708498}, "southwest": {"lat": 51.52142236970849, "lng": -0.193909230291502}}}, "name": "Litter Art", "place_id": "ChIJZ-U5rqQRdkgRNCzk43AO2GE", "types": ["tourist_attraction", "point_of_interest", "establishment"]}}}