{"E00023477": {"ChIJXRpReQAQdkgR_dewMCKIMy8": {"geometry": {"location": {"lat": 51.51717115003591, "lng": -0.1882312000477184}, "viewport": {"northeast": {"lat": 51.5185201302915, "lng": -0.186882219708498}, "southwest": {"lat": 51.5158221697085, "lng": -0.189580180291502}}}, "name": "81-73 Queensway", "place_id": "ChIJXRpReQAQdkgR_dewMCKIMy8", "types": ["route"]}, "ChIJQToawlIFdkgRt9kSPQ21r7Y": {"geometry": {"location": {"lat": 51.51744110000001, "lng": -0.188662}, "viewport": {"northeast": {"lat": 51.5188233802915, "lng": -0.187205219708498}, "southwest": {"lat": 51.5161254197085, "lng": -0.189903180291502}}}, "name": "Paddington Library", "place_id": "ChIJQToawlIFdkgRt9kSPQ21r7Y", "types": ["library", "point_of_interest", "establishment"], "rating": 4.3, "user_ratings_total": 55}, "ChIJl6lGfwAQdkgRWnq4rgACq0U": {"geometry": {"location": {"lat": 51.51729999999999, "lng": -0.1885}, "viewport": {"northeast": {"lat": 51.51872348029149, "lng": -0.187073219708498}, "southwest": {"lat": 51.5160255197085, "lng": -0.189771180291502}}}, "name": "Porchester Hall", "place_id": "ChIJl6lGfwAQdkgRWnq4rgACq0U", "types": ["point_of_interest", "establishment"], "rating": 4.1, "user_ratings_total": 273}, "ChIJ8-1zfQAQdkgRwIL9Ylf-xS4": {"geometry": {"location": {"lat": 51.517419, "lng": -0.188642}, "viewport": {"northeast": {"lat": 51.5188207302915, "lng": -0.187182919708498}, "southwest": {"lat": 51.5161227697085, "lng": -0.189880880291502}}}, "name": "Amazon Locker - Hinch", "place_id": "ChIJ8-1zfQAQdkgRwIL9Ylf-xS4", "types": ["point_of_interest", "establishment"], "rating": 4.8, "user_ratings_total": 4}, "ChIJl_3O-cMRdkgRrbSr_zowga0": {"geometry": {"location": {"lat": 51.51703209999999, "lng": -0.1884809}, "viewport": {"northeast": {"lat": 51.51841303029149, "lng": -0.1871531697084979}, "southwest": {"lat": 51.51571506970849, "lng": -0.189851130291502}}}, "name": "Pizza Go Go", "place_id": "ChIJl_3O-cMRdkgRrbSr_zowga0", "types": ["meal_delivery", "meal_takeaway", "restaurant", "food", "point_of_interest", "establishment"], "rating": 3.8, "user_ratings_total": 54}, "ChIJl3FQegAQdkgRTawlWOlfKXg": {"geometry": {"location": {"lat": 51.5175584, "lng": -0.1886654}, "viewport": {"northeast": {"lat": 51.5188642802915, "lng": -0.187224069708498}, "southwest": {"lat": 51.5161663197085, "lng": -0.189922030291502}}}, "name": "SEBRA", "place_id": "ChIJl3FQegAQdkgRTawlWOlfKXg", "types": ["point_of_interest", "establishment"]}, "ChIJDewZdgAQdkgRXMSeTlPkmjs": {"geometry": {"location": {"lat": 51.516914, "lng": -0.188276}, "viewport": {"northeast": {"lat": 51.5182979302915, "lng": -0.186789469708498}, "southwest": {"lat": 51.5155999697085, "lng": -0.189487430291502}}}, "name": "Bayswater Pharmacy and Spa", "place_id": "ChIJDewZdgAQdkgRXMSeTlPkmjs", "types": ["pharmacy", "health", "point_of_interest", "store", "establishment"], "rating": 4.5, "user_ratings_total": 18}, "ChIJo36jOj-_3kcRsv2ilbRPiDc": {"geometry": {"location": {"lat": 51.51728079999999, "lng": -0.189008}, "viewport": {"northeast": {"lat": 51.51874788029149, "lng": -0.187630769708498}, "southwest": {"lat": 51.51604991970849, "lng": -0.190328730291502}}}, "name": "Thai Massage Worx", "place_id": "ChIJo36jOj-_3kcRsv2ilbRPiDc", "types": ["point_of_interest", "establishment"], "rating": 5, "user_ratings_total": 3}, "ChIJAQAwYwAQdkgRR8zQVCPtv88": {"geometry": {"location": {"lat": 51.517093, "lng": -0.189093}, "viewport": {"northeast": {"lat": 51.5183797302915, "lng": -0.187709619708498}, "southwest": {"lat": 51.51568176970851, "lng": -0.190407580291502}}}, "name": "Shotokan Fitness Karate School", "place_id": "ChIJAQAwYwAQdkgRR8zQVCPtv88", "types": ["health", "point_of_interest", "establishment"], "rating": 4.8, "user_ratings_total": 21}, "ChIJAfH8g6oadkgRun3RVmbRlb4": {"geometry": {"location": {"lat": 51.5171988, "lng": -0.1876484}, "viewport": {"northeast": {"lat": 51.51861958029149, "lng": -0.186349369708498}, "southwest": {"lat": 51.51592161970849, "lng": -0.189047330291502}}}, "name": "Glamour portrait studio", "place_id": "ChIJAfH8g6oadkgRun3RVmbRlb4", "types": ["point_of_interest", "establishment"]}, "ChIJT01_8qoadkgRNkajETI_g2Q": {"geometry": {"location": {"lat": 51.5171988, "lng": -0.1876484}, "viewport": {"northeast": {"lat": 51.51861958029149, "lng": -0.186349369708498}, "southwest": {"lat": 51.51592161970849, "lng": -0.189047330291502}}}, "name": "Top Gallery", "place_id": "ChIJT01_8qoadkgRNkajETI_g2Q", "types": ["point_of_interest", "establishment"]}, "ChIJVRDcS90PdkgRU9P__EZASS8": {"geometry": {"location": {"lat": 51.51679379999999, "lng": -0.1880829}, "viewport": {"northeast": {"lat": 51.51816528029149, "lng": -0.186645319708498}, "southwest": {"lat": 51.51546731970849, "lng": -0.189343280291502}}}, "name": "VoltaElectrics", "place_id": "ChIJVRDcS90PdkgRU9P__EZASS8", "types": ["electrician", "point_of_interest", "establishment"]}, "ChIJ-8eNiAAQdkgRbR3UT6W8x04": {"geometry": {"location": {"lat": 51.51768210000001, "lng": -0.1888764}, "viewport": {"northeast": {"lat": 51.51903108029151, "lng": -0.187527419708498}, "southwest": {"lat": 51.51633311970851, "lng": -0.1902253802915021}}}, "name": "West London Buddhist Centre", "place_id": "ChIJ-8eNiAAQdkgRbR3UT6W8x04", "types": ["place_of_worship", "health", "point_of_interest", "establishment"], "rating": 4.7, "user_ratings_total": 56}, "ChIJ9yy1ZgAQdkgRunGeERbrk68": {"geometry": {"location": {"lat": 51.5171546, "lng": -0.1892486}, "viewport": {"northeast": {"lat": 51.5184046802915, "lng": -0.1878135197084979}, "southwest": {"lat": 51.5157067197085, "lng": -0.190511480291502}}}, "name": "Porchester Centre Karate", "place_id": "ChIJ9yy1ZgAQdkgRunGeERbrk68", "types": ["health", "point_of_interest", "establishment"]}, "ChIJc6X5le8adkgRUy_3Odu_Bf4": {"geometry": {"location": {"lat": 51.5172631, "lng": -0.1886998}, "viewport": {"northeast": {"lat": 51.51868273029149, "lng": -0.187150069708498}, "southwest": {"lat": 51.5159847697085, "lng": -0.189848030291502}}}, "name": "London International Christian Church", "place_id": "ChIJc6X5le8adkgRUy_3Odu_Bf4", "types": ["church", "place_of_worship", "point_of_interest", "establishment"], "rating": 4, "user_ratings_total": 125}, "ChIJSXiRhgAQdkgR3WqYl0DsLDc": {"geometry": {"location": {"lat": 51.5173418, "lng": -0.1885542}, "viewport": {"northeast": {"lat": 51.51872933029149, "lng": -0.187087569708498}, "southwest": {"lat": 51.5160313697085, "lng": -0.189785530291502}}}, "name": "Public Library", "place_id": "ChIJSXiRhgAQdkgR3WqYl0DsLDc", "types": ["point_of_interest", "establishment"]}, "ChIJkVY4eQAQdkgRSFvsaiDj6KE": {"geometry": {"location": {"lat": 51.5174212, "lng": -0.1883203}, "viewport": {"northeast": {"lat": 51.51878473029149, "lng": -0.186926919708498}, "southwest": {"lat": 51.51608676970849, "lng": -0.189624880291502}}}, "name": "Paddington Youth Point", "place_id": "ChIJkVY4eQAQdkgRSFvsaiDj6KE", "types": ["point_of_interest", "establishment"]}, "ChIJycD8fQAQdkgRS5sJB_kiIXk": {"geometry": {"location": {"lat": 51.5174269, "lng": -0.1885045}, "viewport": {"northeast": {"lat": 51.5188024802915, "lng": -0.187089219708498}, "southwest": {"lat": 51.51610451970851, "lng": -0.189787180291502}}}, "name": "MassageJoy | London's 5 Star Mobile Massage", "place_id": "ChIJycD8fQAQdkgRS5sJB_kiIXk", "types": ["point_of_interest", "establishment"], "rating": 4.3, "user_ratings_total": 28}, "ChIJYWDdCf0RdkgReIzPHiHqlTc": {"geometry": {"location": {"lat": 51.51703930000001, "lng": -0.188348}, "viewport": {"northeast": {"lat": 51.5184221302915, "lng": -0.186865869708498}, "southwest": {"lat": 51.51572416970851, "lng": -0.1895638302915021}}}, "name": "Deepak Supermarket London", "place_id": "ChIJYWDdCf0RdkgReIzPHiHqlTc", "types": ["supermarket", "grocery_or_supermarket", "food", "point_of_interest", "store", "establishment"]}, "ChIJDVV2eQAQdkgR8CJncCkDPy8": {"geometry": {"location": {"lat": 51.5170022, "lng": -0.188371}, "viewport": {"northeast": {"lat": 51.5183901802915, "lng": -0.186868569708498}, "southwest": {"lat": 51.5156922197085, "lng": -0.1895665302915021}}}, "name": "Three B", "place_id": "ChIJDVV2eQAQdkgR8CJncCkDPy8", "types": ["point_of_interest", "establishment"]}, "ChIJDVV2eQAQdkgR3aSumkStN_s": {"geometry": {"location": {"lat": 51.5170022, "lng": -0.188371}, "viewport": {"northeast": {"lat": 51.5183901802915, "lng": -0.186868569708498}, "southwest": {"lat": 51.5156922197085, "lng": -0.1895665302915021}}}, "name": "La Maja", "place_id": "ChIJDVV2eQAQdkgR3aSumkStN_s", "types": ["point_of_interest", "establishment"]}, "ChIJDQnJoh8RdkgRZcW8nibL5pY": {"geometry": {"location": {"lat": 51.5172798, "lng": -0.1888466}, "viewport": {"northeast": {"lat": 51.5185147802915, "lng": -0.187421869708498}, "southwest": {"lat": 51.5158168197085, "lng": -0.190119830291502}}}, "name": "Everyone Active", "place_id": "ChIJDQnJoh8RdkgRZcW8nibL5pY", "types": ["gym", "health", "point_of_interest", "establishment"], "rating": 2.3, "user_ratings_total": 12}, "ChIJH6c7gqoadkgRasxtY-wK3kk": {"geometry": {"location": {"lat": 51.5171053, "lng": -0.1879392000000001}, "viewport": {"northeast": {"lat": 51.51843888029151, "lng": -0.186650819708498}, "southwest": {"lat": 51.51574091970851, "lng": -0.189348780291502}}}, "name": "Gp Flewis", "place_id": "ChIJH6c7gqoadkgRasxtY-wK3kk", "types": ["point_of_interest", "establishment"]}, "ChIJkwhbc-IRdkgRBdaPvPDD5nE": {"geometry": {"location": {"lat": 51.5169465, "lng": -0.1886383}, "viewport": {"northeast": {"lat": 51.51834693029149, "lng": -0.187322869708498}, "southwest": {"lat": 51.51564896970849, "lng": -0.190020830291502}}}, "name": "Mario's Cakes London", "place_id": "ChIJkwhbc-IRdkgRBdaPvPDD5nE", "types": ["bakery", "food", "point_of_interest", "store", "establishment"]}, "ChIJx-MhvbYRdkgRUxY6bEIQiNs": {"geometry": {"location": {"lat": 51.5169465, "lng": -0.1886383}, "viewport": {"northeast": {"lat": 51.51834693029149, "lng": -0.187322869708498}, "southwest": {"lat": 51.51564896970849, "lng": -0.190020830291502}}}, "name": "Gym Fitness Trainer Amir", "place_id": "ChIJx-MhvbYRdkgRUxY6bEIQiNs", "types": ["health", "point_of_interest", "establishment"]}, "ChIJ6xV85kMRdkgRMhtOKlJ_OTM": {"geometry": {"location": {"lat": 51.5169465, "lng": -0.1886383}, "viewport": {"northeast": {"lat": 51.5183466802915, "lng": -0.187323369708498}, "southwest": {"lat": 51.5156487197085, "lng": -0.190021330291502}}}, "name": "ALLSTON RILEY", "place_id": "ChIJ6xV85kMRdkgRMhtOKlJ_OTM", "types": ["point_of_interest", "establishment"], "rating": 5, "user_ratings_total": 2}, "ChIJ36uPHQsRdkgRyoCGrFHgxz8": {"geometry": {"location": {"lat": 51.5169465, "lng": -0.1886383}, "viewport": {"northeast": {"lat": 51.5183466802915, "lng": -0.187323369708498}, "southwest": {"lat": 51.5156487197085, "lng": -0.190021330291502}}}, "name": "LGATOR", "place_id": "ChIJ36uPHQsRdkgRyoCGrFHgxz8", "types": ["point_of_interest", "store", "establishment"]}, "ChIJ1WFTJcERdkgRpGEKyr5Er1M": {"geometry": {"location": {"lat": 51.5169465, "lng": -0.1886383}, "viewport": {"northeast": {"lat": 51.5183466802915, "lng": -0.187323369708498}, "southwest": {"lat": 51.5156487197085, "lng": -0.190021330291502}}}, "name": "Ecommerce Marketing Agency London, UK", "place_id": "ChIJ1WFTJcERdkgRpGEKyr5Er1M", "types": ["point_of_interest", "establishment"], "rating": 5, "user_ratings_total": 7}, "ChIJlR2oYwAQdkgRmKwqLFeSLME": {"geometry": {"location": {"lat": 51.5172823, "lng": -0.1889834}, "viewport": {"northeast": {"lat": 51.5187486302915, "lng": -0.187630769708498}, "southwest": {"lat": 51.51605066970851, "lng": -0.190328730291502}}}, "name": "Porchester Sports Injury Clinic", "place_id": "ChIJlR2oYwAQdkgRmKwqLFeSLME", "types": ["physiotherapist", "health", "point_of_interest", "establishment"]}, "ChIJPet9Nt0bdkgROB2b7EAi9IU": {"geometry": {"location": {"lat": 51.517301, "lng": -0.1878178}, "viewport": {"northeast": {"lat": 51.51864018029151, "lng": -0.186462019708498}, "southwest": {"lat": 51.51594221970851, "lng": -0.189159980291502}}}, "name": "Porchester Square Apartments", "place_id": "ChIJPet9Nt0bdkgROB2b7EAi9IU", "types": ["real_estate_agency", "lodging", "point_of_interest", "establishment"]}, "ChIJL4bGeQAQdkgRxm111FMIe7s": {"geometry": {"location": {"lat": 51.5168922, "lng": -0.1883027}, "viewport": {"northeast": {"lat": 51.5182805802915, "lng": -0.186798619708498}, "southwest": {"lat": 51.5155826197085, "lng": -0.189496580291502}}}, "name": "Pazache", "place_id": "ChIJL4bGeQAQdkgRxm111FMIe7s", "types": ["shopping_mall", "point_of_interest", "establishment"]}, "ChIJDewZdgAQdkgRbM7qJfIeQv8": {"geometry": {"location": {"lat": 51.51689899999999, "lng": -0.1881343999999999}, "viewport": {"northeast": {"lat": 51.51826858029149, "lng": -0.1867043197084979}, "southwest": {"lat": 51.5155706197085, "lng": -0.189402280291502}}}, "name": "Porchester Sweet Shop", "place_id": "ChIJDewZdgAQdkgRbM7qJfIeQv8", "types": ["store", "point_of_interest", "establishment"]}, "ChIJPe0DgaoadkgRnqA7X2skhQQ": {"geometry": {"location": {"lat": 51.51727959999999, "lng": -0.1877423}, "viewport": {"northeast": {"lat": 51.5186539802915, "lng": -0.186410969708498}, "southwest": {"lat": 51.5159560197085, "lng": -0.189108930291502}}}, "name": "The Colonnades", "place_id": "ChIJPe0DgaoadkgRnqA7X2skhQQ", "types": ["point_of_interest", "establishment"], "rating": 4.5, "user_ratings_total": 19}, "ChIJ5XSSDlARdkgRwYeEXtwEJ5c": {"geometry": {"location": {"lat": 51.51688440000001, "lng": -0.188111}, "viewport": {"northeast": {"lat": 51.5182524802915, "lng": -0.186686869708498}, "southwest": {"lat": 51.5155545197085, "lng": -0.189384830291502}}}, "name": "Peters Court", "place_id": "ChIJ5XSSDlARdkgRwYeEXtwEJ5c", "types": ["point_of_interest", "establishment"], "rating": 5, "user_ratings_total": 1}, "ChIJBVB9WIcRdkgRXjTINC6LTK4": {"geometry": {"location": {"lat": 51.51688479999999, "lng": -0.1880728}, "viewport": {"northeast": {"lat": 51.51824868029149, "lng": -0.1866651197084979}, "southwest": {"lat": 51.51555071970849, "lng": -0.189363080291502}}}, "name": "Abraham Abrahamsen", "place_id": "ChIJBVB9WIcRdkgRXjTINC6LTK4", "types": ["lodging", "point_of_interest", "establishment"], "rating": 5, "user_ratings_total": 1}, "ChIJQU24CUMbdkgRnmjqsI8aqT8": {"geometry": {"location": {"lat": 51.5172167, "lng": -0.1876959}, "viewport": {"northeast": {"lat": 51.5186246302915, "lng": -0.186387669708498}, "southwest": {"lat": 51.5159266697085, "lng": -0.189085630291502}}}, "name": "Refigure Accounting Solutions Ltd", "place_id": "ChIJQU24CUMbdkgRnmjqsI8aqT8", "types": ["accounting", "finance", "point_of_interest", "establishment"]}, "ChIJpy1JnaoadkgRCO8hQ-t9jKs": {"geometry": {"location": {"lat": 51.5168526, "lng": -0.188022}, "viewport": {"northeast": {"lat": 51.5182153802915, "lng": -0.186628419708498}, "southwest": {"lat": 51.5155174197085, "lng": -0.189326380291502}}}, "name": "Porchester Road Royal Oak (Stop J)", "place_id": "ChIJpy1JnaoadkgRCO8hQ-t9jKs", "types": ["transit_station", "point_of_interest", "establishment"]}, "ChIJDewZdgAQdkgR79MXC93xAww": {"geometry": {"location": {"lat": 51.5167964, "lng": -0.1881686}, "viewport": {"northeast": {"lat": 51.5181770302915, "lng": -0.1866950197084979}, "southwest": {"lat": 51.5154790697085, "lng": -0.189392980291502}}}, "name": "Peters Court Hairdressing", "place_id": "ChIJDewZdgAQdkgR79MXC93xAww", "types": ["beauty_salon", "point_of_interest", "establishment"], "rating": 4, "user_ratings_total": 31}, "ChIJKySnCQwRdkgRWSfVa5P-Nc8": {"geometry": {"location": {"lat": 51.5167875, "lng": -0.1881593}, "viewport": {"northeast": {"lat": 51.51816778029151, "lng": -0.186687219708498}, "southwest": {"lat": 51.51546981970851, "lng": -0.189385180291502}}}, "name": "Grab Burger", "place_id": "ChIJKySnCQwRdkgRWSfVa5P-Nc8", "types": ["meal_takeaway", "restaurant", "food", "point_of_interest", "establishment"]}, "ChIJdapBdgAQdkgRsoGfjA5xewQ": {"geometry": {"location": {"lat": 51.5176637, "lng": -0.1889193}, "viewport": {"northeast": {"lat": 51.5190126802915, "lng": -0.187570319708498}, "southwest": {"lat": 51.5163147197085, "lng": -0.190268280291502}}}, "name": "Breathworks-Mindfulness CIC - London Office", "place_id": "ChIJdapBdgAQdkgRsoGfjA5xewQ", "types": ["health", "point_of_interest", "establishment"], "rating": 4.7, "user_ratings_total": 3}, "ChIJAeQIpHEZdkgRxTSKqgFO_BQ": {"geometry": {"location": {"lat": 51.5167441, "lng": -0.1886656}, "viewport": {"northeast": {"lat": 51.5181153302915, "lng": -0.187225719708498}, "southwest": {"lat": 51.5154173697085, "lng": -0.189923680291502}}}, "name": "RCBS Limited", "place_id": "ChIJAeQIpHEZdkgRxTSKqgFO_BQ", "types": ["point_of_interest", "establishment"]}, "ChIJuU4kCgAQdkgRiE10pd6UD0s": {"geometry": {"location": {"lat": 51.51587269664572, "lng": -0.1881647199968618}, "viewport": {"northeast": {"lat": 51.5172226302915, "lng": -0.186816869708498}, "southwest": {"lat": 51.5145246697085, "lng": -0.189514830291502}}}, "name": "96 A4206", "place_id": "ChIJuU4kCgAQdkgRiE10pd6UD0s", "types": ["route"]}, "ChIJ8driDQAQdkgRe4LyejMhU3c": {"geometry": {"location": {"lat": 51.5158501, "lng": -0.18874}, "viewport": {"northeast": {"lat": 51.5171478302915, "lng": -0.187372619708498}, "southwest": {"lat": 51.51444986970851, "lng": -0.190070580291502}}}, "name": "Transformed Windows", "place_id": "ChIJ8driDQAQdkgRe4LyejMhU3c", "types": ["point_of_interest", "establishment"]}, "ChIJDewZdgAQdkgRWFWVeVWc5QE": {"geometry": {"location": {"lat": 51.5165291, "lng": -0.1878481}, "viewport": {"northeast": {"lat": 51.5178937302915, "lng": -0.1864362197084979}, "southwest": {"lat": 51.51519576970851, "lng": -0.189134180291502}}}, "name": "William Hill", "place_id": "ChIJDewZdgAQdkgRWFWVeVWc5QE", "types": ["point_of_interest", "establishment"], "rating": 2.7, "user_ratings_total": 9}, "ChIJjXswoKoadkgRybkxA9Ltrhk": {"geometry": {"location": {"lat": 51.5161425, "lng": -0.1877597}, "viewport": {"northeast": {"lat": 51.51746368029151, "lng": -0.1862907697084979}, "southwest": {"lat": 51.51476571970851, "lng": -0.188988730291502}}}, "name": "The Porchester Pub", "place_id": "ChIJjXswoKoadkgRybkxA9Ltrhk", "types": ["bar", "point_of_interest", "establishment"], "rating": 4.2, "user_ratings_total": 570}, "ChIJe7fioKoadkgROnJjVHAGhGE": {"geometry": {"location": {"lat": 51.5160889, "lng": -0.1879611}, "viewport": {"northeast": {"lat": 51.5173812802915, "lng": -0.1865656697084979}, "southwest": {"lat": 51.5146833197085, "lng": -0.189263630291502}}}, "name": "MangiaTutto Restaurant - Westminster - Bayswater", "place_id": "ChIJe7fioKoadkgROnJjVHAGhGE", "types": ["restaurant", "food", "point_of_interest", "establishment"], "rating": 4.5, "user_ratings_total": 357}, "ChIJDewZdgAQdkgRSMGT52dAxyU": {"geometry": {"location": {"lat": 51.51634, "lng": -0.1879072}, "viewport": {"northeast": {"lat": 51.5177250802915, "lng": -0.186416869708498}, "southwest": {"lat": 51.5150271197085, "lng": -0.189114830291502}}}, "name": "The Tanning Shop Bayswater", "place_id": "ChIJDewZdgAQdkgRSMGT52dAxyU", "types": ["point_of_interest", "establishment"], "rating": 3.7, "user_ratings_total": 56}, "ChIJL4bGeQAQdkgRaAHkbfFrX6Q": {"geometry": {"location": {"lat": 51.5164963, "lng": -0.1879839}, "viewport": {"northeast": {"lat": 51.5178785302915, "lng": -0.186504869708498}, "southwest": {"lat": 51.5151805697085, "lng": -0.189202830291502}}}, "name": "Mid-century Online", "place_id": "ChIJL4bGeQAQdkgRaAHkbfFrX6Q", "types": ["furniture_store", "home_goods_store", "point_of_interest", "store", "establishment"], "rating": 5, "user_ratings_total": 4}, "ChIJIXllDQAQdkgRPWtwfSnjZ1A": {"geometry": {"location": {"lat": 51.5160267, "lng": -0.1888483}, "viewport": {"northeast": {"lat": 51.5174139302915, "lng": -0.187351019708498}, "southwest": {"lat": 51.5147159697085, "lng": -0.190048980291502}}}, "name": "Alan Martin Estate Agents", "place_id": "ChIJIXllDQAQdkgRPWtwfSnjZ1A", "types": ["real_estate_agency", "point_of_interest", "establishment"], "rating": 2.8, "user_ratings_total": 6}, "ChIJDewZdgAQdkgR3PJyD03meSE": {"geometry": {"location": {"lat": 51.51640640000001, "lng": -0.1879011}, "viewport": {"northeast": {"lat": 51.5177860302915, "lng": -0.186432119708498}, "southwest": {"lat": 51.5150880697085, "lng": -0.1891300802915021}}}, "name": "Bayswater Dry Cleaner Perfect Dry Cleaners", "place_id": "ChIJDewZdgAQdkgR3PJyD03meSE", "types": ["locksmith", "laundry", "point_of_interest", "establishment"], "rating": 4.2, "user_ratings_total": 21}, "ChIJ847SnaoadkgRXv8s9-ZgcIA": {"geometry": {"location": {"lat": 51.5164963, "lng": -0.1879839}, "viewport": {"northeast": {"lat": 51.5178785302915, "lng": -0.186504869708498}, "southwest": {"lat": 51.5151805697085, "lng": -0.189202830291502}}}, "name": "Let Us Make Ltd", "place_id": "ChIJ847SnaoadkgRXv8s9-ZgcIA", "types": ["point_of_interest", "establishment"]}, "ChIJeRm1aFQFdkgRTSRvf_2N1W8": {"geometry": {"location": {"lat": 51.5158253, "lng": -0.1879095}, "viewport": {"northeast": {"lat": 51.5171047802915, "lng": -0.186748369708498}, "southwest": {"lat": 51.5144068197085, "lng": -0.189446330291502}}}, "name": "Kinleigh Folkard & Hayward Bayswater Estate Agents", "place_id": "ChIJeRm1aFQFdkgRTSRvf_2N1W8", "types": ["point_of_interest", "establishment"], "rating": 4.8, "user_ratings_total": 349}, "ChIJcTr6p6oadkgRBkN1gGYt2TA": {"geometry": {"location": {"lat": 51.515775, "lng": -0.187987}, "viewport": {"northeast": {"lat": 51.51718488029151, "lng": -0.1866912697084979}, "southwest": {"lat": 51.51448691970851, "lng": -0.189389230291502}}}, "name": "Optichic Opticians", "place_id": "ChIJcTr6p6oadkgRBkN1gGYt2TA", "types": ["health", "point_of_interest", "store", "establishment"], "rating": 5, "user_ratings_total": 131}, "ChIJCVMsbQAQdkgRzl4W1FB3nYw": {"geometry": {"location": {"lat": 51.51585680000001, "lng": -0.1877972}, "viewport": {"northeast": {"lat": 51.5171745302915, "lng": -0.186613469708498}, "southwest": {"lat": 51.5144765697085, "lng": -0.189311430291502}}}, "name": "Updrive Limited", "place_id": "ChIJCVMsbQAQdkgRzl4W1FB3nYw", "types": ["point_of_interest", "establishment"], "rating": 1, "user_ratings_total": 1}, "ChIJ9yvOpqoadkgRX2HM_WDdHO4": {"geometry": {"location": {"lat": 51.51586409999999, "lng": -0.187764}, "viewport": {"northeast": {"lat": 51.5171745302915, "lng": -0.186596869708498}, "southwest": {"lat": 51.5144765697085, "lng": -0.189294830291502}}}, "name": "Arro Coffee - The Temple of Coffee", "place_id": "ChIJ9yvOpqoadkgRX2HM_WDdHO4", "types": ["cafe", "food", "point_of_interest", "store", "establishment"], "rating": 4.6, "user_ratings_total": 742}, "ChIJ9yvOpqoadkgRKotJw0rBYYI": {"geometry": {"location": {"lat": 51.5158136, "lng": -0.1878217}, "viewport": {"northeast": {"lat": 51.5172327302915, "lng": -0.186530319708498}, "southwest": {"lat": 51.5145347697085, "lng": -0.189228280291502}}}, "name": "Affame London", "place_id": "ChIJ9yvOpqoadkgRKotJw0rBYYI", "types": ["restaurant", "food", "point_of_interest", "establishment"], "rating": 4.8, "user_ratings_total": 4}, "ChIJuXrWEgAQdkgRO0Q7Vs792_k": {"geometry": {"location": {"lat": 51.5160485, "lng": -0.1887885}, "viewport": {"northeast": {"lat": 51.5174275802915, "lng": -0.187322919708498}, "southwest": {"lat": 51.5147296197085, "lng": -0.190020880291502}}}, "name": "Deep Clean", "place_id": "ChIJuXrWEgAQdkgRO0Q7Vs792_k", "types": ["laundry", "point_of_interest", "establishment"], "rating": 4.3, "user_ratings_total": 33}, "ChIJhyLenqoadkgROvwn6cG7M5I": {"geometry": {"location": {"lat": 51.5163666, "lng": -0.1880223}, "viewport": {"northeast": {"lat": 51.5177623802915, "lng": -0.186490219708498}, "southwest": {"lat": 51.5150644197085, "lng": -0.189188180291502}}}, "name": "Steve's Shoe Care Ltd", "place_id": "ChIJhyLenqoadkgROvwn6cG7M5I", "types": ["point_of_interest", "establishment"], "rating": 4.4, "user_ratings_total": 16}, "ChIJuXrWEgAQdkgRTQxOdPLbj10": {"geometry": {"location": {"lat": 51.515906, "lng": -0.188761}, "viewport": {"northeast": {"lat": 51.5172975302915, "lng": -0.187269969708498}, "southwest": {"lat": 51.51459956970851, "lng": -0.189967930291502}}}, "name": "London Base Barbershop- Queensway", "place_id": "ChIJuXrWEgAQdkgRTQxOdPLbj10", "types": ["hair_care", "health", "point_of_interest", "establishment"], "rating": 4.2, "user_ratings_total": 198}, "ChIJDewZdgAQdkgRUZJfvTJ-iRI": {"geometry": {"location": {"lat": 51.51640640000001, "lng": -0.1879011}, "viewport": {"northeast": {"lat": 51.5177860302915, "lng": -0.186432119708498}, "southwest": {"lat": 51.5150880697085, "lng": -0.1891300802915021}}}, "name": "The Bayswater Tailor", "place_id": "ChIJDewZdgAQdkgRUZJfvTJ-iRI", "types": ["point_of_interest", "clothing_store", "store", "establishment"], "rating": 4.6, "user_ratings_total": 8}, "ChIJ8ewZdgAQdkgRZ8ZMoEi478A": {"geometry": {"location": {"lat": 51.51636070000001, "lng": -0.1878319}, "viewport": {"northeast": {"lat": 51.51773618029151, "lng": -0.186379719708498}, "southwest": {"lat": 51.51503821970851, "lng": -0.189077680291502}}}, "name": "Amazonia Beauty Waxing Clinic", "place_id": "ChIJ8ewZdgAQdkgRZ8ZMoEi478A", "types": ["beauty_salon", "point_of_interest", "establishment"], "rating": 5, "user_ratings_total": 1}, "ChIJ__8vCwAQdkgR4q4T-IpC5oI": {"geometry": {"location": {"lat": 51.51613010000001, "lng": -0.1882852}, "viewport": {"northeast": {"lat": 51.5173640302915, "lng": -0.186835669708498}, "southwest": {"lat": 51.5146660697085, "lng": -0.189533630291502}}}, "name": "Macsim Associates", "place_id": "ChIJ__8vCwAQdkgR4q4T-IpC5oI", "types": ["point_of_interest", "establishment"]}, "ChIJ_64ZCwAQdkgRXkoDny1yrow": {"geometry": {"location": {"lat": 51.5160769, "lng": -0.1882755}, "viewport": {"northeast": {"lat": 51.51742588029149, "lng": -0.186926519708498}, "southwest": {"lat": 51.5147279197085, "lng": -0.189624480291502}}}, "name": "Nisbets Catering Equipment Bayswater Store", "place_id": "ChIJ_64ZCwAQdkgRXkoDny1yrow", "types": ["furniture_store", "home_goods_store", "point_of_interest", "store", "establishment"], "rating": 4, "user_ratings_total": 17}, "ChIJpRJKVKwFdkgRcrjT2NethcM": {"geometry": {"location": {"lat": 51.5162075, "lng": -0.1886497}, "viewport": {"northeast": {"lat": 51.51754243029149, "lng": -0.187346019708498}, "southwest": {"lat": 51.5148444697085, "lng": -0.190043980291502}}}, "name": "Valle&Vik", "place_id": "ChIJpRJKVKwFdkgRcrjT2NethcM", "types": ["point_of_interest", "establishment"], "rating": 5, "user_ratings_total": 7}, "ChIJX8hk9qEFdkgRAD8g6WQEiz4": {"geometry": {"location": {"lat": 51.51627209999999, "lng": -0.1887028}, "viewport": {"northeast": {"lat": 51.51761028029149, "lng": -0.187393619708498}, "southwest": {"lat": 51.51491231970849, "lng": -0.190091580291502}}}, "name": "Arthur Court Car Park - My Car Parks", "place_id": "ChIJX8hk9qEFdkgRAD8g6WQEiz4", "types": ["parking", "point_of_interest", "establishment"], "rating": 4.7, "user_ratings_total": 3}, "ChIJCS-lcwAQdkgRn2oFCt_XXlo": {"geometry": {"location": {"lat": 51.5163739, "lng": -0.1885535}, "viewport": {"northeast": {"lat": 51.51769863029151, "lng": -0.187293919708498}, "southwest": {"lat": 51.51500066970851, "lng": -0.189991880291502}}}, "name": "Claremont Court", "place_id": "ChIJCS-lcwAQdkgRn2oFCt_XXlo", "types": ["point_of_interest", "establishment"]}, "ChIJHXeRTYwRdkgRcjwUX2aj0xo": {"geometry": {"location": {"lat": 51.5159724, "lng": -0.1885187}, "viewport": {"northeast": {"lat": 51.51732133029149, "lng": -0.187169819708498}, "southwest": {"lat": 51.51462336970849, "lng": -0.1898677802915021}}}, "name": "Public Toilets (M&F)", "place_id": "ChIJHXeRTYwRdkgRcjwUX2aj0xo", "types": ["point_of_interest", "establishment"], "rating": 3.5, "user_ratings_total": 2}, "ChIJ__8vCwAQdkgReoyHNpV9OP8": {"geometry": {"location": {"lat": 51.516012, "lng": -0.1880972}, "viewport": {"northeast": {"lat": 51.5173208802915, "lng": -0.186697569708498}, "southwest": {"lat": 51.5146229197085, "lng": -0.189395530291502}}}, "name": "Queens", "place_id": "ChIJ__8vCwAQdkgReoyHNpV9OP8", "types": ["point_of_interest", "establishment"]}, "ChIJ1X9SbQAQdkgRETh87p0Chpg": {"geometry": {"location": {"lat": 51.51618060000001, "lng": -0.1888369}, "viewport": {"northeast": {"lat": 51.51755208029149, "lng": -0.187399419708498}, "southwest": {"lat": 51.5148541197085, "lng": -0.190097380291502}}}, "name": "Sarda House", "place_id": "ChIJ1X9SbQAQdkgRETh87p0Chpg", "types": ["point_of_interest", "establishment"]}, "ChIJuVeiVy8RdkgR_hZ2-L4r3gk": {"geometry": {"location": {"lat": 51.5159931, "lng": -0.1887276}, "viewport": {"northeast": {"lat": 51.5173442802915, "lng": -0.1872626197084979}, "southwest": {"lat": 51.5146463197085, "lng": -0.189960580291502}}}, "name": "Putera Puteri", "place_id": "ChIJuVeiVy8RdkgR_hZ2-L4r3gk", "types": ["cafe", "food", "point_of_interest", "establishment"], "rating": 4.2, "user_ratings_total": 84}, "ChIJAbiaEgAQdkgR7Jbdjt1vXM4": {"geometry": {"location": {"lat": 51.5160497, "lng": -0.188831}, "viewport": {"northeast": {"lat": 51.5174333802915, "lng": -0.1873476197084979}, "southwest": {"lat": 51.5147354197085, "lng": -0.190045580291502}}}, "name": "P W Lettings", "place_id": "ChIJAbiaEgAQdkgR7Jbdjt1vXM4", "types": ["real_estate_agency", "point_of_interest", "establishment"]}, "ChIJcTr6p6oadkgRA9hIqFa1ybc": {"geometry": {"location": {"lat": 51.51579709999999, "lng": -0.1879013}, "viewport": {"northeast": {"lat": 51.5172096302915, "lng": -0.186607869708498}, "southwest": {"lat": 51.5145116697085, "lng": -0.189305830291502}}}, "name": "Prontaprint", "place_id": "ChIJcTr6p6oadkgRA9hIqFa1ybc", "types": ["point_of_interest", "establishment"], "rating": 4.5, "user_ratings_total": 8}, "ChIJC-0AEwAQdkgReBrboMc2Up8": {"geometry": {"location": {"lat": 51.51647850000001, "lng": -0.188638}, "viewport": {"northeast": {"lat": 51.5178063802915, "lng": -0.187374569708498}, "southwest": {"lat": 51.5151084197085, "lng": -0.190072530291502}}}, "name": "Queensway Toilets", "place_id": "ChIJC-0AEwAQdkgReBrboMc2Up8", "types": ["point_of_interest", "establishment"], "rating": 3.7, "user_ratings_total": 3}, "ChIJCc2g320RdkgRRhAfB0cxydw": {"geometry": {"location": {"lat": 51.516209, "lng": -0.1889264}, "viewport": {"northeast": {"lat": 51.5175893802915, "lng": -0.187461569708498}, "southwest": {"lat": 51.5148914197085, "lng": -0.190159530291502}}}, "name": "SARDA", "place_id": "ChIJCc2g320RdkgRRhAfB0cxydw", "types": ["point_of_interest", "establishment"]}, "ChIJuwmZDQAQdkgRC7yeJSJc4MQ": {"geometry": {"location": {"lat": 51.51594890000001, "lng": -0.1887982}, "viewport": {"northeast": {"lat": 51.5173363302915, "lng": -0.187300169708498}, "southwest": {"lat": 51.5146383697085, "lng": -0.189998130291502}}}, "name": "Eric & Son", "place_id": "ChIJuwmZDQAQdkgRC7yeJSJc4MQ", "types": ["food", "point_of_interest", "establishment"], "rating": 2, "user_ratings_total": 1}, "ChIJ_a27ACEOdkgRLLNZG59Ogik": {"geometry": {"location": {"lat": 51.5164354, "lng": -0.1880029}, "viewport": {"northeast": {"lat": 51.5178227802915, "lng": -0.186497669708498}, "southwest": {"lat": 51.5151248197085, "lng": -0.189195630291502}}}, "name": "London Arabic Evangelical Church", "place_id": "ChIJ_a27ACEOdkgRLLNZG59Ogik", "types": ["church", "place_of_worship", "point_of_interest", "establishment"], "rating": 5, "user_ratings_total": 1}, "ChIJ73XpcgAQdkgR4cMvVgEq8zY": {"geometry": {"location": {"lat": 51.5161885, "lng": -0.1889611}, "viewport": {"northeast": {"lat": 51.5175744802915, "lng": -0.187475669708498}, "southwest": {"lat": 51.5148765197085, "lng": -0.190173630291502}}}, "name": "Dwm Mortgages", "place_id": "ChIJ73XpcgAQdkgR4cMvVgEq8zY", "types": ["finance", "point_of_interest", "establishment"]}, "ChIJ5xfBaQAQdkgR84aVjHzYkDQ": {"geometry": {"location": {"lat": 51.51631239999999, "lng": -0.1889402}, "viewport": {"northeast": {"lat": 51.5176861302915, "lng": -0.187500019708498}, "southwest": {"lat": 51.5149881697085, "lng": -0.1901979802915021}}}, "name": "London Arthur Court", "place_id": "ChIJ5xfBaQAQdkgR84aVjHzYkDQ", "types": ["parking", "point_of_interest", "establishment"], "rating": 1, "user_ratings_total": 2}, "ChIJfR9a3T91dkgRI_kw2_ARzkc": {"geometry": {"location": {"lat": 51.5164969, "lng": -0.1887134}, "viewport": {"northeast": {"lat": 51.5178315802915, "lng": -0.187422469708498}, "southwest": {"lat": 51.51513361970851, "lng": -0.190120430291502}}}, "name": "Lees Fine Art Restorers", "place_id": "ChIJfR9a3T91dkgRI_kw2_ARzkc", "types": ["point_of_interest", "establishment"]}, "ChIJAejzDQAQdkgR0WJKj9_-GYw": {"geometry": {"location": {"lat": 51.515906, "lng": -0.188761}, "viewport": {"northeast": {"lat": 51.5172959302915, "lng": -0.187268819708498}, "southwest": {"lat": 51.5145979697085, "lng": -0.189966780291502}}}, "name": "Money Exchange Shop", "place_id": "ChIJAejzDQAQdkgR0WJKj9_-GYw", "types": ["finance", "point_of_interest", "establishment"], "rating": 5, "user_ratings_total": 1}, "ChIJjXswoKoadkgRCFEcEKvkZ3M": {"geometry": {"location": {"lat": 51.516105, "lng": -0.187833}, "viewport": {"northeast": {"lat": 51.51745398029149, "lng": -0.186484019708498}, "southwest": {"lat": 51.51475601970849, "lng": -0.189181980291502}}}, "name": "General Insurance Brokers UK PLC", "place_id": "ChIJjXswoKoadkgRCFEcEKvkZ3M", "types": ["insurance_agency", "point_of_interest", "establishment"], "rating": 4.6, "user_ratings_total": 9}, "ChIJM_G9DQAQdkgRLJT2XCncmog": {"geometry": {"location": {"lat": 51.5159015, "lng": -0.1887667}, "viewport": {"northeast": {"lat": 51.51729248029149, "lng": -0.187270769708498}, "southwest": {"lat": 51.5145945197085, "lng": -0.189968730291502}}}, "name": "Queensway Estates", "place_id": "ChIJM_G9DQAQdkgRLJT2XCncmog", "types": ["point_of_interest", "establishment"], "rating": 2.5, "user_ratings_total": 2}, "ChIJk1McDAAQdkgRc5lz9lyH7f8": {"geometry": {"location": {"lat": 51.5158569, "lng": -0.1886629}, "viewport": {"northeast": {"lat": 51.5172395302915, "lng": -0.187196219708498}, "southwest": {"lat": 51.5145415697085, "lng": -0.189894180291502}}}, "name": "Caprese - Traditional Italian", "place_id": "ChIJk1McDAAQdkgRc5lz9lyH7f8", "types": ["cafe", "food", "point_of_interest", "establishment"], "rating": 4.5, "user_ratings_total": 35}, "ChIJZXznmKoadkgRV_5y74fEKFc": {"geometry": {"location": {"lat": 51.516251, "lng": -0.1877918}, "viewport": {"northeast": {"lat": 51.5176298802915, "lng": -0.186325719708498}, "southwest": {"lat": 51.5149319197085, "lng": -0.189023680291502}}}, "name": "Al Farawlah", "place_id": "ChIJZXznmKoadkgRV_5y74fEKFc", "types": ["grocery_or_supermarket", "supermarket", "food", "point_of_interest", "store", "establishment"], "rating": 2.8, "user_ratings_total": 15}, "ChIJ7ewtH9cRdkgRuZwV29djuNg": {"geometry": {"location": {"lat": 51.5158061, "lng": -0.188355}, "viewport": {"northeast": {"lat": 51.5171550802915, "lng": -0.187006019708498}, "southwest": {"lat": 51.5144571197085, "lng": -0.189703980291502}}}, "name": "Phone Box", "place_id": "ChIJ7ewtH9cRdkgRuZwV29djuNg", "types": ["point_of_interest", "establishment"]}, "ChIJV-37DQAQdkgRVU-9Ewe1CBw": {"geometry": {"location": {"lat": 51.51586500000001, "lng": -0.1887608}, "viewport": {"northeast": {"lat": 51.5171542802915, "lng": -0.187390369708498}, "southwest": {"lat": 51.51445631970851, "lng": -0.190088330291502}}}, "name": "Azure Formations Limited", "place_id": "ChIJV-37DQAQdkgRVU-9Ewe1CBw", "types": ["accounting", "finance", "point_of_interest", "establishment"]}, "ChIJfy_kDQAQdkgRipofCIqt_2c": {"geometry": {"location": {"lat": 51.51585, "lng": -0.18874}, "viewport": {"northeast": {"lat": 51.5171477802915, "lng": -0.187372619708498}, "southwest": {"lat": 51.5144498197085, "lng": -0.190070580291502}}}, "name": "Caprese Deli", "place_id": "ChIJfy_kDQAQdkgRipofCIqt_2c", "types": ["restaurant", "food", "point_of_interest", "establishment"], "rating": 4.1, "user_ratings_total": 107}, "ChIJr8YCn6oadkgRlZqUFrBQjPc": {"geometry": {"location": {"lat": 51.5163232, "lng": -0.1877657}, "viewport": {"northeast": {"lat": 51.51769403029149, "lng": -0.186331169708498}, "southwest": {"lat": 51.51499606970849, "lng": -0.189029130291502}}}, "name": "Laundrette Center", "place_id": "ChIJr8YCn6oadkgRlZqUFrBQjPc", "types": ["laundry", "point_of_interest", "establishment"], "rating": 4.5, "user_ratings_total": 108}, "ChIJGyc_EgAQdkgRq1EDDUB5rpw": {"geometry": {"location": {"lat": 51.515914, "lng": -0.188901}, "viewport": {"northeast": {"lat": 51.5171701302915, "lng": -0.187524069708498}, "southwest": {"lat": 51.5144721697085, "lng": -0.190222030291502}}}, "name": "A Travel Companion LTD", "place_id": "ChIJGyc_EgAQdkgRq1EDDUB5rpw", "types": ["point_of_interest", "establishment"]}, "ChIJi1a_naoadkgRpmgQ8gWTT54": {"geometry": {"location": {"lat": 51.5164219, "lng": -0.1878405}, "viewport": {"northeast": {"lat": 51.5177937802915, "lng": -0.186401819708498}, "southwest": {"lat": 51.5150958197085, "lng": -0.1890997802915021}}}, "name": "Hobson's Fish & Chips", "place_id": "ChIJi1a_naoadkgRpmgQ8gWTT54", "types": ["meal_delivery", "meal_takeaway", "restaurant", "food", "point_of_interest", "establishment"], "rating": 4.3, "user_ratings_total": 983}, "ChIJHRuYbgAQdkgRtyqyEbDNJ0s": {"geometry": {"location": {"lat": 51.5163811, "lng": -0.1890388}, "viewport": {"northeast": {"lat": 51.51778583029149, "lng": -0.187592869708498}, "southwest": {"lat": 51.51508786970849, "lng": -0.190290830291502}}}, "name": "Arthur Court", "place_id": "ChIJHRuYbgAQdkgRtyqyEbDNJ0s", "types": ["point_of_interest", "establishment"], "rating": 3.8, "user_ratings_total": 5}, "ChIJVUO2oKoadkgRJuGkDW-R5u4": {"geometry": {"location": {"lat": 51.5158855, "lng": -0.1878807}, "viewport": {"northeast": {"lat": 51.5172694802915, "lng": -0.186557269708498}, "southwest": {"lat": 51.5145715197085, "lng": -0.189255230291502}}}, "name": "Queensway (Stop H)", "place_id": "ChIJVUO2oKoadkgRJuGkDW-R5u4", "types": ["transit_station", "point_of_interest", "establishment"], "rating": 5, "user_ratings_total": 1}, "ChIJD1WHEQAQdkgRiqxdkIneuJE": {"geometry": {"location": {"lat": 51.51584109999999, "lng": -0.1889498}, "viewport": {"northeast": {"lat": 51.5171300302915, "lng": -0.187579869708498}, "southwest": {"lat": 51.5144320697085, "lng": -0.190277830291502}}}, "name": "Archangel Clinic", "place_id": "ChIJD1WHEQAQdkgRiqxdkIneuJE", "types": ["dentist", "health", "point_of_interest", "establishment"], "rating": 4, "user_ratings_total": 29}, "ChIJD1WHEQAQdkgRv6RxddDaCCI": {"geometry": {"location": {"lat": 51.51584150000001, "lng": -0.1888954}, "viewport": {"northeast": {"lat": 51.5171329802915, "lng": -0.187529119708498}, "southwest": {"lat": 51.51443501970851, "lng": -0.1902270802915021}}}, "name": "Michael's Hair Salon", "place_id": "ChIJD1WHEQAQdkgRv6RxddDaCCI", "types": ["hair_care", "health", "point_of_interest", "establishment"], "rating": 4, "user_ratings_total": 161}, "ChIJDewZdgAQdkgRUiuDXkKGaxU": {"geometry": {"location": {"lat": 51.516541, "lng": -0.1878989}, "viewport": {"northeast": {"lat": 51.51791068029149, "lng": -0.186468869708498}, "southwest": {"lat": 51.51521271970849, "lng": -0.189166830291502}}}, "name": "Agape Arabic Christian Centre", "place_id": "ChIJDewZdgAQdkgRUiuDXkKGaxU", "types": ["book_store", "point_of_interest", "store", "establishment"], "rating": 4.9, "user_ratings_total": 9}, "ChIJiSSnoKoadkgR07FQ3OHQ1Gw": {"geometry": {"location": {"lat": 51.5158224, "lng": -0.1879343}, "viewport": {"northeast": {"lat": 51.5172208802915, "lng": -0.186628569708498}, "southwest": {"lat": 51.5145229197085, "lng": -0.189326530291502}}}, "name": "Bishop Cut Price", "place_id": "ChIJiSSnoKoadkgR07FQ3OHQ1Gw", "types": ["convenience_store", "food", "point_of_interest", "store", "establishment"], "rating": 4.5, "user_ratings_total": 2}, "ChIJq6ouEgAQdkgRLPquvkX08I8": {"geometry": {"location": {"lat": 51.51586209999999, "lng": -0.1889504}, "viewport": {"northeast": {"lat": 51.5171405802915, "lng": -0.187580619708498}, "southwest": {"lat": 51.5144426197085, "lng": -0.190278580291502}}}, "name": "Capital Newsagents", "place_id": "ChIJq6ouEgAQdkgRLPquvkX08I8", "types": ["point_of_interest", "store", "establishment"]}, "ChIJD1WHEQAQdkgRfXeeHtvh43I": {"geometry": {"location": {"lat": 51.51582879999999, "lng": -0.1889039}, "viewport": {"northeast": {"lat": 51.5171259302915, "lng": -0.187539319708498}, "southwest": {"lat": 51.51442796970851, "lng": -0.190237280291502}}}, "name": "Harry\u2019s Newsagents", "place_id": "ChIJD1WHEQAQdkgRfXeeHtvh43I", "types": ["convenience_store", "food", "point_of_interest", "store", "establishment"], "rating": 4.6, "user_ratings_total": 26}, "ChIJa_c4SsYbdkgR-6bIfSluH7U": {"geometry": {"location": {"lat": 51.5163666, "lng": -0.1876639}, "viewport": {"northeast": {"lat": 51.51771883029149, "lng": -0.1863022197084979}, "southwest": {"lat": 51.51502086970849, "lng": -0.189000180291502}}}, "name": "Bayswater Cobbler", "place_id": "ChIJa_c4SsYbdkgR-6bIfSluH7U", "types": ["locksmith", "point_of_interest", "establishment"], "rating": 5, "user_ratings_total": 20}, "ChIJ58yznaoadkgRJrGtYmenM6o": {"geometry": {"location": {"lat": 51.51658159999999, "lng": -0.1878849}, "viewport": {"northeast": {"lat": 51.51794683029149, "lng": -0.186472319708498}, "southwest": {"lat": 51.51524886970849, "lng": -0.189170280291502}}}, "name": "Al Noor Supermarket", "place_id": "ChIJ58yznaoadkgRJrGtYmenM6o", "types": ["supermarket", "grocery_or_supermarket", "food", "point_of_interest", "store", "establishment"], "rating": 4.4, "user_ratings_total": 109}, "ChIJnSegqqoadkgRyo8Q69Z9bzU": {"geometry": {"location": {"lat": 51.51496154997273, "lng": -0.1880394000430478}, "viewport": {"northeast": {"lat": 51.51631053029149, "lng": -0.186690419708498}, "southwest": {"lat": 51.51361256970849, "lng": -0.189388380291502}}}, "name": "151-161 Queensway", "place_id": "ChIJnSegqqoadkgRyo8Q69Z9bzU", "types": ["route"]}, "ChIJs4V0AAAQdkgRmamB33C-H2Q": {"geometry": {"location": {"lat": 51.5145883, "lng": -0.1884652}, "viewport": {"northeast": {"lat": 51.51618565, "lng": -0.186842769708498}, "southwest": {"lat": 51.51299225, "lng": -0.189540730291502}}}, "name": "The Whiteley Development", "place_id": "ChIJs4V0AAAQdkgRmamB33C-H2Q", "types": ["finance", "point_of_interest", "establishment"], "rating": 3.4, "user_ratings_total": 2282}, "ChIJBWeEBQAQdkgRDaSB6KdSEcA": {"geometry": {"location": {"lat": 51.51544610000001, "lng": -0.1884199}, "viewport": {"northeast": {"lat": 51.5168076802915, "lng": -0.187013769708498}, "southwest": {"lat": 51.5141097197085, "lng": -0.189711730291502}}}, "name": "Bayswater College", "place_id": "ChIJBWeEBQAQdkgRDaSB6KdSEcA", "types": ["university", "point_of_interest", "establishment"], "rating": 4.6, "user_ratings_total": 70}, "ChIJcTr6p6oadkgR6SFmusIb7co": {"geometry": {"location": {"lat": 51.51555560000001, "lng": -0.1880556}, "viewport": {"northeast": {"lat": 51.51689168029151, "lng": -0.186790369708498}, "southwest": {"lat": 51.51419371970852, "lng": -0.1894883302915021}}}, "name": "Patisserie Valerie", "place_id": "ChIJcTr6p6oadkgR6SFmusIb7co", "types": ["bakery", "cafe", "restaurant", "food", "point_of_interest", "store", "establishment"], "rating": 4.1, "user_ratings_total": 300}, "ChIJF1DyIwAQdkgRgUIrqchnytA": {"geometry": {"location": {"lat": 51.5151855, "lng": -0.1879607}, "viewport": {"northeast": {"lat": 51.5165262802915, "lng": -0.186683819708498}, "southwest": {"lat": 51.5138283197085, "lng": -0.189381780291502}}}, "name": "Application Lynx Limited", "place_id": "ChIJF1DyIwAQdkgRgUIrqchnytA", "types": ["electronics_store", "point_of_interest", "store", "establishment"]}, "ChIJke1CqqoadkgRvS9I_omEcSA": {"geometry": {"location": {"lat": 51.5150759, "lng": -0.1878448}, "viewport": {"northeast": {"lat": 51.5164112302915, "lng": -0.186606919708498}, "southwest": {"lat": 51.5137132697085, "lng": -0.189304880291502}}}, "name": "Hair Loss Laser Group", "place_id": "ChIJke1CqqoadkgRvS9I_omEcSA", "types": ["beauty_salon", "hair_care", "health", "point_of_interest", "establishment"]}, "ChIJk1OqCAAQdkgRYnbsqgq-SyQ": {"geometry": {"location": {"lat": 51.5154896, "lng": -0.1885127}, "viewport": {"northeast": {"lat": 51.51686248029149, "lng": -0.187020419708498}, "southwest": {"lat": 51.51416451970849, "lng": -0.189718380291502}}}, "name": "Sainsbury's Local", "place_id": "ChIJk1OqCAAQdkgRYnbsqgq-SyQ", "types": ["supermarket", "convenience_store", "grocery_or_supermarket", "food", "point_of_interest", "store", "establishment"], "rating": 3.2, "user_ratings_total": 17}, "ChIJz3GX__8PdkgR1ePoK4s_erk": {"geometry": {"location": {"lat": 51.5146574, "lng": -0.1881611}, "viewport": {"northeast": {"lat": 51.5159882302915, "lng": -0.1867086697084979}, "southwest": {"lat": 51.5132902697085, "lng": -0.189406630291502}}}, "name": "Etoile Technologies", "place_id": "ChIJz3GX__8PdkgR1ePoK4s_erk", "types": ["point_of_interest", "establishment"]}, "ChIJsc53AR8FdkgRDQWPv6afZ2E": {"geometry": {"location": {"lat": 51.51544610000001, "lng": -0.1884199}, "viewport": {"northeast": {"lat": 51.5168076802915, "lng": -0.187013769708498}, "southwest": {"lat": 51.5141097197085, "lng": -0.189711730291502}}}, "name": "Eurocentres London", "place_id": "ChIJsc53AR8FdkgRDQWPv6afZ2E", "types": ["point_of_interest", "establishment"], "rating": 4.1, "user_ratings_total": 35}, "ChIJS_WMBgAQdkgRNFuJqjeg_Fk": {"geometry": {"location": {"lat": 51.5146605, "lng": -0.1879493}, "viewport": {"northeast": {"lat": 51.51601458029149, "lng": -0.186549769708498}, "southwest": {"lat": 51.5133166197085, "lng": -0.189247730291502}}}, "name": "Londonista Boutique", "place_id": "ChIJS_WMBgAQdkgRNFuJqjeg_Fk", "types": ["point_of_interest", "store", "establishment"], "rating": 3.5, "user_ratings_total": 8}, "ChIJcTr6p6oadkgR0v2qMSfaqiQ": {"geometry": {"location": {"lat": 51.51507040000001, "lng": -0.1879494}, "viewport": {"northeast": {"lat": 51.5164120302915, "lng": -0.1866603697084979}, "southwest": {"lat": 51.51371406970851, "lng": -0.189358330291502}}}, "name": "Michael Jane", "place_id": "ChIJcTr6p6oadkgR0v2qMSfaqiQ", "types": ["beauty_salon", "hair_care", "spa", "health", "point_of_interest", "establishment"], "rating": 3.7, "user_ratings_total": 51}, "ChIJcTr6p6oadkgRynAYi3IF2IE": {"geometry": {"location": {"lat": 51.5148115, "lng": -0.1878343}, "viewport": {"northeast": {"lat": 51.5160941802915, "lng": -0.186546819708498}, "southwest": {"lat": 51.5133962197085, "lng": -0.189244780291502}}}, "name": "GeorgeG Hair and Beauty Salon", "place_id": "ChIJcTr6p6oadkgRynAYi3IF2IE", "types": ["beauty_salon", "point_of_interest", "establishment"], "rating": 4, "user_ratings_total": 67}, "ChIJm0M__MQPdkgR-4uww49VdF0": {"geometry": {"location": {"lat": 51.51534849999999, "lng": -0.1891334}, "viewport": {"northeast": {"lat": 51.51667948029149, "lng": -0.187778769708498}, "southwest": {"lat": 51.51398151970849, "lng": -0.190476730291502}}}, "name": "Blueberry Creative Consultants", "place_id": "ChIJm0M__MQPdkgR-4uww49VdF0", "types": ["point_of_interest", "establishment"], "rating": 5, "user_ratings_total": 1}, "ChIJcTr6p6oadkgRXJiqgBbUxvE": {"geometry": {"location": {"lat": 51.51513299999999, "lng": -0.187863}, "viewport": {"northeast": {"lat": 51.5164683302915, "lng": -0.186625069708498}, "southwest": {"lat": 51.5137703697085, "lng": -0.189323030291502}}}, "name": "Tool Shop", "place_id": "ChIJcTr6p6oadkgRXJiqgBbUxvE", "types": ["hardware_store", "point_of_interest", "store", "establishment"], "rating": 4, "user_ratings_total": 42}, "ChIJcTr6p6oadkgRlxI5Shq2-bs": {"geometry": {"location": {"lat": 51.5150368, "lng": -0.1879167}, "viewport": {"northeast": {"lat": 51.5163771302915, "lng": -0.186638269708498}, "southwest": {"lat": 51.5136791697085, "lng": -0.189336230291502}}}, "name": "Royal Trinity Hospice - Queensway Shop", "place_id": "ChIJcTr6p6oadkgRlxI5Shq2-bs", "types": ["point_of_interest", "clothing_store", "store", "establishment"], "rating": 3.3, "user_ratings_total": 18}, "ChIJYTt1510RdkgRbzcM6NFMc-I": {"geometry": {"location": {"lat": 51.5150913, "lng": -0.1884611}, "viewport": {"northeast": {"lat": 51.5165902802915, "lng": -0.187070319708498}, "southwest": {"lat": 51.5138923197085, "lng": -0.1897682802915021}}}, "name": "White Nails", "place_id": "ChIJYTt1510RdkgRbzcM6NFMc-I", "types": ["beauty_salon", "point_of_interest", "establishment"], "rating": 2, "user_ratings_total": 2}, "ChIJ80soAAAQdkgRaNnSMlYMrj0": {"geometry": {"location": {"lat": 51.5148539, "lng": -0.1882195}, "viewport": {"northeast": {"lat": 51.5160864802915, "lng": -0.186732669708498}, "southwest": {"lat": 51.5133885197085, "lng": -0.189430630291502}}}, "name": "Muskaan Hair & Beauty", "place_id": "ChIJ80soAAAQdkgRaNnSMlYMrj0", "types": ["hair_care", "point_of_interest", "establishment"], "rating": 5, "user_ratings_total": 1}, "ChIJSRrpqqoadkgRlk6Gr3_vWZI": {"geometry": {"location": {"lat": 51.5149534, "lng": -0.1879231}, "viewport": {"northeast": {"lat": 51.51629563029149, "lng": -0.186628819708498}, "southwest": {"lat": 51.5135976697085, "lng": -0.189326780291502}}}, "name": "Orme Retail Property", "place_id": "ChIJSRrpqqoadkgRlk6Gr3_vWZI", "types": ["real_estate_agency", "point_of_interest", "establishment"]}, "ChIJbSpMXv8bdkgRL-b0JK8YSw4": {"geometry": {"location": {"lat": 51.5151996, "lng": -0.1879082}, "viewport": {"northeast": {"lat": 51.5165363302915, "lng": -0.186658719708498}, "southwest": {"lat": 51.5138383697085, "lng": -0.189356680291502}}}, "name": "Timpson", "place_id": "ChIJbSpMXv8bdkgRL-b0JK8YSw4", "types": ["point_of_interest", "establishment"], "rating": 5, "user_ratings_total": 6}, "ChIJPwwKuyURdkgR9zoXXBP9DZ0": {"geometry": {"location": {"lat": 51.515076, "lng": -0.1878448}, "viewport": {"northeast": {"lat": 51.5164113302915, "lng": -0.1866069697084979}, "southwest": {"lat": 51.5137133697085, "lng": -0.189304930291502}}}, "name": "Nadirah London Aesthetics & Beauty Clinic - Beauty Salon, Facials, Chemical Peels, Eyelash Extensions, Fat Dissolving, Kensington", "place_id": "ChIJPwwKuyURdkgR9zoXXBP9DZ0", "types": ["beauty_salon", "point_of_interest", "establishment"], "rating": 5, "user_ratings_total": 18}, "ChIJbTVdb0wbdkgRFxMqHSgmF8o": {"geometry": {"location": {"lat": 51.5150759, "lng": -0.1878448}, "viewport": {"northeast": {"lat": 51.5164112302915, "lng": -0.186606919708498}, "southwest": {"lat": 51.5137132697085, "lng": -0.189304880291502}}}, "name": "Artglamfillers", "place_id": "ChIJbTVdb0wbdkgRFxMqHSgmF8o", "types": ["beauty_salon", "point_of_interest", "establishment"], "rating": 4.7, "user_ratings_total": 12}, "ChIJldgQCgQbdkgRDg-LqX3qCOg": {"geometry": {"location": {"lat": 51.5150759, "lng": -0.1878448}, "viewport": {"northeast": {"lat": 51.5164112302915, "lng": -0.186606919708498}, "southwest": {"lat": 51.5137132697085, "lng": -0.189304880291502}}}, "name": "Vicky's Beauty", "place_id": "ChIJldgQCgQbdkgRDg-LqX3qCOg", "types": ["beauty_salon", "point_of_interest", "establishment"], "rating": 1, "user_ratings_total": 1}, "ChIJO_I9cg4RdkgRD0eGD4CFMco": {"geometry": {"location": {"lat": 51.5150759, "lng": -0.1878448}, "viewport": {"northeast": {"lat": 51.5164112302915, "lng": -0.186606919708498}, "southwest": {"lat": 51.5137132697085, "lng": -0.189304880291502}}}, "name": "Portobello Aesthetics London", "place_id": "ChIJO_I9cg4RdkgRD0eGD4CFMco", "types": ["beauty_salon", "point_of_interest", "establishment"], "rating": 5, "user_ratings_total": 25}, "ChIJq3kcOcIWdkgR3QiqGZBknQk": {"geometry": {"location": {"lat": 51.51526200000001, "lng": -0.187913}, "viewport": {"northeast": {"lat": 51.5165989302915, "lng": -0.186670469708498}, "southwest": {"lat": 51.51390096970851, "lng": -0.189368430291502}}}, "name": "Four Brothers Painting", "place_id": "ChIJq3kcOcIWdkgR3QiqGZBknQk", "types": ["painter", "point_of_interest", "establishment"], "rating": 5, "user_ratings_total": 44}, "ChIJhUyv5LMbdkgRtVgBNcFcT7k": {"geometry": {"location": {"lat": 51.5152622, "lng": -0.1879127}, "viewport": {"northeast": {"lat": 51.5165991302915, "lng": -0.186670319708498}, "southwest": {"lat": 51.5139011697085, "lng": -0.189368280291502}}}, "name": "Home Needs 4 U Ltd.", "place_id": "ChIJhUyv5LMbdkgRtVgBNcFcT7k", "types": ["meal_takeaway", "restaurant", "food", "point_of_interest", "establishment"], "rating": 3, "user_ratings_total": 2}, "ChIJ-Rceq6oadkgRZm9C0WwDUng": {"geometry": {"location": {"lat": 51.51495529999999, "lng": -0.1878603999999999}, "viewport": {"northeast": {"lat": 51.51616608029149, "lng": -0.186569269708498}, "southwest": {"lat": 51.5134681197085, "lng": -0.189267230291502}}}, "name": "Veggie World", "place_id": "ChIJ-Rceq6oadkgRZm9C0WwDUng", "types": ["point_of_interest", "establishment"]}, "ChIJo97hBQAQdkgRAIIWZFt1eOo": {"geometry": {"location": {"lat": 51.51544610000001, "lng": -0.1884199}, "viewport": {"northeast": {"lat": 51.5168076802915, "lng": -0.187013769708498}, "southwest": {"lat": 51.5141097197085, "lng": -0.189711730291502}}}, "name": "Ensino Limited", "place_id": "ChIJo97hBQAQdkgRAIIWZFt1eOo", "types": ["point_of_interest", "establishment"]}, "ChIJrxYhq6oadkgRZoG-A4KewtY": {"geometry": {"location": {"lat": 51.51492560000001, "lng": -0.1878474}, "viewport": {"northeast": {"lat": 51.51615123029149, "lng": -0.186564469708498}, "southwest": {"lat": 51.5134532697085, "lng": -0.189262430291502}}}, "name": "Suade Labs", "place_id": "ChIJrxYhq6oadkgRZoG-A4KewtY", "types": ["point_of_interest", "establishment"]}, "ChIJ53QO__8PdkgR9jRSAMz9Ctw": {"geometry": {"location": {"lat": 51.5146574, "lng": -0.1881611}, "viewport": {"northeast": {"lat": 51.5159882302915, "lng": -0.1867086697084979}, "southwest": {"lat": 51.5132902697085, "lng": -0.189406630291502}}}, "name": "Chilli's", "place_id": "ChIJ53QO__8PdkgR9jRSAMz9Ctw", "types": ["point_of_interest", "establishment"]}, "ChIJuT30p1QFdkgRFbV357SQYLk": {"geometry": {"location": {"lat": 51.51554950000001, "lng": -0.188}, "viewport": {"northeast": {"lat": 51.5168817302915, "lng": -0.186759819708498}, "southwest": {"lat": 51.5141837697085, "lng": -0.189457780291502}}}, "name": "Glad To Clear", "place_id": "ChIJuT30p1QFdkgRFbV357SQYLk", "types": ["point_of_interest", "establishment"]}, "ChIJD2Cw_P8PdkgROMklst9i32I": {"geometry": {"location": {"lat": 51.5145479, "lng": -0.1883823}, "viewport": {"northeast": {"lat": 51.5159449802915, "lng": -0.186814069708498}, "southwest": {"lat": 51.5132470197085, "lng": -0.189512030291502}}}, "name": "Interfone Flowers", "place_id": "ChIJD2Cw_P8PdkgROMklst9i32I", "types": ["florist", "point_of_interest", "store", "establishment"], "rating": 2.5, "user_ratings_total": 10}, "ChIJXbEVWAAQdkgRiEpHP_rUWCA": {"geometry": {"location": {"lat": 51.5174371160623, "lng": -0.1901791251634877}, "viewport": {"northeast": {"lat": 51.5187640802915, "lng": -0.188839319708498}, "southwest": {"lat": 51.5160661197085, "lng": -0.191537280291502}}}, "name": "Westbourne Gardens", "place_id": "ChIJXbEVWAAQdkgRiEpHP_rUWCA", "types": ["route"]}, "ChIJw40h-AAQdkgR1lfYa3_oUG8": {"geometry": {"location": {"lat": 51.51765759999999, "lng": -0.1896412}, "viewport": {"northeast": {"lat": 51.5189616302915, "lng": -0.188236819708498}, "southwest": {"lat": 51.51626366970851, "lng": -0.190934780291502}}}, "name": "Vertica Electrical Ltd", "place_id": "ChIJw40h-AAQdkgR1lfYa3_oUG8", "types": ["electrician", "point_of_interest", "establishment"]}, "ChIJZadMN44RdkgRZQHlMXAifB0": {"geometry": {"location": {"lat": 51.51719929999999, "lng": -0.190191}, "viewport": {"northeast": {"lat": 51.5185317802915, "lng": -0.188818269708498}, "southwest": {"lat": 51.5158338197085, "lng": -0.191516230291502}}}, "name": "Divine Soapy Massage London", "place_id": "ChIJZadMN44RdkgRZQHlMXAifB0", "types": ["point_of_interest", "establishment"]}, "ChIJ_U2NWQAQdkgR-UuFxsv9lWQ": {"geometry": {"location": {"lat": 51.5171921, "lng": -0.1901772}, "viewport": {"northeast": {"lat": 51.5185330802915, "lng": -0.188816719708498}, "southwest": {"lat": 51.5158351197085, "lng": -0.191514680291502}}}, "name": "Himotiv Ltd.", "place_id": "ChIJ_U2NWQAQdkgR-UuFxsv9lWQ", "types": ["point_of_interest", "establishment"]}, "ChIJgdvUaEoRdkgR1mvDHiA76gg": {"geometry": {"location": {"lat": 51.5170997, "lng": -0.1900961}, "viewport": {"northeast": {"lat": 51.5184943302915, "lng": -0.188813169708498}, "southwest": {"lat": 51.5157963697085, "lng": -0.191511130291502}}}, "name": "London Tour Guide Konrad Wolk", "place_id": "ChIJgdvUaEoRdkgR1mvDHiA76gg", "types": ["tourist_attraction", "travel_agency", "point_of_interest", "establishment"]}, "ChIJla2x8g8RdkgRxhS_gqhyoLk": {"geometry": {"location": {"lat": 51.5173939, "lng": -0.1900017}, "viewport": {"northeast": {"lat": 51.51873833029149, "lng": -0.188656769708498}, "southwest": {"lat": 51.51604036970849, "lng": -0.191354730291502}}}, "name": "Recycling Bin", "place_id": "ChIJla2x8g8RdkgRxhS_gqhyoLk", "types": ["point_of_interest", "establishment"]}, "ChIJBeq8zqURdkgRr2w5MjbJdzg": {"geometry": {"location": {"lat": 51.51708259999999, "lng": -0.1901807}, "viewport": {"northeast": {"lat": 51.5184689302915, "lng": -0.188885869708498}, "southwest": {"lat": 51.5157709697085, "lng": -0.191583830291502}}}, "name": "Feast catering", "place_id": "ChIJBeq8zqURdkgRr2w5MjbJdzg", "types": ["food", "point_of_interest", "establishment"]}, "ChIJLdHGVgAQdkgRTdDtebstDq4": {"geometry": {"location": {"lat": 51.517213, "lng": -0.1905338}, "viewport": {"northeast": {"lat": 51.5185077302915, "lng": -0.189111269708498}, "southwest": {"lat": 51.5158097697085, "lng": -0.1918092302915021}}}, "name": "aqua", "place_id": "ChIJLdHGVgAQdkgRTdDtebstDq4", "types": ["cemetery", "point_of_interest", "establishment"]}, "ChIJhdbWVgAQdkgR0HXYlijfvNg": {"geometry": {"location": {"lat": 51.51723519999999, "lng": -0.1905469}, "viewport": {"northeast": {"lat": 51.5185214802915, "lng": -0.189112819708498}, "southwest": {"lat": 51.5158235197085, "lng": -0.1918107802915021}}}, "name": "Westbourne Gardens", "place_id": "ChIJhdbWVgAQdkgR0HXYlijfvNg", "types": ["park", "point_of_interest", "establishment"], "rating": 4.2, "user_ratings_total": 47}, "ChIJSTk0SzobdkgRiAxj52Yg6cg": {"geometry": {"location": {"lat": 51.517573, "lng": -0.1903411}, "viewport": {"northeast": {"lat": 51.51885153029151, "lng": -0.188985969708498}, "southwest": {"lat": 51.51615356970851, "lng": -0.191683930291502}}}, "name": "Massages by Therapist", "place_id": "ChIJSTk0SzobdkgRiAxj52Yg6cg", "types": ["point_of_interest", "establishment"]}, "ChIJGauAUQAQdkgRcXsSsXjzwWw": {"geometry": {"location": {"lat": 51.5169685, "lng": -0.1906362}, "viewport": {"northeast": {"lat": 51.5182986802915, "lng": -0.189265269708498}, "southwest": {"lat": 51.5156007197085, "lng": -0.191963230291502}}}, "name": "Clicksell Ltd", "place_id": "ChIJGauAUQAQdkgRcXsSsXjzwWw", "types": ["point_of_interest", "establishment"]}, "ChIJzamwzQsRdkgRByi9zncYRXk": {"geometry": {"location": {"lat": 51.51693, "lng": -0.1905915}, "viewport": {"northeast": {"lat": 51.5182986802915, "lng": -0.189265419708498}, "southwest": {"lat": 51.5156007197085, "lng": -0.191963380291502}}}, "name": "Greens landlord electrical safety certificate Services", "place_id": "ChIJzamwzQsRdkgRByi9zncYRXk", "types": ["point_of_interest", "establishment"]}, "ChIJb-2W4WERdkgRsIasCZ_dF6Q": {"geometry": {"location": {"lat": 51.5173374, "lng": -0.1909173}, "viewport": {"northeast": {"lat": 51.5186891802915, "lng": -0.189555219708498}, "southwest": {"lat": 51.5159912197085, "lng": -0.192253180291502}}}, "name": "Recycle bin", "place_id": "ChIJb-2W4WERdkgRsIasCZ_dF6Q", "types": ["point_of_interest", "establishment"]}, "ChIJ7cKoyAEQdkgRAP8E-yH-qUM": {"geometry": {"location": {"lat": 51.5158752558318, "lng": -0.1908295156706509}, "viewport": {"northeast": {"lat": 51.51721898029149, "lng": -0.189492319708498}, "southwest": {"lat": 51.51452101970849, "lng": -0.192190280291502}}}, "name": "14-2 Newton Rd", "place_id": "ChIJ7cKoyAEQdkgRAP8E-yH-qUM", "types": ["route"]}, "ChIJl_nkRgAQdkgRYID9R-lF_9g": {"geometry": {"location": {"lat": 51.5163613, "lng": -0.1900245}, "viewport": {"northeast": {"lat": 51.5177307302915, "lng": -0.188583369708498}, "southwest": {"lat": 51.5150327697085, "lng": -0.191281330291502}}}, "name": "R M G", "place_id": "ChIJl_nkRgAQdkgRYID9R-lF_9g", "types": ["point_of_interest", "establishment"]}, "ChIJefEkNgAQdkgREECykzW85vQ": {"geometry": {"location": {"lat": 51.5163932, "lng": -0.1906562}, "viewport": {"northeast": {"lat": 51.5177101302915, "lng": -0.189367819708498}, "southwest": {"lat": 51.5150121697085, "lng": -0.192065780291502}}}, "name": "Tanzanian Affairs", "place_id": "ChIJefEkNgAQdkgREECykzW85vQ", "types": ["point_of_interest", "establishment"]}, "ChIJB_-5QQAQdkgR7OwGYo30kfE": {"geometry": {"location": {"lat": 51.516375, "lng": -0.1896434}, "viewport": {"northeast": {"lat": 51.5177044802915, "lng": -0.188352269708498}, "southwest": {"lat": 51.5150065197085, "lng": -0.191050230291502}}}, "name": "Youmanity", "place_id": "ChIJB_-5QQAQdkgR7OwGYo30kfE", "types": ["point_of_interest", "establishment"], "rating": 5, "user_ratings_total": 10}, "ChIJYQc5OgAQdkgRBXjUR6G5qnY": {"geometry": {"location": {"lat": 51.5158814, "lng": -0.1896636}, "viewport": {"northeast": {"lat": 51.5171118302915, "lng": -0.188281319708498}, "southwest": {"lat": 51.5144138697085, "lng": -0.190979280291502}}}, "name": "cmcsurveyors", "place_id": "ChIJYQc5OgAQdkgRBXjUR6G5qnY", "types": ["point_of_interest", "establishment"]}, "ChIJKVy-0AEQdkgRSQ9w3HlsAR8": {"geometry": {"location": {"lat": 51.5158814, "lng": -0.1896636}, "viewport": {"northeast": {"lat": 51.5171118302915, "lng": -0.188281319708498}, "southwest": {"lat": 51.5144138697085, "lng": -0.190979280291502}}}, "name": "Instant Offices", "place_id": "ChIJKVy-0AEQdkgRSQ9w3HlsAR8", "types": ["real_estate_agency", "point_of_interest", "establishment"]}, "ChIJq6qqqm8FdkgRQo32Rzo_THs": {"geometry": {"location": {"lat": 51.5159387, "lng": -0.1907395}, "viewport": {"northeast": {"lat": 51.5172809302915, "lng": -0.189436719708498}, "southwest": {"lat": 51.5145829697085, "lng": -0.192134680291502}}}, "name": "Skene Catling de la Pena", "place_id": "ChIJq6qqqm8FdkgRQo32Rzo_THs", "types": ["point_of_interest", "establishment"], "rating": 5, "user_ratings_total": 1}, "ChIJtYPtPAAQdkgRvLjtZ4tbh64": {"geometry": {"location": {"lat": 51.5158678, "lng": -0.1896462}, "viewport": {"northeast": {"lat": 51.5171032302915, "lng": -0.188224219708498}, "southwest": {"lat": 51.5144052697085, "lng": -0.190922180291502}}}, "name": "Westbourne Property London", "place_id": "ChIJtYPtPAAQdkgRvLjtZ4tbh64", "types": ["real_estate_agency", "point_of_interest", "establishment"]}, "ChIJ1az2DQAQdkgR28xWA2PgRjQ": {"geometry": {"location": {"lat": 51.51580000000001, "lng": -0.1897851}, "viewport": {"northeast": {"lat": 51.5170832802915, "lng": -0.188381269708498}, "southwest": {"lat": 51.5143853197085, "lng": -0.191079230291502}}}, "name": "Western Union", "place_id": "ChIJ1az2DQAQdkgR28xWA2PgRjQ", "types": ["finance", "point_of_interest", "establishment"]}, "ChIJs7mOWVMFdkgR6k-5qhUW_3U": {"geometry": {"location": {"lat": 51.5156889, "lng": -0.1900649}, "viewport": {"northeast": {"lat": 51.5170533302915, "lng": -0.188621369708498}, "southwest": {"lat": 51.5143553697085, "lng": -0.191319330291502}}}, "name": "Wake Up", "place_id": "ChIJs7mOWVMFdkgR6k-5qhUW_3U", "types": ["point_of_interest", "establishment"]}, "ChIJBScuPAAQdkgRJ-QXobzR8To": {"geometry": {"location": {"lat": 51.51580380000001, "lng": -0.1895474}, "viewport": {"northeast": {"lat": 51.5170740802915, "lng": -0.188227819708498}, "southwest": {"lat": 51.5143761197085, "lng": -0.190925780291502}}}, "name": "TAB X TAB", "place_id": "ChIJBScuPAAQdkgRJ-QXobzR8To", "types": ["restaurant", "cafe", "bar", "food", "point_of_interest", "establishment"], "rating": 4.5, "user_ratings_total": 433}, "ChIJYQc5OgAQdkgR9WF0GxBoPmc": {"geometry": {"location": {"lat": 51.51570239999999, "lng": -0.1902051}, "viewport": {"northeast": {"lat": 51.51706033029149, "lng": -0.188691569708498}, "southwest": {"lat": 51.51436236970849, "lng": -0.191389530291502}}}, "name": "BoConcept Notting Hill", "place_id": "ChIJYQc5OgAQdkgR9WF0GxBoPmc", "types": ["furniture_store", "home_goods_store", "point_of_interest", "store", "establishment"], "rating": 4.3, "user_ratings_total": 7}, "ChIJsfAXj4MRdkgR-J9ypkZI2z8": {"geometry": {"location": {"lat": 51.5164056, "lng": -0.1901467}, "viewport": {"northeast": {"lat": 51.5177637802915, "lng": -0.188674319708498}, "southwest": {"lat": 51.5150658197085, "lng": -0.191372280291502}}}, "name": "K Manufacturing Beer", "place_id": "ChIJsfAXj4MRdkgR-J9ypkZI2z8", "types": ["point_of_interest", "establishment"], "rating": 3.7, "user_ratings_total": 3}, "ChIJVyXZpr8adkgR7pJoMzoK8wk": {"geometry": {"location": {"lat": 51.51622649999999, "lng": -0.1905131}, "viewport": {"northeast": {"lat": 51.5175991302915, "lng": -0.189087069708498}, "southwest": {"lat": 51.5149011697085, "lng": -0.191785030291502}}}, "name": "Beuzit", "place_id": "ChIJVyXZpr8adkgR7pJoMzoK8wk", "types": ["point_of_interest", "establishment"]}, "ChIJr6pTJtARdkgRuEqijL2jVcE": {"geometry": {"location": {"lat": 51.51589449999999, "lng": -0.1902577}, "viewport": {"northeast": {"lat": 51.5172538802915, "lng": -0.188786619708498}, "southwest": {"lat": 51.5145559197085, "lng": -0.191484580291502}}}, "name": "Westbourne Lofts", "place_id": "ChIJr6pTJtARdkgRuEqijL2jVcE", "types": ["point_of_interest", "establishment"]}, "ChIJEcVnQAAQdkgRnZJciYjXy_s": {"geometry": {"location": {"lat": 51.5162438, "lng": -0.1896694}, "viewport": {"northeast": {"lat": 51.5176052802915, "lng": -0.188283319708498}, "southwest": {"lat": 51.5149073197085, "lng": -0.190981280291502}}}, "name": "Galeote London", "place_id": "ChIJEcVnQAAQdkgRnZJciYjXy_s", "types": ["point_of_interest", "establishment"], "rating": 5, "user_ratings_total": 2}, "ChIJa8oUQAAQdkgR29uuz2Y9t2E": {"geometry": {"location": {"lat": 51.51623599999999, "lng": -0.189619}, "viewport": {"northeast": {"lat": 51.51758573029149, "lng": -0.188267769708498}, "southwest": {"lat": 51.51488776970849, "lng": -0.1909657302915021}}}, "name": "ubitricity Charging Station", "place_id": "ChIJa8oUQAAQdkgR29uuz2Y9t2E", "types": ["point_of_interest", "establishment"]}, "ChIJee7vPwAQdkgRjNVRy9tuaQI": {"geometry": {"location": {"lat": 51.51612420000001, "lng": -0.1895767}, "viewport": {"northeast": {"lat": 51.5174881302915, "lng": -0.188183169708498}, "southwest": {"lat": 51.5147901697085, "lng": -0.190881130291502}}}, "name": "Dovile Antusaite Sostakas\u200b", "place_id": "ChIJee7vPwAQdkgRjNVRy9tuaQI", "types": ["point_of_interest", "establishment"]}, "ChIJC1SaOwAQdkgRF9yMGtPAHKI": {"geometry": {"location": {"lat": 51.5158075, "lng": -0.190131}, "viewport": {"northeast": {"lat": 51.5171840302915, "lng": -0.188704219708498}, "southwest": {"lat": 51.5144860697085, "lng": -0.191402180291502}}}, "name": "Rackham Westbourne Grove", "place_id": "ChIJC1SaOwAQdkgRF9yMGtPAHKI", "types": ["general_contractor", "point_of_interest", "establishment"]}, "ChIJb0HGUFUFdkgR8x4gbjsWExw": {"geometry": {"location": {"lat": 51.5158668, "lng": -0.1898156}, "viewport": {"northeast": {"lat": 51.51711668029149, "lng": -0.188381269708498}, "southwest": {"lat": 51.5144187197085, "lng": -0.191079230291502}}}, "name": "Royal Mail Westbourne Grove Customer Service Point", "place_id": "ChIJb0HGUFUFdkgR8x4gbjsWExw", "types": ["post_office", "finance", "point_of_interest", "establishment"], "rating": 2.1, "user_ratings_total": 8}, "ChIJ80Wx6L0RdkgRlvCFHtykr8E": {"geometry": {"location": {"lat": 51.5158668, "lng": -0.1898156}, "viewport": {"northeast": {"lat": 51.51711668029149, "lng": -0.188381269708498}, "southwest": {"lat": 51.5144187197085, "lng": -0.191079230291502}}}, "name": "Westbourne Grove Customer Service Point", "place_id": "ChIJ80Wx6L0RdkgRlvCFHtykr8E", "types": ["point_of_interest", "establishment"], "rating": 3.2, "user_ratings_total": 30}, "ChIJg7w_qHERdkgRSI_FAMyCC3k": {"geometry": {"location": {"lat": 51.5161475, "lng": -0.1894872}, "viewport": {"northeast": {"lat": 51.5174834802915, "lng": -0.188177419708498}, "southwest": {"lat": 51.5147855197085, "lng": -0.1908753802915021}}}, "name": "Harmony Homestay D' London", "place_id": "ChIJg7w_qHERdkgRSI_FAMyCC3k", "types": ["lodging", "point_of_interest", "establishment"]}, "ChIJNXo8NAAQdkgRhpQsA50N75c": {"geometry": {"location": {"lat": 51.5161228, "lng": -0.1908235}, "viewport": {"northeast": {"lat": 51.5174671302915, "lng": -0.189506469708498}, "southwest": {"lat": 51.5147691697085, "lng": -0.192204430291502}}}, "name": "Saint Paul's Presbyterian Church House", "place_id": "ChIJNXo8NAAQdkgRhpQsA50N75c", "types": ["church", "place_of_worship", "point_of_interest", "establishment"], "rating": 5, "user_ratings_total": 3}, "ChIJcyqQRQAQdkgRJYnIOVEdlvc": {"geometry": {"location": {"lat": 51.5166104, "lng": -0.1902205}, "viewport": {"northeast": {"lat": 51.51798703029149, "lng": -0.188789669708498}, "southwest": {"lat": 51.51528906970849, "lng": -0.191487630291502}}}, "name": "NPM ELECTRICAL", "place_id": "ChIJcyqQRQAQdkgRJYnIOVEdlvc", "types": ["electrician", "point_of_interest", "establishment"]}, "ChIJBYO6OwAQdkgRe_k0SDp3Pco": {"geometry": {"location": {"lat": 51.5157482, "lng": -0.1900713}, "viewport": {"northeast": {"lat": 51.5171241302915, "lng": -0.188643469708498}, "southwest": {"lat": 51.5144261697085, "lng": -0.191341430291502}}}, "name": "Sociale Cafe", "place_id": "ChIJBYO6OwAQdkgRe_k0SDp3Pco", "types": ["cafe", "restaurant", "food", "point_of_interest", "store", "establishment"], "rating": 4.3, "user_ratings_total": 135}, "ChIJSztqrUMRdkgRrigayVRIc2o": {"geometry": {"location": {"lat": 51.5159589, "lng": -0.1895034}, "viewport": {"northeast": {"lat": 51.5171601802915, "lng": -0.188112969708498}, "southwest": {"lat": 51.51446221970851, "lng": -0.190810930291502}}}, "name": "Inside Outside Builders", "place_id": "ChIJSztqrUMRdkgRrigayVRIc2o", "types": ["point_of_interest", "establishment"]}, "ChIJBScuPAAQdkgR3JDzTREs_gQ": {"geometry": {"location": {"lat": 51.5157997, "lng": -0.1897398}, "viewport": {"northeast": {"lat": 51.5170831302915, "lng": -0.188381269708498}, "southwest": {"lat": 51.5143851697085, "lng": -0.191079230291502}}}, "name": "Paddington Man and Van Ltd", "place_id": "ChIJBScuPAAQdkgR3JDzTREs_gQ", "types": ["point_of_interest", "establishment"]}, "ChIJ2Q_GSgAQdkgRN9AisBKHdyc": {"geometry": {"location": {"lat": 51.51644229999999, "lng": -0.1909108}, "viewport": {"northeast": {"lat": 51.5177510802915, "lng": -0.189518119708498}, "southwest": {"lat": 51.5150531197085, "lng": -0.192216080291502}}}, "name": "Newton Medical Centre", "place_id": "ChIJ2Q_GSgAQdkgRN9AisBKHdyc", "types": ["doctor", "health", "point_of_interest", "establishment"], "rating": 3.5, "user_ratings_total": 73}, "ChIJo3sKSwAQdkgRZIl-YsvWYuc": {"geometry": {"location": {"lat": 51.5164032, "lng": -0.1907827}, "viewport": {"northeast": {"lat": 51.51769447720537, "lng": -0.1894717813192506}, "southwest": {"lat": 51.51499651662238, "lng": -0.1921697419022546}}}, "name": "Parking lot", "place_id": "ChIJo3sKSwAQdkgRZIl-YsvWYuc", "types": ["parking", "premise", "point_of_interest", "establishment"]}, "ChIJU9QOMAAQdkgRz0KhZTOQlQo": {"geometry": {"location": {"lat": 51.51557070079977, "lng": -0.1902698504532741}, "viewport": {"northeast": {"lat": 51.51691968029149, "lng": -0.188920869708498}, "southwest": {"lat": 51.51422171970849, "lng": -0.191618830291502}}}, "name": "33-53 A4206", "place_id": "ChIJU9QOMAAQdkgRz0KhZTOQlQo", "types": ["route"]}, "ChIJbUkLLQAQdkgRMR21GrVIfhI": {"geometry": {"location": {"lat": 51.5153677, "lng": -0.1907972}, "viewport": {"northeast": {"lat": 51.5167856802915, "lng": -0.189466519708498}, "southwest": {"lat": 51.5140877197085, "lng": -0.192164480291502}}}, "name": "Tinseltown Bayswater", "place_id": "ChIJbUkLLQAQdkgRMR21GrVIfhI", "types": ["restaurant", "food", "point_of_interest", "establishment"], "rating": 3.6, "user_ratings_total": 685}, "ChIJUeG9KQAQdkgRPgN2PcXq01M": {"geometry": {"location": {"lat": 51.5149325, "lng": -0.1906629}, "viewport": {"northeast": {"lat": 51.5162164802915, "lng": -0.189288219708498}, "southwest": {"lat": 51.5135185197085, "lng": -0.191986180291502}}}, "name": "PHOTO PORTFOLIOS", "place_id": "ChIJUeG9KQAQdkgRPgN2PcXq01M", "types": ["point_of_interest", "establishment"], "rating": 4.8, "user_ratings_total": 46}, "ChIJF1DyIwAQdkgR39l4qU-t-kU": {"geometry": {"location": {"lat": 51.51531869999999, "lng": -0.1896231}, "viewport": {"northeast": {"lat": 51.51662608029149, "lng": -0.188253119708498}, "southwest": {"lat": 51.5139281197085, "lng": -0.190951080291502}}}, "name": "Uniqlean", "place_id": "ChIJF1DyIwAQdkgR39l4qU-t-kU", "types": ["point_of_interest", "establishment"], "rating": 4.7, "user_ratings_total": 3}, "ChIJIRtwIgAQdkgRUuZaONZxl2g": {"geometry": {"location": {"lat": 51.51531869999999, "lng": -0.1896231}, "viewport": {"northeast": {"lat": 51.51662608029149, "lng": -0.188253119708498}, "southwest": {"lat": 51.5139281197085, "lng": -0.190951080291502}}}, "name": "Uniqletts", "place_id": "ChIJIRtwIgAQdkgRUuZaONZxl2g", "types": ["real_estate_agency", "point_of_interest", "establishment"], "rating": 3, "user_ratings_total": 4}, "ChIJI4KA-9wEdkgRajXLM6AY_vQ": {"geometry": {"location": {"lat": 51.51552710000001, "lng": -0.1899699}, "viewport": {"northeast": {"lat": 51.5169131802915, "lng": -0.188631419708498}, "southwest": {"lat": 51.51421521970851, "lng": -0.191329380291502}}}, "name": "URC Thames North Trust", "place_id": "ChIJI4KA-9wEdkgRajXLM6AY_vQ", "types": ["point_of_interest", "establishment"]}, "ChIJz58KelMFdkgRK6LP25Zwa5Q": {"geometry": {"location": {"lat": 51.51523539999999, "lng": -0.1908194}, "viewport": {"northeast": {"lat": 51.51656458029149, "lng": -0.189621519708498}, "southwest": {"lat": 51.51386661970849, "lng": -0.192319480291502}}}, "name": "Dr A Saeed - Garden Square Dental", "place_id": "ChIJz58KelMFdkgRK6LP25Zwa5Q", "types": ["dentist", "health", "point_of_interest", "establishment"]}, "ChIJMxnbLQAQdkgR62_8-VIhz4s": {"geometry": {"location": {"lat": 51.5153986, "lng": -0.1906657}, "viewport": {"northeast": {"lat": 51.5168099802915, "lng": -0.189334419708498}, "southwest": {"lat": 51.5141120197085, "lng": -0.192032380291502}}}, "name": "Costa Coffee", "place_id": "ChIJMxnbLQAQdkgR62_8-VIhz4s", "types": ["cafe", "food", "point_of_interest", "store", "establishment"], "rating": 4.2, "user_ratings_total": 174}, "ChIJA6MXKQAQdkgRrdzRXSF0ciA": {"geometry": {"location": {"lat": 51.5152154, "lng": -0.190893}, "viewport": {"northeast": {"lat": 51.51654963029151, "lng": -0.189656619708498}, "southwest": {"lat": 51.51385166970851, "lng": -0.192354580291502}}}, "name": "Dr A Saeed", "place_id": "ChIJA6MXKQAQdkgRrdzRXSF0ciA", "types": ["dentist", "health", "point_of_interest", "establishment"], "rating": 3.7, "user_ratings_total": 3}, "ChIJvb601AEQdkgRCjMz2mtdElE": {"geometry": {"location": {"lat": 51.5152153, "lng": -0.190893}, "viewport": {"northeast": {"lat": 51.5165495302915, "lng": -0.189656619708498}, "southwest": {"lat": 51.5138515697085, "lng": -0.192354580291502}}}, "name": "Dr Sofi Baig", "place_id": "ChIJvb601AEQdkgRCjMz2mtdElE", "types": ["doctor", "health", "point_of_interest", "establishment"]}, "ChIJA6MXKQAQdkgRK3dGp4nhPQs": {"geometry": {"location": {"lat": 51.5152154, "lng": -0.190893}, "viewport": {"northeast": {"lat": 51.51654963029151, "lng": -0.189656619708498}, "southwest": {"lat": 51.51385166970851, "lng": -0.192354580291502}}}, "name": "CG Total Fitness", "place_id": "ChIJA6MXKQAQdkgRK3dGp4nhPQs", "types": ["gym", "health", "point_of_interest", "establishment"], "rating": 5, "user_ratings_total": 1}, "ChIJvb601AEQdkgRBglzQP8k8uY": {"geometry": {"location": {"lat": 51.5152153, "lng": -0.190893}, "viewport": {"northeast": {"lat": 51.5165495302915, "lng": -0.189656619708498}, "southwest": {"lat": 51.5138515697085, "lng": -0.192354580291502}}}, "name": "Kensington Garden Square Management", "place_id": "ChIJvb601AEQdkgRBglzQP8k8uY", "types": ["point_of_interest", "establishment"], "rating": 5, "user_ratings_total": 1}, "ChIJQzeFtwEQdkgRDgvXGC4VQy4": {"geometry": {"location": {"lat": 51.5151917, "lng": -0.1909527}, "viewport": {"northeast": {"lat": 51.5167068302915, "lng": -0.189479319708498}, "southwest": {"lat": 51.5140088697085, "lng": -0.1921772802915021}}}, "name": "The Garden Studio", "place_id": "ChIJQzeFtwEQdkgRDgvXGC4VQy4", "types": ["gym", "health", "point_of_interest", "establishment"], "rating": 5, "user_ratings_total": 12}, "ChIJMZGFGAAQdkgRk7CwjQC_K_0": {"geometry": {"location": {"lat": 51.51539040000001, "lng": -0.189474}, "viewport": {"northeast": {"lat": 51.5166732302915, "lng": -0.188102169708498}, "southwest": {"lat": 51.5139752697085, "lng": -0.190800130291502}}}, "name": "Peverel", "place_id": "ChIJMZGFGAAQdkgRk7CwjQC_K_0", "types": ["point_of_interest", "establishment"]}, "ChIJIRtwIgAQdkgRltBjx22nrd0": {"geometry": {"location": {"lat": 51.5152853, "lng": -0.1893549}, "viewport": {"northeast": {"lat": 51.5166268802915, "lng": -0.188107019708498}, "southwest": {"lat": 51.5139289197085, "lng": -0.190804980291502}}}, "name": "Ash Ponsonby Estate Agents", "place_id": "ChIJIRtwIgAQdkgRltBjx22nrd0", "types": ["real_estate_agency", "point_of_interest", "establishment"], "rating": 4.5, "user_ratings_total": 22}, "ChIJQ1b92f8PdkgRHOTS74Quo-M": {"geometry": {"location": {"lat": 51.51455250000001, "lng": -0.1902881}, "viewport": {"northeast": {"lat": 51.5159014802915, "lng": -0.188939119708498}, "southwest": {"lat": 51.5132035197085, "lng": -0.1916370802915021}}}, "name": "Garden House", "place_id": "ChIJQ1b92f8PdkgRHOTS74Quo-M", "types": ["point_of_interest", "establishment"], "rating": 5, "user_ratings_total": 1}, "ChIJjfdPJQAQdkgRDk5K1xwGR_k": {"geometry": {"location": {"lat": 51.51548199999999, "lng": -0.1902424}, "viewport": {"northeast": {"lat": 51.5168738302915, "lng": -0.188905819708498}, "southwest": {"lat": 51.5141758697085, "lng": -0.191603780291502}}}, "name": "Snowflake Luxury Gelato - Bayswater", "place_id": "ChIJjfdPJQAQdkgRDk5K1xwGR_k", "types": ["cafe", "food", "point_of_interest", "store", "establishment"], "rating": 4.1, "user_ratings_total": 441}, "ChIJAQD0IwAQdkgRt_Pb4Ybqhgo": {"geometry": {"location": {"lat": 51.5152446, "lng": -0.1898663}, "viewport": {"northeast": {"lat": 51.5165790302915, "lng": -0.188393219708498}, "southwest": {"lat": 51.5138810697085, "lng": -0.191091180291502}}}, "name": "Compton & Woodhouse", "place_id": "ChIJAQD0IwAQdkgRt_Pb4Ybqhgo", "types": ["store", "point_of_interest", "establishment"]}, "ChIJtUClGAAQdkgR-96oJkFoiCY": {"geometry": {"location": {"lat": 51.51522840000001, "lng": -0.1898431}, "viewport": {"northeast": {"lat": 51.5165670302915, "lng": -0.188382569708498}, "southwest": {"lat": 51.5138690697085, "lng": -0.191080530291502}}}, "name": "London Detectives", "place_id": "ChIJtUClGAAQdkgR-96oJkFoiCY", "types": ["point_of_interest", "establishment"]}, "ChIJzdAgKXoRdkgRaT57qJ-k-94": {"geometry": {"location": {"lat": 51.51526940000001, "lng": -0.1898261}, "viewport": {"northeast": {"lat": 51.5165825302915, "lng": -0.188374969708498}, "southwest": {"lat": 51.5138845697085, "lng": -0.191072930291502}}}, "name": "Compass House", "place_id": "ChIJzdAgKXoRdkgRaT57qJ-k-94", "types": ["point_of_interest", "establishment"]}, "ChIJKccnIwAQdkgRGSMCPIRQ4VI": {"geometry": {"location": {"lat": 51.5154454, "lng": -0.1906264}, "viewport": {"northeast": {"lat": 51.5168341302915, "lng": -0.189288919708498}, "southwest": {"lat": 51.5141361697085, "lng": -0.191986880291502}}}, "name": "HAIRJES", "place_id": "ChIJKccnIwAQdkgRGSMCPIRQ4VI", "types": ["hair_care", "point_of_interest", "establishment"], "rating": 4.9, "user_ratings_total": 143}, "ChIJR8Qy3_8PdkgRRz0yvdizA9w": {"geometry": {"location": {"lat": 51.51473799999999, "lng": -0.189882}, "viewport": {"northeast": {"lat": 51.51608458029149, "lng": -0.188547169708498}, "southwest": {"lat": 51.51338661970849, "lng": -0.191245130291502}}}, "name": "ubitricity Charging Station", "place_id": "ChIJR8Qy3_8PdkgRRz0yvdizA9w", "types": ["point_of_interest", "establishment"]}, "ChIJIRtwIgAQdkgRxsIhnEK5iVY": {"geometry": {"location": {"lat": 51.5154723, "lng": -0.1902684}, "viewport": {"northeast": {"lat": 51.5166974302915, "lng": -0.188591969708498}, "southwest": {"lat": 51.5139994697085, "lng": -0.191289930291502}}}, "name": "Inverness Properties UK ltd", "place_id": "ChIJIRtwIgAQdkgRxsIhnEK5iVY", "types": ["point_of_interest", "establishment"], "rating": 4, "user_ratings_total": 20}, "ChIJAa9dIgAQdkgRILUFNj-AxzI": {"geometry": {"location": {"lat": 51.51531869999999, "lng": -0.1896231}, "viewport": {"northeast": {"lat": 51.51662608029149, "lng": -0.188253119708498}, "southwest": {"lat": 51.5139281197085, "lng": -0.190951080291502}}}, "name": "Enterprise Rentals Ltd", "place_id": "ChIJAa9dIgAQdkgRILUFNj-AxzI", "types": ["point_of_interest", "establishment"]}, "ChIJAa9dIgAQdkgRyN-VCVBcs9k": {"geometry": {"location": {"lat": 51.51531869999999, "lng": -0.1896231}, "viewport": {"northeast": {"lat": 51.51662608029149, "lng": -0.188253119708498}, "southwest": {"lat": 51.5139281197085, "lng": -0.190951080291502}}}, "name": "Laga", "place_id": "ChIJAa9dIgAQdkgRyN-VCVBcs9k", "types": ["cafe", "food", "point_of_interest", "store", "establishment"]}, "ChIJh1aSCAIQdkgRhLZDeLdDq3A": {"geometry": {"location": {"lat": 51.5154611, "lng": -0.190351}, "viewport": {"northeast": {"lat": 51.5168571802915, "lng": -0.189015619708498}, "southwest": {"lat": 51.5141592197085, "lng": -0.191713580291502}}}, "name": "JOE & THE JUICE", "place_id": "ChIJh1aSCAIQdkgRhLZDeLdDq3A", "types": ["meal_takeaway", "cafe", "restaurant", "food", "point_of_interest", "store", "establishment"], "rating": 3.7, "user_ratings_total": 108}, "ChIJcUR_fDURdkgRWBGFt608rCE": {"geometry": {"location": {"lat": 51.51549319999999, "lng": -0.1900554}, "viewport": {"northeast": {"lat": 51.5168897802915, "lng": -0.188720169708498}, "southwest": {"lat": 51.5141918197085, "lng": -0.191418130291502}}}, "name": "Psycle", "place_id": "ChIJcUR_fDURdkgRWBGFt608rCE", "types": ["gym", "health", "point_of_interest", "establishment"], "rating": 3.6, "user_ratings_total": 12}, "ChIJq6ouEgAQdkgRWNFbgNVUrOY": {"geometry": {"location": {"lat": 51.5153256, "lng": -0.1895967}, "viewport": {"northeast": {"lat": 51.5168292302915, "lng": -0.188291119708498}, "southwest": {"lat": 51.5141312697085, "lng": -0.1909890802915021}}}, "name": "Brick House", "place_id": "ChIJq6ouEgAQdkgRWNFbgNVUrOY", "types": ["restaurant", "food", "point_of_interest", "establishment"]}, "ChIJ1REuwz8RdkgRrGwluqW8-yo": {"geometry": {"location": {"lat": 51.51523539999999, "lng": -0.1908194}, "viewport": {"northeast": {"lat": 51.51656458029149, "lng": -0.189621519708498}, "southwest": {"lat": 51.51386661970849, "lng": -0.192319480291502}}}, "name": "Ayurvedic Yoga Massage ARYM", "place_id": "ChIJ1REuwz8RdkgRrGwluqW8-yo", "types": ["point_of_interest", "establishment"]}, "ChIJfVcWOBgPdkgRLqjApct6bx0": {"geometry": {"location": {"lat": 51.514711, "lng": -0.1897247}, "viewport": {"northeast": {"lat": 51.51607448029149, "lng": -0.188255419708498}, "southwest": {"lat": 51.5133765197085, "lng": -0.1909533802915021}}}, "name": "Express Electricians Kensington Gardens", "place_id": "ChIJfVcWOBgPdkgRLqjApct6bx0", "types": ["electrician", "point_of_interest", "establishment"]}, "ChIJ__-_3_8PdkgReRiek4A5MqA": {"geometry": {"location": {"lat": 51.51477269999999, "lng": -0.1896101}, "viewport": {"northeast": {"lat": 51.51612838029149, "lng": -0.188205269708498}, "southwest": {"lat": 51.51343041970849, "lng": -0.1909032302915021}}}, "name": "Melrose Studio", "place_id": "ChIJ__-_3_8PdkgReRiek4A5MqA", "types": ["point_of_interest", "establishment"]}, "ChIJheWrOgAQdkgRKN_o5vwESf0": {"geometry": {"location": {"lat": 51.51552899999999, "lng": -0.19024}, "viewport": {"northeast": {"lat": 51.5168873802915, "lng": -0.188893769708498}, "southwest": {"lat": 51.5141894197085, "lng": -0.191591730291502}}}, "name": "Santander Cycles", "place_id": "ChIJheWrOgAQdkgRKN_o5vwESf0", "types": ["point_of_interest", "establishment"]}, "ChIJVf_389kRdkgRrX5tmq_evPk": {"geometry": {"location": {"lat": 51.51540350000001, "lng": -0.1906682}, "viewport": {"northeast": {"lat": 51.51681238029151, "lng": -0.189336169708498}, "southwest": {"lat": 51.51411441970851, "lng": -0.192034130291502}}}, "name": "Ved Beauty - Westbourne Grove", "place_id": "ChIJVf_389kRdkgRrX5tmq_evPk", "types": ["beauty_salon", "point_of_interest", "establishment"], "rating": 5, "user_ratings_total": 1}, "ChIJ_QlbUV8RdkgRRynCxu_jZwg": {"geometry": {"location": {"lat": 51.51540350000001, "lng": -0.1906682}, "viewport": {"northeast": {"lat": 51.51681238029151, "lng": -0.189336169708498}, "southwest": {"lat": 51.51411441970851, "lng": -0.192034130291502}}}, "name": "Harly Beauty", "place_id": "ChIJ_QlbUV8RdkgRRynCxu_jZwg", "types": ["beauty_salon", "point_of_interest", "establishment"], "rating": 5, "user_ratings_total": 1}, "ChIJGY3JVjQRdkgR50SDJ3XSCZA": {"geometry": {"location": {"lat": 51.51493549999999, "lng": -0.1908487}, "viewport": {"northeast": {"lat": 51.5162704802915, "lng": -0.189568719708498}, "southwest": {"lat": 51.5135725197085, "lng": -0.192266680291502}}}, "name": "MISKO", "place_id": "ChIJGY3JVjQRdkgR50SDJ3XSCZA", "types": ["lodging", "point_of_interest", "establishment"]}, "ChIJVVWRKgAQdkgRD2z7eYU_hD0": {"geometry": {"location": {"lat": 51.51491439999999, "lng": -0.190876}, "viewport": {"northeast": {"lat": 51.51625008029149, "lng": -0.189574919708498}, "southwest": {"lat": 51.5135521197085, "lng": -0.192272880291502}}}, "name": "Robertson Business Psychology Ltd", "place_id": "ChIJVVWRKgAQdkgRD2z7eYU_hD0", "types": ["point_of_interest", "establishment"]}, "ChIJA6MXKQAQdkgRH0VoZLMNIFs": {"geometry": {"location": {"lat": 51.5152153, "lng": -0.190893}, "viewport": {"northeast": {"lat": 51.5165495302915, "lng": -0.189656619708498}, "southwest": {"lat": 51.5138515697085, "lng": -0.192354580291502}}}, "name": "Apas Management", "place_id": "ChIJA6MXKQAQdkgRH0VoZLMNIFs", "types": ["finance", "point_of_interest", "establishment"]}, "ChIJKccnIwAQdkgR3Lt47kfgsm8": {"geometry": {"location": {"lat": 51.515438, "lng": -0.1906986}, "viewport": {"northeast": {"lat": 51.51682633029149, "lng": -0.189363619708498}, "southwest": {"lat": 51.5141283697085, "lng": -0.192061580291502}}}, "name": "Nashi Pharmacy", "place_id": "ChIJKccnIwAQdkgR3Lt47kfgsm8", "types": ["pharmacy", "health", "point_of_interest", "store", "establishment"], "rating": 3.8, "user_ratings_total": 20}, "ChIJs-kV6o8RdkgRzbKEMkmp7To": {"geometry": {"location": {"lat": 51.5153938, "lng": -0.1895349}, "viewport": {"northeast": {"lat": 51.5166710802915, "lng": -0.188161169708498}, "southwest": {"lat": 51.5139731197085, "lng": -0.190859130291502}}}, "name": "Gifthis!", "place_id": "ChIJs-kV6o8RdkgRzbKEMkmp7To", "types": ["point_of_interest", "store", "establishment"]}, "ChIJUeG9KQAQdkgR-HLcoOaAfhw": {"geometry": {"location": {"lat": 51.51517209999999, "lng": -0.190975}, "viewport": {"northeast": {"lat": 51.51651238029149, "lng": -0.189692369708498}, "southwest": {"lat": 51.5138144197085, "lng": -0.192390330291502}}}, "name": "Garden Square Dental Practice", "place_id": "ChIJUeG9KQAQdkgR-HLcoOaAfhw", "types": ["dentist", "doctor", "health", "point_of_interest", "establishment"], "rating": 4.9, "user_ratings_total": 57}, "ChIJKccnIwAQdkgRehQjSA8UzTY": {"geometry": {"location": {"lat": 51.5155148, "lng": -0.1896941}, "viewport": {"northeast": {"lat": 51.51692148029149, "lng": -0.188361319708498}, "southwest": {"lat": 51.51422351970849, "lng": -0.191059280291502}}}, "name": "\u0627\u0644\u0627\u0643\u0627\u062f\u064a\u0645\u064a\u0629 \u0627\u0644\u0639\u0627\u0644\u0645\u064a\u0629 \u0644\u0644\u062a\u0623\u0647\u064a\u0644 \u0627\u0644\u0642\u0631\u0622\u0646\u064a", "place_id": "ChIJKccnIwAQdkgRehQjSA8UzTY", "types": ["school", "point_of_interest", "establishment"]}, "ChIJ5USgo68RdkgRLsPggWyPIAA": {"geometry": {"location": {"lat": 51.515511, "lng": -0.189684}, "viewport": {"northeast": {"lat": 51.5169200802915, "lng": -0.188351869708498}, "southwest": {"lat": 51.5142221197085, "lng": -0.191049830291502}}}, "name": "Jump Start My Car Paddington", "place_id": "ChIJ5USgo68RdkgRLsPggWyPIAA", "types": ["car_repair", "point_of_interest", "establishment"]}, "ChIJxZS23v8PdkgRcZeEnGBZU_U": {"geometry": {"location": {"lat": 51.5145935, "lng": -0.1898563}, "viewport": {"northeast": {"lat": 51.51594713029149, "lng": -0.188480219708498}, "southwest": {"lat": 51.51324916970849, "lng": -0.191178180291502}}}, "name": "Zipcar", "place_id": "ChIJxZS23v8PdkgRcZeEnGBZU_U", "types": ["car_rental", "point_of_interest", "establishment"]}, "ChIJq92QtfURdkgRxtcgIk-ASQs": {"geometry": {"location": {"lat": 51.51537140000001, "lng": -0.1908452}, "viewport": {"northeast": {"lat": 51.5167865802915, "lng": -0.189514719708498}, "southwest": {"lat": 51.51408861970851, "lng": -0.192212680291502}}}, "name": "Best-Top Indian Astrologer in London/ Spiritual Healer/ Get Your Love Back/ Black magic Removal in uk/ Love Spell caster/ Psychic reader in uk..", "place_id": "ChIJq92QtfURdkgRxtcgIk-ASQs", "types": ["point_of_interest", "establishment"], "rating": 5, "user_ratings_total": 138}, "ChIJyV2dM6YPdkgRmtW3REqusbM": {"geometry": {"location": {"lat": 51.5145113, "lng": -0.1898927}, "viewport": {"northeast": {"lat": 51.51585903029149, "lng": -0.188551169708498}, "southwest": {"lat": 51.5131610697085, "lng": -0.191249130291502}}}, "name": "Conversations with Becky", "place_id": "ChIJyV2dM6YPdkgRmtW3REqusbM", "types": ["place_of_worship", "point_of_interest", "establishment"]}, "ChIJSf67nwEQdkgRRpRQf-Z7LIY": {"geometry": {"location": {"lat": 51.51735475004501, "lng": -0.1925659993368074}, "viewport": {"northeast": {"lat": 51.51870373029151, "lng": -0.191217019708498}, "southwest": {"lat": 51.51600576970851, "lng": -0.193914980291502}}}, "name": "37-30 Alexander St", "place_id": "ChIJSf67nwEQdkgRRpRQf-Z7LIY", "types": ["route"]}, "ChIJKYi-oQEQdkgReUcrsb5tTGw": {"geometry": {"location": {"lat": 51.5170314, "lng": -0.1923429}, "viewport": {"northeast": {"lat": 51.51837243029149, "lng": -0.191047719708498}, "southwest": {"lat": 51.51567446970849, "lng": -0.193745680291502}}}, "name": "Hodgkinson Design", "place_id": "ChIJKYi-oQEQdkgReUcrsb5tTGw", "types": ["point_of_interest", "establishment"], "rating": 5, "user_ratings_total": 1}, "ChIJO076pwEQdkgRxUn0EiiOag4": {"geometry": {"location": {"lat": 51.5173965, "lng": -0.1918695}, "viewport": {"northeast": {"lat": 51.51881668029149, "lng": -0.190489619708498}, "southwest": {"lat": 51.51611871970849, "lng": -0.193187580291502}}}, "name": "Rocket and Boost", "place_id": "ChIJO076pwEQdkgRxUn0EiiOag4", "types": ["point_of_interest", "establishment"]}, "ChIJPxvsCAEQdkgRPm7nQo1lwWM": {"geometry": {"location": {"lat": 51.5174598, "lng": -0.1919523}, "viewport": {"northeast": {"lat": 51.5188569302915, "lng": -0.190582419708498}, "southwest": {"lat": 51.51615896970851, "lng": -0.193280380291502}}}, "name": "Susan Charles", "place_id": "ChIJPxvsCAEQdkgRPm7nQo1lwWM", "types": ["food", "point_of_interest", "establishment"]}, "ChIJ5TLTkHkbdkgRQnk2dIJkxmk": {"geometry": {"location": {"lat": 51.5169942, "lng": -0.1922615}, "viewport": {"northeast": {"lat": 51.5183311802915, "lng": -0.190996569708498}, "southwest": {"lat": 51.5156332197085, "lng": -0.193694530291502}}}, "name": "scrap my car", "place_id": "ChIJ5TLTkHkbdkgRQnk2dIJkxmk", "types": ["car_dealer", "point_of_interest", "store", "establishment"], "rating": 5, "user_ratings_total": 1}, "ChIJKYi-oQEQdkgRKOZwG7VcY4Y": {"geometry": {"location": {"lat": 51.51738039999999, "lng": -0.192463}, "viewport": {"northeast": {"lat": 51.51872283029149, "lng": -0.191166119708498}, "southwest": {"lat": 51.5160248697085, "lng": -0.1938640802915021}}}, "name": "Bayswater Referral Clinic", "place_id": "ChIJKYi-oQEQdkgRKOZwG7VcY4Y", "types": ["veterinary_care", "point_of_interest", "establishment"], "rating": 4.5, "user_ratings_total": 39}, "ChIJP9r5nwEQdkgRj6BQEcwYI08": {"geometry": {"location": {"lat": 51.51743889999999, "lng": -0.1924954}, "viewport": {"northeast": {"lat": 51.5187826302915, "lng": -0.1911881197084979}, "southwest": {"lat": 51.5160846697085, "lng": -0.193886080291502}}}, "name": "Veterinary Clinic", "place_id": "ChIJP9r5nwEQdkgRj6BQEcwYI08", "types": ["veterinary_care", "point_of_interest", "establishment"]}, "ChIJT-6Ko20RdkgR3PgwmzAOc8g": {"geometry": {"location": {"lat": 51.5173785, "lng": -0.1911563}, "viewport": {"northeast": {"lat": 51.51874438029149, "lng": -0.1897278697084979}, "southwest": {"lat": 51.5160464197085, "lng": -0.192425830291502}}}, "name": "Post Box", "place_id": "ChIJT-6Ko20RdkgR3PgwmzAOc8g", "types": ["point_of_interest", "establishment"]}, "ChIJ00AbFwcRdkgRacMEDJiMEM0": {"geometry": {"location": {"lat": 51.5174855, "lng": -0.1925067}, "viewport": {"northeast": {"lat": 51.5188288302915, "lng": -0.1912030197084979}, "southwest": {"lat": 51.5161308697085, "lng": -0.193900980291502}}}, "name": "Westbourne girl beauty and Lipofirm pro clinic", "place_id": "ChIJ00AbFwcRdkgRacMEDJiMEM0", "types": ["beauty_salon", "hair_care", "spa", "point_of_interest", "establishment"], "rating": 5, "user_ratings_total": 10}, "ChIJXdgDtIMRdkgRI_lAr6b8y5I": {"geometry": {"location": {"lat": 51.5174855, "lng": -0.1925067}, "viewport": {"northeast": {"lat": 51.5188288302915, "lng": -0.1912030197084979}, "southwest": {"lat": 51.5161308697085, "lng": -0.193900980291502}}}, "name": "Namaste Holistic Sanctuary", "place_id": "ChIJXdgDtIMRdkgRI_lAr6b8y5I", "types": ["beauty_salon", "point_of_interest", "establishment"], "rating": 5, "user_ratings_total": 4}, "ChIJsWjPvQEQdkgROziGh4k7l-Y": {"geometry": {"location": {"lat": 51.51656090000822, "lng": -0.1922794998833057}, "viewport": {"northeast": {"lat": 51.5179098802915, "lng": -0.1909305197084979}, "southwest": {"lat": 51.5152119197085, "lng": -0.193628480291502}}}, "name": "Alexander Street", "place_id": "ChIJsWjPvQEQdkgROziGh4k7l-Y", "types": ["route"]}, "ChIJx_PuxwEQdkgR3g9WSgBaOXY": {"geometry": {"location": {"lat": 51.516279, "lng": -0.1914029}, "viewport": {"northeast": {"lat": 51.51757353029149, "lng": -0.190034919708498}, "southwest": {"lat": 51.51487556970849, "lng": -0.192732880291502}}}, "name": "St Paul's URC Church", "place_id": "ChIJx_PuxwEQdkgR3g9WSgBaOXY", "types": ["church", "place_of_worship", "point_of_interest", "establishment"]}, "ChIJ0wiWxwEQdkgRvom15NlkuHQ": {"geometry": {"location": {"lat": 51.5160095, "lng": -0.1918399}, "viewport": {"northeast": {"lat": 51.5174044802915, "lng": -0.190506969708498}, "southwest": {"lat": 51.5147065197085, "lng": -0.193204930291502}}}, "name": "Virginia Ashton Lamps", "place_id": "ChIJ0wiWxwEQdkgRvom15NlkuHQ", "types": ["home_goods_store", "point_of_interest", "store", "establishment"]}, "ChIJb_JPwAEQdkgRmhRtQtzbBGs": {"geometry": {"location": {"lat": 51.516039, "lng": -0.1923377}, "viewport": {"northeast": {"lat": 51.5173569802915, "lng": -0.190977919708498}, "southwest": {"lat": 51.5146590197085, "lng": -0.193675880291502}}}, "name": "TV Broadcast Service", "place_id": "ChIJb_JPwAEQdkgRmhRtQtzbBGs", "types": ["point_of_interest", "establishment"]}, "ChIJi3i_6gEQdkgRvGPc_Ate-HY": {"geometry": {"location": {"lat": 51.5161102, "lng": -0.1925616}, "viewport": {"northeast": {"lat": 51.51741053029151, "lng": -0.191195669708498}, "southwest": {"lat": 51.51471256970851, "lng": -0.193893630291502}}}, "name": "Melanie Boissevain", "place_id": "ChIJi3i_6gEQdkgRvGPc_Ate-HY", "types": ["general_contractor", "point_of_interest", "establishment"]}, "ChIJ1-mutwEQdkgRyyYCiI0p_Lw": {"geometry": {"location": {"lat": 51.5163044, "lng": -0.1915834}, "viewport": {"northeast": {"lat": 51.5175751302915, "lng": -0.190207119708498}, "southwest": {"lat": 51.5148771697085, "lng": -0.192905080291502}}}, "name": "Lead Free Consultancy", "place_id": "ChIJ1-mutwEQdkgRyyYCiI0p_Lw", "types": ["point_of_interest", "establishment"]}, "ChIJX6F0wAEQdkgRUGpgi-xaqi4": {"geometry": {"location": {"lat": 51.5161452, "lng": -0.192375}, "viewport": {"northeast": {"lat": 51.51744088029149, "lng": -0.1910074197084979}, "southwest": {"lat": 51.51474291970849, "lng": -0.193705380291502}}}, "name": "ANALYSIS24 LIMITED", "place_id": "ChIJX6F0wAEQdkgRUGpgi-xaqi4", "types": ["point_of_interest", "establishment"]}, "ChIJ69YLvgEQdkgRHo_dp1qLSGw": {"geometry": {"location": {"lat": 51.5164811, "lng": -0.1924039}, "viewport": {"northeast": {"lat": 51.5178403802915, "lng": -0.190981919708498}, "southwest": {"lat": 51.5151424197085, "lng": -0.193679880291502}}}, "name": "ubitricity Charging Station", "place_id": "ChIJ69YLvgEQdkgRHo_dp1qLSGw", "types": ["point_of_interest", "establishment"]}, "ChIJiydWNQAQdkgRCkaWevg2EO4": {"geometry": {"location": {"lat": 51.516454, "lng": -0.1911396}, "viewport": {"northeast": {"lat": 51.5177382802915, "lng": -0.189667819708498}, "southwest": {"lat": 51.5150403197085, "lng": -0.192365780291502}}}, "name": "Dr S Gordon - The Newton Medical Centre", "place_id": "ChIJiydWNQAQdkgRCkaWevg2EO4", "types": ["doctor", "health", "point_of_interest", "establishment"]}, "ChIJJYAvtQEQdkgR5FmSYxM2X50": {"geometry": {"location": {"lat": 51.516454, "lng": -0.1911396}, "viewport": {"northeast": {"lat": 51.5177382802915, "lng": -0.189667819708498}, "southwest": {"lat": 51.5150403197085, "lng": -0.192365780291502}}}, "name": "Dock Dr D", "place_id": "ChIJJYAvtQEQdkgR5FmSYxM2X50", "types": ["doctor", "health", "point_of_interest", "establishment"]}, "ChIJ2Q_GSgAQdkgRngze_OdzJKo": {"geometry": {"location": {"lat": 51.516454, "lng": -0.1911396}, "viewport": {"northeast": {"lat": 51.5177382802915, "lng": -0.189667819708498}, "southwest": {"lat": 51.5150403197085, "lng": -0.192365780291502}}}, "name": "Dr George Simons MD", "place_id": "ChIJ2Q_GSgAQdkgRngze_OdzJKo", "types": ["doctor", "health", "point_of_interest", "establishment"], "rating": 5, "user_ratings_total": 1}, "ChIJHaWd_10RdkgRaaRFjLbquLk": {"geometry": {"location": {"lat": 51.5164262, "lng": -0.1911024}, "viewport": {"northeast": {"lat": 51.5177243802915, "lng": -0.189649219708498}, "southwest": {"lat": 51.5150264197085, "lng": -0.192347180291502}}}, "name": "Newton Road MSK Centre", "place_id": "ChIJHaWd_10RdkgRaaRFjLbquLk", "types": ["physiotherapist", "health", "point_of_interest", "establishment"], "rating": 1, "user_ratings_total": 1}, "ChIJY_J62wEQdkgRzUnhRkNkL-E": {"geometry": {"location": {"lat": 51.51537535007036, "lng": -0.1920612500345985}, "viewport": {"northeast": {"lat": 51.5167243302915, "lng": -0.1907122697084979}, "southwest": {"lat": 51.5140263697085, "lng": -0.193410230291502}}}, "name": "62-60 A4206", "place_id": "ChIJY_J62wEQdkgRzUnhRkNkL-E", "types": ["route"]}, "ChIJO30D2QEQdkgRQuLUmVzx9jo": {"geometry": {"location": {"lat": 51.51506, "lng": -0.192105}, "viewport": {"northeast": {"lat": 51.5164230802915, "lng": -0.190625269708498}, "southwest": {"lat": 51.5137251197085, "lng": -0.193323230291502}}}, "name": "Bridgeman Images", "place_id": "ChIJO30D2QEQdkgRQuLUmVzx9jo", "types": ["point_of_interest", "establishment"], "rating": 5, "user_ratings_total": 6}, "ChIJyzHZ3QEQdkgRCY4oi4U7fBo": {"geometry": {"location": {"lat": 51.5152727, "lng": -0.1920733}, "viewport": {"northeast": {"lat": 51.51667158029149, "lng": -0.190737819708498}, "southwest": {"lat": 51.51397361970849, "lng": -0.193435780291502}}}, "name": "Al Waha", "place_id": "ChIJyzHZ3QEQdkgRCY4oi4U7fBo", "types": ["restaurant", "food", "point_of_interest", "establishment"], "rating": 4.2, "user_ratings_total": 412}, "ChIJrYRa2wEQdkgRWTkUP9fnYE4": {"geometry": {"location": {"lat": 51.5154855, "lng": -0.1921883}, "viewport": {"northeast": {"lat": 51.5167784802915, "lng": -0.1907855697084979}, "southwest": {"lat": 51.5140805197085, "lng": -0.193483530291502}}}, "name": "Gina Conway Salon Spa", "place_id": "ChIJrYRa2wEQdkgRWTkUP9fnYE4", "types": ["beauty_salon", "hair_care", "spa", "health", "point_of_interest", "establishment"], "rating": 4.5, "user_ratings_total": 101}, "ChIJmW0p0gEQdkgRpumjviRE6FI": {"geometry": {"location": {"lat": 51.5152778, "lng": -0.1913889}, "viewport": {"northeast": {"lat": 51.5167094302915, "lng": -0.1900626197084979}, "southwest": {"lat": 51.5140114697085, "lng": -0.192760580291502}}},