{"E00023585": {"ChIJ8Z4wKg4QdkgRtkadtPmZF9g": {"geometry": {"location": {"lat": 51.52832600596868, "lng": -0.2001401939147869}, "viewport": {"northeast": {"lat": 51.5296749802915, "lng": -0.1977702}, "southwest": {"lat": 51.5269770197085, "lng": -0.2025102}}}, "name": "289-233 Shirland Rd", "place_id": "ChIJ8Z4wKg4QdkgRtkadtPmZF9g", "types": ["route"]}, "ChIJO8taKw4QdkgRgp-wBueX6dI": {"geometry": {"location": {"lat": 51.5283346, "lng": -0.2008724}, "viewport": {"northeast": {"lat": 51.5297453302915, "lng": -0.199491969708498}, "southwest": {"lat": 51.52704736970851, "lng": -0.202189930291502}}}, "name": "H R E", "place_id": "ChIJO8taKw4QdkgRgp-wBueX6dI", "types": ["car_repair", "point_of_interest", "establishment"], "rating": 5, "user_ratings_total": 3}, "ChIJWV8wyhEQdkgRJSn7D5XvHfE": {"geometry": {"location": {"lat": 51.5282947, "lng": -0.2011135}, "viewport": {"northeast": {"lat": 51.5296420802915, "lng": -0.199882019708498}, "southwest": {"lat": 51.5269441197085, "lng": -0.202579980291502}}}, "name": "Business Solutions", "place_id": "ChIJWV8wyhEQdkgRJSn7D5XvHfE", "types": ["point_of_interest", "establishment"], "rating": 5, "user_ratings_total": 3}, "ChIJhX02yhEQdkgRBTqdXmRxD9o": {"geometry": {"location": {"lat": 51.52817330000001, "lng": -0.2011277}, "viewport": {"northeast": {"lat": 51.52952143029151, "lng": -0.199887519708498}, "southwest": {"lat": 51.52682346970851, "lng": -0.202585480291502}}}, "name": "Ingene Publishing", "place_id": "ChIJhX02yhEQdkgRBTqdXmRxD9o", "types": ["point_of_interest", "establishment"]}, "ChIJwQovyhEQdkgRKA_lr32h72I": {"geometry": {"location": {"lat": 51.5282451, "lng": -0.2011857}, "viewport": {"northeast": {"lat": 51.5295929802915, "lng": -0.1999172697084979}, "southwest": {"lat": 51.5268950197085, "lng": -0.2026152302915019}}}, "name": "Xtra Deals Ltd", "place_id": "ChIJwQovyhEQdkgRKA_lr32h72I", "types": ["point_of_interest", "establishment"], "rating": 5, "user_ratings_total": 1}, "ChIJheIKKQ4QdkgRDdWJg1qCw84": {"geometry": {"location": {"lat": 51.52844869999999, "lng": -0.1999155}, "viewport": {"northeast": {"lat": 51.52972228029149, "lng": -0.1986075197084979}, "southwest": {"lat": 51.5270243197085, "lng": -0.201305480291502}}}, "name": "Data Strategy", "place_id": "ChIJheIKKQ4QdkgRDdWJg1qCw84", "types": ["point_of_interest", "establishment"]}, "ChIJCz5yyREQdkgR7dq3sUNYOAA": {"geometry": {"location": {"lat": 51.5283972, "lng": -0.2011897}, "viewport": {"northeast": {"lat": 51.5297436802915, "lng": -0.199922219708498}, "southwest": {"lat": 51.5270457197085, "lng": -0.202620180291502}}}, "name": "The Sindian Grill House", "place_id": "ChIJCz5yyREQdkgR7dq3sUNYOAA", "types": ["restaurant", "food", "point_of_interest", "establishment"], "rating": 4.4, "user_ratings_total": 76}, "ChIJA1PnGECm2EcRrcaBkxAclIg": {"geometry": {"location": {"lat": 51.5282451, "lng": -0.2011857}, "viewport": {"northeast": {"lat": 51.5295929802915, "lng": -0.1999172697084979}, "southwest": {"lat": 51.5268950197085, "lng": -0.2026152302915019}}}, "name": "Hello Anglia", "place_id": "ChIJA1PnGECm2EcRrcaBkxAclIg", "types": ["point_of_interest", "establishment"], "rating": 5, "user_ratings_total": 9}, "ChIJo1O-yxEQdkgRuvmmTNSm8Q0": {"geometry": {"location": {"lat": 51.5282451, "lng": -0.2011857}, "viewport": {"northeast": {"lat": 51.5295929802915, "lng": -0.1999172697084979}, "southwest": {"lat": 51.5268950197085, "lng": -0.2026152302915019}}}, "name": "DTVM Security", "place_id": "ChIJo1O-yxEQdkgRuvmmTNSm8Q0", "types": ["point_of_interest", "establishment"]}, "ChIJWV8wyhEQdkgR0hQXlxAhh8Y": {"geometry": {"location": {"lat": 51.5282451, "lng": -0.2011857}, "viewport": {"northeast": {"lat": 51.5295929802915, "lng": -0.1999172697084979}, "southwest": {"lat": 51.5268950197085, "lng": -0.2026152302915019}}}, "name": "Marketology", "place_id": "ChIJWV8wyhEQdkgR0hQXlxAhh8Y", "types": ["point_of_interest", "establishment"]}, "ChIJB6Y2yhEQdkgRhQMd9xkjDP4": {"geometry": {"location": {"lat": 51.5281627, "lng": -0.2011819}, "viewport": {"northeast": {"lat": 51.52951103029149, "lng": -0.199914469708498}, "southwest": {"lat": 51.5268130697085, "lng": -0.202612430291502}}}, "name": "Mouns Salon", "place_id": "ChIJB6Y2yhEQdkgRhQMd9xkjDP4", "types": ["hair_care", "point_of_interest", "establishment"], "rating": 5, "user_ratings_total": 10}, "ChIJSd2gyxEQdkgRYes4LyPh2uU": {"geometry": {"location": {"lat": 51.5283414, "lng": -0.2011138}, "viewport": {"northeast": {"lat": 51.5296887302915, "lng": -0.1998830197084979}, "southwest": {"lat": 51.5269907697085, "lng": -0.202580980291502}}}, "name": "The Cedar", "place_id": "ChIJSd2gyxEQdkgRYes4LyPh2uU", "types": ["bar", "restaurant", "food", "point_of_interest", "establishment"], "rating": 4.2, "user_ratings_total": 326}, "ChIJ03Zg0REQdkgRlIqDzlAVeTI": {"geometry": {"location": {"lat": 51.52831499999999, "lng": -0.200382}, "viewport": {"northeast": {"lat": 51.5296872802915, "lng": -0.199021119708498}, "southwest": {"lat": 51.5269893197085, "lng": -0.201719080291502}}}, "name": "ubitricity Charging Station", "place_id": "ChIJ03Zg0REQdkgRlIqDzlAVeTI", "types": ["point_of_interest", "establishment"]}, "ChIJPUH1xREQdkgRalV5QQO9Av8": {"geometry": {"location": {"lat": 51.528507, "lng": -0.20085}, "viewport": {"northeast": {"lat": 51.52984943029149, "lng": -0.199504319708498}, "southwest": {"lat": 51.52715146970849, "lng": -0.202202280291502}}}, "name": "Shirland Road Fernhead Road (Stop MQ)", "place_id": "ChIJPUH1xREQdkgRalV5QQO9Av8", "types": ["transit_station", "point_of_interest", "establishment"], "rating": 5, "user_ratings_total": 3}, "ChIJX5DcvTQRdkgRIV_FurTLoNY": {"geometry": {"location": {"lat": 51.5284018, "lng": -0.2010694}, "viewport": {"northeast": {"lat": 51.52974648029149, "lng": -0.199862069708498}, "southwest": {"lat": 51.52704851970849, "lng": -0.202560030291502}}}, "name": "Farrouj", "place_id": "ChIJX5DcvTQRdkgRIV_FurTLoNY", "types": ["restaurant", "food", "point_of_interest", "establishment"], "rating": 4.5, "user_ratings_total": 29}, "ChIJo1O-yxEQdkgRBfNhJDESIbg": {"geometry": {"location": {"lat": 51.5282229, "lng": -0.2011267}, "viewport": {"northeast": {"lat": 51.52957098029151, "lng": -0.199887519708498}, "southwest": {"lat": 51.52687301970851, "lng": -0.202585480291502}}}, "name": "Contabilitate", "place_id": "ChIJo1O-yxEQdkgRBfNhJDESIbg", "types": ["point_of_interest", "establishment"]}, "ChIJo1O-yxEQdkgRPqh_Vg-aF18": {"geometry": {"location": {"lat": 51.5282229, "lng": -0.2011267}, "viewport": {"northeast": {"lat": 51.52957098029151, "lng": -0.199887519708498}, "southwest": {"lat": 51.52687301970851, "lng": -0.202585480291502}}}, "name": "Aqua Publis LTD", "place_id": "ChIJo1O-yxEQdkgRPqh_Vg-aF18", "types": ["point_of_interest", "establishment"]}, "ChIJnUvUyxEQdkgRlkrYzbB_glY": {"geometry": {"location": {"lat": 51.52829430000001, "lng": -0.2011886}, "viewport": {"northeast": {"lat": 51.5296421802915, "lng": -0.199919619708498}, "southwest": {"lat": 51.5269442197085, "lng": -0.202617580291502}}}, "name": "88 Dragons Sushi & Dim Sum", "place_id": "ChIJnUvUyxEQdkgRlkrYzbB_glY", "types": ["restaurant", "food", "point_of_interest", "establishment"], "rating": 4, "user_ratings_total": 40}, "ChIJq6rOyxEQdkgRncUiSRyd0Fc": {"geometry": {"location": {"lat": 51.5282451, "lng": -0.2011857}, "viewport": {"northeast": {"lat": 51.5295929802915, "lng": -0.1999172697084979}, "southwest": {"lat": 51.5268950197085, "lng": -0.2026152302915019}}}, "name": "Matcha Greea Tea", "place_id": "ChIJq6rOyxEQdkgRncUiSRyd0Fc", "types": ["point_of_interest", "establishment"]}, "ChIJm82CyREQdkgR8DpI1EUz7kE": {"geometry": {"location": {"lat": 51.5283469, "lng": -0.2012179}, "viewport": {"northeast": {"lat": 51.5296949802915, "lng": -0.199935219708498}, "southwest": {"lat": 51.5269970197085, "lng": -0.202633180291502}}}, "name": "Caramel", "place_id": "ChIJm82CyREQdkgR8DpI1EUz7kE", "types": ["point_of_interest", "establishment"]}, "ChIJSd2gyxEQdkgRMr-T2ynoBDc": {"geometry": {"location": {"lat": 51.5280759, "lng": -0.2012334}, "viewport": {"northeast": {"lat": 51.5294244302915, "lng": -0.1999393197084979}, "southwest": {"lat": 51.5267264697085, "lng": -0.202637280291502}}}, "name": "Clark P Construction", "place_id": "ChIJSd2gyxEQdkgRMr-T2ynoBDc", "types": ["general_contractor", "point_of_interest", "establishment"]}, "ChIJjbWoPhAQdkgR1kojOpuDM1g": {"geometry": {"location": {"lat": 51.52695510050094, "lng": -0.2010254994601434}, "viewport": {"northeast": {"lat": 51.5283040802915, "lng": -0.199676519708498}, "southwest": {"lat": 51.5256061197085, "lng": -0.202374480291502}}}, "name": "58-62 Warlock Rd", "place_id": "ChIJjbWoPhAQdkgR1kojOpuDM1g", "types": ["route"]}, "ChIJOeZ4PBAQdkgR9LEODSMGKag": {"geometry": {"location": {"lat": 51.5269849, "lng": -0.2008611}, "viewport": {"northeast": {"lat": 51.52830613029149, "lng": -0.199527019708498}, "southwest": {"lat": 51.5256081697085, "lng": -0.202224980291502}}}, "name": "Bodyism", "place_id": "ChIJOeZ4PBAQdkgR9LEODSMGKag", "types": ["point_of_interest", "establishment"]}, "ChIJtQeUORAQdkgRWqpVFrzhYAs": {"geometry": {"location": {"lat": 51.52722059999999, "lng": -0.201087}, "viewport": {"northeast": {"lat": 51.5285698302915, "lng": -0.199878519708498}, "southwest": {"lat": 51.5258718697085, "lng": -0.202576480291502}}}, "name": "Ghauri Dental Centre", "place_id": "ChIJtQeUORAQdkgRWqpVFrzhYAs", "types": ["dentist", "health", "point_of_interest", "establishment"]}, "ChIJC08G2A8QdkgRl77AtCDQ5JQ": {"geometry": {"location": {"lat": 51.527289, "lng": -0.199899}, "viewport": {"northeast": {"lat": 51.5286449302915, "lng": -0.198546519708498}, "southwest": {"lat": 51.52594696970851, "lng": -0.201244480291502}}}, "name": "ubitricity Charging Station", "place_id": "ChIJC08G2A8QdkgRl77AtCDQ5JQ", "types": ["point_of_interest", "establishment"]}, "ChIJRzENOBAQdkgRTxQdp7pU5oA": {"geometry": {"location": {"lat": 51.527266, "lng": -0.2012879}, "viewport": {"northeast": {"lat": 51.5286114802915, "lng": -0.199978119708498}, "southwest": {"lat": 51.5259135197085, "lng": -0.2026760802915021}}}, "name": "ubitricity Charging Station", "place_id": "ChIJRzENOBAQdkgRTxQdp7pU5oA", "types": ["point_of_interest", "establishment"]}, "ChIJO0vOPhAQdkgRfZyQRygFbP0": {"geometry": {"location": {"lat": 51.5269618, "lng": -0.2011468}, "viewport": {"northeast": {"lat": 51.5282976302915, "lng": -0.199804919708498}, "southwest": {"lat": 51.5255996697085, "lng": -0.202502880291502}}}, "name": "Zipcar", "place_id": "ChIJO0vOPhAQdkgRfZyQRygFbP0", "types": ["car_rental", "point_of_interest", "establishment"]}, "ChIJLVMWMRAQdkgRl6FqDXAuZRg": {"geometry": {"location": {"lat": 51.527599, "lng": -0.2010907}, "viewport": {"northeast": {"lat": 51.5289326802915, "lng": -0.199749119708498}, "southwest": {"lat": 51.5262347197085, "lng": -0.202447080291502}}}, "name": "ubitricity Charging Station", "place_id": "ChIJLVMWMRAQdkgRl6FqDXAuZRg", "types": ["point_of_interest", "establishment"]}, "ChIJYTTpIhAQdkgR6xPMujAvU24": {"geometry": {"location": {"lat": 51.5267736, "lng": -0.2005313999999999}, "viewport": {"northeast": {"lat": 51.52816303029149, "lng": -0.1991706197084979}, "southwest": {"lat": 51.5254650697085, "lng": -0.201868580291502}}}, "name": "Westbourne Grove Medical Centre", "place_id": "ChIJYTTpIhAQdkgR6xPMujAvU24", "types": ["point_of_interest", "establishment"]}, "ChIJR-mUIhAQdkgRTaontbYhOzE": {"geometry": {"location": {"lat": 51.5267407, "lng": -0.200538}, "viewport": {"northeast": {"lat": 51.5281464302915, "lng": -0.199172469708498}, "southwest": {"lat": 51.52544846970851, "lng": -0.201870430291502}}}, "name": "Medical Centre", "place_id": "ChIJR-mUIhAQdkgRTaontbYhOzE", "types": ["point_of_interest", "establishment"]}, "ChIJmXsgbRAQdkgRNuzATPwynls": {"geometry": {"location": {"lat": 51.52612230000103, "lng": -0.2014213501067909}, "viewport": {"northeast": {"lat": 51.52747128029149, "lng": -0.200072369708498}, "southwest": {"lat": 51.5247733197085, "lng": -0.202770330291502}}}, "name": "16-42 Fernhead Rd", "place_id": "ChIJmXsgbRAQdkgRNuzATPwynls", "types": ["route"]}, "ChIJOeELAxAQdkgR1erKX-gw-6w": {"geometry": {"location": {"lat": 51.5258646, "lng": -0.2001099}, "viewport": {"northeast": {"lat": 51.5271580302915, "lng": -0.198637519708498}, "southwest": {"lat": 51.5244600697085, "lng": -0.201335480291502}}}, "name": "Ripa's Cakes", "place_id": "ChIJOeELAxAQdkgR1erKX-gw-6w", "types": ["bakery", "food", "point_of_interest", "store", "establishment"], "rating": 5, "user_ratings_total": 2}, "ChIJHc6hDRAQdkgRuB1VsJbrBoY": {"geometry": {"location": {"lat": 51.52592180000001, "lng": -0.2011788}, "viewport": {"northeast": {"lat": 51.52720633029151, "lng": -0.199853669708498}, "southwest": {"lat": 51.52450836970851, "lng": -0.2025516302915021}}}, "name": "West 1 Homes", "place_id": "ChIJHc6hDRAQdkgRuB1VsJbrBoY", "types": ["general_contractor", "point_of_interest", "establishment"]}, "ChIJKVJXaxAQdkgRn4qXKu8aNL8": {"geometry": {"location": {"lat": 51.52635069999999, "lng": -0.2012981}, "viewport": {"northeast": {"lat": 51.52770083029149, "lng": -0.2000039197084979}, "southwest": {"lat": 51.52500286970849, "lng": -0.202701880291502}}}, "name": "Westminster Carpentry", "place_id": "ChIJKVJXaxAQdkgRn4qXKu8aNL8", "types": ["point_of_interest", "establishment"]}, "ChIJq51MFxAQdkgRriTfLTkgEbM": {"geometry": {"location": {"lat": 51.526343, "lng": -0.200711}, "viewport": {"northeast": {"lat": 51.52768293029149, "lng": -0.1993666197084979}, "southwest": {"lat": 51.52498496970849, "lng": -0.202064580291502}}}, "name": "ubitricity Charging Station", "place_id": "ChIJq51MFxAQdkgRriTfLTkgEbM", "types": ["point_of_interest", "establishment"]}, "ChIJX9smHBAQdkgRg7f7-FVA9gI": {"geometry": {"location": {"lat": 51.5263244, "lng": -0.200155}, "viewport": {"northeast": {"lat": 51.5276120302915, "lng": -0.1988394697084979}, "southwest": {"lat": 51.5249140697085, "lng": -0.201537430291502}}}, "name": "Bay Wood Chemist", "place_id": "ChIJX9smHBAQdkgRg7f7-FVA9gI", "types": ["pharmacy", "health", "point_of_interest", "store", "establishment"]}, "ChIJKz-5HhAQdkgRs_DfsQajepk": {"geometry": {"location": {"lat": 51.52640419999999, "lng": -0.2002101999999999}, "viewport": {"northeast": {"lat": 51.5276612802915, "lng": -0.198911369708498}, "southwest": {"lat": 51.5249633197085, "lng": -0.201609330291502}}}, "name": "Mini Rodini", "place_id": "ChIJKz-5HhAQdkgRs_DfsQajepk", "types": ["point_of_interest", "establishment"]}, "ChIJj3XeAhAQdkgRVmQseIahXXE": {"geometry": {"location": {"lat": 51.5259323, "lng": -0.2000645}, "viewport": {"northeast": {"lat": 51.5273645302915, "lng": -0.1986204697084979}, "southwest": {"lat": 51.5246665697085, "lng": -0.201318430291502}}}, "name": "Themes & Variations", "place_id": "ChIJj3XeAhAQdkgRVmQseIahXXE", "types": ["point_of_interest", "establishment"]}, "ChIJlc38AhAQdkgRUFMvI7Srk1o": {"geometry": {"location": {"lat": 51.52588429999999, "lng": -0.2000723}, "viewport": {"northeast": {"lat": 51.5271798802915, "lng": -0.198604769708498}, "southwest": {"lat": 51.5244819197085, "lng": -0.201302730291502}}}, "name": "Smythson", "place_id": "ChIJlc38AhAQdkgRUFMvI7Srk1o", "types": ["point_of_interest", "establishment"]}, "ChIJfUF-AhAQdkgRFhJZa4fxZfg": {"geometry": {"location": {"lat": 51.5258657, "lng": -0.1998499}, "viewport": {"northeast": {"lat": 51.5272010802915, "lng": -0.198459269708498}, "southwest": {"lat": 51.52450311970851, "lng": -0.2011572302915021}}}, "name": "ubitricity Charging Station", "place_id": "ChIJfUF-AhAQdkgRFhJZa4fxZfg", "types": ["point_of_interest", "establishment"]}, "ChIJdx9asBoQdkgRw4t3_semLUw": {"geometry": {"location": {"lat": 51.52459410871998, "lng": -0.2002915867432588}, "viewport": {"northeast": {"lat": 51.5259419302915, "lng": -0.198942069708498}, "southwest": {"lat": 51.5232439697085, "lng": -0.201640030291502}}}, "name": "22-12 Elgin Ave", "place_id": "ChIJdx9asBoQdkgRw4t3_semLUw", "types": ["route"]}, "ChIJrYdbDhAQdkgRZs-L14trdHY": {"geometry": {"location": {"lat": 51.52551820000001, "lng": -0.2004169}, "viewport": {"northeast": {"lat": 51.5268955802915, "lng": -0.199042219708498}, "southwest": {"lat": 51.5241976197085, "lng": -0.201740180291502}}}, "name": "IAMExpert", "place_id": "ChIJrYdbDhAQdkgRZs-L14trdHY", "types": ["point_of_interest", "establishment"]}, "ChIJpwiAoRoQdkgRRfOBwTmNoBU": {"geometry": {"location": {"lat": 51.52479049999999, "lng": -0.201239}, "viewport": {"northeast": {"lat": 51.5261019802915, "lng": -0.199807319708498}, "southwest": {"lat": 51.5234040197085, "lng": -0.202505280291502}}}, "name": "Walterton Road Toilets", "place_id": "ChIJpwiAoRoQdkgRRfOBwTmNoBU", "types": ["point_of_interest", "establishment"]}, "ChIJ803zqBoQdkgRJsiNdiokJh0": {"geometry": {"location": {"lat": 51.52513519999999, "lng": -0.2005251}, "viewport": {"northeast": {"lat": 51.5264942302915, "lng": -0.199197119708498}, "southwest": {"lat": 51.5237962697085, "lng": -0.201895080291502}}}, "name": "Ubitricity Charging Station", "place_id": "ChIJ803zqBoQdkgRJsiNdiokJh0", "types": ["point_of_interest", "establishment"]}, "ChIJXzB7jeYRdkgRbkKqKSWSJ_w": {"geometry": {"location": {"lat": 51.5252623, "lng": -0.2004536}, "viewport": {"northeast": {"lat": 51.5266237302915, "lng": -0.199132119708498}, "southwest": {"lat": 51.52392576970851, "lng": -0.201830080291502}}}, "name": "Low Cost Crane Hire Maida Vale", "place_id": "ChIJXzB7jeYRdkgRbkKqKSWSJ_w", "types": ["point_of_interest", "establishment"]}, "ChIJ3_czqhoQdkgR_S2fEQtT2lk": {"geometry": {"location": {"lat": 51.52530180000001, "lng": -0.2000926}, "viewport": {"northeast": {"lat": 51.5266926302915, "lng": -0.198839869708498}, "southwest": {"lat": 51.5239946697085, "lng": -0.201537830291502}}}, "name": "Chris Jerome piano/keyboards", "place_id": "ChIJ3_czqhoQdkgR_S2fEQtT2lk", "types": ["electronics_store", "home_goods_store", "point_of_interest", "store", "establishment"]}, "ChIJuUlEBxAQdkgRguLDNdhVOn8": {"geometry": {"location": {"lat": 51.52540699999999, "lng": -0.2003272}, "viewport": {"northeast": {"lat": 51.5267546302915, "lng": -0.198975219708498}, "southwest": {"lat": 51.5240566697085, "lng": -0.201673180291502}}}, "name": "Shirland Services", "place_id": "ChIJuUlEBxAQdkgRguLDNdhVOn8", "types": ["general_contractor", "point_of_interest", "establishment"]}, "ChIJ___moxoQdkgR2IC_HnoMwBA": {"geometry": {"location": {"lat": 51.5249902, "lng": -0.2010817}, "viewport": {"northeast": {"lat": 51.5262887802915, "lng": -0.199626769708498}, "southwest": {"lat": 51.5235908197085, "lng": -0.202324730291502}}}, "name": "Warren Court", "place_id": "ChIJ___moxoQdkgR2IC_HnoMwBA", "types": ["point_of_interest", "establishment"]}, "ChIJ_zasrBoQdkgR5fDXgACeEpE": {"geometry": {"location": {"lat": 51.524994, "lng": -0.1999145000000001}, "viewport": {"northeast": {"lat": 51.5261977802915, "lng": -0.198485469708498}, "southwest": {"lat": 51.5234998197085, "lng": -0.2011834302915021}}}, "name": "Brissi", "place_id": "ChIJ_zasrBoQdkgR5fDXgACeEpE", "types": ["point_of_interest", "establishment"], "rating": 1, "user_ratings_total": 1}, "ChIJfy5bItYRdkgRWM98t78U8Wo": {"geometry": {"location": {"lat": 51.5251055, "lng": -0.2013525}, "viewport": {"northeast": {"lat": 51.5264560802915, "lng": -0.200075669708498}, "southwest": {"lat": 51.5237581197085, "lng": -0.202773630291502}}}, "name": "Fernhead Boys Balcony", "place_id": "ChIJfy5bItYRdkgRWM98t78U8Wo", "types": ["point_of_interest", "establishment"]}, "ChIJV4WnqxoQdkgRWzUxYRjlAyI": {"geometry": {"location": {"lat": 51.52508419999999, "lng": -0.2001503}, "viewport": {"northeast": {"lat": 51.52652078358887, "lng": -0.1987189188868826}, "southwest": {"lat": 51.52382282300587, "lng": -0.2014168794698866}}}, "name": "Parking lot", "place_id": "ChIJV4WnqxoQdkgRWzUxYRjlAyI", "types": ["parking", "premise", "point_of_interest", "establishment"]}, "ChIJV-zNyxoQdkgRDcEWL-zX3mw": {"geometry": {"location": {"lat": 51.52394344848535, "lng": -0.200712169915518}, "viewport": {"northeast": {"lat": 51.5252921302915, "lng": -0.199363369708498}, "southwest": {"lat": 51.5225941697085, "lng": -0.202061330291502}}}, "name": "337 Harrow Rd", "place_id": "ChIJV-zNyxoQdkgRDcEWL-zX3mw", "types": ["route"]}, "ChIJMR9KxxoQdkgRi2UM1BG9bqU": {"geometry": {"location": {"lat": 51.52385400000001, "lng": -0.201048}, "viewport": {"northeast": {"lat": 51.5252326802915, "lng": -0.199597719708498}, "southwest": {"lat": 51.5225347197085, "lng": -0.2022956802915021}}}, "name": "Mosob Restaurant", "place_id": "ChIJMR9KxxoQdkgRi2UM1BG9bqU", "types": ["restaurant", "food", "point_of_interest", "establishment"], "rating": 4.6, "user_ratings_total": 367}, "ChIJyzHZ3QEQdkgRHg7DMoJgsiQ": {"geometry": {"location": {"lat": 51.5241211, "lng": -0.2009144}, "viewport": {"northeast": {"lat": 51.5254222302915, "lng": -0.199605319708498}, "southwest": {"lat": 51.5227242697085, "lng": -0.202303280291502}}}, "name": "Sainsbury's Local", "place_id": "ChIJyzHZ3QEQdkgRHg7DMoJgsiQ", "types": ["supermarket", "convenience_store", "grocery_or_supermarket", "food", "point_of_interest", "store", "establishment"], "rating": 3.7, "user_ratings_total": 66}, "ChIJb58BuBoQdkgRLHPPVVaI8oc": {"geometry": {"location": {"lat": 51.5240516, "lng": -0.2006368}, "viewport": {"northeast": {"lat": 51.5253455802915, "lng": -0.199321519708498}, "southwest": {"lat": 51.5226476197085, "lng": -0.202019480291502}}}, "name": "Adonia Medical Clinic", "place_id": "ChIJb58BuBoQdkgRLHPPVVaI8oc", "types": ["beauty_salon", "hair_care", "hospital", "doctor", "health", "point_of_interest", "establishment"], "rating": 5, "user_ratings_total": 30}, "ChIJVeNBwBoQdkgRUgJxO6M8YoI": {"geometry": {"location": {"lat": 51.5239516, "lng": -0.2012498}, "viewport": {"northeast": {"lat": 51.5253628802915, "lng": -0.199853319708498}, "southwest": {"lat": 51.5226649197085, "lng": -0.202551280291502}}}, "name": "Amen Dry Cleaners", "place_id": "ChIJVeNBwBoQdkgRUgJxO6M8YoI", "types": ["laundry", "point_of_interest", "establishment"], "rating": 5, "user_ratings_total": 22}, "ChIJdZEnwBoQdkgR8-n46VaPpSc": {"geometry": {"location": {"lat": 51.5239284, "lng": -0.2010935}, "viewport": {"northeast": {"lat": 51.5253282302915, "lng": -0.199702119708498}, "southwest": {"lat": 51.5226302697085, "lng": -0.202400080291502}}}, "name": "Pizza Hut Delivery", "place_id": "ChIJdZEnwBoQdkgR8-n46VaPpSc", "types": ["meal_delivery", "meal_takeaway", "restaurant", "food", "point_of_interest", "establishment"], "rating": 2.1, "user_ratings_total": 137}, "ChIJa-yPwBoQdkgRuGeOJhDRK2Y": {"geometry": {"location": {"lat": 51.52387599999999, "lng": -0.2010303}, "viewport": {"northeast": {"lat": 51.5252368802915, "lng": -0.199592719708498}, "southwest": {"lat": 51.5225389197085, "lng": -0.202290680291502}}}, "name": "Plan 9 Tattoo London", "place_id": "ChIJa-yPwBoQdkgRuGeOJhDRK2Y", "types": ["point_of_interest", "store", "establishment"], "rating": 4.5, "user_ratings_total": 35}, "ChIJKVHQcaIRdkgRh3lrjwv0wlg": {"geometry": {"location": {"lat": 51.52401690000001, "lng": -0.2005219}, "viewport": {"northeast": {"lat": 51.52531413029151, "lng": -0.199204819708498}, "southwest": {"lat": 51.52261616970851, "lng": -0.201902780291502}}}, "name": "Long Arm Crane Hire Maida Hill", "place_id": "ChIJKVHQcaIRdkgRh3lrjwv0wlg", "types": ["point_of_interest", "establishment"]}, "ChIJkZwVuBoQdkgRiFVp0ygg0SI": {"geometry": {"location": {"lat": 51.5240591, "lng": -0.2007287}, "viewport": {"northeast": {"lat": 51.5253589302915, "lng": -0.199408919708498}, "southwest": {"lat": 51.5226609697085, "lng": -0.2021068802915021}}}, "name": "Tent Cafe", "place_id": "ChIJkZwVuBoQdkgRiFVp0ygg0SI", "types": ["cafe", "food", "point_of_interest", "establishment"], "rating": 3.8, "user_ratings_total": 32}, "ChIJRX1quBoQdkgRytuVD8vRTPY": {"geometry": {"location": {"lat": 51.52411559999999, "lng": -0.2007304}, "viewport": {"northeast": {"lat": 51.5253967302915, "lng": -0.199444019708498}, "southwest": {"lat": 51.5226987697085, "lng": -0.202141980291502}}}, "name": "Northwest Minster Drug & Alcohol Services", "place_id": "ChIJRX1quBoQdkgRytuVD8vRTPY", "types": ["health", "point_of_interest", "establishment"]}, "ChIJr6V8uBoQdkgRziU9pY22ALc": {"geometry": {"location": {"lat": 51.5240737, "lng": -0.2007895}, "viewport": {"northeast": {"lat": 51.52537763029149, "lng": -0.199478119708498}, "southwest": {"lat": 51.5226796697085, "lng": -0.202176080291502}}}, "name": "Sanne Jansen", "place_id": "ChIJr6V8uBoQdkgRziU9pY22ALc", "types": ["general_contractor", "point_of_interest", "establishment"]}, "ChIJr6V8uBoQdkgRtz6Xka1j17k": {"geometry": {"location": {"lat": 51.5240737, "lng": -0.2007895}, "viewport": {"northeast": {"lat": 51.52537763029149, "lng": -0.199478119708498}, "southwest": {"lat": 51.5226796697085, "lng": -0.202176080291502}}}, "name": "Laurent Betton", "place_id": "ChIJr6V8uBoQdkgRtz6Xka1j17k", "types": ["point_of_interest", "establishment"]}, "ChIJ7yTEMAUQdkgRe2DQ968qHOo": {"geometry": {"location": {"lat": 51.52379059999999, "lng": -0.2003656999999999}, "viewport": {"northeast": {"lat": 51.52517703029149, "lng": -0.1989982197084979}, "southwest": {"lat": 51.5224790697085, "lng": -0.201696180291502}}}, "name": "Westminster Registration Office (Stop H)", "place_id": "ChIJ7yTEMAUQdkgRe2DQ968qHOo", "types": ["transit_station", "point_of_interest", "establishment"]}, "ChIJYw-tcIoRdkgRMy9TkYAbnvM": {"geometry": {"location": {"lat": 51.5241358, "lng": -0.200918}, "viewport": {"northeast": {"lat": 51.5254324302915, "lng": -0.1996142197084979}, "southwest": {"lat": 51.5227344697085, "lng": -0.202312180291502}}}, "name": "Commercial Scaffolding Maida Vale", "place_id": "ChIJYw-tcIoRdkgRMy9TkYAbnvM", "types": ["point_of_interest", "establishment"]}, "ChIJff0ua3ARdkgRHtDPi87uD3Q": {"geometry": {"location": {"lat": 51.52401489999999, "lng": -0.2000714}, "viewport": {"northeast": {"lat": 51.52527153029149, "lng": -0.1987651197084979}, "southwest": {"lat": 51.5225735697085, "lng": -0.201463080291502}}}, "name": "WECH Garden", "place_id": "ChIJff0ua3ARdkgRHtDPi87uD3Q", "types": ["gym", "health", "point_of_interest", "establishment"]}, "ChIJjR-9sRoQdkgR4kpO79reOJI": {"geometry": {"location": {"lat": 51.5243446, "lng": -0.2003291}, "viewport": {"northeast": {"lat": 51.5258042802915, "lng": -0.199035719708498}, "southwest": {"lat": 51.5231063197085, "lng": -0.201733680291502}}}, "name": "8 Hours Ahead Ltd", "place_id": "ChIJjR-9sRoQdkgR4kpO79reOJI", "types": ["point_of_interest", "establishment"]}, "ChIJd5ndi2MRdkgR2iqC3zEbt4Y": {"geometry": {"location": {"lat": 51.5243446, "lng": -0.2003291}, "viewport": {"northeast": {"lat": 51.5258042802915, "lng": -0.199035719708498}, "southwest": {"lat": 51.5231063197085, "lng": -0.201733680291502}}}, "name": "Londra Hotel", "place_id": "ChIJd5ndi2MRdkgR2iqC3zEbt4Y", "types": ["lodging", "point_of_interest", "establishment"], "rating": 5, "user_ratings_total": 1}, "ChIJiRIYwRoQdkgR0HqNV2Qs7o8": {"geometry": {"location": {"lat": 51.5238344, "lng": -0.201088}, "viewport": {"northeast": {"lat": 51.5251754302915, "lng": -0.199625669708498}, "southwest": {"lat": 51.5224774697085, "lng": -0.202323630291502}}}, "name": "Excel Tuition Centre Westbourne Park", "place_id": "ChIJiRIYwRoQdkgR0HqNV2Qs7o8", "types": ["point_of_interest", "establishment"], "rating": 5, "user_ratings_total": 3}, "ChIJjZPIwM0RdkgRtQij6sFnQRQ": {"geometry": {"location": {"lat": 51.5239225, "lng": -0.2011543}, "viewport": {"northeast": {"lat": 51.52533378029149, "lng": -0.199756919708498}, "southwest": {"lat": 51.52263581970849, "lng": -0.202454880291502}}}, "name": "JuiCeble", "place_id": "ChIJjZPIwM0RdkgRtQij6sFnQRQ", "types": ["bar", "point_of_interest", "establishment"], "rating": 5, "user_ratings_total": 1}, "ChIJDY_uUwUQdkgR0PW6cqk_jxw": {"geometry": {"location": {"lat": 51.524405, "lng": -0.2005095}, "viewport": {"northeast": {"lat": 51.5258199302915, "lng": -0.199194319708498}, "southwest": {"lat": 51.52312196970851, "lng": -0.201892280291502}}}, "name": "A E S", "place_id": "ChIJDY_uUwUQdkgR0PW6cqk_jxw", "types": ["point_of_interest", "establishment"], "rating": 5, "user_ratings_total": 1}, "ChIJdZEnwBoQdkgRViY2jLTLbEs": {"geometry": {"location": {"lat": 51.523938, "lng": -0.201401}, "viewport": {"northeast": {"lat": 51.5253728802915, "lng": -0.199982469708498}, "southwest": {"lat": 51.5226749197085, "lng": -0.202680430291502}}}, "name": "Paddy Power", "place_id": "ChIJdZEnwBoQdkgRViY2jLTLbEs", "types": ["point_of_interest", "establishment"], "rating": 2.8, "user_ratings_total": 18}, "ChIJny_LlhoQdkgRSApgiHQ-iAs": {"geometry": {"location": {"lat": 51.5240132, "lng": -0.2013474}, "viewport": {"northeast": {"lat": 51.5254106302915, "lng": -0.199956019708498}, "southwest": {"lat": 51.5227126697085, "lng": -0.202653980291502}}}, "name": "Pegasus London Group", "place_id": "ChIJny_LlhoQdkgRSApgiHQ-iAs", "types": ["real_estate_agency", "point_of_interest", "establishment"]}, "ChIJsbb2sBoQdkgRgRbeYa_F6KQ": {"geometry": {"location": {"lat": 51.52449799999999, "lng": -0.200374}, "viewport": {"northeast": {"lat": 51.52588383029149, "lng": -0.199043519708498}, "southwest": {"lat": 51.52318586970849, "lng": -0.201741480291502}}}, "name": "Harrow Road (Stop F)", "place_id": "ChIJsbb2sBoQdkgRgRbeYa_F6KQ", "types": ["transit_station", "point_of_interest", "establishment"], "rating": 5, "user_ratings_total": 1}, "ChIJQU-KsBoQdkgRp8JK0z4PViA": {"geometry": {"location": {"lat": 51.524521, "lng": -0.200553}, "viewport": {"northeast": {"lat": 51.52586103029149, "lng": -0.199199519708498}, "southwest": {"lat": 51.5231630697085, "lng": -0.201897480291502}}}, "name": "Elgin Avenue Harrow Road", "place_id": "ChIJQU-KsBoQdkgRp8JK0z4PViA", "types": ["transit_station", "point_of_interest", "establishment"]}, "ChIJY83qNAUQdkgRSy_HWGpd2ZA": {"geometry": {"location": {"lat": 51.52377649999999, "lng": -0.1998345}, "viewport": {"northeast": {"lat": 51.52515913029149, "lng": -0.1984712197084979}, "southwest": {"lat": 51.52246116970849, "lng": -0.201169180291502}}}, "name": "Sirius Energy", "place_id": "ChIJY83qNAUQdkgRSy_HWGpd2ZA", "types": ["health", "point_of_interest", "establishment"]}, "ChIJm4pcsBoQdkgR8-YNnuKaHVs": {"geometry": {"location": {"lat": 51.52454, "lng": -0.200617}, "viewport": {"northeast": {"lat": 51.5259089802915, "lng": -0.199278269708498}, "southwest": {"lat": 51.5232110197085, "lng": -0.201976230291502}}}, "name": "Elgin Avenue Harrow Road (Stop E)", "place_id": "ChIJm4pcsBoQdkgR8-YNnuKaHVs", "types": ["transit_station", "point_of_interest", "establishment"], "rating": 1, "user_ratings_total": 1}, "ChIJnT2xjw0RdkgRVBDXCtnzErw": {"geometry": {"location": {"lat": 51.5243673, "lng": -0.2012062}, "viewport": {"northeast": {"lat": 51.52570473029149, "lng": -0.199840119708498}, "southwest": {"lat": 51.5230067697085, "lng": -0.202538080291502}}}, "name": "Ga\u00eblle Clarence Private FrenchTutor", "place_id": "ChIJnT2xjw0RdkgRVBDXCtnzErw", "types": ["point_of_interest", "establishment"], "rating": 5, "user_ratings_total": 4}, "ChIJ-WsUpREQdkgR093u947-0mg": {"geometry": {"location": {"lat": 51.52871110015063, "lng": -0.2021536498354352}, "viewport": {"northeast": {"lat": 51.5300600802915, "lng": -0.2008046697084979}, "southwest": {"lat": 51.5273621197085, "lng": -0.203502630291502}}}, "name": "293 Shirland Rd", "place_id": "ChIJ-WsUpREQdkgR093u947-0mg", "types": ["route"]}, "ChIJ4V9kqhEQdkgRzn2v17AXbPQ": {"geometry": {"location": {"lat": 51.5281653, "lng": -0.2028076}, "viewport": {"northeast": {"lat": 51.52950828029149, "lng": -0.201373969708498}, "southwest": {"lat": 51.5268103197085, "lng": -0.204071930291502}}}, "name": "Rowan Landscapes", "place_id": "ChIJ4V9kqhEQdkgRzn2v17AXbPQ", "types": ["general_contractor", "point_of_interest", "establishment"]}, "ChIJbQ_xHgQOdkgREub6YPrnnMU": {"geometry": {"location": {"lat": 51.5284162, "lng": -0.2016483}, "viewport": {"northeast": {"lat": 51.5297696302915, "lng": -0.200152769708498}, "southwest": {"lat": 51.5270716697085, "lng": -0.202850730291502}}}, "name": "Learn Tuition Centre", "place_id": "ChIJbQ_xHgQOdkgREub6YPrnnMU", "types": ["point_of_interest", "establishment"], "rating": 5, "user_ratings_total": 2}, "ChIJ3f4urREQdkgRlQt13jesO7I": {"geometry": {"location": {"lat": 51.5278959, "lng": -0.2022924}, "viewport": {"northeast": {"lat": 51.5291971302915, "lng": -0.200950319708498}, "southwest": {"lat": 51.5264991697085, "lng": -0.203648280291502}}}, "name": "Rutti-Tutti", "place_id": "ChIJ3f4urREQdkgRlQt13jesO7I", "types": ["beauty_salon", "point_of_interest", "establishment"]}, "ChIJA_8wrREQdkgRzxnhkIEIkDM": {"geometry": {"location": {"lat": 51.5280078, "lng": -0.2022536}, "viewport": {"northeast": {"lat": 51.5292535802915, "lng": -0.200918419708498}, "southwest": {"lat": 51.5265556197085, "lng": -0.203616380291502}}}, "name": "Mary Paterson Nursery School", "place_id": "ChIJA_8wrREQdkgRzxnhkIEIkDM", "types": ["school", "point_of_interest", "establishment"], "rating": 4.8, "user_ratings_total": 5}, "ChIJhx1u3M0RdkgRhk-TPAuBM9I": {"geometry": {"location": {"lat": 51.5280061, "lng": -0.2022782}, "viewport": {"northeast": {"lat": 51.5292533302915, "lng": -0.2009428197084979}, "southwest": {"lat": 51.5265553697085, "lng": -0.203640780291502}}}, "name": "SL Headshots", "place_id": "ChIJhx1u3M0RdkgRhk-TPAuBM9I", "types": ["point_of_interest", "establishment"], "rating": 5, "user_ratings_total": 9}, "ChIJKbzLIcIRdkgRut9qZD_65oA": {"geometry": {"location": {"lat": 51.5280061, "lng": -0.2022782}, "viewport": {"northeast": {"lat": 51.5292533302915, "lng": -0.2009428197084979}, "southwest": {"lat": 51.5265553697085, "lng": -0.203640780291502}}}, "name": "MU Pest control", "place_id": "ChIJKbzLIcIRdkgRut9qZD_65oA", "types": ["home_goods_store", "point_of_interest", "store", "establishment"], "rating": 5, "user_ratings_total": 4}, "ChIJheIKKQ4QdkgRsYcWvW7cvWE": {"geometry": {"location": {"lat": 51.5288187, "lng": -0.2020185}, "viewport": {"northeast": {"lat": 51.53010658029149, "lng": -0.200702769708498}, "southwest": {"lat": 51.5274086197085, "lng": -0.203400730291502}}}, "name": "Dorothy Gardner Centre", "place_id": "ChIJheIKKQ4QdkgRsYcWvW7cvWE", "types": ["school", "point_of_interest", "establishment"], "rating": 5, "user_ratings_total": 4}, "ChIJu4Mvj1kRdkgRpSHN2dr49N4": {"geometry": {"location": {"lat": 51.5284071, "lng": -0.2016408}, "viewport": {"northeast": {"lat": 51.5297604302915, "lng": -0.200148669708498}, "southwest": {"lat": 51.5270624697085, "lng": -0.202846630291502}}}, "name": "Biancho web design agency", "place_id": "ChIJu4Mvj1kRdkgRpSHN2dr49N4", "types": ["point_of_interest", "establishment"], "rating": 4, "user_ratings_total": 4}, "ChIJxc0oDvMRdkgR2adP4lhvuGc": {"geometry": {"location": {"lat": 51.52801239999999, "lng": -0.2018137}, "viewport": {"northeast": {"lat": 51.5292476302915, "lng": -0.200524819708498}, "southwest": {"lat": 51.5265496697085, "lng": -0.203222780291502}}}, "name": "PlumbServe", "place_id": "ChIJxc0oDvMRdkgR2adP4lhvuGc", "types": ["plumber", "point_of_interest", "establishment"]}, "ChIJP9rFpBEQdkgR3s9SNf8d12Y": {"geometry": {"location": {"lat": 51.5288579, "lng": -0.2021881}, "viewport": {"northeast": {"lat": 51.53021573029149, "lng": -0.201000169708498}, "southwest": {"lat": 51.5275177697085, "lng": -0.203698130291502}}}, "name": "Aesop Community Training", "place_id": "ChIJP9rFpBEQdkgR3s9SNf8d12Y", "types": ["primary_school", "school", "point_of_interest", "establishment"]}, "ChIJQ4g_VhAQdkgR_yb18n9Xzhg": {"geometry": {"location": {"lat": 51.52754700000931, "lng": -0.2027456002836976}, "viewport": {"northeast": {"lat": 51.5288959802915, "lng": -0.201396619708498}, "southwest": {"lat": 51.5261980197085, "lng": -0.204094580291502}}}, "name": "61-41 Ashmore Rd", "place_id": "ChIJQ4g_VhAQdkgR_yb18n9Xzhg", "types": ["route"]}, "ChIJe-Q7-BAQdkgR6sYhMGYQQ48": {"geometry": {"location": {"lat": 51.527378, "lng": -0.2029785}, "viewport": {"northeast": {"lat": 51.5287203302915, "lng": -0.201528519708498}, "southwest": {"lat": 51.5260223697085, "lng": -0.204226480291502}}}, "name": "Ashmore Decorators | Residential, Commercial & Industrial Painters and Decoraters in London | Sash windows repairs | Heritage wood work | Wallpaper hanging expert near Paddington", "place_id": "ChIJe-Q7-BAQdkgR6sYhMGYQQ48", "types": ["painter", "point_of_interest", "establishment"], "rating": 5, "user_ratings_total": 19}, "ChIJEf8_QxAQdkgRGW7onCPZYoQ": {"geometry": {"location": {"lat": 51.52690829999999, "lng": -0.2020285999999999}, "viewport": {"northeast": {"lat": 51.52812893029149, "lng": -0.2007004697084979}, "southwest": {"lat": 51.5254309697085, "lng": -0.203398430291502}}}, "name": "Learn Tuition Centre", "place_id": "ChIJEf8_QxAQdkgRGW7onCPZYoQ", "types": ["point_of_interest", "establishment"]}, "ChIJuT0LfukRdkgR3AbfUD930vs": {"geometry": {"location": {"lat": 51.527378, "lng": -0.2029785}, "viewport": {"northeast": {"lat": 51.5287203302915, "lng": -0.201528519708498}, "southwest": {"lat": 51.5260223697085, "lng": -0.204226480291502}}}, "name": "Ashmore Plastering and Tiling", "place_id": "ChIJuT0LfukRdkgR3AbfUD930vs", "types": ["point_of_interest", "establishment"]}, "ChIJaWJqXxAQdkgRV1GV7cEDmN0": {"geometry": {"location": {"lat": 51.52690399999999, "lng": -0.202776}, "viewport": {"northeast": {"lat": 51.5282551802915, "lng": -0.201458219708498}, "southwest": {"lat": 51.5255572197085, "lng": -0.204156180291502}}}, "name": "ubitricity Charging Station", "place_id": "ChIJaWJqXxAQdkgRV1GV7cEDmN0", "types": ["point_of_interest", "establishment"]}, "ChIJ921b9hAQdkgRF4BOt2k3LC8": {"geometry": {"location": {"lat": 51.5270959, "lng": -0.2030043}, "viewport": {"northeast": {"lat": 51.5284385302915, "lng": -0.201565969708498}, "southwest": {"lat": 51.5257405697085, "lng": -0.204263930291502}}}, "name": "Digtec Limited", "place_id": "ChIJ921b9hAQdkgRF4BOt2k3LC8", "types": ["point_of_interest", "establishment"]}, "ChIJ7c_lVRAQdkgR_olU11KDnOM": {"geometry": {"location": {"lat": 51.5276799, "lng": -0.202796}, "viewport": {"northeast": {"lat": 51.5290274802915, "lng": -0.201425269708498}, "southwest": {"lat": 51.5263295197085, "lng": -0.204123230291502}}}, "name": "ubitricity Charging Station", "place_id": "ChIJ7c_lVRAQdkgR_olU11KDnOM", "types": ["point_of_interest", "establishment"]}, "ChIJ7XOTWhAQdkgR5Ka3RRR5RHc": {"geometry": {"location": {"lat": 51.5272373, "lng": -0.2020301}, "viewport": {"northeast": {"lat": 51.52859466415561, "lng": -0.2008929146851486}, "southwest": {"lat": 51.52589670357261, "lng": -0.2035908752681527}}}, "name": "Parking lot", "place_id": "ChIJ7XOTWhAQdkgR5Ka3RRR5RHc", "types": ["parking", "premise", "point_of_interest", "establishment"]}, "ChIJSb6HXRAQdkgRVQYXNGsEeGI": {"geometry": {"location": {"lat": 51.526621, "lng": -0.2021637}, "viewport": {"northeast": {"lat": 51.52801625328585, "lng": -0.2009926056507662}, "southwest": {"lat": 51.52531829270285, "lng": -0.2036905662337702}}}, "name": "Parking lot", "place_id": "ChIJSb6HXRAQdkgRVQYXNGsEeGI", "types": ["parking", "premise", "point_of_interest", "establishment"]}, "ChIJubJbihAQdkgRG_LYZ3u5JHk": {"geometry": {"location": {"lat": 51.52646315000723, "lng": -0.2029346502191965}, "viewport": {"northeast": {"lat": 51.5278121302915, "lng": -0.201585669708498}, "southwest": {"lat": 51.5251141697085, "lng": -0.204283630291502}}}, "name": "32-48 Ashmore Rd", "place_id": "ChIJubJbihAQdkgRG_LYZ3u5JHk", "types": ["route"]}, "ChIJGeeBIUURdkgRsvIwm2pMvSY": {"geometry": {"location": {"lat": 51.52612800000001, "lng": -0.2020813}, "viewport": {"northeast": {"lat": 51.52746178029148, "lng": -0.2007442197084979}, "southwest": {"lat": 51.52476381970849, "lng": -0.203442180291502}}}, "name": "The Building Dynasty", "place_id": "ChIJGeeBIUURdkgRsvIwm2pMvSY", "types": ["point_of_interest", "establishment"]}, "ChIJj-FwbhAQdkgRzEz1OsEPpdI": {"geometry": {"location": {"lat": 51.52609279999999, "lng": -0.2016897}, "viewport": {"northeast": {"lat": 51.5274391802915, "lng": -0.200207419708498}, "southwest": {"lat": 51.5247412197085, "lng": -0.202905380291502}}}, "name": "J.A.G Plumbing, Heating & Gas Services", "place_id": "ChIJj-FwbhAQdkgRzEz1OsEPpdI", "types": ["plumber", "point_of_interest", "establishment"], "rating": 5, "user_ratings_total": 2}, "ChIJ0TqbVrkRdkgRrrRECRuq29I": {"geometry": {"location": {"lat": 51.5263445, "lng": -0.2016899}, "viewport": {"northeast": {"lat": 51.52769078029149, "lng": -0.200201169708498}, "southwest": {"lat": 51.52499281970849, "lng": -0.202899130291502}}}, "name": "Maida Vale Property Refurbishment", "place_id": "ChIJ0TqbVrkRdkgRrrRECRuq29I", "types": ["plumber", "home_goods_store", "general_contractor", "point_of_interest", "store", "establishment"], "rating": 5, "user_ratings_total": 2}, "ChIJ41f3iRAQdkgRVxZJs39_hIs": {"geometry": {"location": {"lat": 51.526314, "lng": -0.202898}, "viewport": {"northeast": {"lat": 51.5276637802915, "lng": -0.201560069708498}, "southwest": {"lat": 51.52496581970851, "lng": -0.204258030291502}}}, "name": "ubitricity Charging Station", "place_id": "ChIJ41f3iRAQdkgRVxZJs39_hIs", "types": ["point_of_interest", "establishment"]}, "ChIJ_7lZbRAQdkgRVXtw_TvEc4A": {"geometry": {"location": {"lat": 51.5259748, "lng": -0.2015403}, "viewport": {"northeast": {"lat": 51.5273219302915, "lng": -0.2001356697084979}, "southwest": {"lat": 51.5246239697085, "lng": -0.202833630291502}}}, "name": "ubitricity Charging Station", "place_id": "ChIJ_7lZbRAQdkgRVXtw_TvEc4A", "types": ["point_of_interest", "establishment"]}, "ChIJMVOdiBAQdkgRbEj5FKyEras": {"geometry": {"location": {"lat": 51.526005, "lng": -0.20308}, "viewport": {"northeast": {"lat": 51.5273528302915, "lng": -0.201712019708498}, "southwest": {"lat": 51.5246548697085, "lng": -0.204409980291502}}}, "name": "ubitricity Charging Station", "place_id": "ChIJMVOdiBAQdkgRbEj5FKyEras", "types": ["point_of_interest", "establishment"]}, "ChIJuzm6ZBAQdkgRKiOqtrn8KwI": {"geometry": {"location": {"lat": 51.5260458, "lng": -0.2022516}, "viewport": {"northeast": {"lat": 51.52740177668714, "lng": -0.2010685798993395}, "southwest": {"lat": 51.52470381610414, "lng": -0.2037665404823435}}}, "name": "Parking lot", "place_id": "ChIJuzm6ZBAQdkgRKiOqtrn8KwI", "types": ["parking", "premise", "point_of_interest", "establishment"]}, "ChIJq0t-fRoQdkgRYRnTetw_0LM": {"geometry": {"location": {"lat": 51.52479024284582, "lng": -0.2027449834701855}, "viewport": {"northeast": {"lat": 51.52613668029151, "lng": -0.201399419708498}, "southwest": {"lat": 51.52343871970851, "lng": -0.204097380291502}}}, "name": "516-500 Harrow Rd", "place_id": "ChIJq0t-fRoQdkgRYRnTetw_0LM", "types": ["route"]}, "ChIJ93RwhRoQdkgRP-xF2REum0Y": {"geometry": {"location": {"lat": 51.52465969999999, "lng": -0.202161}, "viewport": {"northeast": {"lat": 51.5259580802915, "lng": -0.200872569708498}, "southwest": {"lat": 51.5232601197085, "lng": -0.203570530291502}}}, "name": "Woodfield Building Services Ltd", "place_id": "ChIJ93RwhRoQdkgRP-xF2REum0Y", "types": ["general_contractor", "point_of_interest", "establishment"]}, "ChIJ26VOhhoQdkgR0qvmRKCf8F8": {"geometry": {"location": {"lat": 51.52487459999999, "lng": -0.2025228}, "viewport": {"northeast": {"lat": 51.52616538029149, "lng": -0.2012553197084979}, "southwest": {"lat": 51.5234674197085, "lng": -0.203953280291502}}}, "name": "Co-op Food - Paddington", "place_id": "ChIJ26VOhhoQdkgR0qvmRKCf8F8", "types": ["supermarket", "grocery_or_supermarket", "food", "point_of_interest", "store", "establishment"], "rating": 4, "user_ratings_total": 304}, "ChIJhwKZ94kRdkgRY0vDvfs3zMs": {"geometry": {"location": {"lat": 51.5247336, "lng": -0.2023177}, "viewport": {"northeast": {"lat": 51.5260325302915, "lng": -0.201031869708498}, "southwest": {"lat": 51.5233345697085, "lng": -0.2037298302915021}}}, "name": "Savers Health & Beauty", "place_id": "ChIJhwKZ94kRdkgRY0vDvfs3zMs", "types": ["point_of_interest", "store", "establishment"], "rating": 4.2, "user_ratings_total": 69}, "ChIJ93RwhRoQdkgRCagzh0aK0Y0": {"geometry": {"location": {"lat": 51.52465969999999, "lng": -0.202161}, "viewport": {"northeast": {"lat": 51.5259580802915, "lng": -0.200872569708498}, "southwest": {"lat": 51.5232601197085, "lng": -0.203570530291502}}}, "name": "Mortimer & Co", "place_id": "ChIJ93RwhRoQdkgRCagzh0aK0Y0", "types": ["accounting", "finance", "point_of_interest", "establishment"], "rating": 5, "user_ratings_total": 2}, "ChIJw2XmjxoQdkgRIcVWlpgMSW8": {"geometry": {"location": {"lat": 51.52465969999999, "lng": -0.202161}, "viewport": {"northeast": {"lat": 51.5259580802915, "lng": -0.200872569708498}, "southwest": {"lat": 51.5232601197085, "lng": -0.203570530291502}}}, "name": "Capital Force Ltd", "place_id": "ChIJw2XmjxoQdkgRIcVWlpgMSW8", "types": ["general_contractor", "point_of_interest", "establishment"]}, "ChIJe6LkfRoQdkgRbkjJmcOzYOo": {"geometry": {"location": {"lat": 51.524979, "lng": -0.2028455}, "viewport": {"northeast": {"lat": 51.5262896802915, "lng": -0.201557969708498}, "southwest": {"lat": 51.5235917197085, "lng": -0.204255930291502}}}, "name": "Iceland Foods", "place_id": "ChIJe6LkfRoQdkgRbkjJmcOzYOo", "types": ["grocery_or_supermarket", "food", "point_of_interest", "store", "establishment"], "rating": 4, "user_ratings_total": 589}, "ChIJc1nPJkcRdkgRLQBD5wW1X3E": {"geometry": {"location": {"lat": 51.5249248, "lng": -0.2020448}, "viewport": {"northeast": {"lat": 51.5262678802915, "lng": -0.200427419708498}, "southwest": {"lat": 51.5235699197085, "lng": -0.203125380291502}}}, "name": "The Electrician in Maida Hill", "place_id": "ChIJc1nPJkcRdkgRLQBD5wW1X3E", "types": ["electrician", "point_of_interest", "establishment"]}, "ChIJIWKhFMkRdkgRInhEedaZHQo": {"geometry": {"location": {"lat": 51.5248696, "lng": -0.2025215}, "viewport": {"northeast": {"lat": 51.5261615802915, "lng": -0.201252319708498}, "southwest": {"lat": 51.5234636197085, "lng": -0.2039502802915021}}}, "name": "Hermes ParcelShop", "place_id": "ChIJIWKhFMkRdkgRInhEedaZHQo", "types": ["point_of_interest", "establishment"], "rating": 4.7, "user_ratings_total": 3}, "ChIJVyxzhhoQdkgR9Dy4OniWSQ0": {"geometry": {"location": {"lat": 51.52477280000001, "lng": -0.202505}, "viewport": {"northeast": {"lat": 51.5260884302915, "lng": -0.201198419708498}, "southwest": {"lat": 51.5233904697085, "lng": -0.203896380291502}}}, "name": "Discount Superstore", "place_id": "ChIJVyxzhhoQdkgR9Dy4OniWSQ0", "types": ["grocery_or_supermarket", "food", "point_of_interest", "store", "establishment"], "rating": 4.3, "user_ratings_total": 3}, "ChIJc4yW7fYRdkgRdb9THrrT6l0": {"geometry": {"location": {"lat": 51.52470890000001, "lng": -0.2021955}, "viewport": {"northeast": {"lat": 51.5259977802915, "lng": -0.200922369708498}, "southwest": {"lat": 51.52329981970851, "lng": -0.203620330291502}}}, "name": "Blakes Bakery", "place_id": "ChIJc4yW7fYRdkgRdb9THrrT6l0", "types": ["bakery", "food", "point_of_interest", "store", "establishment"], "rating": 3.9, "user_ratings_total": 14}, "ChIJoTyBhRoQdkgRHiNHnRjYfmI": {"geometry": {"location": {"lat": 51.52470890000001, "lng": -0.2021955}, "viewport": {"northeast": {"lat": 51.5259965802915, "lng": -0.200919819708498}, "southwest": {"lat": 51.52329861970851, "lng": -0.203617780291502}}}, "name": "Bay Bakeries", "place_id": "ChIJoTyBhRoQdkgRHiNHnRjYfmI", "types": ["meal_takeaway", "restaurant", "food", "point_of_interest", "establishment"], "rating": 5, "user_ratings_total": 2}, "ChIJ3cCLhRoQdkgRiHpSdLrG-c8": {"geometry": {"location": {"lat": 51.52470590000001, "lng": -0.2023495}, "viewport": {"northeast": {"lat": 51.5260182802915, "lng": -0.201046919708498}, "southwest": {"lat": 51.5233203197085, "lng": -0.203744880291502}}}, "name": "Pound Plus", "place_id": "ChIJ3cCLhRoQdkgRiHpSdLrG-c8", "types": ["point_of_interest", "store", "establishment"]}, "ChIJe3xO1MkRdkgRgaUExvkRINY": {"geometry": {"location": {"lat": 51.5250807, "lng": -0.2029914}, "viewport": {"northeast": {"lat": 51.5263844302915, "lng": -0.2017178197084979}, "southwest": {"lat": 51.5236864697085, "lng": -0.204415780291502}}}, "name": "The Frankfort Arms", "place_id": "ChIJe3xO1MkRdkgRgaUExvkRINY", "types": ["bar", "restaurant", "food", "point_of_interest", "establishment"], "rating": 3.6, "user_ratings_total": 30}, "ChIJy4wShxoQdkgRrLF7-rsy1v0": {"geometry": {"location": {"lat": 51.52465830000001, "lng": -0.2023277}, "viewport": {"northeast": {"lat": 51.5259819802915, "lng": -0.201008969708498}, "southwest": {"lat": 51.5232840197085, "lng": -0.203706930291502}}}, "name": "Great Western Road / Elgin Avenue", "place_id": "ChIJy4wShxoQdkgRrLF7-rsy1v0", "types": ["transit_station", "point_of_interest", "establishment"], "rating": 3, "user_ratings_total": 1}, "ChIJ0WYv2esRdkgRhSZRylwefV4": {"geometry": {"location": {"lat": 51.52466, "lng": -0.202161}, "viewport": {"northeast": {"lat": 51.52595838029151, "lng": -0.2008728197084979}, "southwest": {"lat": 51.52326041970851, "lng": -0.203570780291502}}}, "name": "Legal@London Law Solicitors", "place_id": "ChIJ0WYv2esRdkgRhSZRylwefV4", "types": ["lawyer", "point_of_interest", "establishment"], "rating": 5, "user_ratings_total": 33}, "ChIJ3wxeYWgRdkgRGVCR40k03Hc": {"geometry": {"location": {"lat": 51.52465969999999, "lng": -0.202161}, "viewport": {"northeast": {"lat": 51.52596618029149, "lng": -0.200890069708498}, "southwest": {"lat": 51.52326821970849, "lng": -0.203588030291502}}}, "name": "KFC", "place_id": "ChIJ3wxeYWgRdkgRGVCR40k03Hc", "types": ["meal_takeaway", "restaurant", "food", "point_of_interest", "establishment"], "rating": 3, "user_ratings_total": 102}, "ChIJCchkfRoQdkgRLpV3IZdZ0ZA": {"geometry": {"location": {"lat": 51.524807, "lng": -0.20287}, "viewport": {"northeast": {"lat": 51.5261596302915, "lng": -0.201516169708498}, "southwest": {"lat": 51.5234616697085, "lng": -0.204214130291502}}}, "name": "Ashmore Road (Stop S)", "place_id": "ChIJCchkfRoQdkgRLpV3IZdZ0ZA", "types": ["transit_station", "point_of_interest", "establishment"]}, "ChIJRW0cmhoQdkgR9ulsmsVuBJw": {"geometry": {"location": {"lat": 51.5247475, "lng": -0.2017558}, "viewport": {"northeast": {"lat": 51.5259572802915, "lng": -0.200573369708498}, "southwest": {"lat": 51.5232593197085, "lng": -0.203271330291502}}}, "name": "Mada Hill Kitchen", "place_id": "ChIJRW0cmhoQdkgR9ulsmsVuBJw", "types": ["restaurant", "food", "point_of_interest", "establishment"], "rating": 5, "user_ratings_total": 1}, "ChIJgY_tdhAQdkgR2I4aOtbsQoE": {"geometry": {"location": {"lat": 51.5255491, "lng": -0.2018695}, "viewport": {"northeast": {"lat": 51.52689778029149, "lng": -0.200492719708498}, "southwest": {"lat": 51.52419981970849, "lng": -0.2031906802915021}}}, "name": "Kennet West Skills Centre", "place_id": "ChIJgY_tdhAQdkgR2I4aOtbsQoE", "types": ["school", "point_of_interest", "establishment"], "rating": 3.5, "user_ratings_total": 2}, "ChIJ3_D5GpwRdkgR526-XsymUL0": {"geometry": {"location": {"lat": 51.5247695, "lng": -0.2016825}, "viewport": {"northeast": {"lat": 51.5261166802915, "lng": -0.200250069708498}, "southwest": {"lat": 51.5234187197085, "lng": -0.202948030291502}}}, "name": "MyOC Ltd", "place_id": "ChIJ3_D5GpwRdkgR526-XsymUL0", "types": ["lodging", "point_of_interest", "establishment"]}, "ChIJEzztmRoQdkgR5oeoIz04xqg": {"geometry": {"location": {"lat": 51.5247695, "lng": -0.2016825}, "viewport": {"northeast": {"lat": 51.5261166802915, "lng": -0.200250069708498}, "southwest": {"lat": 51.5234187197085, "lng": -0.202948030291502}}}, "name": "Cool Contours", "place_id": "ChIJEzztmRoQdkgR5oeoIz04xqg", "types": ["point_of_interest", "establishment"]}, "ChIJS_rtmRoQdkgRu5d4CAYHMcE": {"geometry": {"location": {"lat": 51.5247549, "lng": -0.2016881}, "viewport": {"northeast": {"lat": 51.5261020302915, "lng": -0.200253269708498}, "southwest": {"lat": 51.5234040697085, "lng": -0.202951230291502}}}, "name": "Society Of Sales Innovation", "place_id": "ChIJS_rtmRoQdkgRu5d4CAYHMcE", "types": ["point_of_interest", "establishment"], "rating": 5, "user_ratings_total": 1}, "ChIJ8dXUxoel2EcRMcHBDuIs6J0": {"geometry": {"location": {"lat": 51.5246188, "lng": -0.2020917}, "viewport": {"northeast": {"lat": 51.5259200302915, "lng": -0.2007998697084979}, "southwest": {"lat": 51.5232220697085, "lng": -0.203497830291502}}}, "name": "London Carpet Solutions", "place_id": "ChIJ8dXUxoel2EcRMcHBDuIs6J0", "types": ["furniture_store", "home_goods_store", "point_of_interest", "store", "establishment"], "rating": 5, "user_ratings_total": 23}, "ChIJsU2qkBoQdkgRilyw-RsKLEk": {"geometry": {"location": {"lat": 51.524751, "lng": -0.201681}, "viewport": {"northeast": {"lat": 51.52609818029151, "lng": -0.200249819708498}, "southwest": {"lat": 51.52340021970851, "lng": -0.202947780291502}}}, "name": "Collett-Zarzycki Ltd", "place_id": "ChIJsU2qkBoQdkgRilyw-RsKLEk", "types": ["point_of_interest", "establishment"], "rating": 4.5, "user_ratings_total": 2}, "ChIJ3zXqKQERdkgRaEOyURf9FXQ": {"geometry": {"location": {"lat": 51.52536000000001, "lng": -0.20302}, "viewport": {"northeast": {"lat": 51.5267119302915, "lng": -0.201711919708498}, "southwest": {"lat": 51.52401396970851, "lng": -0.204409880291502}}}, "name": "Mobile Tyre Fitting Maida Hill", "place_id": "ChIJ3zXqKQERdkgRaEOyURf9FXQ", "types": ["car_repair", "point_of_interest", "establishment"]}, "ChIJxehOTZsRdkgRZDkQab11ZXE": {"geometry": {"location": {"lat": 51.5247068, "lng": -0.2017238}, "viewport": {"northeast": {"lat": 51.52605353029149, "lng": -0.200272919708498}, "southwest": {"lat": 51.5233555697085, "lng": -0.202970880291502}}}, "name": "Cairo Nights", "place_id": "ChIJxehOTZsRdkgRZDkQab11ZXE", "types": ["cafe", "food", "point_of_interest", "establishment"], "rating": 5, "user_ratings_total": 18}, "ChIJofn8noYRdkgRqAlsMmhQe4k": {"geometry": {"location": {"lat": 51.52470160000001, "lng": -0.201724}, "viewport": {"northeast": {"lat": 51.5260483302915, "lng": -0.200273169708498}, "southwest": {"lat": 51.52335036970851, "lng": -0.202971130291502}}}, "name": "registerme.co", "place_id": "ChIJofn8noYRdkgRqAlsMmhQe4k", "types": ["point_of_interest", "establishment"]}, "ChIJ5ZtwdhAQdkgRJpKLcxCmPgw": {"geometry": {"location": {"lat": 51.5254511, "lng": -0.201764}, "viewport": {"northeast": {"lat": 51.52681910750618, "lng": -0.2004224804536641}, "southwest": {"lat": 51.52412114692318, "lng": -0.2031204410366681}}}, "name": "Parking lot", "place_id": "ChIJ5ZtwdhAQdkgRJpKLcxCmPgw", "types": ["parking", "premise", "point_of_interest", "establishment"]}, "ChIJyV9sjxoQdkgRqw1MtoSRo_A": {"geometry": {"location": {"lat": 51.52443832429971, "lng": -0.2020223953374368}, "viewport": {"northeast": {"lat": 51.52579158029151, "lng": -0.200668519708498}, "southwest": {"lat": 51.52309361970851, "lng": -0.2033664802915021}}}, "name": "500-480 Harrow Rd", "place_id": "ChIJyV9sjxoQdkgRqw1MtoSRo_A", "types": ["route"]}, "ChIJFXyT7BoQdkgRApPQPJ7cK98": {"geometry": {"location": {"lat": 51.52393, "lng": -0.201812}, "viewport": {"northeast": {"lat": 51.52527453029149, "lng": -0.200405519708498}, "southwest": {"lat": 51.5225765697085, "lng": -0.203103480291502}}}, "name": "Novo Salon Hair & Beauty UNISEX", "place_id": "ChIJFXyT7BoQdkgRApPQPJ7cK98", "types": ["hair_care", "point_of_interest", "establishment"], "rating": 4.1, "user_ratings_total": 48}, "ChIJg08v5hoQdkgRiXZL4YFgy8w": {"geometry": {"location": {"lat": 51.52387299999999, "lng": -0.2018365}, "viewport": {"northeast": {"lat": 51.52521868029149, "lng": -0.200424619708498}, "southwest": {"lat": 51.5225207197085, "lng": -0.203122580291502}}}, "name": "A G Wines", "place_id": "ChIJg08v5hoQdkgRiXZL4YFgy8w", "types": ["liquor_store", "food", "point_of_interest", "store", "establishment"]}, "ChIJO-PGYhoQdkgRss0hp6RXxVM": {"geometry": {"location": {"lat": 51.5241041, "lng": -0.2017816}, "viewport": {"northeast": {"lat": 51.5255288802915, "lng": -0.200347369708498}, "southwest": {"lat": 51.5228309197085, "lng": -0.203045330291502}}}, "name": "Hair Salon | Hairdresser | Beauty Salon | Barber | London", "place_id": "ChIJO-PGYhoQdkgRss0hp6RXxVM", "types": ["beauty_salon", "hair_care", "health", "point_of_interest", "establishment"], "rating": 3.6, "user_ratings_total": 51}, "ChIJO-PGYhoQdkgRjQrRj1I3CQg": {"geometry": {"location": {"lat": 51.5244165, "lng": -0.2024373}, "viewport": {"northeast": {"lat": 51.5258386802915, "lng": -0.201015419708498}, "southwest": {"lat": 51.5231407197085, "lng": -0.203713380291502}}}, "name": "Oche Afro Hair & Beauty Cosmetics", "place_id": "ChIJO-PGYhoQdkgRjQrRj1I3CQg", "types": ["hair_care", "health", "point_of_interest", "establishment"], "rating": 3.1, "user_ratings_total": 22}, "ChIJo2YmlRoQdkgRDXViahxiPwU": {"geometry": {"location": {"lat": 51.52403169999999, "lng": -0.2015721999999999}, "viewport": {"northeast": {"lat": 51.5254506802915, "lng": -0.2001419197084979}, "southwest": {"lat": 51.5227527197085, "lng": -0.202839880291502}}}, "name": "Costa Coffee", "place_id": "ChIJo2YmlRoQdkgRDXViahxiPwU", "types": ["cafe", "food", "point_of_interest", "store", "establishment"], "rating": 4.1, "user_ratings_total": 221}, "ChIJ7Yzh_x4QdkgRNmYZS0AROQ0": {"geometry": {"location": {"lat": 51.5239432, "lng": -0.2015672}, "viewport": {"northeast": {"lat": 51.52537923029149, "lng": -0.200227919708498}, "southwest": {"lat": 51.5226812697085, "lng": -0.202925880291502}}}, "name": "Hotpod Yoga - Notting Hill", "place_id": "ChIJ7Yzh_x4QdkgRNmYZS0AROQ0", "types": ["gym", "health", "point_of_interest", "establishment"], "rating": 4.9, "user_ratings_total": 21}, "ChIJ63f3jhoQdkgRpW8hy_KtkBA": {"geometry": {"location": {"lat": 51.5244693, "lng": -0.2023131}, "viewport": {"northeast": {"lat": 51.5258459802915, "lng": -0.200918069708498}, "southwest": {"lat": 51.52314801970851, "lng": -0.203616030291502}}}, "name": "Miah's Oriental Foods", "place_id": "ChIJ63f3jhoQdkgRpW8hy_KtkBA", "types": ["grocery_or_supermarket", "restaurant", "food", "point_of_interest", "store", "establishment"], "rating": 4.5, "user_ratings_total": 109}, "ChIJR7k_jxoQdkgRvqxWno9NeZM": {"geometry": {"location": {"lat": 51.5245113, "lng": -0.2024015}, "viewport": {"northeast": {"lat": 51.5258932802915, "lng": -0.201013069708498}, "southwest": {"lat": 51.5231953197085, "lng": -0.203711030291502}}}, "name": "Millennium Finance Limited", "place_id": "ChIJR7k_jxoQdkgRvqxWno9NeZM", "types": ["finance", "point_of_interest", "establishment"], "rating": 1, "user_ratings_total": 1}, "ChIJGSkgiBoQdkgRiCGXBVC5k1o": {"geometry": {"location": {"lat": 51.5242502, "lng": -0.2018316}, "viewport": {"northeast": {"lat": 51.5256267802915, "lng": -0.200436319708498}, "southwest": {"lat": 51.5229288197085, "lng": -0.203134280291502}}}, "name": "Smokers Junction", "place_id": "ChIJGSkgiBoQdkgRiCGXBVC5k1o", "types": ["convenience_store", "food", "point_of_interest", "store", "establishment"], "rating": 3.3, "user_ratings_total": 4}, "ChIJdUq67BoQdkgRIxhPv8D6huY": {"geometry": {"location": {"lat": 51.523999, "lng": -0.201859}, "viewport": {"northeast": {"lat": 51.5253411802915, "lng": -0.2004225697084979}, "southwest": {"lat": 51.5226432197085, "lng": -0.203120530291502}}}, "name": "Tops Pizza", "place_id": "ChIJdUq67BoQdkgRIxhPv8D6huY", "types": ["meal_delivery", "meal_takeaway", "restaurant", "food", "point_of_interest", "establishment"], "rating": 3.7, "user_ratings_total": 122}, "ChIJGSkgiBoQdkgR-Wj1RR253vw": {"geometry": {"location": {"lat": 51.5243021, "lng": -0.2020886}, "viewport": {"northeast": {"lat": 51.5257048302915, "lng": -0.200675469708498}, "southwest": {"lat": 51.5230068697085, "lng": -0.203373430291502}}}, "name": "Eram Restaurant", "place_id": "ChIJGSkgiBoQdkgR-Wj1RR253vw", "types": ["restaurant", "meal_takeaway", "food", "point_of_interest", "establishment"], "rating": 3.5, "user_ratings_total": 4}, "ChIJWfi99BoQdkgRbw2PuZux6Xs": {"geometry": {"location": {"lat": 51.5239511, "lng": -0.2025334}, "viewport": {"northeast": {"lat": 51.5253284802915, "lng": -0.201151119708498}, "southwest": {"lat": 51.5226305197085, "lng": -0.203849080291502}}}, "name": "Queensberry Hunt", "place_id": "ChIJWfi99BoQdkgRbw2PuZux6Xs", "types": ["point_of_interest", "establishment"]}, "ChIJPxdGMyURdkgR7FXneotCwAc": {"geometry": {"location": {"lat": 51.52403849999999, "lng": -0.2026446}, "viewport": {"northeast": {"lat": 51.5253947302915, "lng": -0.201287069708498}, "southwest": {"lat": 51.5226967697085, "lng": -0.203985030291502}}}, "name": "HRS Construction Limited", "place_id": "ChIJPxdGMyURdkgR7FXneotCwAc", "types": ["general_contractor", "point_of_interest", "establishment"]}, "ChIJjeAyApsRdkgRKv7D1QHzWlQ": {"geometry": {"location": {"lat": 51.52409850000001, "lng": -0.2018473}, "viewport": {"northeast": {"lat": 51.52543898029151, "lng": -0.200404469708498}, "southwest": {"lat": 51.52274101970851, "lng": -0.203102430291502}}}, "name": "Property Inventory Maida Hill", "place_id": "ChIJjeAyApsRdkgRKv7D1QHzWlQ", "types": ["point_of_interest", "establishment"]}, "ChIJCYpZ0ngRdkgRcVWwGPULjV8": {"geometry": {"location": {"lat": 51.5238344, "lng": -0.2019012}, "viewport": {"northeast": {"lat": 51.52517508029149, "lng": -0.200462169708498}, "southwest": {"lat": 51.5224771197085, "lng": -0.203160130291502}}}, "name": "MamaGee", "place_id": "ChIJCYpZ0ngRdkgRcVWwGPULjV8", "types": ["restaurant", "food", "point_of_interest", "establishment"], "rating": 5, "user_ratings_total": 8}, "ChIJ5xs-7xoQdkgRQrwCyOQ3hjo": {"geometry": {"location": {"lat": 51.52389339999999, "lng": -0.2018311}, "viewport": {"northeast": {"lat": 51.52523018029149, "lng": -0.2004209697084979}, "southwest": {"lat": 51.52253221970849, "lng": -0.203118930291502}}}, "name": "Great Western Food & Wine", "place_id": "ChIJ5xs-7xoQdkgRQrwCyOQ3hjo", "types": ["convenience_store", "liquor_store", "food", "point_of_interest", "store", "establishment"], "rating": 3.7, "user_ratings_total": 3}, "ChIJ2xVckxoQdkgR_kOqGEXMO7k": {"geometry": {"location": {"lat": 51.5241017, "lng": -0.2017698}, "viewport": {"northeast": {"lat": 51.5254447302915, "lng": -0.200364769708498}, "southwest": {"lat": 51.5227467697085, "lng": -0.203062730291502}}}, "name": "Safin Barber", "place_id": "ChIJ2xVckxoQdkgR_kOqGEXMO7k", "types": ["hair_care", "health", "point_of_interest", "establishment"], "rating": 5, "user_ratings_total": 1}, "ChIJ79IZiBoQdkgR5mBrNoir0jM": {"geometry": {"location": {"lat": 51.5243122, "lng": -0.2020734}, "viewport": {"northeast": {"lat": 51.5257094302915, "lng": -0.200666819708498}, "southwest": {"lat": 51.5230114697085, "lng": -0.203364780291502}}}, "name": "Soor- Harrow Road", "place_id": "ChIJ79IZiBoQdkgR5mBrNoir0jM", "types": ["meal_delivery", "meal_takeaway", "restaurant", "food", "point_of_interest", "establishment"], "rating": 4, "user_ratings_total": 387}, "ChIJL49MSkQRdkgR5N1DQf97Vds": {"geometry": {"location": {"lat": 51.5237669, "lng": -0.2018899}, "viewport": {"northeast": {"lat": 51.5251070302915, "lng": -0.200464269708498}, "southwest": {"lat": 51.5224090697085, "lng": -0.203162230291502}}}, "name": "KeyNest - Smart Key Exchange", "place_id": "ChIJL49MSkQRdkgR5N1DQf97Vds", "types": ["point_of_interest", "store", "establishment"]}, "ChIJAwDk7xoQdkgRNKg5jbKljA4": {"geometry": {"location": {"lat": 51.5237669, "lng": -0.2018899}, "viewport": {"northeast": {"lat": 51.5251070302915, "lng": -0.200464269708498}, "southwest": {"lat": 51.5224090697085, "lng": -0.203162230291502}}}, "name": "Human Aid Focus", "place_id": "ChIJAwDk7xoQdkgRNKg5jbKljA4", "types": ["point_of_interest", "establishment"]}, "ChIJkbJ9kRoQdkgRMZ6ySpgEldw": {"geometry": {"location": {"lat": 51.5243, "lng": -0.2019643}, "viewport": {"northeast": {"lat": 51.52568583029149, "lng": -0.200573519708498}, "southwest": {"lat": 51.5229878697085, "lng": -0.203271480291502}}}, "name": "Sam's Chicken", "place_id": "ChIJkbJ9kRoQdkgRMZ6ySpgEldw", "types": ["meal_takeaway", "restaurant", "food", "point_of_interest", "establishment"], "rating": 3.8, "user_ratings_total": 171}, "ChIJyeE8khoQdkgR_LyLKpc1ugI": {"geometry": {"location": {"lat": 51.5243153, "lng": -0.2019971}, "viewport": {"northeast": {"lat": 51.5257008302915, "lng": -0.200606619708498}, "southwest": {"lat": 51.5230028697085, "lng": -0.203304580291502}}}, "name": "A Nice Man with A Van", "place_id": "ChIJyeE8khoQdkgR_LyLKpc1ugI", "types": ["point_of_interest", "establishment"]}, "ChIJ31W2kxoQdkgRhSn-to90SlE": {"geometry": {"location": {"lat": 51.52427039999999, "lng": -0.2018834}, "viewport": {"northeast": {"lat": 51.5256193802915, "lng": -0.2005344197084979}, "southwest": {"lat": 51.5229214197085, "lng": -0.203232380291502}}}, "name": "Star Sports", "place_id": "ChIJ31W2kxoQdkgRhSn-to90SlE", "types": ["point_of_interest", "store", "establishment"]}, "ChIJ9_j_kRoQdkgRlKxLgRK0ZVs": {"geometry": {"location": {"lat": 51.5243632, "lng": -0.2021048}, "viewport": {"northeast": {"lat": 51.52574868029149, "lng": -0.200712269708498}, "southwest": {"lat": 51.52305071970849, "lng": -0.203410230291502}}}, "name": "Dome Tours International Ltd", "place_id": "ChIJ9_j_kRoQdkgRlKxLgRK0ZVs", "types": ["travel_agency", "point_of_interest", "establishment"], "rating": 4.8, "user_ratings_total": 98}, "ChIJgVIkkhoQdkgRJhwkbBwDvAc": {"geometry": {"location": {"lat": 51.5243218, "lng": -0.2019895}, "viewport": {"northeast": {"lat": 51.5257039802915, "lng": -0.200602619708498}, "southwest": {"lat": 51.5230060197085, "lng": -0.203300580291502}}}, "name": "SAM'S CHICKEN", "place_id": "ChIJgVIkkhoQdkgRJhwkbBwDvAc", "types": ["restaurant", "food", "point_of_interest", "establishment"], "rating": 5, "user_ratings_total": 2}, "ChIJvw9PlRoQdkgRYYS041hymiY": {"geometry": {"location": {"lat": 51.5243643, "lng": -0.2021298}, "viewport": {"northeast": {"lat": 51.5257531302915, "lng": -0.200733269708498}, "southwest": {"lat": 51.5230551697085, "lng": -0.203431230291502}}}, "name": "Chande S N", "place_id": "ChIJvw9PlRoQdkgRYYS041hymiY", "types": ["dentist", "health", "point_of_interest", "establishment"]}, "ChIJAT9eukARdkgRKOVDg8NLUI8": {"geometry": {"location": {"lat": 51.5243632, "lng": -0.2021048}, "viewport": {"northeast": {"lat": 51.52574868029149, "lng": -0.200712269708498}, "southwest": {"lat": 51.52305071970849, "lng": -0.203410230291502}}}, "name": "Mina Camp: HajjWithAE - Powered by Dome Tours", "place_id": "ChIJAT9eukARdkgRKOVDg8NLUI8", "types": ["campground", "lodging", "park", "point_of_interest", "establishment"]}, "ChIJMbqn6xoQdkgRdmMc1tEhFD0": {"geometry": {"location": {"lat": 51.52384089999999, "lng": -0.2015819}, "viewport": {"northeast": {"lat": 51.52518628029149, "lng": -0.200234419708498}, "southwest": {"lat": 51.52248831970849, "lng": -0.202932380291502}}}, "name": "Metalworks", "place_id": "ChIJMbqn6xoQdkgRdmMc1tEhFD0", "types": ["point_of_interest", "establishment"], "rating": 5, "user_ratings_total": 1}, "ChIJa5FCjhoQdkgRqfYwTspFnmU": {"geometry": {"location": {"lat": 51.5244216, "lng": -0.2022564}, "viewport": {"northeast": {"lat": 51.5258108302915, "lng": -0.200859269708498}, "southwest": {"lat": 51.5231128697085, "lng": -0.203557230291502}}}, "name": "La Maison du Gateau", "place_id": "ChIJa5FCjhoQdkgRqfYwTspFnmU", "types": ["bakery", "food", "point_of_interest", "store", "establishment"], "rating": 4.5, "user_ratings_total": 43}, "ChIJhQ-oqS8RdkgRAF24UGyFJ9g": {"geometry": {"location": {"lat": 51.5240579, "lng": -0.201545}, "viewport": {"northeast": {"lat": 51.5254365802915, "lng": -0.200227919708498}, "southwest": {"lat": 51.5227386197085, "lng": -0.202925880291502}}}, "name": "Wedelo Limited", "place_id": "ChIJhQ-oqS8RdkgRAF24UGyFJ9g", "types": ["point_of_interest", "establishment"], "rating": 5, "user_ratings_total": 1}, "ChIJXb1fjhoQdkgRNVpOilkMEDE": {"geometry": {"location": {"lat": 51.5244576, "lng": -0.2023347}, "viewport": {"northeast": {"lat": 51.5258469302915, "lng": -0.200937269708498}, "southwest": {"lat": 51.5231489697085, "lng": -0.203635230291502}}}, "name": "Queens Park Driving School 07951259614", "place_id": "ChIJXb1fjhoQdkgRNVpOilkMEDE", "types": ["point_of_interest", "establishment"], "rating": 4.9, "user_ratings_total": 68}, "ChIJCZEnwBoQdkgRr0ouwIOhj4o": {"geometry": {"location": {"lat": 51.5239594, "lng": -0.2014449}, "viewport": {"northeast": {"lat": 51.5253969802915, "lng": -0.200037619708498}, "southwest": {"lat": 51.5226990197085, "lng": -0.202735580291502}}}, "name": "Harrow Road Dental Surgery", "place_id": "ChIJCZEnwBoQdkgRr0ouwIOhj4o", "types": ["dentist", "health", "point_of_interest", "establishment"], "rating": 3.7, "user_ratings_total": 35}, "ChIJAWep6MsRdkgR6bmwo6oGbj4": {"geometry": {"location": {"lat": 51.5242539, "lng": -0.2015794}, "viewport": {"northeast": {"lat": 51.5256214802915, "lng": -0.200211069708498}, "southwest": {"lat": 51.5229235197085, "lng": -0.2029090302915021}}}, "name": "Maida Vale Electricians", "place_id": "ChIJAWep6MsRdkgR6bmwo6oGbj4", "types": ["electrician", "point_of_interest", "establishment"]}, "ChIJZXIkeesRdkgR99A20zvHMcs": {"geometry": {"location": {"lat": 51.5243273, "lng": -0.2016492}, "viewport": {"northeast": {"lat": 51.5256650802915, "lng": -0.200312819708498}, "southwest": {"lat": 51.5229671197085, "lng": -0.203010780291502}}}, "name": "Property & Interior Design Ltd", "place_id": "ChIJZXIkeesRdkgR99A20zvHMcs", "types": ["general_contractor", "point_of_interest", "establishment"]}, "ChIJBUuplRoQdkgRLWp5XAEGGdY": {"geometry": {"location": {"lat": 51.52421880000001, "lng": -0.20152}, "viewport": {"northeast": {"lat": 51.52556778029152, "lng": -0.200171019708498}, "southwest": {"lat": 51.52286981970852, "lng": -0.202868980291502}}}, "name": "Global LNG info", "place_id": "ChIJBUuplRoQdkgRLWp5XAEGGdY", "types": ["point_of_interest", "establishment"]}, "ChIJtT66uhERdkgRyd0ZTYzWch8": {"geometry": {"location": {"lat": 51.52421880000001, "lng": -0.20152}, "viewport": {"northeast": {"lat": 51.52556778029152, "lng": -0.200171019708498}, "southwest": {"lat": 51.52286981970852, "lng": -0.202868980291502}}}, "name": "Anytime Plumbing Services", "place_id": "ChIJtT66uhERdkgRyd0ZTYzWch8", "types": ["plumber", "point_of_interest", "establishment"], "rating": 3, "user_ratings_total": 1}, "ChIJ82rJ6hoQdkgRCbxuICLoJeI": {"geometry": {"location": {"lat": 51.5239594, "lng": -0.2014449}, "viewport": {"northeast": {"lat": 51.5253867302915, "lng": -0.200012719708498}, "southwest": {"lat": 51.5226887697085, "lng": -0.202710680291502}}}, "name": "Mr M H Patel - Harrow Road Dental Surgery", "place_id": "ChIJ82rJ6hoQdkgRCbxuICLoJeI", "types": ["dentist", "health", "point_of_interest", "establishment"]}, "ChIJQ6ArjxoQdkgRlseiHWNaQx0": {"geometry": {"location": {"lat": 51.524535, "lng": -0.2024651}, "viewport": {"northeast": {"lat": 51.5259188302915, "lng": -0.201074419708498}, "southwest": {"lat": 51.5232208697085, "lng": -0.203772380291502}}}, "name": "Urban Apparel London", "place_id": "ChIJQ6ArjxoQdkgRlseiHWNaQx0", "types": ["point_of_interest", "clothing_store", "store", "establishment"], "rating": 4.3, "user_ratings_total": 3}, "ChIJCR1UjBoQdkgRzbfk-Na2YgM": {"geometry": {"location": {"lat": 51.524218, "lng": -0.2023074}, "viewport": {"northeast": {"lat": 51.52562183921549, "lng": -0.2009043373386474}, "southwest": {"lat": 51.5229238786325, "lng": -0.2036022979216514}}}, "name": "Parking lot", "place_id": "ChIJCR1UjBoQdkgRzbfk-Na2YgM", "types": ["parking", "premise", "point_of_interest", "establishment"]}, "ChIJAf6wAhEQdkgR_YeXnRjuCr4": {"geometry": {"location": {"lat": 51.52806699444515, "lng": -0.2035596140539105}, "viewport": {"northeast": {"lat": 51.52959860000004, "lng": -0.202210719708498}, "southwest": {"lat": 51.52653539999995, "lng": -0.204908680291502}}}, "name": "54-104 Portnall Rd", "place_id": "ChIJAf6wAhEQdkgR_YeXnRjuCr4", "types": ["route"]}, "ChIJ_ZNVIxEQdkgRF4TKKrXxgWs": {"geometry": {"location": {"lat": 51.52862210000001, "lng": -0.2046855}, "viewport": {"northeast": {"lat": 51.5300350802915, "lng": -0.203342419708498}, "southwest": {"lat": 51.5273371197085, "lng": -0.206040380291502}}}, "name": "Real Action", "place_id": "ChIJ_ZNVIxEQdkgRF4TKKrXxgWs", "types": ["point_of_interest", "establishment"], "rating": 4.3, "user_ratings_total": 3}, "ChIJh4lsIhEQdkgRcrcQ0gOoei0": {"geometry": {"location": {"lat": 51.5283025, "lng": -0.2043636}, "viewport": {"northeast": {"lat": 51.5296538302915, "lng": -0.203047419708498}, "southwest": {"lat": 51.5269558697085, "lng": -0.205745380291502}}}, "name": "ubitricity Charging Station", "place_id": "ChIJh4lsIhEQdkgRcrcQ0gOoei0", "types": ["point_of_interest", "establishment"]}, "ChIJ82c3IBEQdkgRVzg9_29BFCk": {"geometry": {"location": {"lat": 51.5280813, "lng": -0.2045374}, "viewport": {"northeast": {"lat": 51.52942763029149, "lng": -0.203150519708498}, "southwest": {"lat": 51.52672966970849, "lng": -0.205848480291502}}}, "name": "ubitricity Charging Station", "place_id": "ChIJ82c3IBEQdkgRVzg9_29BFCk", "types": ["point_of_interest", "establishment"]}, "ChIJxzL4_BAQdkgRgXFuK8ooYeo": {"geometry": {"location": {"lat": 51.52849879999999, "lng": -0.2032599}, "viewport": {"northeast": {"lat": 51.5298552302915, "lng": -0.202023969708498}, "southwest": {"lat": 51.5271572697085, "lng": -0.204721930291502}}}, "name": "West London Counselling Service", "place_id": "ChIJxzL4_BAQdkgRgXFuK8ooYeo", "types": ["health", "point_of_interest", "establishment"], "rating": 4, "user_ratings_total": 1}, "ChIJ1QJfOxEQdkgRd5fkM5viWXU": {"geometry": {"location": {"lat": 51.52860870000001, "lng": -0.2046871}, "viewport": {"northeast": {"lat": 51.53002833029151, "lng": -0.203344619708498}, "southwest": {"lat": 51.52733036970851, "lng": -0.206042580291502}}}, "name": "Mfce Learning Store", "place_id": "ChIJ1QJfOxEQdkgRd5fkM5viWXU", "types": ["point_of_interest", "store", "establishment"]}, "ChIJmfz53goRdkgRJhu8meFGLCI": {"geometry": {"location": {"lat": 51.5286222, "lng": -0.2046853}, "viewport": {"northeast": {"lat": 51.53003513029149, "lng": -0.2033422197084979}, "southwest": {"lat": 51.5273371697085, "lng": -0.206040180291502}}}, "name": "Colegio Ingles", "place_id": "ChIJmfz53goRdkgRJhu8meFGLCI", "types": ["school", "point_of_interest", "establishment"]}, "ChIJ26lfOxEQdkgR1p4dkScZ8_4": {"geometry": {"location": {"lat": 51.52862210000001, "lng": -0.2046855}, "viewport": {"northeast": {"lat": 51.5300350802915, "lng": -0.203342419708498}, "southwest": {"lat": 51.5273371197085, "lng": -0.206040380291502}}}, "name": "The Learning Store", "place_id": "ChIJ26lfOxEQdkgR1p4dkScZ8_4", "types": ["point_of_interest", "establishment"], "rating": 4.5, "user_ratings_total": 2}, "ChIJqVwbfcURdkgRQhqicErRrGw": {"geometry": {"location": {"lat": 51.5286348, "lng": -0.2047166}, "viewport": {"northeast": {"lat": 51.5300408802915, "lng": -0.203372919708498}, "southwest": {"lat": 51.5273429197085, "lng": -0.206070880291502}}}, "name": "English clase", "place_id": "ChIJqVwbfcURdkgRQhqicErRrGw", "types": ["school", "point_of_interest", "establishment"]}, "ChIJF9CWPBEQdkgRjJFotzc-XFE": {"geometry": {"location": {"lat": 51.52865800000001, "lng": -0.20472}, "viewport": {"northeast": {"lat": 51.5300524802915, "lng": -0.203375219708498}, "southwest": {"lat": 51.5273545197085, "lng": -0.206073180291502}}}, "name": "English Express", "place_id": "ChIJF9CWPBEQdkgRjJFotzc-XFE", "types": ["point_of_interest", "establishment"], "rating": 4.9, "user_ratings_total": 21}, "ChIJAf6wAhEQdkgRawqPIOeTy7U": {"geometry": {"location": {"lat": 51.52726075000019, "lng": -0.2036927000059524}, "viewport": {"northeast": {"lat": 51.52860973029149, "lng": -0.202343719708498}, "southwest": {"lat": 51.5259117697085, "lng": -0.205041680291502}}}, "name": "50-52 Portnall Rd", "place_id": "ChIJAf6wAhEQdkgRawqPIOeTy7U", "types": ["route"]}, "ChIJ1eUTNiEFdkgRUQJ9vvWUAZE": {"geometry": {"location": {"lat": 51.52713079999999, "lng": -0.2042159}, "viewport": {"northeast": {"lat": 51.52854043029149, "lng": -0.2028568697084979}, "southwest": {"lat": 51.5258424697085, "lng": -0.205554830291502}}}, "name": "Aventurine web design training", "place_id": "ChIJ1eUTNiEFdkgRUQJ9vvWUAZE", "types": ["point_of_interest", "establishment"]}, "ChIJvXg9khAQdkgRc0mZF-Wt27E": {"geometry": {"location": {"lat": 51.5273742, "lng": -0.2044758}, "viewport": {"northeast": {"lat": 51.52872763029151, "lng": -0.203185819708498}, "southwest": {"lat": 51.52602966970851, "lng": -0.205883780291502}}}, "name": "Studio 29 Architects", "place_id": "ChIJvXg9khAQdkgRc0mZF-Wt27E", "types": ["general_contractor", "point_of_interest", "establishment"], "rating": 5, "user_ratings_total": 2}, "ChIJn6qS8tgRdkgRoY__OGzcq8s": {"geometry": {"location": {"lat": 51.5271716, "lng": -0.2038794}, "viewport": {"northeast": {"lat": 51.52854883029149, "lng": -0.202525719708498}, "southwest": {"lat": 51.5258508697085, "lng": -0.205223680291502}}}, "name": "Zipcar", "place_id": "ChIJn6qS8tgRdkgRoY__OGzcq8s", "types": ["point_of_interest", "establishment"]}, "ChIJqQe26RAQdkgRyCc7Z-XBwf8": {"geometry": {"location": {"lat": 51.5271303, "lng": -0.2042367}, "viewport": {"northeast": {"lat": 51.5285408302915, "lng": -0.202877519708498}, "southwest": {"lat": 51.52584286970851, "lng": -0.205575480291502}}}, "name": "A M G Tech Ltd", "place_id": "ChIJqQe26RAQdkgRyCc7Z-XBwf8", "types": ["point_of_interest", "establishment"]}, "ChIJod_H6RAQdkgRfoOaP-TaSzc": {"geometry": {"location": {"lat": 51.5271303, "lng": -0.2042367}, "viewport": {"northeast": {"lat": 51.5285408302915, "lng": -0.202877519708498}, "southwest": {"lat": 51.52584286970851, "lng": -0.205575480291502}}}, "name": "Italian Tuition", "place_id": "ChIJod_H6RAQdkgRfoOaP-TaSzc", "types": ["point_of_interest", "establishment"]}, "ChIJ1QEl8BAQdkgRLo5Mp63skFI": {"geometry": {"location": {"lat": 51.5272038, "lng": -0.2035597}, "viewport": {"northeast": {"lat": 51.5285585302915, "lng": -0.202281119708498}, "southwest": {"lat": 51.52586056970851, "lng": -0.204979080291502}}}, "name": "Haines Innovations Ltd", "place_id": "ChIJ1QEl8BAQdkgRLo5Mp63skFI", "types": ["point_of_interest", "establishment"]}, "ChIJiZLq5BAQdkgR0DGsa1rVdQM": {"geometry": {"location": {"lat": 51.52755550000001, "lng": -0.2036947}, "viewport": {"northeast": {"lat": 51.52890448029149, "lng": -0.2023458697084979}, "southwest": {"lat": 51.5262065197085, "lng": -0.205043830291502}}}, "name": "Silvertree Residents Association Ltd", "place_id": "ChIJiZLq5BAQdkgR0DGsa1rVdQM", "types": ["point_of_interest", "establishment"]}, "ChIJz-h8qUgRdkgRJ1L4jpyMrhQ": {"geometry": {"location": {"lat": 51.5274946, "lng": -0.203519}, "viewport": {"northeast": {"lat": 51.52884788029151, "lng": -0.202236869708498}, "southwest": {"lat": 51.52614991970851, "lng": -0.204934830291502}}}, "name": "Presto Learn", "place_id": "ChIJz-h8qUgRdkgRJ1L4jpyMrhQ", "types": ["point_of_interest", "establishment"]}, "ChIJWT0m-xAQdkgR8zyRM22mYOc": {"geometry": {"location": {"lat": 51.5274946, "lng": -0.203519}, "viewport": {"northeast": {"lat": 51.52884783029149, "lng": -0.202236869708498}, "southwest": {"lat": 51.5261498697085, "lng": -0.204934830291502}}}, "name": "Movult Motion Graphics", "place_id": "ChIJWT0m-xAQdkgR8zyRM22mYOc", "types": ["point_of_interest", "establishment"], "rating": 5, "user_ratings_total": 3}, "ChIJu-Ou7RAQdkgR9PB74b_FdCQ": {"geometry": {"location": {"lat": 51.52685100000001, "lng": -0.203743}, "viewport": {"northeast": {"lat": 51.52819843029149, "lng": -0.202372619708498}, "southwest": {"lat": 51.5255004697085, "lng": -0.205070580291502}}}, "name": "ubitricity Charging Station", "place_id": "ChIJu-Ou7RAQdkgR9PB74b_FdCQ", "types": ["point_of_interest", "establishment"]}, "ChIJO4ZT-xAQdkgRzprk_cHhFao": {"geometry": {"location": {"lat": 51.527624, "lng": -0.2035839}, "viewport": {"northeast": {"lat": 51.52896958029149, "lng": -0.202259669708498}, "southwest": {"lat": 51.5262716197085, "lng": -0.204957630291502}}}, "name": "ubitricity Charging Station", "place_id": "ChIJO4ZT-xAQdkgRzprk_cHhFao", "types": ["point_of_interest", "establishment"]}, "ChIJ0x0lohAQdkgRJxqhk47SM7w": {"geometry": {"location": {"lat": 51.52584520011467, "lng": -0.2046823496638016}, "viewport": {"northeast": {"lat": 51.5271941802915, "lng": -0.203333369708498}, "southwest": {"lat": 51.5244962197085, "lng": -0.206031330291502}}}, "name": "558-550 Harrow Rd", "place_id": "ChIJ0x0lohAQdkgRJxqhk47SM7w", "types": ["route"]}, "ChIJ1ytbmRAQdkgRaJOWPGY-J_U": {"geometry": {"location": {"lat": 51.5258578, "lng": -0.2040589}, "viewport": {"northeast": {"lat": 51.5272031802915, "lng": -0.2026610197084979}, "southwest": {"lat": 51.5245052197085, "lng": -0.205358980291502}}}, "name": "Freta Hair Salon", "place_id": "ChIJ1ytbmRAQdkgRaJOWPGY-J_U", "types": ["beauty_salon", "hair_care", "point_of_interest", "establishment"], "rating": 4.5, "user_ratings_total": 46}, "ChIJC_tjwBAQdkgRacUm6eyn0ns": {"geometry": {"location": {"lat": 51.5264894, "lng": -0.2044453}, "viewport": {"northeast": {"lat": 51.5278477302915, "lng": -0.203244169708498}, "southwest": {"lat": 51.5251497697085, "lng": -0.205942130291502}}}, "name": "Rainbow Nursery (Rainbow Family Centre)", "place_id": "ChIJC_tjwBAQdkgRacUm6eyn0ns", "types": ["school", "point_of_interest", "establishment"], "rating": 3.4, "user_ratings_total": 5}, "ChIJvXg9khAQdkgRYTkmdrqSRRo": {"geometry": {"location": {"lat": 51.5257515, "lng": -0.2038332}, "viewport": {"northeast": {"lat": 51.5271047302915, "lng": -0.2025514697084979}, "southwest": {"lat": 51.5244067697085, "lng": -0.205249430291502}}}, "name": "SD Urban Architect", "place_id": "ChIJvXg9khAQdkgRYTkmdrqSRRo", "types": ["point_of_interest", "establishment"]}, "ChIJtUCcvBAQdkgRHV3KLyKjePQ": {"geometry": {"location": {"lat": 51.5260229, "lng": -0.2047047}, "viewport": {"northeast": {"lat": 51.5273268302915, "lng": -0.203421769708498}, "southwest": {"lat": 51.52462886970851, "lng": -0.206119730291502}}}, "name": "NEWHAIR", "place_id": "ChIJtUCcvBAQdkgRHV3KLyKjePQ", "types": ["point_of_interest", "store", "establishment"]}, "ChIJK4aTvBAQdkgRvhaaYqwFy7U": {"geometry": {"location": {"lat": 51.5262, "lng": -0.204609}, "viewport": {"northeast": {"lat": 51.5275575302915, "lng": -0.203352169708498}, "southwest": {"lat": 51.5248595697085, "lng": -0.206050130291502}}}, "name": "Kazem Ltd", "place_id": "ChIJK4aTvBAQdkgRvhaaYqwFy7U", "types": ["point_of_interest", "store", "establishment"], "rating": 3.3, "user_ratings_total": 21}, "ChIJobyKkRAQdkgRPBtVzVPAtyo": {"geometry": {"location": {"lat": 51.5261563, "lng": -0.2036909}, "viewport": {"northeast": {"lat": 51.52751268029149, "lng": -0.202446719708498}, "southwest": {"lat": 51.5248147197085, "lng": -0.205144680291502}}}, "name": "DWL Barbados Villas", "place_id": "ChIJobyKkRAQdkgRPBtVzVPAtyo", "types": ["real_estate_agency", "travel_agency", "point_of_interest", "establishment"]}, "ChIJXaFRmhAQdkgRRRtmA2Thcpw": {"geometry": {"location": {"lat": 51.5258644, "lng": -0.2038051999999999}, "viewport": {"northeast": {"lat": 51.5272179802915, "lng": -0.2025280197084979}, "southwest": {"lat": 51.5245200197085, "lng": -0.205225980291502}}}, "name": "Alreem Beauty Salon", "place_id": "ChIJXaFRmhAQdkgRRRtmA2Thcpw", "types": ["beauty_salon", "point_of_interest", "establishment"]}, "ChIJl5KeoaoadkgRj3ygqPiaofk": {"geometry": {"location": {"lat": 51.52598, "lng": -0.2044834}, "viewport": {"northeast": {"lat": 51.52726138029149, "lng": -0.203233519708498}, "southwest": {"lat": 51.52456341970849, "lng": -0.205931480291502}}}, "name": "Alexander Shaw Solicitors", "place_id": "ChIJl5KeoaoadkgRj3ygqPiaofk", "types": ["point_of_interest", "establishment"], "rating": 5, "user_ratings_total": 168}, "ChIJs-LKcIIRdkgRmbd2qYvBe5w": {"geometry": {"location": {"lat": 51.5258858, "lng": -0.2044482}, "viewport": {"northeast": {"lat": 51.52718743029151, "lng": -0.203168619708498}, "southwest": {"lat": 51.52448946970851, "lng": -0.205866580291502}}}, "name": "Concrete Fence Panels", "place_id": "ChIJs-LKcIIRdkgRmbd2qYvBe5w", "types": ["point_of_interest", "establishment"]}, "ChIJ15rI0CARdkgRMm3_VYh97uM": {"geometry": {"location": {"lat": 51.5258858, "lng": -0.2044482}, "viewport": {"northeast": {"lat": 51.52718743029151, "lng": -0.203168619708498}, "southwest": {"lat": 51.52448946970851, "lng": -0.205866580291502}}}, "name": "Lawarde", "place_id": "ChIJ15rI0CARdkgRMm3_VYh97uM", "types": ["clothing_store", "point_of_interest", "store", "establishment"]}, "ChIJwVLuohAQdkgRcrVtjyHaKtQ": {"geometry": {"location": {"lat": 51.5258858, "lng": -0.2044482}, "viewport": {"northeast": {"lat": 51.52718743029151, "lng": -0.203168619708498}, "southwest": {"lat": 51.52448946970851, "lng": -0.205866580291502}}}, "name": "Ishtar & Al-Hareth Exchange", "place_id": "ChIJwVLuohAQdkgRcrVtjyHaKtQ", "types": ["store", "point_of_interest", "establishment"], "rating": 4.5, "user_ratings_total": 4}, "ChIJBfLPBnARdkgRuTHgvgcADnw": {"geometry": {"location": {"lat": 51.5258675, "lng": -0.2044253}, "viewport": {"northeast": {"lat": 51.52716778029149, "lng": -0.203138619708498}, "southwest": {"lat": 51.52446981970849, "lng": -0.205836580291502}}}, "name": "alfayad refridgration world", "place_id": "ChIJBfLPBnARdkgRuTHgvgcADnw", "types": ["home_goods_store", "point_of_interest", "store", "establishment"], "rating": 1, "user_ratings_total": 1}, "ChIJ___yohAQdkgRZ8SFjBGjxGk": {"geometry": {"location": {"lat": 51.5258675, "lng": -0.2044253}, "viewport": {"northeast": {"lat": 51.5271704802915, "lng": -0.203143719708498}, "southwest": {"lat": 51.5244725197085, "lng": -0.205841680291502}}}, "name": "www.london-appliances.com", "place_id": "ChIJ___yohAQdkgRZ8SFjBGjxGk", "types": ["home_goods_store", "point_of_interest", "store", "establishment"]}, "ChIJE5f2ohAQdkgRk7eBupTu86w": {"geometry": {"location": {"lat": 51.5258512, "lng": -0.20444}, "viewport": {"northeast": {"lat": 51.5271608802915, "lng": -0.203148569708498}, "southwest": {"lat": 51.5244629197085, "lng": -0.205846530291502}}}, "name": "Al Fayad", "place_id": "ChIJE5f2ohAQdkgRk7eBupTu86w", "types": ["electronics_store", "point_of_interest", "store", "establishment"], "rating": 2, "user_ratings_total": 8}, "ChIJ6Tl22O4RdkgRcvfFkcuFDcc": {"geometry": {"location": {"lat": 51.5258297, "lng": -0.2043956}, "viewport": {"northeast": {"lat": 51.5271383802915, "lng": -0.2031056697084979}, "southwest": {"lat": 51.5244404197085, "lng": -0.205803630291502}}}, "name": "Bella Moore Studio", "place_id": "ChIJ6Tl22O4RdkgRcvfFkcuFDcc", "types": ["beauty_salon", "hair_care", "point_of_interest", "store", "establishment"], "rating": 5, "user_ratings_total": 69}, "ChIJP3o9oxAQdkgRRFhQOcIl0rc": {"geometry": {"location": {"lat": 51.52592079999999, "lng": -0.2045621}, "viewport": {"northeast": {"lat": 51.52723038029149, "lng": -0.203270819708498}, "southwest": {"lat": 51.5245324197085, "lng": -0.205968780291502}}}, "name": "A-Z Household", "place_id": "ChIJP3o9oxAQdkgRRFhQOcIl0rc", "types": ["point_of_interest", "establishment"]}, "ChIJMYlFoxAQdkgRSMh3yOg_eEg": {"geometry": {"location": {"lat": 51.5259583, "lng": -0.2046293}, "viewport": {"northeast": {"lat": 51.5272680302915, "lng": -0.203337769708498}, "southwest": {"lat": 51.5245700697085, "lng": -0.206035730291502}}}, "name": "Al Firdaws Supermarket", "place_id": "ChIJMYlFoxAQdkgRSMh3yOg_eEg", "types": ["grocery_or_supermarket", "food", "point_of_interest", "store", "establishment"], "rating": 5, "user_ratings_total": 1}, "ChIJ4S7oohAQdkgRMGQ6XLXBijU": {"geometry": {"location": {"lat": 51.5257523, "lng": -0.2042007}, "viewport": {"northeast": {"lat": 51.5270591302915, "lng": -0.202936419708498}, "southwest": {"lat": 51.5243611697085, "lng": -0.205634380291502}}}, "name": "Asian Food Centre Ltd.", "place_id": "ChIJ4S7oohAQdkgRMGQ6XLXBijU", "types": ["grocery_or_supermarket", "food", "point_of_interest", "store", "establishment"], "rating": 4.2, "user_ratings_total": 24}, "ChIJHwPEvBAQdkgRT5F_VF12v3o": {"geometry": {"location": {"lat": 51.5260229, "lng": -0.2047047}, "viewport": {"northeast": {"lat": 51.5273266802915, "lng": -0.203421919708498}, "southwest": {"lat": 51.5246287197085, "lng": -0.206119880291502}}}, "name": "Collog", "place_id": "ChIJHwPEvBAQdkgRT5F_VF12v3o", "types": ["point_of_interest", "establishment"]}, "ChIJ4S7oohAQdkgRLTaXLWZL7vg": {"geometry": {"location": {"lat": 51.5260229, "lng": -0.2047047}, "viewport": {"northeast": {"lat": 51.5273268302915, "lng": -0.203421769708498}, "southwest": {"lat": 51.52462886970851, "lng": -0.206119730291502}}}, "name": "K & A Fisheries London", "place_id": "ChIJ4S7oohAQdkgRLTaXLWZL7vg", "types": ["food", "point_of_interest", "store", "establishment"], "rating": 4.3, "user_ratings_total": 54}, "ChIJCZ9UeoIRdkgR8qRfiC50RAQ": {"geometry": {"location": {"lat": 51.52575179999999, "lng": -0.2042778}, "viewport": {"northeast": {"lat": 51.52706363029149, "lng": -0.2029833197084979}, "southwest": {"lat": 51.52436566970849, "lng": -0.205681280291502}}}, "name": "Istanbul food centre", "place_id": "ChIJCZ9UeoIRdkgR8qRfiC50RAQ", "types": ["grocery_or_supermarket", "food", "point_of_interest", "store", "establishment"]}, "ChIJq5JtohAQdkgR2-3qwbUF5QQ": {"geometry": {"location": {"lat": 51.525764, "lng": -0.2043460000000001}, "viewport": {"northeast": {"lat": 51.5270829302915, "lng": -0.203041019708498}, "southwest": {"lat": 51.5243849697085, "lng": -0.205738980291502}}}, "name": "Portnall Road (Stop R)", "place_id": "ChIJq5JtohAQdkgR2-3qwbUF5QQ", "types": ["transit_station", "point_of_interest", "establishment"], "rating": 5, "user_ratings_total": 1}, "ChIJq6oevxAQdkgRJO8u5eVCb8Y": {"geometry": {"location": {"lat": 51.5265141, "lng": -0.2045797}, "viewport": {"northeast": {"lat": 51.52786813029149, "lng": -0.203310069708498}, "southwest": {"lat": 51.5251701697085, "lng": -0.206008030291502}}}, "name": "The Westminster Society", "place_id": "ChIJq6oevxAQdkgRJO8u5eVCb8Y", "types": ["point_of_interest", "establishment"]}, "ChIJI-nHmBAQdkgRUkHnoRJBUjU": {"geometry": {"location": {"lat": 51.52571709999999, "lng": -0.204224}, "viewport": {"northeast": {"lat": 51.52702998029149, "lng": -0.202927919708498}, "southwest": {"lat": 51.5243320197085, "lng": -0.205625880291502}}}, "name": "Harrow Road Food Centre", "place_id": "ChIJI-nHmBAQdkgRUkHnoRJBUjU", "types": ["transit_station", "point_of_interest", "establishment"]}, "ChIJvYsqnxAQdkgRMR3GwL1QCJM": {"geometry": {"location": {"lat": 51.525692, "lng": -0.204133}, "viewport": {"northeast": {"lat": 51.52699888029149, "lng": -0.202850219708498}, "southwest": {"lat": 51.52430091970849, "lng": -0.205548180291502}}}, "name": "Freta Hair, Beauty & Cosmetics London", "place_id": "ChIJvYsqnxAQdkgRMR3GwL1QCJM", "types": ["beauty_salon", "point_of_interest", "establishment"], "rating": 5, "user_ratings_total": 1}, "ChIJkenjthwRdkgRhQ9kLoq4PU0": {"geometry": {"location": {"lat": 51.5256807, "lng": -0.204184}, "viewport": {"northeast": {"lat": 51.5269973302915, "lng": -0.202882469708498}, "southwest": {"lat": 51.5242993697085, "lng": -0.205580430291502}}}, "name": "freta hair and cosmetics", "place_id": "ChIJkenjthwRdkgRhQ9kLoq4PU0", "types": ["hair_care", "point_of_interest", "establishment"]}, "ChIJ6e9aRFwRdkgRI9F8Ya_6J0A": {"geometry": {"location": {"lat": 51.5259874, "lng": -0.2048214999999999}, "viewport": {"northeast": {"lat": 51.52733413029151, "lng": -0.203448769708498}, "southwest": {"lat": 51.52463616970851, "lng": -0.206146730291502}}}, "name": "St Mungos", "place_id": "ChIJ6e9aRFwRdkgRI9F8Ya_6J0A", "types": ["lodging", "point_of_interest", "establishment"]}, "ChIJE56veRoQdkgR0vRPCzSmFIw": {"geometry": {"location": {"lat": 51.52524864988499, "lng": -0.2036385729436018}, "viewport": {"northeast": {"lat": 51.52659753029151, "lng": -0.202289719708498}, "southwest": {"lat": 51.52389956970851, "lng": -0.204987680291502}}}, "name": "528-526 Harrow Rd", "place_id": "ChIJE56veRoQdkgR0vRPCzSmFIw", "types": ["route"]}, "ChIJDcUaeBoQdkgRH8P75I4i0Vo": {"geometry": {"location": {"lat": 51.52530509999999, "lng": -0.2035377}, "viewport": {"northeast": {"lat": 51.5266195802915, "lng": -0.202232519708498}, "southwest": {"lat": 51.5239216197085, "lng": -0.204930480291502}}}, "name": "Generous Apartments", "place_id": "ChIJDcUaeBoQdkgRH8P75I4i0Vo", "types": ["lodging", "point_of_interest", "establishment"]}, "ChIJKysenhAQdkgRKvjRFOdeISY": {"geometry": {"location": {"lat": 51.5253394, "lng": -0.204036}, "viewport": {"northeast": {"lat": 51.5267239802915, "lng": -0.202635669708498}, "southwest": {"lat": 51.5240260197085, "lng": -0.205333630291502}}}, "name": "Pindi's Corner", "place_id": "ChIJKysenhAQdkgRKvjRFOdeISY", "types": ["home_goods_store", "general_contractor", "point_of_interest", "store", "establishment"], "rating": 5, "user_ratings_total": 14}, "ChIJE8OMdhoQdkgRc8cim6bW1Gw": {"geometry": {"location": {"lat": 51.525192, "lng": -0.2037751}, "viewport": {"northeast": {"lat": 51.5265809302915, "lng": -0.202382269708498}, "southwest": {"lat": 51.5238829697085, "lng": -0.205080230291502}}}, "name": "Bangladesh Caterers Association - UK", "place_id": "ChIJE8OMdhoQdkgRc8cim6bW1Gw", "types": ["restaurant", "food", "point_of_interest", "establishment"], "rating": 3.8, "user_ratings_total": 6}, "ChIJzwo7dRoQdkgR7OztQzsN65A": {"geometry": {"location": {"lat": 51.5251629, "lng": -0.2042839}, "viewport": {"northeast": {"lat": 51.5265391302915, "lng": -0.202987769708498}, "southwest": {"lat": 51.5238411697085, "lng": -0.205685730291502}}}, "name": "Bradman", "place_id": "ChIJzwo7dRoQdkgR7OztQzsN65A", "types": ["car_repair", "point_of_interest", "establishment"], "rating": 4, "user_ratings_total": 2}, "ChIJEcOMdhoQdkgRqjOQFgvZD1s": {"geometry": {"location": {"lat": 51.5250314, "lng": -0.2034797}, "viewport": {"northeast": {"lat": 51.5264220802915, "lng": -0.202076719708498}, "southwest": {"lat": 51.5237241197085, "lng": -0.2047746802915021}}}, "name": "Scrivens Opticians & Hearing Care", "place_id": "ChIJEcOMdhoQdkgRqjOQFgvZD1s", "types": ["doctor", "health", "point_of_interest", "store", "establishment"], "rating": 3.6, "user_ratings_total": 17}, "ChIJXTisghAQdkgRZeDiTYwDYPU": {"geometry": {"location": {"lat": 51.52530509999999, "lng": -0.2035377}, "viewport": {"northeast": {"lat": 51.5266216302915, "lng": -0.202230769708498}, "southwest": {"lat": 51.5239236697085, "lng": -0.204928730291502}}}, "name": "Hayat Estates", "place_id": "ChIJXTisghAQdkgRZeDiTYwDYPU", "types": ["real_estate_agency", "point_of_interest", "establishment"]}, "ChIJr6vKexoQdkgR9CB0eGqMmwA": {"geometry": {"location": {"lat": 51.524916, "lng": -0.2034891}, "viewport": {"northeast": {"lat": 51.52634218029149, "lng": -0.202037569708498}, "southwest": {"lat": 51.52364421970849, "lng": -0.204735530291502}}}, "name": "Emmanuel Parish Church", "place_id": "ChIJr6vKexoQdkgR9CB0eGqMmwA", "types": ["church", "place_of_worship", "point_of_interest", "establishment"], "rating": 5, "user_ratings_total": 1}, "ChIJ86ZTnBAQdkgRbYd8RUy1xA8": {"geometry": {"location": {"lat": 51.5255204, "lng": -0.2037976}, "viewport": {"northeast": {"lat": 51.5269002302915, "lng": -0.202551769708498}, "southwest": {"lat": 51.5242022697085, "lng": -0.205249730291502}}}, "name": "Red Emu Advertising Studio", "place_id": "ChIJ86ZTnBAQdkgRbYd8RUy1xA8", "types": ["point_of_interest", "establishment"]}, "ChIJNQx0fBoQdkgRhTbZodC1ARs": {"geometry": {"location": {"lat": 51.5248117, "lng": -0.2033474}, "viewport": {"northeast": {"lat": 51.5262447302915, "lng": -0.201887069708498}, "southwest": {"lat": 51.5235467697085, "lng": -0.204585030291502}}}, "name": "Go all Global", "place_id": "ChIJNQx0fBoQdkgRhTbZodC1ARs", "types": ["accounting", "finance", "point_of_interest", "establishment"], "rating": 5, "user_ratings_total": 1}, "ChIJE8OMdhoQdkgRBVGoN7IovvU": {"geometry": {"location": {"lat": 51.5252552, "lng": -0.2039756}, "viewport": {"northeast": {"lat": 51.52664968029149, "lng": -0.202547869708498}, "southwest": {"lat": 51.5239517197085, "lng": -0.205245830291502}}}, "name": "Crystal Fish Bar And Kebabs", "place_id": "ChIJE8OMdhoQdkgRBVGoN7IovvU", "types": ["restaurant", "meal_takeaway", "food", "point_of_interest", "establishment"], "rating": 3.1, "user_ratings_total": 70}, "ChIJXTisghAQdkgRB3sny5Y4IlM": {"geometry": {"location": {"lat": 51.5253671, "lng": -0.2036433}, "viewport": {"northeast": {"lat": 51.5266889802915, "lng": -0.202348419708498}, "southwest": {"lat": 51.5239910197085, "lng": -0.205046380291502}}}, "name": "Atlantis Dry Cleaners", "place_id": "ChIJXTisghAQdkgRB3sny5Y4IlM", "types": ["locksmith", "laundry", "point_of_interest", "establishment"], "rating": 4.9, "user_ratings_total": 30}, "ChIJE8OMdhoQdkgRzUmGA9mcsbA": {"geometry": {"location": {"lat": 51.525066, "lng": -0.2035361}, "viewport": {"northeast": {"lat": 51.52645273029149, "lng": -0.202131519708498}, "southwest": {"lat": 51.52375476970849, "lng": -0.204829480291502}}}, "name": "Angel Nails", "place_id": "ChIJE8OMdhoQdkgRzUmGA9mcsbA", "types": ["beauty_salon", "point_of_interest", "establishment"], "rating": 3.9, "user_ratings_total": 48}, "ChIJCUdOdRoQdkgR6rFAY1eIIv0": {"geometry": {"location": {"lat": 51.5252317, "lng": -0.2041593}, "viewport": {"northeast": {"lat": 51.5266129802915, "lng": -0.202872969708498}, "southwest": {"lat": 51.5239150197085, "lng": -0.205570930291502}}}, "name": "ABSOLUTE ENGLISH UK", "place_id": "ChIJCUdOdRoQdkgR6rFAY1eIIv0", "types": ["point_of_interest", "establishment"]}, "ChIJ38oCdxoQdkgRgfnRVR40-3E": {"geometry": {"location": {"lat": 51.5251399, "lng": -0.2037576}, "viewport": {"northeast": {"lat": 51.5265399302915, "lng": -0.202342469708498}, "southwest": {"lat": 51.5238419697085, "lng": -0.205040430291502}}}, "name": "The Pound Superstore", "place_id": "ChIJ38oCdxoQdkgRgfnRVR40-3E", "types": ["store", "point_of_interest", "establishment"]}, "ChIJc51BdhoQdkgRXPX8Bwdixxs": {"geometry": {"location": {"lat": 51.5252452, "lng": -0.2038457}, "viewport": {"northeast": {"lat": 51.52662438029149, "lng": -0.202451519708498}, "southwest": {"lat": 51.5239264197085, "lng": -0.205149480291502}}}, "name": "Four O Five", "place_id": "ChIJc51BdhoQdkgRXPX8Bwdixxs", "types": ["cafe", "food", "point_of_interest", "establishment"], "rating": 3.6, "user_ratings_total": 8}, "ChIJSbT4dRoQdkgR4YTvTug-D5c": {"geometry": {"location": {"lat": 51.525285, "lng": -0.2040499}, "viewport": {"northeast": {"lat": 51.5266802802915, "lng": -0.202613119708498}, "southwest": {"lat": 51.5239823197085, "lng": -0.205311080291502}}}, "name": "Morgans News Food & Wine", "place_id": "ChIJSbT4dRoQdkgR4YTvTug-D5c", "types": ["point_of_interest", "store", "establishment"]}, "ChIJ52T8dRoQdkgRYumOZKfDOMs": {"geometry": {"location": {"lat": 51.52530959999999, "lng": -0.2039843}, "viewport": {"northeast": {"lat": 51.52669303029149, "lng": -0.202583769708498}, "southwest": {"lat": 51.52399506970849, "lng": -0.205281730291502}}}, "name": "Morgans News", "place_id": "ChIJ52T8dRoQdkgRYumOZKfDOMs", "types": ["store", "point_of_interest", "establishment"]}, "ChIJX6BRzBsRdkgRR_hPW3qUYy8": {"geometry": {"location": {"lat": 51.525099, "lng": -0.2036883}, "viewport": {"northeast": {"lat": 51.5265009302915, "lng": -0.2022707697084979}, "southwest": {"lat": 51.5238029697085, "lng": -0.204968730291502}}}, "name": "The Web Masterminds", "place_id": "ChIJX6BRzBsRdkgRR_hPW3qUYy8", "types": ["point_of_interest", "establishment"]}, "ChIJbyc7aRwRdkgRZCP8lqsdN3I": {"geometry": {"location": {"lat": 51.525099, "lng": -0.2036883}, "viewport": {"northeast": {"lat": 51.5265009302915, "lng": -0.2022707697084979}, "southwest": {"lat": 51.5238029697085, "lng": -0.204968730291502}}}, "name": "Sam Removals Maida Vale - Van Removals - Man With A Van Near Me, Man And Van London", "place_id": "ChIJbyc7aRwRdkgRZCP8lqsdN3I", "types": ["moving_company", "storage", "point_of_interest", "establishment"]}, "ChIJ8wpydxoQdkgRdg93jyUnC4Q": {"geometry": {"location": {"lat": 51.52514009999999, "lng": -0.2036542}, "viewport": {"northeast": {"lat": 51.52652473029148, "lng": -0.2022602197084979}, "southwest": {"lat": 51.52382676970849, "lng": -0.204958180291502}}}, "name": "X Plus Gadget & Accessories", "place_id": "ChIJ8wpydxoQdkgRdg93jyUnC4Q", "types": ["point_of_interest", "store", "establishment"], "rating": 5, "user_ratings_total": 1}, "ChIJB9GEdxoQdkgRGvXqlDws0KI": {"geometry": {"location": {"lat": 51.52510179999999, "lng": -0.2036021}, "viewport": {"northeast": {"lat": 51.5264897802915, "lng": -0.202202669708498}, "southwest": {"lat": 51.5237918197085, "lng": -0.204900630291502}}}, "name": "Lane's Jewellers", "place_id": "ChIJB9GEdxoQdkgRGvXqlDws0KI", "types": ["jewelry_store", "point_of_interest", "store", "establishment"], "rating": 4.3, "user_ratings_total": 12},