{"E00023920": {"ChIJCQ4n988adkgR1OtEAlP03Ac": {"geometry": {"location": {"lat": 51.52515605006194, "lng": -0.1536813998153744}, "viewport": {"northeast": {"lat": 51.5265050302915, "lng": -0.152332419708498}, "southwest": {"lat": 51.5238070697085, "lng": -0.155030380291502}}}, "name": "York Bridge", "place_id": "ChIJCQ4n988adkgR1OtEAlP03Ac", "types": ["route"]}, "ChIJt9pQuc8adkgRcpJFOistPCk": {"geometry": {"location": {"lat": 51.52368191510362, "lng": -0.1549199900217162}, "viewport": {"northeast": {"lat": 51.5250404802915, "lng": -0.153574219708498}, "southwest": {"lat": 51.5223425197085, "lng": -0.156272180291502}}}, "name": "Outer Circle", "place_id": "ChIJt9pQuc8adkgRcpJFOistPCk", "types": ["route"]}, "ChIJmy9FyM8adkgR9QBBq0RoNWM": {"geometry": {"location": {"lat": 51.5235386, "lng": -0.1541311}, "viewport": {"northeast": {"lat": 51.5250168802915, "lng": -0.152838419708498}, "southwest": {"lat": 51.5223189197085, "lng": -0.155536380291502}}}, "name": "Porter's Lodge - York & Nottingham Terraces", "place_id": "ChIJmy9FyM8adkgR9QBBq0RoNWM", "types": ["point_of_interest", "establishment"], "rating": 4.7, "user_ratings_total": 3}, "ChIJ-23zaxAbdkgRV4wz_PegmWI": {"geometry": {"location": {"lat": 51.5234714, "lng": -0.1542481}, "viewport": {"northeast": {"lat": 51.5247740302915, "lng": -0.152878319708498}, "southwest": {"lat": 51.5220760697085, "lng": -0.155576280291502}}}, "name": "Royal Tea", "place_id": "ChIJ-23zaxAbdkgRV4wz_PegmWI", "types": ["restaurant", "food", "point_of_interest", "establishment"]}, "ChIJbRNDRtMbdkgRulzzOlSk-o4": {"geometry": {"location": {"lat": 51.52331220000001, "lng": -0.1540747}, "viewport": {"northeast": {"lat": 51.5246529802915, "lng": -0.152777519708498}, "southwest": {"lat": 51.5219550197085, "lng": -0.155475480291502}}}, "name": "Reedbase Limited", "place_id": "ChIJbRNDRtMbdkgRulzzOlSk-o4", "types": ["point_of_interest", "establishment"]}, "ChIJiXoxM84adkgRqGq7-WDr6-w": {"geometry": {"location": {"lat": 51.52275295099082, "lng": -0.1537543009091334}, "viewport": {"northeast": {"lat": 51.5241019302915, "lng": -0.152405319708498}, "southwest": {"lat": 51.5214039697085, "lng": -0.1551032802915021}}}, "name": "Marylebone Road", "place_id": "ChIJiXoxM84adkgRqGq7-WDr6-w", "types": ["route"]}, "ChIJgZ24Us4adkgRpDNAwNPO_SY": {"geometry": {"location": {"lat": 51.52301740000001, "lng": -0.1543613}, "viewport": {"northeast": {"lat": 51.5241779802915, "lng": -0.153273319708498}, "southwest": {"lat": 51.52148001970851, "lng": -0.155971280291502}}}, "name": "Madame Tussauds London", "place_id": "ChIJgZ24Us4adkgRpDNAwNPO_SY", "types": ["tourist_attraction", "point_of_interest", "establishment"], "rating": 4.4, "user_ratings_total": 53516}, "ChIJB5t0Uc4adkgRBAGDRDlxep0": {"geometry": {"location": {"lat": 51.52235229999999, "lng": -0.1549735}, "viewport": {"northeast": {"lat": 51.52378023029149, "lng": -0.1536633197084979}, "southwest": {"lat": 51.5210822697085, "lng": -0.156361280291502}}}, "name": "University of Westminster Marylebone Hall", "place_id": "ChIJB5t0Uc4adkgRBAGDRDlxep0", "types": ["university", "point_of_interest", "establishment"], "rating": 3.8, "user_ratings_total": 23}, "ChIJb6wKMs4adkgRV8_Hu-GprNw": {"geometry": {"location": {"lat": 51.5225827, "lng": -0.1535563}, "viewport": {"northeast": {"lat": 51.5240328802915, "lng": -0.152254969708498}, "southwest": {"lat": 51.5213349197085, "lng": -0.154952930291502}}}, "name": "Methodist Church House", "place_id": "ChIJb6wKMs4adkgRV8_Hu-GprNw", "types": ["church", "place_of_worship", "point_of_interest", "establishment"], "rating": 4.1, "user_ratings_total": 14}, "ChIJ-RweG9UadkgRx4W4TnhVRH0": {"geometry": {"location": {"lat": 51.5221227, "lng": -0.1545874}, "viewport": {"northeast": {"lat": 51.5234045302915, "lng": -0.153000019708498}, "southwest": {"lat": 51.52070656970851, "lng": -0.155697980291502}}}, "name": "University of Westminster", "place_id": "ChIJ-RweG9UadkgRx4W4TnhVRH0", "types": ["university", "point_of_interest", "establishment"], "rating": 4.6, "user_ratings_total": 67}, "ChIJwz8uNM4adkgR-r2cjtFlTao": {"geometry": {"location": {"lat": 51.52253759999999, "lng": -0.1540058}, "viewport": {"northeast": {"lat": 51.52396453029149, "lng": -0.152693069708498}, "southwest": {"lat": 51.52126656970849, "lng": -0.155391030291502}}}, "name": "Office-management", "place_id": "ChIJwz8uNM4adkgR-r2cjtFlTao", "types": ["point_of_interest", "establishment"]}, "ChIJwz8uNM4adkgReJinfx8uzVg": {"geometry": {"location": {"lat": 51.52253759999999, "lng": -0.1540058}, "viewport": {"northeast": {"lat": 51.52396453029149, "lng": -0.152693069708498}, "southwest": {"lat": 51.52126656970849, "lng": -0.155391030291502}}}, "name": "RCS Facilities", "place_id": "ChIJwz8uNM4adkgReJinfx8uzVg", "types": ["point_of_interest", "establishment"]}, "ChIJSSucrc8adkgRMdTO1g6eaFI": {"geometry": {"location": {"lat": 51.5228116, "lng": -0.1546346}, "viewport": {"northeast": {"lat": 51.52410613029149, "lng": -0.153260269708498}, "southwest": {"lat": 51.5214081697085, "lng": -0.155958230291502}}}, "name": "Merlin Events", "place_id": "ChIJSSucrc8adkgRMdTO1g6eaFI", "types": ["point_of_interest", "establishment"], "rating": 5, "user_ratings_total": 27}, "ChIJwz8uNM4adkgRv56X7jLRH0g": {"geometry": {"location": {"lat": 51.5225251, "lng": -0.1539464}, "viewport": {"northeast": {"lat": 51.5239627302915, "lng": -0.152638619708498}, "southwest": {"lat": 51.5212647697085, "lng": -0.155336580291502}}}, "name": "Tolnet City Solutions Limited", "place_id": "ChIJwz8uNM4adkgRv56X7jLRH0g", "types": ["electronics_store", "point_of_interest", "store", "establishment"]}, "ChIJwz8uNM4adkgR8Ua4SF1KdeU": {"geometry": {"location": {"lat": 51.5225108, "lng": -0.1540434}, "viewport": {"northeast": {"lat": 51.5239469802915, "lng": -0.152734969708498}, "southwest": {"lat": 51.5212490197085, "lng": -0.155432930291502}}}, "name": "Recceology Field Services", "place_id": "ChIJwz8uNM4adkgR8Ua4SF1KdeU", "types": ["point_of_interest", "establishment"]}, "ChIJwz8uNM4adkgR836-L6vmEts": {"geometry": {"location": {"lat": 51.52254130000001, "lng": -0.1539409}, "viewport": {"northeast": {"lat": 51.5239718802915, "lng": -0.152629869708498}, "southwest": {"lat": 51.52127391970851, "lng": -0.155327830291502}}}, "name": "RCS Energetix", "place_id": "ChIJwz8uNM4adkgR836-L6vmEts", "types": ["point_of_interest", "establishment"]}, "ChIJNeBvMs4adkgRr59L5WOwm4Q": {"geometry": {"location": {"lat": 51.5225827, "lng": -0.1535562}, "viewport": {"northeast": {"lat": 51.5240261302915, "lng": -0.152251119708498}, "southwest": {"lat": 51.5213281697085, "lng": -0.154949080291502}}}, "name": "Children\u2019s Ministry Network", "place_id": "ChIJNeBvMs4adkgRr59L5WOwm4Q", "types": ["point_of_interest", "establishment"]}, "ChIJZawKMs4adkgRYdUiy7s_T90": {"geometry": {"location": {"lat": 51.5225455, "lng": -0.1535114}, "viewport": {"northeast": {"lat": 51.5240098302915, "lng": -0.152216069708498}, "southwest": {"lat": 51.5213118697085, "lng": -0.154914030291502}}}, "name": "Churches Agency For Safe Guarding", "place_id": "ChIJZawKMs4adkgRYdUiy7s_T90", "types": ["point_of_interest", "establishment"]}, "ChIJ_yyBLc4adkgRjEYW869B1Kc": {"geometry": {"location": {"lat": 51.5226085, "lng": -0.1534964}, "viewport": {"northeast": {"lat": 51.5240458302915, "lng": -0.152224519708498}, "southwest": {"lat": 51.5213478697085, "lng": -0.154922480291502}}}, "name": "VentureFX", "place_id": "ChIJ_yyBLc4adkgRjEYW869B1Kc", "types": ["church", "place_of_worship", "point_of_interest", "establishment"]}, "ChIJwz8uNM4adkgRpTiaG4dntQA": {"geometry": {"location": {"lat": 51.5223737, "lng": -0.1549823}, "viewport": {"northeast": {"lat": 51.5237913802915, "lng": -0.153667369708498}, "southwest": {"lat": 51.5210934197085, "lng": -0.156365330291502}}}, "name": "Days Out in London", "place_id": "ChIJwz8uNM4adkgRpTiaG4dntQA", "types": ["travel_agency", "point_of_interest", "establishment"], "rating": 4.3, "user_ratings_total": 12}, "ChIJ-QlMGbYadkgR9pd5RFB4P88": {"geometry": {"location": {"lat": 51.5225716, "lng": -0.1539044}, "viewport": {"northeast": {"lat": 51.5239912802915, "lng": -0.152588269708498}, "southwest": {"lat": 51.52129331970851, "lng": -0.155286230291502}}}, "name": "Methodist Independent Schools Trust", "place_id": "ChIJ-QlMGbYadkgR9pd5RFB4P88", "types": ["point_of_interest", "establishment"]}, "ChIJDxc7Rs4adkgRLML85ozlYz8": {"geometry": {"location": {"lat": 51.52235229999999, "lng": -0.1549735}, "viewport": {"northeast": {"lat": 51.52378023029149, "lng": -0.1536633197084979}, "southwest": {"lat": 51.5210822697085, "lng": -0.156361280291502}}}, "name": "Faculty of Architecture & The Built Environment", "place_id": "ChIJDxc7Rs4adkgRLML85ozlYz8", "types": ["university", "point_of_interest", "establishment"], "rating": 5, "user_ratings_total": 3}, "ChIJX28uVCobdkgRu2k1f3QTNew": {"geometry": {"location": {"lat": 51.52235229999999, "lng": -0.1549735}, "viewport": {"northeast": {"lat": 51.52378023029149, "lng": -0.1536633197084979}, "southwest": {"lat": 51.5210822697085, "lng": -0.156361280291502}}}, "name": "University of Westminster Students' Union", "place_id": "ChIJX28uVCobdkgRu2k1f3QTNew", "types": ["university", "point_of_interest", "establishment"], "rating": 3.7, "user_ratings_total": 3}, "ChIJGXA78CkbdkgRH3Mot95OOLw": {"geometry": {"location": {"lat": 51.5223497, "lng": -0.1549775}, "viewport": {"northeast": {"lat": 51.5237784802915, "lng": -0.153667719708498}, "southwest": {"lat": 51.5210805197085, "lng": -0.156365680291502}}}, "name": "Policy Studies Institute", "place_id": "ChIJGXA78CkbdkgRH3Mot95OOLw", "types": ["point_of_interest", "establishment"], "rating": 5, "user_ratings_total": 1}, "ChIJCR72Ls4adkgR3e-zUTD0hxY": {"geometry": {"location": {"lat": 51.522415, "lng": -0.1534598}, "viewport": {"northeast": {"lat": 51.5237595802915, "lng": -0.151969069708498}, "southwest": {"lat": 51.5210616197085, "lng": -0.154667030291502}}}, "name": "Embassy of Latvia", "place_id": "ChIJCR72Ls4adkgR3e-zUTD0hxY", "types": ["embassy", "point_of_interest", "establishment"], "rating": 2.3, "user_ratings_total": 189}, "ChIJGfv0K1EbdkgRkG1UbTUgqNk": {"geometry": {"location": {"lat": 51.52253690000001, "lng": -0.1539464}, "viewport": {"northeast": {"lat": 51.52396908029149, "lng": -0.152636119708498}, "southwest": {"lat": 51.52127111970849, "lng": -0.155334080291502}}}, "name": "Hot Tub Delivery Crane", "place_id": "ChIJGfv0K1EbdkgRkG1UbTUgqNk", "types": ["point_of_interest", "establishment"]}, "ChIJ930TNM4adkgRS4Dmo_7ixXM": {"geometry": {"location": {"lat": 51.52253690000001, "lng": -0.1539464}, "viewport": {"northeast": {"lat": 51.52396908029149, "lng": -0.152636119708498}, "southwest": {"lat": 51.52127111970849, "lng": -0.155334080291502}}}, "name": "Akbank Nv", "place_id": "ChIJ930TNM4adkgRS4Dmo_7ixXM", "types": ["atm", "finance", "point_of_interest", "establishment"], "rating": 5, "user_ratings_total": 1}, "ChIJVxInTs4adkgRcIW3CeMb410": {"geometry": {"location": {"lat": 51.522428, "lng": -0.1543447}, "viewport": {"northeast": {"lat": 51.5238760302915, "lng": -0.153044369708498}, "southwest": {"lat": 51.5211780697085, "lng": -0.155742330291502}}}, "name": "Fabrication Lab, University of Westminster", "place_id": "ChIJVxInTs4adkgRcIW3CeMb410", "types": ["university", "point_of_interest", "establishment"], "rating": 5, "user_ratings_total": 1}, "ChIJhUATNM4adkgR6voLN9YX6eI": {"geometry": {"location": {"lat": 51.5228166, "lng": -0.1545477}, "viewport": {"northeast": {"lat": 51.5241160802915, "lng": -0.153175669708498}, "southwest": {"lat": 51.5214181197085, "lng": -0.155873630291502}}}, "name": "Elara Capital", "place_id": "ChIJhUATNM4adkgR6voLN9YX6eI", "types": ["point_of_interest", "establishment"], "rating": 5, "user_ratings_total": 1}, "ChIJH-kITs4adkgRfWj6KxShCTY": {"geometry": {"location": {"lat": 51.522481, "lng": -0.154907}, "viewport": {"northeast": {"lat": 51.5238516802915, "lng": -0.153568619708498}, "southwest": {"lat": 51.5211537197085, "lng": -0.156266580291502}}}, "name": "Santander Cycles", "place_id": "ChIJH-kITs4adkgRfWj6KxShCTY", "types": ["point_of_interest", "establishment"], "rating": 5, "user_ratings_total": 1}, "ChIJM0ptLc4adkgR6tHhnJVsuBo": {"geometry": {"location": {"lat": 51.5226741, "lng": -0.1534196}, "viewport": {"northeast": {"lat": 51.5240294802915, "lng": -0.151985169708498}, "southwest": {"lat": 51.5213315197085, "lng": -0.154683130291502}}}, "name": "Methodist Missionary Society", "place_id": "ChIJM0ptLc4adkgR6tHhnJVsuBo", "types": ["point_of_interest", "establishment"]}, "ChIJ7QgJLs4adkgR7HzvkkY64Y8": {"geometry": {"location": {"lat": 51.52245309999999, "lng": -0.1534484}, "viewport": {"northeast": {"lat": 51.52381308029149, "lng": -0.151969219708498}, "southwest": {"lat": 51.52111511970849, "lng": -0.154667180291502}}}, "name": "Dr Anna Pallecaros", "place_id": "ChIJ7QgJLs4adkgR7HzvkkY64Y8", "types": ["point_of_interest", "establishment"]}, "ChIJ7QgJLs4adkgRyf9t_cv9HgA": {"geometry": {"location": {"lat": 51.52245309999999, "lng": -0.1534484}, "viewport": {"northeast": {"lat": 51.52381308029149, "lng": -0.151969219708498}, "southwest": {"lat": 51.52111511970849, "lng": -0.154667180291502}}}, "name": "Dr. Anthony Hughes", "place_id": "ChIJ7QgJLs4adkgRyf9t_cv9HgA", "types": ["doctor", "health", "point_of_interest", "establishment"], "rating": 5, "user_ratings_total": 1}, "ChIJT4w4UM4adkgRj3H_nEndrxk": {"geometry": {"location": {"lat": 51.52237929999999, "lng": -0.1549518}, "viewport": {"northeast": {"lat": 51.5237967802915, "lng": -0.153636469708498}, "southwest": {"lat": 51.5210988197085, "lng": -0.156334430291502}}}, "name": "Art Faculty", "place_id": "ChIJT4w4UM4adkgRj3H_nEndrxk", "types": ["school", "point_of_interest", "establishment"]}, "ChIJ7QgJLs4adkgRHpmP-xNS2Ww": {"geometry": {"location": {"lat": 51.5224533, "lng": -0.1534439}, "viewport": {"northeast": {"lat": 51.5238130802915, "lng": -0.151966969708498}, "southwest": {"lat": 51.5211151197085, "lng": -0.154664930291502}}}, "name": "Professor Sina Dorudi", "place_id": "ChIJ7QgJLs4adkgRHpmP-xNS2Ww", "types": ["doctor", "health", "point_of_interest", "establishment"]}, "ChIJFUvuXQsbdkgRRqW7-aQKZ3E": {"geometry": {"location": {"lat": 51.5223039, "lng": -0.1549038}, "viewport": {"northeast": {"lat": 51.5237600302915, "lng": -0.153607469708498}, "southwest": {"lat": 51.5210620697085, "lng": -0.156305430291502}}}, "name": "Marylebone Hall Guest Rooms", "place_id": "ChIJFUvuXQsbdkgRRqW7-aQKZ3E", "types": ["lodging", "point_of_interest", "establishment"]}, "ChIJ7aTCNEsbdkgR7e54kBPdBVw": {"geometry": {"location": {"lat": 51.52235229999999, "lng": -0.1549735}, "viewport": {"northeast": {"lat": 51.52378023029149, "lng": -0.1536633197084979}, "southwest": {"lat": 51.5210822697085, "lng": -0.156361280291502}}}, "name": "Weather station", "place_id": "ChIJ7aTCNEsbdkgR7e54kBPdBVw", "types": ["point_of_interest", "establishment"], "rating": 2.5, "user_ratings_total": 2}, "ChIJ7cTZyKIbdkgRFHskUdulYCM": {"geometry": {"location": {"lat": 51.52235229999999, "lng": -0.1549735}, "viewport": {"northeast": {"lat": 51.52378023029149, "lng": -0.1536633197084979}, "southwest": {"lat": 51.5210822697085, "lng": -0.156361280291502}}}, "name": "Careers & Employability Service, University of Westminster", "place_id": "ChIJ7cTZyKIbdkgRFHskUdulYCM", "types": ["university", "point_of_interest", "establishment"]}, "ChIJVxInTs4adkgRU497dEmcYG0": {"geometry": {"location": {"lat": 51.52235229999999, "lng": -0.1549735}, "viewport": {"northeast": {"lat": 51.52378023029149, "lng": -0.1536633197084979}, "southwest": {"lat": 51.5210822697085, "lng": -0.156361280291502}}}, "name": "Project Pedestrian", "place_id": "ChIJVxInTs4adkgRU497dEmcYG0", "types": ["point_of_interest", "establishment"]}, "ChIJFRKr3ZAbdkgRBAm1GR69jME": {"geometry": {"location": {"lat": 51.52235229999999, "lng": -0.1549735}, "viewport": {"northeast": {"lat": 51.52378023029149, "lng": -0.1536633197084979}, "southwest": {"lat": 51.5210822697085, "lng": -0.156361280291502}}}, "name": "ACCA Progression Society", "place_id": "ChIJFRKr3ZAbdkgRBAm1GR69jME", "types": ["point_of_interest", "establishment"]}, "ChIJ7wzIcPwbdkgRs6NJQC_60CU": {"geometry": {"location": {"lat": 51.5223769, "lng": -0.1549981}, "viewport": {"northeast": {"lat": 51.5237914302915, "lng": -0.153681319708498}, "southwest": {"lat": 51.5210934697085, "lng": -0.156379280291502}}}, "name": "University", "place_id": "ChIJ7wzIcPwbdkgRs6NJQC_60CU", "types": ["school", "point_of_interest", "establishment"]}, "ChIJZU2bFs4adkgRNJ0-RFFlRNg": {"geometry": {"location": {"lat": 51.52128005019006, "lng": -0.1538097500568784}, "viewport": {"northeast": {"lat": 51.5226290302915, "lng": -0.152460769708498}, "southwest": {"lat": 51.51993106970851, "lng": -0.155158730291502}}}, "name": "1 Nottingham St", "place_id": "ChIJZU2bFs4adkgRNJ0-RFFlRNg", "types": ["route"]}, "ChIJ86jAPc4adkgRQS40ZVPzED8": {"geometry": {"location": {"lat": 51.5216011, "lng": -0.1539183}, "viewport": {"northeast": {"lat": 51.5229454302915, "lng": -0.152646169708498}, "southwest": {"lat": 51.5202474697085, "lng": -0.155344130291502}}}, "name": "Dooz - Parties & Guestlist in London", "place_id": "ChIJ86jAPc4adkgRQS40ZVPzED8", "types": ["point_of_interest", "establishment"], "rating": 5, "user_ratings_total": 2}, "ChIJ_bywLigbdkgRMA1AromKdjw": {"geometry": {"location": {"lat": 51.52174189999999, "lng": -0.1539275}, "viewport": {"northeast": {"lat": 51.52308583029149, "lng": -0.152661719708498}, "southwest": {"lat": 51.5203878697085, "lng": -0.155359680291502}}}, "name": "Gamerland", "place_id": "ChIJ_bywLigbdkgRMA1AromKdjw", "types": ["point_of_interest", "store", "establishment"]}, "ChIJrwJwCkwbdkgRm_18evtJYLM": {"geometry": {"location": {"lat": 51.5212593, "lng": -0.1538498}, "viewport": {"northeast": {"lat": 51.5225952302915, "lng": -0.152498819708498}, "southwest": {"lat": 51.5198972697085, "lng": -0.155196780291502}}}, "name": "Solo Motorcycles Only", "place_id": "ChIJrwJwCkwbdkgRm_18evtJYLM", "types": ["parking", "point_of_interest", "establishment"]}, "ChIJL623XrcbdkgRR91hWf5Kl_0": {"geometry": {"location": {"lat": 51.5220153, "lng": -0.1540035}, "viewport": {"northeast": {"lat": 51.5233598302915, "lng": -0.152716869708498}, "southwest": {"lat": 51.5206618697085, "lng": -0.155414830291502}}}, "name": "Osborne Mansions", "place_id": "ChIJL623XrcbdkgRR91hWf5Kl_0", "types": ["point_of_interest", "establishment"]}, "ChIJ8V0xQM4adkgRKdLhoNWxWMw": {"geometry": {"location": {"lat": 51.5215184, "lng": -0.1543776}, "viewport": {"northeast": {"lat": 51.52289363470896, "lng": -0.1530515632214649}, "southwest": {"lat": 51.52019567412596, "lng": -0.1557495238044689}}}, "name": "Parking lot", "place_id": "ChIJ8V0xQM4adkgRKdLhoNWxWMw", "types": ["parking", "premise", "point_of_interest", "establishment"]}, "ChIJ7aE5a88adkgR_keiFVaYfpA": {"geometry": {"location": {"lat": 51.52416345638846, "lng": -0.1569790809933263}, "viewport": {"northeast": {"lat": 51.5255116302915, "lng": -0.1547923}, "southwest": {"lat": 51.5228136697085, "lng": -0.1591674999999999}}}, "name": "14-2 Outer Cir", "place_id": "ChIJ7aE5a88adkgR_keiFVaYfpA", "types": ["route"]}, "ChIJUXfNuN4EdkgRhnMxWZqZVks": {"geometry": {"location": {"lat": 51.52369419999999, "lng": -0.1563111}, "viewport": {"northeast": {"lat": 51.5249907802915, "lng": -0.1550150197084979}, "southwest": {"lat": 51.5222928197085, "lng": -0.157712980291502}}}, "name": "The Japan Society", "place_id": "ChIJUXfNuN4EdkgRhnMxWZqZVks", "types": ["point_of_interest", "establishment"], "rating": 5, "user_ratings_total": 2}, "ChIJdY7dE88adkgR7muIpovFfYo": {"geometry": {"location": {"lat": 51.52379610000001, "lng": -0.156176}, "viewport": {"northeast": {"lat": 51.5251554302915, "lng": -0.1548165697084979}, "southwest": {"lat": 51.5224574697085, "lng": -0.157514530291502}}}, "name": "Daiwa Anglo Japanese Foundation", "place_id": "ChIJdY7dE88adkgR7muIpovFfYo", "types": ["point_of_interest", "establishment"], "rating": 4.8, "user_ratings_total": 25}, "ChIJg5bkcfobdkgRAli8rqRU5ME": {"geometry": {"location": {"lat": 51.523703, "lng": -0.1565534}, "viewport": {"northeast": {"lat": 51.52503538029149, "lng": -0.155221119708498}, "southwest": {"lat": 51.52233741970849, "lng": -0.157919080291502}}}, "name": "Concepcion's shop", "place_id": "ChIJg5bkcfobdkgRAli8rqRU5ME", "types": ["point_of_interest", "establishment"]}, "ChIJFWf0EM8adkgRN0wXEtv4qqE": {"geometry": {"location": {"lat": 51.52327620000001, "lng": -0.1561981}, "viewport": {"northeast": {"lat": 51.5246317802915, "lng": -0.154843969708498}, "southwest": {"lat": 51.52193381970851, "lng": -0.157541930291502}}}, "name": "Zipcar", "place_id": "ChIJFWf0EM8adkgRN0wXEtv4qqE", "types": ["car_rental", "point_of_interest", "establishment"]}, "ChIJuf3hIukbdkgRT1CxhQ9Zry8": {"geometry": {"location": {"lat": 51.5232499, "lng": -0.15624}, "viewport": {"northeast": {"lat": 51.5246319802915, "lng": -0.154864669708498}, "southwest": {"lat": 51.5219340197085, "lng": -0.157562630291502}}}, "name": "Andy Tyler Weddings", "place_id": "ChIJuf3hIukbdkgRT1CxhQ9Zry8", "types": ["point_of_interest", "establishment"], "rating": 5, "user_ratings_total": 4}, "ChIJjairBM8adkgRs2Ys7I6BAXU": {"geometry": {"location": {"lat": 51.5233224, "lng": -0.1566867}, "viewport": {"northeast": {"lat": 51.52447889822884, "lng": -0.1550944125124958}, "southwest": {"lat": 51.52178093764584, "lng": -0.1577923730954999}}}, "name": "Parking lot", "place_id": "ChIJjairBM8adkgRs2Ys7I6BAXU", "types": ["parking", "premise", "point_of_interest", "establishment"]}, "ChIJ0d8x_84adkgRephgXQavCcU": {"geometry": {"location": {"lat": 51.52249790004912, "lng": -0.1557679000469769}, "viewport": {"northeast": {"lat": 51.5238468802915, "lng": -0.154418919708498}, "southwest": {"lat": 51.5211489197085, "lng": -0.1571168802915021}}}, "name": "42-36 Marylebone Rd", "place_id": "ChIJ0d8x_84adkgRephgXQavCcU", "types": ["route"]}, "ChIJ7Q_7R88adkgR0jss_ta2LTg": {"geometry": {"location": {"lat": 51.5227492, "lng": -0.1557294}, "viewport": {"northeast": {"lat": 51.52401873029149, "lng": -0.154671869708498}, "southwest": {"lat": 51.5213207697085, "lng": -0.157369830291502}}}, "name": "Baker Street Food Station", "place_id": "ChIJ7Q_7R88adkgR0jss_ta2LTg", "types": ["cafe", "meal_takeaway", "restaurant", "food", "point_of_interest", "establishment"], "rating": 3.4, "user_ratings_total": 129}, "ChIJs1JKGc8adkgRo8jzpTEMSMw": {"geometry": {"location": {"lat": 51.5227088, "lng": -0.1565626}, "viewport": {"northeast": {"lat": 51.5239481802915, "lng": -0.155105669708498}, "southwest": {"lat": 51.5212502197085, "lng": -0.1578036302915021}}}, "name": "Wenzel's the Bakers", "place_id": "ChIJs1JKGc8adkgRo8jzpTEMSMw", "types": ["bakery", "meal_takeaway", "restaurant", "food", "point_of_interest", "store", "establishment"], "rating": 4.4, "user_ratings_total": 31}, "ChIJ_7Ku_c4adkgRr3jGoSun0Is": {"geometry": {"location": {"lat": 51.52265000000001, "lng": -0.156297}, "viewport": {"northeast": {"lat": 51.5239322802915, "lng": -0.154972869708498}, "southwest": {"lat": 51.5212343197085, "lng": -0.157670830291502}}}, "name": "Pret A Manger", "place_id": "ChIJ_7Ku_c4adkgRr3jGoSun0Is", "types": ["cafe", "restaurant", "food", "point_of_interest", "store", "establishment"], "rating": 4.3, "user_ratings_total": 30}, "ChIJ7RIWAM8adkgR1Z5KXflJrkY": {"geometry": {"location": {"lat": 51.5228483, "lng": -0.1558052}, "viewport": {"northeast": {"lat": 51.5240682802915, "lng": -0.154692119708498}, "southwest": {"lat": 51.5213703197085, "lng": -0.157390080291502}}}, "name": "Shaviram Group", "place_id": "ChIJ7RIWAM8adkgR1Z5KXflJrkY", "types": ["finance", "point_of_interest", "establishment"]}, "ChIJs2EBVM4adkgR_9bk5fxJ89M": {"geometry": {"location": {"lat": 51.5225589, "lng": -0.1554097}, "viewport": {"northeast": {"lat": 51.52387883029149, "lng": -0.154047819708498}, "southwest": {"lat": 51.52118086970849, "lng": -0.156745780291502}}}, "name": "Singers for Hire", "place_id": "ChIJs2EBVM4adkgR_9bk5fxJ89M", "types": ["point_of_interest", "establishment"], "rating": 5, "user_ratings_total": 3}, "ChIJ8bsd_s4adkgRmiEUhFlNHPQ": {"geometry": {"location": {"lat": 51.52260520000001, "lng": -0.1563679}, "viewport": {"northeast": {"lat": 51.52390868029151, "lng": -0.154997319708498}, "southwest": {"lat": 51.52121071970851, "lng": -0.157695280291502}}}, "name": "CLUBGT Events", "place_id": "ChIJ8bsd_s4adkgRmiEUhFlNHPQ", "types": ["car_rental", "point_of_interest", "establishment"]}, "ChIJw_-YNfEPdkgRjOhBVhE8Z2k": {"geometry": {"location": {"lat": 51.5221333, "lng": -0.156191}, "viewport": {"northeast": {"lat": 51.5234648802915, "lng": -0.154942119708498}, "southwest": {"lat": 51.5207669197085, "lng": -0.157640080291502}}}, "name": "Chavin Immigration Law Office", "place_id": "ChIJw_-YNfEPdkgRjOhBVhE8Z2k", "types": ["lawyer", "point_of_interest", "establishment"], "rating": 5, "user_ratings_total": 2}, "ChIJ8bsd_s4adkgR1rHemD3RnTI": {"geometry": {"location": {"lat": 51.5225789, "lng": -0.1559871}, "viewport": {"northeast": {"lat": 51.5239278802915, "lng": -0.1546381197084979}, "southwest": {"lat": 51.5212299197085, "lng": -0.157336080291502}}}, "name": "London Ticket Centre", "place_id": "ChIJ8bsd_s4adkgR1rHemD3RnTI", "types": ["point_of_interest", "store", "establishment"], "rating": 1.6, "user_ratings_total": 5}, "ChIJvVLLxX4ddkgRj1njisvAkIo": {"geometry": {"location": {"lat": 51.5226941, "lng": -0.155892}, "viewport": {"northeast": {"lat": 51.5239911802915, "lng": -0.154758369708498}, "southwest": {"lat": 51.5212932197085, "lng": -0.157456330291502}}}, "name": "Vodafone", "place_id": "ChIJvVLLxX4ddkgRj1njisvAkIo", "types": ["point_of_interest", "store", "establishment"], "rating": 4.3, "user_ratings_total": 4}, "ChIJvVwe_s4adkgRBO80rczvEp0": {"geometry": {"location": {"lat": 51.52278140000001, "lng": -0.15601}, "viewport": {"northeast": {"lat": 51.5241943802915, "lng": -0.154729619708498}, "southwest": {"lat": 51.52149641970851, "lng": -0.157427580291502}}}, "name": "Evelyn Construction Co Ltd", "place_id": "ChIJvVwe_s4adkgRBO80rczvEp0", "types": ["general_contractor", "point_of_interest", "establishment"]}, "ChIJ2flb-c4adkgROd0r20PSq2g": {"geometry": {"location": {"lat": 51.5224746, "lng": -0.1562145}, "viewport": {"northeast": {"lat": 51.5237966302915, "lng": -0.154853369708498}, "southwest": {"lat": 51.5210986697085, "lng": -0.157551330291502}}}, "name": "Baker Street Station (Stop D)", "place_id": "ChIJ2flb-c4adkgROd0r20PSq2g", "types": ["bus_station", "transit_station", "point_of_interest", "establishment"], "rating": 4.3, "user_ratings_total": 6}, "ChIJgTQEAM8adkgR6KQXnUI-gDY": {"geometry": {"location": {"lat": 51.5228143, "lng": -0.1557738}, "viewport": {"northeast": {"lat": 51.52405128029149, "lng": -0.154682569708498}, "southwest": {"lat": 51.5213533197085, "lng": -0.1573805302915021}}}, "name": "Farley Court", "place_id": "ChIJgTQEAM8adkgR6KQXnUI-gDY", "types": ["point_of_interest", "establishment"]}, "ChIJAyEtw84adkgRKSZTsXe-CQE": {"geometry": {"location": {"lat": 51.5225108, "lng": -0.1563434}, "viewport": {"northeast": {"lat": 51.5238899802915, "lng": -0.155008769708498}, "southwest": {"lat": 51.5211920197085, "lng": -0.157706730291502}}}, "name": "iRepairMan Mobile Phone Repair Service London", "place_id": "ChIJAyEtw84adkgRKSZTsXe-CQE", "types": ["point_of_interest", "establishment"], "rating": 3, "user_ratings_total": 10}, "ChIJI48QwXsbdkgRM01Z9U2awjo": {"geometry": {"location": {"lat": 51.52284479999999, "lng": -0.1557659}, "viewport": {"northeast": {"lat": 51.5240665302915, "lng": -0.154673869708498}, "southwest": {"lat": 51.5213685697085, "lng": -0.157371830291502}}}, "name": "Blue Plaque: Kenneth Williams", "place_id": "ChIJI48QwXsbdkgRM01Z9U2awjo", "types": ["point_of_interest", "establishment"], "rating": 4.5, "user_ratings_total": 2}, "ChIJ7Q_7R88adkgRAAx-BdtKFlI": {"geometry": {"location": {"lat": 51.5228929, "lng": -0.1558332}, "viewport": {"northeast": {"lat": 51.5242557802915, "lng": -0.154409819708498}, "southwest": {"lat": 51.52155781970851, "lng": -0.157107780291502}}}, "name": "Fordgate Ltd", "place_id": "ChIJ7Q_7R88adkgRAAx-BdtKFlI", "types": ["general_contractor", "point_of_interest", "establishment"], "rating": 5, "user_ratings_total": 2}, "ChIJD5ITH8AbdkgRwhW0Qm79pN8": {"geometry": {"location": {"lat": 51.52274629999999, "lng": -0.155541}, "viewport": {"northeast": {"lat": 51.5240948302915, "lng": -0.154194469708498}, "southwest": {"lat": 51.5213968697085, "lng": -0.156892430291502}}}, "name": "Mario's", "place_id": "ChIJD5ITH8AbdkgRwhW0Qm79pN8", "types": ["restaurant", "food", "point_of_interest", "establishment"], "rating": 2, "user_ratings_total": 4}, "ChIJL86a-c4adkgRR2-6eZdyxZA": {"geometry": {"location": {"lat": 51.5222559, "lng": -0.1560483}, "viewport": {"northeast": {"lat": 51.5236384802915, "lng": -0.154727419708498}, "southwest": {"lat": 51.5209405197085, "lng": -0.157425380291502}}}, "name": "Baker Street Station (Stop E)", "place_id": "ChIJL86a-c4adkgRR2-6eZdyxZA", "types": ["bus_station", "transit_station", "point_of_interest", "establishment"]}, "ChIJ_5RS_o0bdkgRL7HiENZI5Fc": {"geometry": {"location": {"lat": 51.5224304, "lng": -0.1554705}, "viewport": {"northeast": {"lat": 51.52377938029149, "lng": -0.154121519708498}, "southwest": {"lat": 51.52108141970849, "lng": -0.156819480291502}}}, "name": "Mega Rooters & Heating", "place_id": "ChIJ_5RS_o0bdkgRL7HiENZI5Fc", "types": ["plumber", "general_contractor", "point_of_interest", "establishment"]}, "ChIJmUyaVs4adkgRupQ538MBBFs": {"geometry": {"location": {"lat": 51.5224304, "lng": -0.1554705}, "viewport": {"northeast": {"lat": 51.52377938029149, "lng": -0.154121519708498}, "southwest": {"lat": 51.52108141970849, "lng": -0.156819480291502}}}, "name": "LeOui Janse van Rensburg", "place_id": "ChIJmUyaVs4adkgRupQ538MBBFs", "types": ["electronics_store", "home_goods_store", "point_of_interest", "store", "establishment"]}, "ChIJmUyaVs4adkgRnS-z6H9A36Y": {"geometry": {"location": {"lat": 51.5224304, "lng": -0.1554705}, "viewport": {"northeast": {"lat": 51.52377938029149, "lng": -0.154121519708498}, "southwest": {"lat": 51.52108141970849, "lng": -0.156819480291502}}}, "name": "ANIKO PHARMACEUTICALS", "place_id": "ChIJmUyaVs4adkgRnS-z6H9A36Y", "types": ["health", "point_of_interest", "establishment"]}, "ChIJ_8UJxCEbdkgRCie0nD7gfPA": {"geometry": {"location": {"lat": 51.5224304, "lng": -0.1554705}, "viewport": {"northeast": {"lat": 51.52377938029149, "lng": -0.154121519708498}, "southwest": {"lat": 51.52108141970849, "lng": -0.156819480291502}}}, "name": "LYO", "place_id": "ChIJ_8UJxCEbdkgRCie0nD7gfPA", "types": ["point_of_interest", "establishment"]}, "ChIJh77_AM8adkgRpdlejg4VaSM": {"geometry": {"location": {"lat": 51.5229596, "lng": -0.1558959}, "viewport": {"northeast": {"lat": 51.5243250802915, "lng": -0.154458519708498}, "southwest": {"lat": 51.5216271197085, "lng": -0.157156480291502}}}, "name": "Applecroft Properties", "place_id": "ChIJh77_AM8adkgRpdlejg4VaSM", "types": ["point_of_interest", "establishment"]}, "ChIJ4dPNntUEdkgRoZfkQu0WDJA": {"geometry": {"location": {"lat": 51.5225308, "lng": -0.1566423}, "viewport": {"northeast": {"lat": 51.52384533029149, "lng": -0.1552769697084979}, "southwest": {"lat": 51.5211473697085, "lng": -0.157974930291502}}}, "name": "Sherlock Holmes Statue", "place_id": "ChIJ4dPNntUEdkgRoZfkQu0WDJA", "types": ["tourist_attraction", "point_of_interest", "establishment"], "rating": 4.4, "user_ratings_total": 590}, "ChIJu1a2ks4adkgRMQRJ0S12dVk": {"geometry": {"location": {"lat": 51.5222372, "lng": -0.155756}, "viewport": {"northeast": {"lat": 51.5236536302915, "lng": -0.154436519708498}, "southwest": {"lat": 51.5209556697085, "lng": -0.157134480291502}}}, "name": "The Westminster Boardroom", "place_id": "ChIJu1a2ks4adkgRMQRJ0S12dVk", "types": ["point_of_interest", "establishment"]}, "ChIJczu-T1sbdkgR92Erg9UUxTQ": {"geometry": {"location": {"lat": 51.5227081, "lng": -0.1553598}, "viewport": {"northeast": {"lat": 51.5240454802915, "lng": -0.154119069708498}, "southwest": {"lat": 51.5213475197085, "lng": -0.156817030291502}}}, "name": "Tradewithrobbie.com", "place_id": "ChIJczu-T1sbdkgR92Erg9UUxTQ", "types": ["point_of_interest", "establishment"], "rating": 4.4, "user_ratings_total": 45}, "ChIJHcGbVs4adkgRLLRQTy5N208": {"geometry": {"location": {"lat": 51.522312, "lng": -0.1554089}, "viewport": {"northeast": {"lat": 51.52372048029149, "lng": -0.154089169708498}, "southwest": {"lat": 51.5210225197085, "lng": -0.156787130291502}}}, "name": "\u05d4\u05d3\u05d9\u05e8\u05d4 \u05e9\u05dc \u05e8\u05d9\u05e0\u05d2\u05d5 \u05e1\u05d8\u05d0\u05e8", "place_id": "ChIJHcGbVs4adkgRLLRQTy5N208", "types": ["museum", "point_of_interest", "establishment"]}, "ChIJvybO-c4adkgRRSD71zpONvo": {"geometry": {"location": {"lat": 51.5223084, "lng": -0.1553326}, "viewport": {"northeast": {"lat": 51.5237251802915, "lng": -0.1540169197084979}, "southwest": {"lat": 51.5210272197085, "lng": -0.156714880291502}}}, "name": "FAB FEST", "place_id": "ChIJvybO-c4adkgRRSD71zpONvo", "types": ["art_gallery", "point_of_interest", "establishment"], "rating": 5, "user_ratings_total": 1}, "ChIJ4Yo1is4adkgR9Wfxv0lXSKc": {"geometry": {"location": {"lat": 51.52119159999999, "lng": -0.15586}, "viewport": {"northeast": {"lat": 51.5225320302915, "lng": -0.154556519708498}, "southwest": {"lat": 51.5198340697085, "lng": -0.157254480291502}}}, "name": "Blandford Hotel", "place_id": "ChIJ4Yo1is4adkgR9Wfxv0lXSKc", "types": ["lodging", "point_of_interest", "establishment"], "rating": 4.1, "user_ratings_total": 167}, "ChIJeajjL7MEdkgRZZ0rc0j9DqI": {"geometry": {"location": {"lat": 51.521472, "lng": -0.1562554}, "viewport": {"northeast": {"lat": 51.5228079302915, "lng": -0.154985019708498}, "southwest": {"lat": 51.5201099697085, "lng": -0.157682980291502}}}, "name": "Henry Milner & Co Solicitors", "place_id": "ChIJeajjL7MEdkgRZZ0rc0j9DqI", "types": ["lawyer", "point_of_interest", "establishment"], "rating": 4, "user_ratings_total": 8}, "ChIJLYH_jM4adkgRwg6NtOUgcnk": {"geometry": {"location": {"lat": 51.5214283, "lng": -0.1562624}, "viewport": {"northeast": {"lat": 51.5227662302915, "lng": -0.154979969708498}, "southwest": {"lat": 51.5200682697085, "lng": -0.157677930291502}}}, "name": "Carholme Dental Group Ltd", "place_id": "ChIJLYH_jM4adkgRwg6NtOUgcnk", "types": ["dentist", "health", "point_of_interest", "establishment"]}, "ChIJOYj1is4adkgRtp373IO1OhU": {"geometry": {"location": {"lat": 51.5213265, "lng": -0.1558421}, "viewport": {"northeast": {"lat": 51.5226607302915, "lng": -0.154576969708498}, "southwest": {"lat": 51.5199627697085, "lng": -0.157274930291502}}}, "name": "London Centre of Self-Realization Fellowship", "place_id": "ChIJOYj1is4adkgRtp373IO1OhU", "types": ["place_of_worship", "point_of_interest", "establishment"], "rating": 4.9, "user_ratings_total": 21}, "ChIJW0yLlM4adkgR9AZcEkG9iVA": {"geometry": {"location": {"lat": 51.5213419, "lng": -0.1561752}, "viewport": {"northeast": {"lat": 51.52270268029149, "lng": -0.154759069708498}, "southwest": {"lat": 51.5200047197085, "lng": -0.157457030291502}}}, "name": "Axitan", "place_id": "ChIJW0yLlM4adkgR9AZcEkG9iVA", "types": ["point_of_interest", "establishment"]}, "ChIJN9wpdE4bdkgRj14YZshKHKE": {"geometry": {"location": {"lat": 51.52133569999999, "lng": -0.1564597}, "viewport": {"northeast": {"lat": 51.52269123029149, "lng": -0.155071419708498}, "southwest": {"lat": 51.51999326970849, "lng": -0.157769380291502}}}, "name": "ISS Magazine", "place_id": "ChIJN9wpdE4bdkgRj14YZshKHKE", "types": ["point_of_interest", "establishment"]}, "ChIJuXQ37M4adkgRmbd8-WH41_4": {"geometry": {"location": {"lat": 51.5217947, "lng": -0.1565951}, "viewport": {"northeast": {"lat": 51.52316648029149, "lng": -0.155087369708498}, "southwest": {"lat": 51.52046851970849, "lng": -0.157785330291502}}}, "name": "Sterling Hr Consulting", "place_id": "ChIJuXQ37M4adkgRmbd8-WH41_4", "types": ["point_of_interest", "establishment"]}, "ChIJuXQ37M4adkgRoqeJpY84ESw": {"geometry": {"location": {"lat": 51.5217783, "lng": -0.1566072}, "viewport": {"northeast": {"lat": 51.5231584302915, "lng": -0.155090319708498}, "southwest": {"lat": 51.5204604697085, "lng": -0.157788280291502}}}, "name": "Private Client Finance", "place_id": "ChIJuXQ37M4adkgRoqeJpY84ESw", "types": ["finance", "point_of_interest", "establishment"], "rating": 5, "user_ratings_total": 3}, "ChIJ9znVjM4adkgRmZk4MI8mO6U": {"geometry": {"location": {"lat": 51.521472, "lng": -0.1562554}, "viewport": {"northeast": {"lat": 51.5228079302915, "lng": -0.154985019708498}, "southwest": {"lat": 51.5201099697085, "lng": -0.157682980291502}}}, "name": "F&F Workshop Editions", "place_id": "ChIJ9znVjM4adkgRmZk4MI8mO6U", "types": ["point_of_interest", "establishment"]}, "ChIJ9znVjM4adkgRdU0g5E86iuI": {"geometry": {"location": {"lat": 51.521472, "lng": -0.1562554}, "viewport": {"northeast": {"lat": 51.5228079302915, "lng": -0.154985019708498}, "southwest": {"lat": 51.5201099697085, "lng": -0.157682980291502}}}, "name": "Finding The Future", "place_id": "ChIJ9znVjM4adkgRdU0g5E86iuI", "types": ["point_of_interest", "establishment"]}, "ChIJERxtEA4VdkgRTIDe9YE3z5M": {"geometry": {"location": {"lat": 51.521472, "lng": -0.1562554}, "viewport": {"northeast": {"lat": 51.5228079302915, "lng": -0.154985019708498}, "southwest": {"lat": 51.5201099697085, "lng": -0.157682980291502}}}, "name": "Tatewood", "place_id": "ChIJERxtEA4VdkgRTIDe9YE3z5M", "types": ["point_of_interest", "establishment"], "rating": 5, "user_ratings_total": 16}, "ChIJd7L5Qf8PdkgRArrLceviV8o": {"geometry": {"location": {"lat": 51.521472, "lng": -0.1562554}, "viewport": {"northeast": {"lat": 51.5228079302915, "lng": -0.154985019708498}, "southwest": {"lat": 51.5201099697085, "lng": -0.157682980291502}}}, "name": "De Vere Partners", "place_id": "ChIJd7L5Qf8PdkgRArrLceviV8o", "types": ["general_contractor", "point_of_interest", "establishment"]}, "ChIJM4H_jM4adkgRyda0qJ0lF5k": {"geometry": {"location": {"lat": 51.5214283, "lng": -0.1562624}, "viewport": {"northeast": {"lat": 51.5227662302915, "lng": -0.154979969708498}, "southwest": {"lat": 51.5200682697085, "lng": -0.157677930291502}}}, "name": "Check \u2018Em Out", "place_id": "ChIJM4H_jM4adkgRyda0qJ0lF5k", "types": ["point_of_interest", "establishment"]}, "ChIJWRBxjc4adkgRkhhOUJ4DWwA": {"geometry": {"location": {"lat": 51.5214283, "lng": -0.1562624}, "viewport": {"northeast": {"lat": 51.5227662302915, "lng": -0.154979969708498}, "southwest": {"lat": 51.5200682697085, "lng": -0.157677930291502}}}, "name": "Oliver Clive + Co", "place_id": "ChIJWRBxjc4adkgRkhhOUJ4DWwA", "types": ["accounting", "finance", "point_of_interest", "establishment"], "rating": 5, "user_ratings_total": 1}, "ChIJ9wExaM4adkgRH9Bj5mWkOuA": {"geometry": {"location": {"lat": 51.5213246, "lng": -0.1558479}, "viewport": {"northeast": {"lat": 51.5226593802915, "lng": -0.154579669708498}, "southwest": {"lat": 51.5199614197085, "lng": -0.157277630291502}}}, "name": "D J S Tiling", "place_id": "ChIJ9wExaM4adkgRH9Bj5mWkOuA", "types": ["general_contractor", "point_of_interest", "establishment"]}, "ChIJ__8vjc4adkgRw-NWRK-N9Mw": {"geometry": {"location": {"lat": 51.5214337, "lng": -0.1563082}, "viewport": {"northeast": {"lat": 51.5227754302915, "lng": -0.155002819708498}, "southwest": {"lat": 51.5200774697085, "lng": -0.157700780291502}}}, "name": "AEA SYNERGY", "place_id": "ChIJ__8vjc4adkgRw-NWRK-N9Mw", "types": ["real_estate_agency", "point_of_interest", "establishment"]}, "ChIJ__8vjc4adkgRtq8-5I9QTkg": {"geometry": {"location": {"lat": 51.5214337, "lng": -0.1563082}, "viewport": {"northeast": {"lat": 51.5227754302915, "lng": -0.155002819708498}, "southwest": {"lat": 51.5200774697085, "lng": -0.157700780291502}}}, "name": "Your Thinking Ltd", "place_id": "ChIJ__8vjc4adkgRtq8-5I9QTkg", "types": ["point_of_interest", "establishment"]}, "ChIJAQAwjc4adkgRSBuRE8r12WA": {"geometry": {"location": {"lat": 51.5214337, "lng": -0.1563083}, "viewport": {"northeast": {"lat": 51.5227754302915, "lng": -0.155002819708498}, "southwest": {"lat": 51.5200774697085, "lng": -0.157700780291502}}}, "name": "Orbital Development", "place_id": "ChIJAQAwjc4adkgRSBuRE8r12WA", "types": ["general_contractor", "point_of_interest", "establishment"]}, "ChIJDcsZhNQbdkgR9OfNX28AsQ0": {"geometry": {"location": {"lat": 51.5214337, "lng": -0.1563083}, "viewport": {"northeast": {"lat": 51.5227754302915, "lng": -0.155002819708498}, "southwest": {"lat": 51.5200774697085, "lng": -0.157700780291502}}}, "name": "BROWN PROPERTY SERVICES LIMITED", "place_id": "ChIJDcsZhNQbdkgR9OfNX28AsQ0", "types": ["general_contractor", "point_of_interest", "establishment"]}, "ChIJLYH_jM4adkgR_boVug8Cycc": {"geometry": {"location": {"lat": 51.52131129999999, "lng": -0.1562515}, "viewport": {"northeast": {"lat": 51.5226523802915, "lng": -0.154950019708498}, "southwest": {"lat": 51.5199544197085, "lng": -0.157647980291502}}}, "name": "Blencathra Productions Ltd", "place_id": "ChIJLYH_jM4adkgR_boVug8Cycc", "types": ["point_of_interest", "establishment"]}, "ChIJPdz9SXMbdkgRKV4o-BN9fFU": {"geometry": {"location": {"lat": 51.5214974, "lng": -0.1564347}, "viewport": {"northeast": {"lat": 51.5228382302915, "lng": -0.155134619708498}, "southwest": {"lat": 51.5201402697085, "lng": -0.157832580291502}}}, "name": "Realea", "place_id": "ChIJPdz9SXMbdkgRKV4o-BN9fFU", "types": ["finance", "point_of_interest", "establishment"]}, "ChIJJ4jAf-IbdkgRJWWLhKR3Up8": {"geometry": {"location": {"lat": 51.5212441, "lng": -0.1561825}, "viewport": {"northeast": {"lat": 51.5226090802915, "lng": -0.1547424197084979}, "southwest": {"lat": 51.5199111197085, "lng": -0.157440380291502}}}, "name": "Portman Mansions", "place_id": "ChIJJ4jAf-IbdkgRJWWLhKR3Up8", "types": ["point_of_interest", "establishment"]}, "ChIJm0p8jc4adkgRp9oodXZwkt0": {"geometry": {"location": {"lat": 51.5213361, "lng": -0.1564337}, "viewport": {"northeast": {"lat": 51.52268753029149, "lng": -0.155069919708498}, "southwest": {"lat": 51.51998956970849, "lng": -0.157767880291502}}}, "name": "Digital Times Transformation", "place_id": "ChIJm0p8jc4adkgRp9oodXZwkt0", "types": ["point_of_interest", "establishment"]}, "ChIJaXJUdDEbdkgRZ2IYTQMMqw8": {"geometry": {"location": {"lat": 51.521382, "lng": -0.1565494}, "viewport": {"northeast": {"lat": 51.5227437302915, "lng": -0.155123769708498}, "southwest": {"lat": 51.5200457697085, "lng": -0.157821730291502}}}, "name": "DESKIN", "place_id": "ChIJaXJUdDEbdkgRZ2IYTQMMqw8", "types": ["real_estate_agency", "point_of_interest", "establishment"], "rating": 5, "user_ratings_total": 1}, "ChIJq6rrks4adkgR-nV9UlQreVA": {"geometry": {"location": {"lat": 51.521382, "lng": -0.1565494}, "viewport": {"northeast": {"lat": 51.5227437302915, "lng": -0.155123769708498}, "southwest": {"lat": 51.5200457697085, "lng": -0.157821730291502}}}, "name": "Rowington Systems Limited", "place_id": "ChIJq6rrks4adkgR-nV9UlQreVA", "types": ["point_of_interest", "establishment"]}, "ChIJq6rrks4adkgRUrlsnNoQlPk": {"geometry": {"location": {"lat": 51.521382, "lng": -0.1565494}, "viewport": {"northeast": {"lat": 51.5227437302915, "lng": -0.155123769708498}, "southwest": {"lat": 51.5200457697085, "lng": -0.157821730291502}}}, "name": "Royal Dream", "place_id": "ChIJq6rrks4adkgRUrlsnNoQlPk", "types": ["point_of_interest", "establishment"]}, "ChIJ_ZWX0r0bdkgRElBAczjrbH0": {"geometry": {"location": {"lat": 51.52119649999999, "lng": -0.156303}, "viewport": {"northeast": {"lat": 51.5225371302915, "lng": -0.155004069708498}, "southwest": {"lat": 51.5198391697085, "lng": -0.157702030291502}}}, "name": "Alex Building", "place_id": "ChIJ_ZWX0r0bdkgRElBAczjrbH0", "types": ["point_of_interest", "establishment"]}, "ChIJEa8lK8wadkgRyo2c6BaJ4HI": {"geometry": {"location": {"lat": 51.52128440000001, "lng": -0.1565009}, "viewport": {"northeast": {"lat": 51.5226456302915, "lng": -0.155078319708498}, "southwest": {"lat": 51.51994766970851, "lng": -0.157776280291502}}}, "name": "W&G Recruitment", "place_id": "ChIJEa8lK8wadkgRyo2c6BaJ4HI", "types": ["point_of_interest", "establishment"], "rating": 4.3, "user_ratings_total": 6}, "ChIJn45ALU8bdkgRXWXAPfkBSqA": {"geometry": {"location": {"lat": 51.5212623, "lng": -0.1564935}, "viewport": {"northeast": {"lat": 51.52262368029149, "lng": -0.155069919708498}, "southwest": {"lat": 51.5199257197085, "lng": -0.157767880291502}}}, "name": "WorkPad Offices - 12 David Mews", "place_id": "ChIJn45ALU8bdkgRXWXAPfkBSqA", "types": ["real_estate_agency", "point_of_interest", "establishment"]}, "ChIJa9Hk7M4adkgRe9mfF67AAEk": {"geometry": {"location": {"lat": 51.52159589999999, "lng": -0.1566637}, "viewport": {"northeast": {"lat": 51.52297508029149, "lng": -0.155329069708498}, "southwest": {"lat": 51.5202771197085, "lng": -0.158027030291502}}}, "name": "Taipan Consulting International Ltd.", "place_id": "ChIJa9Hk7M4adkgRe9mfF67AAEk", "types": ["point_of_interest", "establishment"]}, "ChIJg7gkc-cbdkgRxklLMeD679k": {"geometry": {"location": {"lat": 51.5212516, "lng": -0.1565487}, "viewport": {"northeast": {"lat": 51.52261763029151, "lng": -0.155097219708498}, "southwest": {"lat": 51.51991966970851, "lng": -0.157795180291502}}}, "name": "Clear AI", "place_id": "ChIJg7gkc-cbdkgRxklLMeD679k", "types": ["point_of_interest", "establishment"]}, "ChIJJUOLTskbdkgRUzYajrb8nbs": {"geometry": {"location": {"lat": 51.5217783, "lng": -0.1566072}, "viewport": {"northeast": {"lat": 51.5231584302915, "lng": -0.155090319708498}, "southwest": {"lat": 51.5204604697085, "lng": -0.157788280291502}}}, "name": "Chiltern Street Capital", "place_id": "ChIJJUOLTskbdkgRUzYajrb8nbs", "types": ["point_of_interest", "establishment"]}, "ChIJh9_p8s4adkgRJpGpVPg_ZZk": {"geometry": {"location": {"lat": 51.5217783, "lng": -0.1566072}, "viewport": {"northeast": {"lat": 51.5231584302915, "lng": -0.155090319708498}, "southwest": {"lat": 51.5204604697085, "lng": -0.157788280291502}}}, "name": "Humphreys J E", "place_id": "ChIJh9_p8s4adkgRJpGpVPg_ZZk", "types": ["doctor", "health", "point_of_interest", "establishment"]}, "ChIJUVFI7M4adkgRGobGIVY6UkA": {"geometry": {"location": {"lat": 51.5217118, "lng": -0.1566678}, "viewport": {"northeast": {"lat": 51.5230998302915, "lng": -0.155108469708498}, "southwest": {"lat": 51.5204018697085, "lng": -0.157806430291502}}}, "name": "First Wealth Management", "place_id": "ChIJUVFI7M4adkgRGobGIVY6UkA", "types": ["finance", "point_of_interest", "establishment"]}, "ChIJsydWk84adkgRXYAc5sqXeGs": {"geometry": {"location": {"lat": 51.521488, "lng": -0.1567722}, "viewport": {"northeast": {"lat": 51.5228773802915, "lng": -0.155442469708498}, "southwest": {"lat": 51.52017941970851, "lng": -0.158140430291502}}}, "name": "Muscatt Walker Hayim", "place_id": "ChIJsydWk84adkgRXYAc5sqXeGs", "types": ["point_of_interest", "establishment"], "rating": 4.3, "user_ratings_total": 11}, "ChIJuXQ37M4adkgRpNOqxUTtlUA": {"geometry": {"location": {"lat": 51.52187019999999, "lng": -0.1566161}, "viewport": {"northeast": {"lat": 51.52329828029149, "lng": -0.155138969708498}, "southwest": {"lat": 51.52060031970849, "lng": -0.157836930291502}}}, "name": "Portman Mansions Management Ltd", "place_id": "ChIJuXQ37M4adkgRpNOqxUTtlUA", "types": ["point_of_interest", "establishment"], "rating": 4.7, "user_ratings_total": 15}, "ChIJGWahMc8adkgR0EsYOPzp1sU": {"geometry": {"location": {"lat": 51.52350805016454, "lng": -0.1581429481833676}, "viewport": {"northeast": {"lat": 51.5248570302915, "lng": -0.156793969708498}, "southwest": {"lat": 51.5221590697085, "lng": -0.159491930291502}}}, "name": "236-208 A41", "place_id": "ChIJGWahMc8adkgR0EsYOPzp1sU", "types": ["route"]}, "ChIJkeddM88adkgR80g3pdkn0vw": {"geometry": {"location": {"lat": 51.523767, "lng": -0.1585557}, "viewport": {"northeast": {"lat": 51.5251386302915, "lng": -0.1570715197084979}, "southwest": {"lat": 51.5224406697085, "lng": -0.159769480291502}}}, "name": "The Sherlock Holmes Museum", "place_id": "ChIJkeddM88adkgR80g3pdkn0vw", "types": ["museum", "tourist_attraction", "point_of_interest", "establishment"], "rating": 4.3, "user_ratings_total": 13329}, "ChIJaRjMM88adkgR7avwAivNUtM": {"geometry": {"location": {"lat": 51.5236321, "lng": -0.1584173}, "viewport": {"northeast": {"lat": 51.5249991302915, "lng": -0.156968619708498}, "southwest": {"lat": 51.5223011697085, "lng": -0.159666580291502}}}, "name": "\u05d7\u05e0\u05d5\u05ea \u05d4\u05d1\u05d9\u05d8\u05dc\u05e1 \u05e9\u05dc \u05dc\u05d5\u05e0\u05d3\u05d5\u05df", "place_id": "ChIJaRjMM88adkgR7avwAivNUtM", "types": ["electronics_store", "home_goods_store", "point_of_interest", "store", "establishment"], "rating": 4.1, "user_ratings_total": 564}, "ChIJv5WVOs8adkgR0exQ3_uzxu4": {"geometry": {"location": {"lat": 51.5237457, "lng": -0.158083}, "viewport": {"northeast": {"lat": 51.5250803802915, "lng": -0.156812919708498}, "southwest": {"lat": 51.5223824197085, "lng": -0.159510880291502}}}, "name": "Vy's Nails", "place_id": "ChIJv5WVOs8adkgR0exQ3_uzxu4", "types": ["beauty_salon", "point_of_interest", "establishment"], "rating": 3.4, "user_ratings_total": 62}, "ChIJr_c6N88adkgRRyOFOBu2o_w": {"geometry": {"location": {"lat": 51.5238545, "lng": -0.1580233}, "viewport": {"northeast": {"lat": 51.5251799302915, "lng": -0.156804219708498}, "southwest": {"lat": 51.5224819697085, "lng": -0.159502180291502}}}, "name": "Gogo Direct", "place_id": "ChIJr_c6N88adkgRRyOFOBu2o_w", "types": ["clothing_store", "point_of_interest", "store", "establishment"]}, "ChIJE4JiM88adkgRsFItcmof-CQ": {"geometry": {"location": {"lat": 51.5237715, "lng": -0.1585384}, "viewport": {"northeast": {"lat": 51.5251432302915, "lng": -0.157063969708498}, "southwest": {"lat": 51.5224452697085, "lng": -0.159761930291502}}}, "name": "Metal industry Unity", "place_id": "ChIJE4JiM88adkgRsFItcmof-CQ", "types": ["point_of_interest", "establishment"]}, "ChIJE4JiM88adkgRoUaHdP0EGhE": {"geometry": {"location": {"lat": 51.5237715, "lng": -0.1585384}, "viewport": {"northeast": {"lat": 51.5251432302915, "lng": -0.157063969708498}, "southwest": {"lat": 51.5224452697085, "lng": -0.159761930291502}}}, "name": "Sola Sports", "place_id": "ChIJE4JiM88adkgRoUaHdP0EGhE", "types": ["point_of_interest", "establishment"]}, "ChIJE4JiM88adkgRWW3qAraPQzM": {"geometry": {"location": {"lat": 51.5237715, "lng": -0.1585384}, "viewport": {"northeast": {"lat": 51.5251432302915, "lng": -0.157063969708498}, "southwest": {"lat": 51.5224452697085, "lng": -0.159761930291502}}}, "name": "Emma Dufeu", "place_id": "ChIJE4JiM88adkgRWW3qAraPQzM", "types": ["point_of_interest", "establishment"]}, "ChIJE4JiM88adkgRewo-kqQ3z_g": {"geometry": {"location": {"lat": 51.5237715, "lng": -0.1585384}, "viewport": {"northeast": {"lat": 51.5251432302915, "lng": -0.157063969708498}, "southwest": {"lat": 51.5224452697085, "lng": -0.159761930291502}}}, "name": "Gym Exile", "place_id": "ChIJE4JiM88adkgRewo-kqQ3z_g", "types": ["point_of_interest", "establishment"]}, "ChIJE4JiM88adkgREaMvWITxDG0": {"geometry": {"location": {"lat": 51.5237715, "lng": -0.1585384}, "viewport": {"northeast": {"lat": 51.5251432302915, "lng": -0.157063969708498}, "southwest": {"lat": 51.5224452697085, "lng": -0.159761930291502}}}, "name": "AdryFashion", "place_id": "ChIJE4JiM88adkgREaMvWITxDG0", "types": ["point_of_interest", "store", "establishment"]}, "ChIJE4JiM88adkgREbqXNlAjx2k": {"geometry": {"location": {"lat": 51.5237715, "lng": -0.1585384}, "viewport": {"northeast": {"lat": 51.5251432302915, "lng": -0.157063969708498}, "southwest": {"lat": 51.5224452697085, "lng": -0.159761930291502}}}, "name": "Arte y Futuro", "place_id": "ChIJE4JiM88adkgREbqXNlAjx2k", "types": ["point_of_interest", "establishment"]}, "ChIJE4JiM88adkgRMcga4azl9OE": {"geometry": {"location": {"lat": 51.5237517, "lng": -0.1585631}, "viewport": {"northeast": {"lat": 51.52512623029149, "lng": -0.157073019708498}, "southwest": {"lat": 51.5224282697085, "lng": -0.159770980291502}}}, "name": "ASMAR FRERES", "place_id": "ChIJE4JiM88adkgRMcga4azl9OE", "types": ["point_of_interest", "establishment"]}, "ChIJGSfqLc8adkgRoE9haezGzhU": {"geometry": {"location": {"lat": 51.523368, "lng": -0.158366}, "viewport": {"northeast": {"lat": 51.52474108029149, "lng": -0.156884019708498}, "southwest": {"lat": 51.5220431197085, "lng": -0.159581980291502}}}, "name": "Attwood Personal Training", "place_id": "ChIJGSfqLc8adkgRoE9haezGzhU", "types": ["health", "point_of_interest", "establishment"]}, "ChIJv5WVOs8adkgRkqWGqNo19I8": {"geometry": {"location": {"lat": 51.5237035, "lng": -0.1580721}, "viewport": {"northeast": {"lat": 51.52503893029151, "lng": -0.156797919708498}, "southwest": {"lat": 51.52234096970851, "lng": -0.159495880291502}}}, "name": "It's Only Rock 'n' Roll", "place_id": "ChIJv5WVOs8adkgRkqWGqNo19I8", "types": ["point_of_interest", "store", "establishment"], "rating": 4.1, "user_ratings_total": 54}, "ChIJv5WVOs8adkgRDAyrPMinm00": {"geometry": {"location": {"lat": 51.52325, "lng": -0.157713}, "viewport": {"northeast": {"lat": 51.5245609802915, "lng": -0.156500819708498}, "southwest": {"lat": 51.5218630197085, "lng": -0.159198780291502}}}, "name": "Baskin-Robbins", "place_id": "ChIJv5WVOs8adkgRDAyrPMinm00", "types": ["food", "point_of_interest", "store", "establishment"], "rating": 4.4, "user_ratings_total": 134}, "ChIJB301MM8adkgRT9-YZn76mcA": {"geometry": {"location": {"lat": 51.5236092, "lng": -0.1580095}, "viewport": {"northeast": {"lat": 51.52494308029151, "lng": -0.156743869708498}, "southwest": {"lat": 51.52224511970851, "lng": -0.159441830291502}}}, "name": "kahnoon", "place_id": "ChIJB301MM8adkgRT9-YZn76mcA", "types": ["point_of_interest", "establishment"]}, "ChIJU4GfLt8bdkgRgmxvRQh22KY": {"geometry": {"location": {"lat": 51.5237035, "lng": -0.1580721}, "viewport": {"northeast": {"lat": 51.52503893029151, "lng": -0.156797919708498}, "southwest": {"lat": 51.52234096970851, "lng": -0.159495880291502}}}, "name": "230 Baker Street", "place_id": "ChIJU4GfLt8bdkgRgmxvRQh22KY", "types": ["point_of_interest", "establishment"]}, "ChIJr9HytcgadkgR9DtYpQGjEU4": {"geometry": {"location": {"lat": 51.5238968, "lng": -0.1579168}, "viewport": {"northeast": {"lat": 51.5252791802915, "lng": -0.156530069708498}, "southwest": {"lat": 51.5225812197085, "lng": -0.159228030291502}}}, "name": "A S Property Investments", "place_id": "ChIJr9HytcgadkgR9DtYpQGjEU4", "types": ["general_contractor", "point_of_interest", "establishment"]}, "ChIJx8wMMM8adkgRtf81elWdcbU": {"geometry": {"location": {"lat": 51.5235259, "lng": -0.15796}, "viewport": {"northeast": {"lat": 51.52485893029149, "lng": -0.156699219708498}, "southwest": {"lat": 51.52216096970849, "lng": -0.159397180291502}}}, "name": "Indo Cracker", "place_id": "ChIJx8wMMM8adkgRtf81elWdcbU", "types": ["bakery", "food", "point_of_interest", "store", "establishment"]}, "ChIJx8wMMM8adkgRNu9XKXz7j2A": {"geometry": {"location": {"lat": 51.5235259, "lng": -0.15796}, "viewport": {"northeast": {"lat": 51.52485893029149, "lng": -0.156699219708498}, "southwest": {"lat": 51.52216096970849, "lng": -0.159397180291502}}}, "name": "Justshop", "place_id": "ChIJx8wMMM8adkgRNu9XKXz7j2A", "types": ["store", "point_of_interest", "establishment"]}, "ChIJx8wMMM8adkgRLVNvfBdmWWk": {"geometry": {"location": {"lat": 51.5235259, "lng": -0.15796}, "viewport": {"northeast": {"lat": 51.52485893029149, "lng": -0.156699219708498}, "southwest": {"lat": 51.52216096970849, "lng": -0.159397180291502}}}, "name": "Cookie day", "place_id": "ChIJx8wMMM8adkgRLVNvfBdmWWk", "types": ["bakery", "food", "point_of_interest", "store", "establishment"]}, "ChIJx8wMMM8adkgRxqnI0OpGKV4": {"geometry": {"location": {"lat": 51.5235259, "lng": -0.15796}, "viewport": {"northeast": {"lat": 51.52485893029149, "lng": -0.156699219708498}, "southwest": {"lat": 51.52216096970849, "lng": -0.159397180291502}}}, "name": "A.N.I COOKIES", "place_id": "ChIJx8wMMM8adkgRxqnI0OpGKV4", "types": ["bakery", "food", "point_of_interest", "store", "establishment"], "rating": 5, "user_ratings_total": 1}, "ChIJx8wMMM8adkgRTVJcK8jP1ys": {"geometry": {"location": {"lat": 51.5235259, "lng": -0.15796}, "viewport": {"northeast": {"lat": 51.52485893029149, "lng": -0.156699219708498}, "southwest": {"lat": 51.52216096970849, "lng": -0.159397180291502}}}, "name": "A MILLY SWEETS", "place_id": "ChIJx8wMMM8adkgRTVJcK8jP1ys", "types": ["bakery", "food", "point_of_interest", "store", "establishment"]}, "ChIJ2flRALwbdkgRVa9Lmt3N1U0": {"geometry": {"location": {"lat": 51.52352589999999, "lng": -0.1579601}, "viewport": {"northeast": {"lat": 51.52485893029149, "lng": -0.156699269708498}, "southwest": {"lat": 51.52216096970849, "lng": -0.159397230291502}}}, "name": "Baker kiosk", "place_id": "ChIJ2flRALwbdkgRVa9Lmt3N1U0", "types": ["convenience_store", "food", "point_of_interest", "store", "establishment"], "rating": 4.7, "user_ratings_total": 13}, "ChIJMfbUMM8adkgRcfglmBnCzws": {"geometry": {"location": {"lat": 51.5237622, "lng": -0.1580995}, "viewport": {"northeast": {"lat": 51.5250976302915, "lng": -0.156825369708498}, "southwest": {"lat": 51.5223996697085, "lng": -0.159523330291502}}}, "name": "Br\u00edt\u00edsh Collect\u00edons", "place_id": "ChIJMfbUMM8adkgRcfglmBnCzws", "types": ["point_of_interest", "establishment"]}, "ChIJsacxOM8adkgRBwYzXZWOOkA": {"geometry": {"location": {"lat": 51.52396470000001, "lng": -0.157875}, "viewport": {"northeast": {"lat": 51.5252974302915, "lng": -0.156544419708498}, "southwest": {"lat": 51.5225994697085, "lng": -0.159242380291502}}}, "name": "The Kingsley Way Charitable Trust", "place_id": "ChIJsacxOM8adkgRBwYzXZWOOkA", "types": ["point_of_interest", "establishment"]}, "ChIJrZvhM88adkgRdFvgi3E-K-M": {"geometry": {"location": {"lat": 51.5238531, "lng": -0.1581284}, "viewport": {"northeast": {"lat": 51.5251873802915, "lng": -0.156860569708498}, "southwest": {"lat": 51.5224894197085, "lng": -0.159558530291502}}}, "name": "Chalfont Court Ltd", "place_id": "ChIJrZvhM88adkgRdFvgi3E-K-M", "types": ["lodging", "point_of_interest", "establishment"], "rating": 4, "user_ratings_total": 2}, "ChIJJVrcNs8adkgRbeu0PrkaNeE": {"geometry": {"location": {"lat": 51.52384110000001, "lng": -0.1581481}, "viewport": {"northeast": {"lat": 51.5251774802915, "lng": -0.156868569708498}, "southwest": {"lat": 51.5224795197085, "lng": -0.159566530291502}}}, "name": "SEKERIBU LTD", "place_id": "ChIJJVrcNs8adkgRbeu0PrkaNeE", "types": ["point_of_interest", "establishment"]}, "ChIJLVydL88adkgRHjjKQujr4M0": {"geometry": {"location": {"lat": 51.523418, "lng": -0.158006}, "viewport": {"northeast": {"lat": 51.5247599802915, "lng": -0.156695819708498}, "southwest": {"lat": 51.5220620197085, "lng": -0.159393780291502}}}, "name": "Baker Street Station", "place_id": "ChIJLVydL88adkgRHjjKQujr4M0", "types": ["transit_station", "point_of_interest", "establishment"], "rating": 5, "user_ratings_total": 2}, "ChIJ2ScgJc8adkgRggA3SJPxHyQ": {"geometry": {"location": {"lat": 51.5233624, "lng": -0.1577532}, "viewport": {"northeast": {"lat": 51.5246658302915, "lng": -0.156543719708498}, "southwest": {"lat": 51.5219678697085, "lng": -0.159241680291502}}}, "name": "Saint Espresso", "place_id": "ChIJ2ScgJc8adkgRggA3SJPxHyQ", "types": ["cafe", "food", "point_of_interest", "store", "establishment"], "rating": 4.4, "user_ratings_total": 259}, "ChIJVQ-CL88adkgRglFcKszboLI": {"geometry": {"location": {"lat": 51.523335, "lng": -0.1579322}, "viewport": {"northeast": {"lat": 51.52467093029149, "lng": -0.1566434697084979}, "southwest": {"lat": 51.5219729697085, "lng": -0.159341430291502}}}, "name": "Baker Street Station (Stop A)", "place_id": "ChIJVQ-CL88adkgRglFcKszboLI", "types": ["bus_station", "transit_station", "point_of_interest", "establishment"], "rating": 3, "user_ratings_total": 2}, "ChIJS_zX084adkgRIPAq20m2BsU": {"geometry": {"location": {"lat": 51.523308, "lng": -0.1578678}, "viewport": {"northeast": {"lat": 51.52464183029149, "lng": -0.156602469708498}, "southwest": {"lat": 51.5219438697085, "lng": -0.159300430291502}}}, "name": "Kavi London", "place_id": "ChIJS_zX084adkgRIPAq20m2BsU", "types": ["point_of_interest", "establishment"]}, "ChIJRQvLM88adkgR80I_Jx11FZw": {"geometry": {"location": {"lat": 51.5236168, "lng": -0.1583728}, "viewport": {"northeast": {"lat": 51.5249807302915, "lng": -0.156941319708498}, "southwest": {"lat": 51.5222827697085, "lng": -0.159639280291502}}}, "name": "Noble Zone Creative Studio", "place_id": "ChIJRQvLM88adkgR80I_Jx11FZw", "types": ["point_of_interest", "establishment"]}, "ChIJRQvLM88adkgRaQZ_atKYcvE": {"geometry": {"location": {"lat": 51.5236168, "lng": -0.1583728}, "viewport": {"northeast": {"lat": 51.5249807302915, "lng": -0.156941319708498}, "southwest": {"lat": 51.5222827697085, "lng": -0.159639280291502}}}, "name": "Strobe Hunters", "place_id": "ChIJRQvLM88adkgRaQZ_atKYcvE", "types": ["point_of_interest", "establishment"]}, "ChIJRQvLM88adkgRW0wWc7eamA0": {"geometry": {"location": {"lat": 51.5236168, "lng": -0.1583728}, "viewport": {"northeast": {"lat": 51.5249807302915, "lng": -0.156941319708498}, "southwest": {"lat": 51.5222827697085, "lng": -0.159639280291502}}}, "name": "Kabeer Gill", "place_id": "ChIJRQvLM88adkgRW0wWc7eamA0", "types": ["point_of_interest", "establishment"]}, "ChIJRQvLM88adkgRciQKcHrjhRA": {"geometry": {"location": {"lat": 51.5236168, "lng": -0.1583728}, "viewport": {"northeast": {"lat": 51.5249807302915, "lng": -0.156941319708498}, "southwest": {"lat": 51.5222827697085, "lng": -0.159639280291502}}}, "name": "Simon Brown Photography", "place_id": "ChIJRQvLM88adkgRciQKcHrjhRA", "types": ["point_of_interest", "establishment"]}, "ChIJlbt24mUbdkgRh1wn-m75ffg": {"geometry": {"location": {"lat": 51.5235059, "lng": -0.1583312}, "viewport": {"northeast": {"lat": 51.52487068029149, "lng": -0.156894969708498}, "southwest": {"lat": 51.5221727197085, "lng": -0.159592930291502}}}, "name": "The regent gift shop", "place_id": "ChIJlbt24mUbdkgRh1wn-m75ffg", "types": ["point_of_interest", "store", "establishment"], "rating": 5, "user_ratings_total": 4}, "ChIJnX9vGlEbdkgRtVzgU23ElMM": {"geometry": {"location": {"lat": 51.5237266, "lng": -0.1584445}, "viewport": {"northeast": {"lat": 51.5250922302915, "lng": -0.1570036697084979}, "southwest": {"lat": 51.5223942697085, "lng": -0.159701630291502}}}, "name": "UNITED NATIONS DELIVERY", "place_id": "ChIJnX9vGlEbdkgRtVzgU23ElMM", "types": ["point_of_interest", "establishment"], "rating": 3.2, "user_ratings_total": 5}, "ChIJkSp4NM8adkgRu5Ge1Mm21II": {"geometry": {"location": {"lat": 51.52378170000001, "lng": -0.158437}, "viewport": {"northeast": {"lat": 51.5251445302915, "lng": -0.157011519708498}, "southwest": {"lat": 51.5224465697085, "lng": -0.159709480291502}}}, "name": "swipmart.", "place_id": "ChIJkSp4NM8adkgRu5Ge1Mm21II", "types": ["point_of_interest", "establishment"]}, "ChIJkSp4NM8adkgR_guqhwNcxS8": {"geometry": {"location": {"lat": 51.52378170000001, "lng": -0.158437}, "viewport": {"northeast": {"lat": 51.5251445302915, "lng": -0.157011519708498}, "southwest": {"lat": 51.5224465697085, "lng": -0.159709480291502}}}, "name": "Delta Tech Global Limited", "place_id": "ChIJkSp4NM8adkgR_guqhwNcxS8", "types": ["point_of_interest", "establishment"]}, "ChIJRdvohSsbdkgRdWlUsOtXt3w": {"geometry": {"location": {"lat": 51.52378170000001, "lng": -0.158437}, "viewport": {"northeast": {"lat": 51.5251445302915, "lng": -0.157011519708498}, "southwest": {"lat": 51.5224465697085, "lng": -0.159709480291502}}}, "name": "Blue Plaque: 221b Sherlock Holmes consulting detective 1881-1904", "place_id": "ChIJRdvohSsbdkgRdWlUsOtXt3w", "types": ["point_of_interest", "establishment"], "rating": 5, "user_ratings_total": 1}, "ChIJlV_8rqlZwokRtnMJQlqoA2M": {"geometry": {"location": {"lat": 51.5237804, "lng": -0.1584433}, "viewport": {"northeast": {"lat": 51.52514388029149, "lng": -0.157014669708498}, "southwest": {"lat": 51.5224459197085, "lng": -0.159712630291502}}}, "name": "Adios Digital", "place_id": "ChIJlV_8rqlZwokRtnMJQlqoA2M", "types": ["point_of_interest", "establishment"]}, "ChIJl4z4yTQbdkgRZF_SQq9mVEM": {"geometry": {"location": {"lat": 51.52351540000001, "lng": -0.1570577}, "viewport": {"northeast": {"lat": 51.5249064302915, "lng": -0.155667319708498}, "southwest": {"lat": 51.5222084697085, "lng": -0.158365280291502}}}, "name": "TFL Office", "place_id": "ChIJl4z4yTQbdkgRZF_SQq9mVEM", "types": ["point_of_interest", "establishment"], "rating": 5, "user_ratings_total": 2}, "ChIJwbihj4kbdkgRAJ_noHTfZz0": {"geometry": {"location": {"lat": 51.52376539999999, "lng": -0.1584555}, "viewport": {"northeast": {"lat": 51.5251304302915, "lng": -0.157017969708498}, "southwest": {"lat": 51.5224324697085, "lng": -0.159715930291502}}}, "name": "Sherlock Holmes' place", "place_id": "ChIJwbihj4kbdkgRAJ_noHTfZz0", "types": ["tourist_attraction", "point_of_interest", "establishment"], "rating": 4.8, "user_ratings_total": 16}, "ChIJuz33R88adkgR_EX4XE8DK3k": {"geometry": {"location": {"lat": 51.5237731, "lng": -0.1569843}, "viewport": {"northeast": {"lat": 51.5251232802915, "lng": -0.155634069708498}, "southwest": {"lat": 51.5224253197085, "lng": -0.158332030291502}}}, "name": "Cornwall Terrace Mews", "place_id": "ChIJuz33R88adkgR_EX4XE8DK3k", "types": ["point_of_interest", "establishment"]}, "ChIJAwBjM88adkgR28aPMyb7S_4": {"geometry": {"location": {"lat": 51.5234026, "lng": -0.1582816}, "viewport": {"northeast": {"lat": 51.52476728029151, "lng": -0.156845969708498}, "southwest": {"lat": 51.52206931970851, "lng": -0.159543930291502}}}, "name": "Trinity", "place_id": "ChIJAwBjM88adkgR28aPMyb7S_4", "types": ["point_of_interest", "establishment"]}, "ChIJKYCUJc8adkgRZ6yvB53vBYs": {"geometry": {"location": {"lat": 51.52323919999999, "lng": -0.1576759}, "viewport": {"northeast": {"lat": 51.5245602802915, "lng": -0.1564844697084979}, "southwest": {"lat": 51.5218623197085, "lng": -0.159182430291502}}}, "name": "Annielese", "place_id": "ChIJKYCUJc8adkgRZ6yvB53vBYs", "types": ["point_of_interest", "establishment"]}, "ChIJLxmR08gadkgRwsHi8cd7dgU": {"geometry": {"location": {"lat": 51.5233637, "lng": -0.158263}, "viewport": {"northeast": {"lat": 51.5247283302915, "lng": -0.156827569708498}, "southwest": {"lat": 51.5220303697085, "lng": -0.159525530291502}}}, "name": "C Ramon", "place_id": "ChIJLxmR08gadkgRwsHi8cd7dgU", "types": ["point_of_interest", "establishment"]}, "ChIJ9wERM88adkgRchncQ8lkuBE": {"geometry": {"location": {"lat": 51.5237102, "lng": -0.1585053}, "viewport": {"northeast": {"lat": 51.52508153029151, "lng": -0.157032919708498}, "southwest": {"lat": 51.52238356970851, "lng": -0.159730880291502}}}, "name": "Zipcall", "place_id": "ChIJ9wERM88adkgRchncQ8lkuBE", "types": ["point_of_interest", "establishment"]}, "ChIJq6p2M88adkgRRKY9H9dfHMc": {"geometry": {"location": {"lat": 51.5237102, "lng": -0.1585053}, "viewport": {"northeast": {"lat": 51.52508153029151, "lng": -0.157032919708498}, "southwest": {"lat": 51.52238356970851, "lng": -0.159730880291502}}}, "name": "Sapphire Apartments", "place_id": "ChIJq6p2M88adkgRRKY9H9dfHMc", "types": ["lodging", "point_of_interest", "establishment"], "rating": 5, "user_ratings_total": 1}, "ChIJV37wLc8adkgR6N4iyLwBjHE": {"geometry": {"location": {"lat": 51.523412, "lng": -0.1583435}, "viewport": {"northeast": {"lat": 51.52478148029149, "lng": -0.156881369708498}, "southwest": {"lat": 51.5220835197085, "lng": -0.159579330291502}}}, "name": "Transcom", "place_id": "ChIJV37wLc8adkgR6N4iyLwBjHE", "types": ["point_of_interest", "establishment"]}, "ChIJq2bwLc8adkgRPJIHdmWCYG8": {"geometry": {"location": {"lat": 51.5234113, "lng": -0.158347}, "viewport": {"northeast": {"lat": 51.5247810802915, "lng": -0.156883119708498}, "southwest": {"lat": 51.5220831197085, "lng": -0.159581080291502}}}, "name": "DCIB", "place_id": "ChIJq2bwLc8adkgRPJIHdmWCYG8", "types": ["point_of_interest", "establishment"]}, "ChIJq2bwLc8adkgRsRsBOatSKY4": {"geometry": {"location": {"lat": 51.5234113, "lng": -0.158347}, "viewport": {"northeast": {"lat": 51.5247810802915, "lng": -0.156883119708498}, "southwest": {"lat": 51.5220831197085, "lng": -0.159581080291502}}}, "name": "Kil\u00f3metros C\u00fabicos", "place_id": "ChIJq2bwLc8adkgRsRsBOatSKY4", "types": ["point_of_interest", "establishment"]}, "ChIJAwBjM88adkgRZen4_AxNTV8": {"geometry": {"location": {"lat": 51.5237614, "lng": -0.15854}, "viewport": {"northeast": {"lat": 51.52513363029149, "lng": -0.157062669708498}, "southwest": {"lat": 51.52243566970849, "lng": -0.159760630291502}}}, "name": "Tea Mage Productions", "place_id": "ChIJAwBjM88adkgRZen4_AxNTV8", "types": ["point_of_interest", "establishment"]}, "ChIJAwBjM88adkgRCqlIl4Tkx9Y": {"geometry": {"location": {"lat": 51.5237614, "lng": -0.15854}, "viewport": {"northeast": {"lat": 51.52513363029149, "lng": -0.157062669708498}, "southwest": {"lat": 51.52243566970849, "lng": -0.159760630291502}}}, "name": "FL Sky Pix", "place_id": "ChIJAwBjM88adkgRCqlIl4Tkx9Y", "types": ["point_of_interest", "establishment"]}, "ChIJAwBjM88adkgR11ljntk4ZFA": {"geometry": {"location": {"lat": 51.5237614, "lng": -0.15854}, "viewport": {"northeast": {"lat": 51.52513363029149, "lng": -0.157062669708498}, "southwest": {"lat": 51.52243566970849, "lng": -0.159760630291502}}}, "name": "David Gereda", "place_id": "ChIJAwBjM88adkgR11ljntk4ZFA", "types": ["point_of_interest", "establishment"]}, "ChIJAwBjM88adkgRfclTmd9M5oo": {"geometry": {"location": {"lat": 51.5237614, "lng": -0.15854}, "viewport": {"northeast": {"lat": 51.52513363029149, "lng": -0.157062669708498}, "southwest": {"lat": 51.52243566970849, "lng": -0.159760630291502}}}, "name": "NextPhotoArt", "place_id": "ChIJAwBjM88adkgRfclTmd9M5oo", "types": ["point_of_interest", "establishment"]}, "ChIJAwBjM88adkgRLwKZLoUOhVg": {"geometry": {"location": {"lat": 51.5237614, "lng": -0.15854}, "viewport": {"northeast": {"lat": 51.52513363029149, "lng": -0.157062669708498}, "southwest": {"lat": 51.52243566970849, "lng": -0.159760630291502}}}, "name": "Oman Timber Wolves Ice Hockey Club", "place_id": "ChIJAwBjM88adkgRLwKZLoUOhVg", "types": ["point_of_interest", "establishment"]}, "ChIJAwBjM88adkgR6RzeI-sfxb4": {"geometry": {"location": {"lat": 51.5237614, "lng": -0.15854}, "viewport": {"northeast": {"lat": 51.52513363029149, "lng": -0.157062669708498}, "southwest": {"lat": 51.52243566970849, "lng": -0.159760630291502}}}, "name": "BCBA Connect", "place_id": "ChIJAwBjM88adkgR6RzeI-sfxb4", "types": ["point_of_interest", "establishment"]}, "ChIJ1VlB2M4adkgRFuIshtWft8I": {"geometry": {"location": {"lat": 51.52271855003244, "lng": -0.1577655496506042}, "viewport": {"northeast": {"lat": 51.5240675302915, "lng": -0.156416569708498}, "southwest": {"lat": 51.5213695697085, "lng": -0.159114530291502}}}, "name": "202-190 A41", "place_id": "ChIJ1VlB2M4adkgRFuIshtWft8I", "types": ["route"]}, "ChIJw5yi1s4adkgRu3G2lTBmaRM": {"geometry": {"location": {"lat": 51.5227406, "lng": -0.1579607}, "viewport": {"northeast": {"lat": 51.5241066802915, "lng": -0.156527419708498}, "southwest": {"lat": 51.5214087197085, "lng": -0.159225380291502}}}, "name": "Subway", "place_id": "ChIJw5yi1s4adkgRu3G2lTBmaRM", "types": ["meal_takeaway", "restaurant", "food", "point_of_interest", "establishment"], "rating": 3.6, "user_ratings_total": 284}, "ChIJTfzX084adkgR0BwhCGY0gIk": {"geometry": {"location": {"lat": 51.5223166, "lng": -0.1577652}, "viewport": {"northeast": {"lat": 51.52368068029151, "lng": -0.156327819708498}, "southwest": {"lat": 51.52098271970851, "lng": -0.159025780291502}}}, "name": "Lloyds Bank", "place_id": "ChIJTfzX084adkgR0BwhCGY0gIk", "types": ["bank", "atm", "finance", "point_of_interest", "establishment"], "rating": 3.3, "user_ratings_total": 21}, "ChIJw5yi1s4adkgR3qYM9VK2LaE": {"geometry": {"location": {"lat": 51.52277840000001, "lng": -0.1581913}, "viewport": {"northeast": {"lat": 51.52416143029151, "lng": -0.1566600197084979}, "southwest": {"lat": 51.52146346970851, "lng": -0.159357980291502}}}, "name": "Nambu-Tei", "place_id": "ChIJw5yi1s4adkgR3qYM9VK2LaE", "types": ["restaurant", "food", "point_of_interest", "establishment"], "rating": 4.4, "user_ratings_total": 346}, "ChIJu8CkIM8adkgRj6SLiI6IEpo": {"geometry": {"location": {"lat": 51.5228189, "lng": -0.1576466}, "viewport": {"northeast": {"lat": 51.5241535802915, "lng": -0.156374119708498}, "southwest": {"lat": 51.5214556197085, "lng": -0.159072080291502}}}, "name": "Boots", "place_id": "ChIJu8CkIM8adkgRj6SLiI6IEpo", "types": ["point_of_interest", "store", "establishment"], "rating": 4.2, "user_ratings_total": 103}, "ChIJ8bsd_s4adkgRdKJwMIKEh3E": {"geometry": {"location": {"lat": 51.5223516, "lng": -0.1572642}, "viewport": {"northeast": {"lat": 51.52367383029151, "lng": -0.156066169708498}, "southwest": {"lat": 51.52097586970851, "lng": -0.158764130291502}}}, "name": "eurochange Baker Street Tube Station (becoming NM Money)", "place_id": "ChIJ8bsd_s4adkgRdKJwMIKEh3E", "types": ["atm", "finance", "point_of_interest", "store", "establishment"], "rating": 2.4, "user_ratings_total": 10}, "ChIJTfzX084adkgRDFGsCd1uyvw": {"geometry": {"location": {"lat": 51.52224599999999, "lng": -0.1582007}, "viewport": {"northeast": {"lat": 51.5236323302915, "lng": -0.157081819708498}, "southwest": {"lat": 51.5209343697085, "lng": -0.159779780291502}}}, "name": "Net House", "place_id": "ChIJTfzX084adkgRDFGsCd1uyvw", "types": ["finance", "point_of_interest", "establishment"], "rating": 3.2, "user_ratings_total": 46}, "ChIJDcT00c4adkgRSSH1Gwn7yo8": {"geometry": {"location": {"lat": 51.5221977, "lng": -0.1581625}, "viewport": {"northeast": {"lat": 51.52360693029151, "lng": -0.157062719708498}, "southwest": {"lat": 51.52090896970851, "lng": -0.159760680291502}}}, "name": "Thai Spa", "place_id": "ChIJDcT00c4adkgRSSH1Gwn7yo8", "types": ["health", "point_of_interest", "store", "establishment"], "rating": 3.9, "user_ratings_total": 46}, "ChIJ3ceZitMadkgRPYSRWIDV1tw": {"geometry": {"location": {"lat": 51.5225582, "lng": -0.1583144}, "viewport": {"northeast": {"lat": 51.52383048029149, "lng": -0.157210719708498}, "southwest": {"lat": 51.5211325197085, "lng": -0.159908680291502}}}, "name": "The London Tinnitus Treatment Clinic", "place_id": "ChIJ3ceZitMadkgRPYSRWIDV1tw", "types": ["doctor", "health", "point_of_interest", "store", "establishment"], "rating": 5, "user_ratings_total": 3}, "ChIJ3Spy184adkgRhdOyfkbnniI": {"geometry": {"location": {"lat": 51.52259139999999, "lng": -0.1579937}, "viewport": {"northeast": {"lat": 51.52396523029149, "lng": -0.156511669708498}, "southwest": {"lat": 51.52126726970849, "lng": -0.159209630291502}}}, "name": "L'Antica Pizzeria da Michele", "place_id": "ChIJ3Spy184adkgRhdOyfkbnniI", "types": ["restaurant", "food", "point_of_interest", "establishment"], "rating": 4.4, "user_ratings_total": 3267}, "ChIJWRBxxM4adkgR5ndkelIDojs": {"geometry": {"location": {"lat": 51.5226739, "lng": -0.1580229}, "viewport": {"northeast": {"lat": 51.5240468302915, "lng": -0.156545769708498}, "southwest": {"lat": 51.5213488697085, "lng": -0.159243730291502}}}, "name": "American Dry Cleaning Company", "place_id": "ChIJWRBxxM4adkgR5ndkelIDojs", "types": ["laundry", "point_of_interest", "establishment"], "rating": 4.1, "user_ratings_total": 50}, "ChIJR0ig3s4adkgRtfe6I1sDJCA": {"geometry": {"location": {"lat": 51.52246699999999, "lng": -0.1574698}, "viewport": {"northeast": {"lat": 51.52380173029149, "lng": -0.156201119708498}, "southwest": {"lat": 51.5211037697085, "lng": -0.158899080291502}}}, "name": "Live Shot Photo Booth", "place_id": "ChIJR0ig3s4adkgRtfe6I1sDJCA", "types": ["food", "point_of_interest", "establishment"], "rating": 5, "user_ratings_total": 48}, "ChIJ4xQoKM8adkgR5LAjpj5lCGU": {"geometry": {"location": {"lat": 51.52279129999999, "lng": -0.1580682}, "viewport": {"northeast": {"lat": 51.5242377802915, "lng": -0.156599069708498}, "southwest": {"lat": 51.5215398197085, "lng": -0.159297030291502}}}, "name": "Western Union", "place_id": "ChIJ4xQoKM8adkgR5LAjpj5lCGU", "types": ["finance", "point_of_interest", "establishment"], "rating": 2.6, "user_ratings_total": 14}, "ChIJS_zX084adkgRX5-1j4Swlpc": {"geometry": {"location": {"lat": 51.52283549999999, "lng": -0.1580768}, "viewport": {"northeast": {"lat": 51.5242063802915, "lng": -0.156610719708498}, "southwest": {"lat": 51.5215084197085, "lng": -0.159308680291502}}}, "name": "Natural Ways", "place_id": "ChIJS_zX084adkgRX5-1j4Swlpc", "types": ["health", "point_of_interest", "establishment"], "rating": 3.1, "user_ratings_total": 16}, "ChIJ5Vj-3c4adkgRIRWKtBxUW6A": {"geometry": {"location": {"lat": 51.52250789999999, "lng": -0.1572357}, "viewport": {"northeast": {"lat": 51.5238029802915, "lng": -0.155799569708498}, "southwest": {"lat": 51.5211050197085, "lng": -0.158497530291502}}}, "name": "Accessorize", "place_id": "ChIJ5Vj-3c4adkgRIRWKtBxUW6A", "types": ["jewelry_store", "point_of_interest", "clothing_store", "store", "establishment"], "rating": 4.3, "user_ratings_total": 7}, "ChIJ7ynYm84adkgR5Qabt_shr3o": {"geometry": {"location": {"lat": 51.52250850000001, "lng": -0.1572217}, "viewport": {"northeast": {"lat": 51.52379863029151, "lng": -0.155803719708498}, "southwest": {"lat": 51.52110066970851, "lng": -0.1585016802915021}}}, "name": "Krispy Kreme Baker Street", "place_id": "ChIJ7ynYm84adkgR5Qabt_shr3o", "types": ["bakery", "food", "point_of_interest", "store", "establishment"], "rating": 4.1, "user_ratings_total": 96}, "ChIJ5_HcBrEadkgRMros6Sw2oAU": {"geometry": {"location": {"lat": 51.5225582, "lng": -0.1583144}, "viewport": {"northeast": {"lat": 51.52383048029149, "lng": -0.157210719708498}, "southwest": {"lat": 51.5211325197085, "lng": -0.159908680291502}}}, "name": "Ratchada Thai Therapy", "place_id": "ChIJ5_HcBrEadkgRMros6Sw2oAU", "types": ["spa", "point_of_interest", "establishment"], "rating": 4.4, "user_ratings_total": 31}, "ChIJm2qd5s4adkgReuAEf2LKzWo": {"geometry": {"location": {"lat": 51.5223948, "lng": -0.1571867}, "viewport": {"northeast": {"lat": 51.5237368802915, "lng": -0.155823769708498}, "southwest": {"lat": 51.5210389197085, "lng": -0.158521730291502}}}, "name": "Big Bus Tours", "place_id": "ChIJm2qd5s4adkgReuAEf2LKzWo", "types": ["travel_agency", "point_of_interest", "establishment"], "rating": 3.8, "user_ratings_total": 138}, "ChIJS_zX084adkgRXW8Xy6Oo2t8": {"geometry": {"location": {"lat": 51.522555, "lng": -0.1583681}, "viewport": {"northeast": {"lat": 51.5238288802915, "lng": -0.157239019708498}, "southwest": {"lat": 51.5211309197085, "lng": -0.159936980291502}}}, "name": "O V C Media Ltd", "place_id": "ChIJS_zX084adkgRXW8Xy6Oo2t8", "types": ["point_of_interest", "establishment"]}, "ChIJfSwlMM8adkgRj1Z3WMG2dIw": {"geometry": {"location": {"lat": 51.5230133, "lng": -0.157712}, "viewport": {"northeast": {"lat": 51.52434563029149, "lng": -0.156452519708498}, "southwest": {"lat": 51.5216476697085, "lng": -0.159150480291502}}}, "name": "Easyjet Luton Bus", "place_id": "ChIJfSwlMM8adkgRj1Z3WMG2dIw", "types": ["point_of_interest", "establishment"], "rating": 2.2, "user_ratings_total": 10}, "ChIJHYOw3s4adkgRnNLjkkO_ZZk": {"geometry": {"location": {"lat": 51.5225351, "lng": -0.1570299}, "viewport": {"northeast": {"lat": 51.5238840802915, "lng": -0.155680919708498}, "southwest": {"lat": 51.5211861197085, "lng": -0.158378880291502}}}, "name": "Marylebone Removals", "place_id": "ChIJHYOw3s4adkgRnNLjkkO_ZZk", "types": ["point_of_interest", "store", "establishment"]}, "ChIJIT7w184adkgR_I87pqRZWT4": {"geometry": {"location": {"lat": 51.52256099999999, "lng": -0.157959}, "viewport": {"northeast": {"lat": 51.52393313029149, "lng": -0.156486169708498}, "southwest": {"lat": 51.5212351697085, "lng": -0.159184130291502}}}, "name": "CITY HAIR", "place_id": "ChIJIT7w184adkgR_I87pqRZWT4", "types": ["hair_care", "point_of_interest", "establishment"], "rating": 4.5, "user_ratings_total": 386}, "ChIJbS183c4adkgRJ2pTY3ULmbs": {"geometry": {"location": {"lat": 51.5222159, "lng": -0.1581273}, "viewport": {"northeast": {"lat": 51.5236123802915, "lng": -0.157045119708498}, "southwest": {"lat": 51.5209144197085, "lng": -0.159743080291502}}}, "name": "\u041a\u043e\u0440\u043e\u043b\u0435\u0432\u0441\u043a\u0438\u0439 \u0414\u0443\u0431", "place_id": "ChIJbS183c4adkgRJ2pTY3ULmbs", "types": ["point_of_interest", "establishment"]}, "ChIJTfzX084adkgRIgRwqQQQP88": {"geometry": {"location": {"lat": 51.52221780000001, "lng": -0.1581004}, "viewport": {"northeast": {"lat": 51.5235079302915, "lng": -0.156725369708498}, "southwest": {"lat": 51.5208099697085, "lng": -0.159423330291502}}}, "name": "Arizona Lounge", "place_id": "ChIJTfzX084adkgRIgRwqQQQP88", "types": ["night_club", "bar", "restaurant", "food", "point_of_interest", "establishment"], "rating": 3.1, "user_ratings_total": 29}, "ChIJjzSmws4adkgRbAm4DUue7U8": {"geometry": {"location": {"lat": 51.5221854, "lng": -0.1572385}, "viewport": {"northeast": {"lat": 51.5235508802915, "lng": -0.155896319708498}, "southwest": {"lat": 51.5208529197085, "lng": -0.158594280291502}}}, "name": "The Wonderpass", "place_id": "ChIJjzSmws4adkgRbAm4DUue7U8", "types": ["tourist_attraction", "point_of_interest", "establishment"], "rating": 3.9, "user_ratings_total": 21}, "ChIJw5yi1s4adkgRJvDXORsKbcU": {"geometry": {"location": {"lat": 51.522956, "lng": -0.1580871}, "viewport": {"northeast": {"lat": 51.5243565302915, "lng": -0.156741469708498}, "southwest": {"lat": 51.52165856970851, "lng": -0.159439430291502}}}, "name": "Pret A Manger", "place_id": "ChIJw5yi1s4adkgRJvDXORsKbcU", "types": ["cafe", "restaurant", "food", "point_of_interest", "store", "establishment"], "rating": 4.2, "user_ratings_total": 705}, "ChIJw5yi1s4adkgRxYIVqokxvmA": {"geometry": {"location": {"lat": 51.522438, "lng": -0.1579065}, "viewport": {"northeast": {"lat": 51.5240611302915, "lng": -0.156514719708498}, "southwest": {"lat": 51.5213631697085, "lng": -0.159212680291502}}}, "name": "Fraser & Co Marylebone Estate Agents", "place_id": "ChIJw5yi1s4adkgRxYIVqokxvmA", "types": ["real_estate_agency", "point_of_interest", "establishment"], "rating": 3.6, "user_ratings_total": 39}, "ChIJw5yi1s4adkgR2ATqVHiyp-0": {"geometry": {"location": {"lat": 51.52292059999999, "lng": -0.1583152}, "viewport": {"northeast": {"lat": 51.5243165802915, "lng": -0.156987719708498}, "southwest": {"lat": 51.5216186197085, "lng": -0.159685680291502}}}, "name": "Haru", "place_id": "ChIJw5yi1s4adkgR2ATqVHiyp-0", "types": ["restaurant", "food", "point_of_interest", "store", "establishment"], "rating": 4.6, "user_ratings_total": 48}, "ChIJle1wxI4bdkgRHTL0LbGySMU": {"geometry": {"location": {"lat": 51.5225909, "lng": -0.1575063}, "viewport": {"northeast": {"lat": 51.5239229802915, "lng": -0.156247719708498}, "southwest": {"lat": 51.5212250197085, "lng": -0.158945680291502}}}, "name": "CoOp 190 Baker Street", "place_id": "ChIJle1wxI4bdkgRHTL0LbGySMU", "types": ["grocery_or_supermarket", "food", "point_of_interest", "store", "establishment"], "rating": 4, "user_ratings_total": 1}, "ChIJU7mR2M4adkgRzItsF9B-aqw": {"geometry": {"location": {"lat": 51.5227448, "lng": -0.1576819}, "viewport": {"northeast": {"lat": 51.5240864302915, "lng": -0.156377269708498}, "southwest": {"lat": 51.5213884697085, "lng": -0.159075230291502}}}, "name": "Baker Street Station (Stop B)", "place_id": "ChIJU7mR2M4adkgRzItsF9B-aqw", "types": ["bus_station", "transit_station", "point_of_interest", "establishment"], "rating": 4, "user_ratings_total": 3}, "ChIJazxRK7sbdkgRxqrYsCg7snU": {"geometry": {"location": {"lat": 51.5227271, "lng": -0.1575868000000001}, "viewport": {"northeast": {"lat": 51.5240604802915, "lng": -0.156321469708498}, "southwest": {"lat": 51.5213625197085, "lng": -0.1590194302915021}}}, "name": "The Station Arcade", "place_id": "ChIJazxRK7sbdkgRxqrYsCg7snU", "types": ["shopping_mall", "point_of_interest", "establishment"]}, "ChIJGV0acjQbdkgRu14xiJaiS5g": {"geometry": {"location": {"lat": 51.5224985, "lng": -0.1579115}, "viewport": {"northeast": {"lat": 51.52386913029149, "lng": -0.156446619708498}, "southwest": {"lat": 51.5211711697085, "lng": -0.159144580291502}}}, "name": "Siirgista Bros", "place_id": "ChIJGV0acjQbdkgRu14xiJaiS5g", "types": ["restaurant", "food", "point_of_interest", "establishment"], "rating": 4.1, "user_ratings_total": 436}, "ChIJYR__2c4adkgROlBgwMp-Sfg": {"geometry": {"location": {"lat": 51.52246760000001, "lng": -0.1579063}, "viewport": {"northeast": {"lat": 51.5240759302915, "lng": -0.156521119708498}, "southwest": {"lat": 51.5213779697085, "lng": -0.159219080291502}}}, "name": "DUNKIN\u2019 Baker St", "place_id": "ChIJYR__2c4adkgROlBgwMp-Sfg", "types": ["bakery", "cafe", "food", "point_of_interest", "store", "establishment"], "rating": 4.3, "user_ratings_total": 564}, "ChIJ20qqM1sbdkgRVeUjPplBcLI": {"geometry": {"location": {"lat": 51.5226903, "lng": -0.1574562}, "viewport": {"northeast": {"lat": 51.5240139802915, "lng": -0.156242619708498}, "southwest": {"lat": 51.5213160197085, "lng": -0.158940580291502}}}, "name": "Chiltern Court", "place_id": "ChIJ20qqM1sbdkgRVeUjPplBcLI", "types": ["point_of_interest", "establishment"]}, "ChIJG0upAyEbdkgRjoBn48x8S7s": {"geometry": {"location": {"lat": 51.5226815, "lng": -0.1574474}, "viewport": {"northeast": {"lat": 51.52400478029151, "lng": -0.156235919708498}, "southwest": {"lat": 51.52130681970851, "lng": -0.158933880291502}}}, "name": "Five Guys", "place_id": "ChIJG0upAyEbdkgRjoBn48x8S7s", "types": ["meal_takeaway", "restaurant", "food", "point_of_interest", "establishment"], "rating": 4.5, "user_ratings_total": 182}, "ChIJKbH3184adkgRD9wBY57NB9Y": {"geometry": {"location": {"lat": 51.5227374, "lng": -0.1579323}, "viewport": {"northeast": {"lat": 51.52409993029151, "lng": -0.156510769708498}, "southwest": {"lat": 51.52140196970851, "lng": -0.159208730291502}}}, "name": "Financial Counseling Services Ltd", "place_id": "ChIJKbH3184adkgRD9wBY57NB9Y", "types": ["finance", "point_of_interest", "establishment"]}, "ChIJY4VfS1UbdkgRAx3gknQuIsA": {"geometry": {"location": {"lat": 51.522413, "lng": -0.157618}, "viewport": {"northeast": {"lat": 51.5237705302915, "lng": -0.156220919708498}, "southwest": {"lat": 51.5210725697085, "lng": -0.158918880291502}}}, "name": "Hot Tub Movers Marylebone", "place_id": "ChIJY4VfS1UbdkgRAx3gknQuIsA", "types": ["point_of_interest", "establishment"]}, "ChIJR0ig3s4adkgRAH3RTpYSwao": {"geometry": {"location": {"lat": 51.52246699999999, "lng": -0.1574698}, "viewport": {"northeast": {"lat": 51.52380173029149, "lng": -0.156201119708498}, "southwest": {"lat": 51.5211037697085, "lng": -0.158899080291502}}}, "name": "Laz Partners", "place_id": "ChIJR0ig3s4adkgRAH3RTpYSwao", "types": ["point_of_interest", "establishment"]}, "ChIJETQg0i8bdkgRM-r_f3BVKt4": {"geometry": {"location": {"lat": 51.52246699999999, "lng": -0.1574698}, "viewport": {"northeast": {"lat": 51.52380173029149, "lng": -0.156201119708498}, "southwest": {"lat": 51.5211037697085, "lng": -0.158899080291502}}}, "name": "7X Design", "place_id": "ChIJETQg0i8bdkgRM-r_f3BVKt4", "types": ["point_of_interest", "establishment"]}, "ChIJY2Kd3s4adkgRj81s0yX_vi4": {"geometry": {"location": {"lat": 51.52246699999999, "lng": -0.1574698}, "viewport": {"northeast": {"lat": 51.52380173029149, "lng": -0.156201119708498}, "southwest": {"lat": 51.5211037697085, "lng": -0.158899080291502}}}, "name": "Longshot Systems Ltd", "place_id": "ChIJY2Kd3s4adkgRj81s0yX_vi4", "types": ["point_of_interest", "establishment"]}, "ChIJR6H_7q0bdkgRBcVgCwIWUWA": {"geometry": {"location": {"lat": 51.5227858, "lng": -0.1575554}, "viewport": {"northeast": {"lat": 51.52411413029149, "lng": -0.156317719708498}, "southwest": {"lat": 51.52141616970849, "lng": -0.159015680291502}}}, "name": "Baker Street News & Convenience", "place_id": "ChIJR6H_7q0bdkgRBcVgCwIWUWA", "types": ["convenience_store", "food", "point_of_interest", "store", "establishment"], "rating": 4, "user_ratings_total": 3}, "ChIJZd_HDjYbdkgRohvomQu2ryU": {"geometry": {"location": {"lat": 51.5227743, "lng": -0.1580137}, "viewport": {"northeast": {"lat": 51.5242292802915, "lng": -0.156593119708498}, "southwest": {"lat": 51.5215313197085, "lng": -0.159291080291502}}}, "name": "tSmart", "place_id": "ChIJZd_HDjYbdkgRohvomQu2ryU", "types": ["point_of_interest", "store", "establishment"], "rating": 5, "user_ratings_total": 11}, "ChIJ78YcKM8adkgR2a6Mb8gVOj4": {"geometry": {"location": {"lat": 51.52279979999999, "lng": -0.1580167}, "viewport": {"northeast": {"lat": 51.5241669802915, "lng": -0.1565702697084979}, "southwest": {"lat": 51.5214690197085, "lng": -0.159268230291502}}}, "name": "Cec", "place_id": "ChIJ78YcKM8adkgR2a6Mb8gVOj4", "types": ["point_of_interest", "establishment"]}, "ChIJ-7EnKM8adkgRKqi-Kp1YEEE": {"geometry": {"location": {"lat": 51.52279550000001, "lng": -0.1580548}, "viewport": {"northeast": {"lat": 51.5241661302915, "lng": -0.156589919708498}, "southwest": {"lat": 51.5214681697085, "lng": -0.1592878802915021}}}, "name": "Currency Exchange Corporation Baker Street", "place_id": "ChIJ-7EnKM8adkgRKqi-Kp1YEEE", "types": ["finance", "point_of_interest", "establishment"], "rating": 4.8, "user_ratings_total": 16}, "ChIJbU7fqvsbdkgRDCf7DGxu0Bg": {"geometry": {"location": {"lat": 51.52288850000001, "lng": -0.1576376}, "viewport": {"northeast": {"lat": 51.5242195302915, "lng": -0.156384669708498}, "southwest": {"lat": 51.5215215697085, "lng": -0.159082630291502}}}, "name": "Diouri Voyages", "place_id": "ChIJbU7fqvsbdkgRDCf7DGxu0Bg", "types": ["travel_agency", "point_of_interest", "establishment"]}, "ChIJPejmL88adkgRWUNsmPKe6rE": {"geometry": {"location": {"lat": 51.522842, "lng": -0.157981}, "viewport": {"northeast": {"lat": 51.5241878302915, "lng": -0.156553969708498}, "southwest": {"lat": 51.5214898697085, "lng": -0.159251930291502}}}, "name": "Baker Street Station (Stop C)", "place_id": "ChIJPejmL88adkgRWUNsmPKe6rE", "types": ["bus_station", "transit_station", "point_of_interest", "establishment"], "rating": 3.5, "user_ratings_total": 2}, "ChIJn0ufMOobdkgRZdO149ObQ2I": {"geometry": {"location": {"lat": 51.5228848, "lng": -0.1575845}, "viewport": {"northeast": {"lat": 51.52421143029149, "lng": -0.156355119708498}, "southwest": {"lat": 51.5215134697085, "lng": -0.159053080291502}}}, "name": "Melonie Seed", "place_id": "ChIJn0ufMOobdkgRZdO149ObQ2I", "types": ["food", "point_of_interest", "establishment"]}, "ChIJqWl42s4adkgRJP37LYJ5PXI": {"geometry": {"location": {"lat": 51.5223281, "lng": -0.1579176}, "viewport": {"northeast": {"lat": 51.5237047802915, "lng": -0.156412419708498}, "southwest": {"lat": 51.5210068197085, "lng": -0.159110380291502}}}, "name": "dunne global recruitment", "place_id": "ChIJqWl42s4adkgRJP37LYJ5PXI", "types": ["point_of_interest", "establishment"]}, "ChIJmT4u3s4adkgR5WdTgHAzJVA": {"geometry": {"location": {"lat": 51.5225969, "lng": -0.15723}, "viewport": {"northeast": {"lat": 51.5238468302915, "lng": -0.155800769708498}, "southwest": {"lat": 51.5211488697085, "lng": -0.158498730291502}}}, "name": "The Town (sandwich and coffee shop)", "place_id": "ChIJmT4u3s4adkgR5WdTgHAzJVA", "types": ["cafe", "food", "point_of_interest", "store", "establishment"], "rating": 3.8, "user_ratings_total": 4}, "ChIJUUQ9J88adkgRaqoVHhcBLUI": {"geometry": {"location": {"lat": 51.5229071, "lng": -0.1576463}, "viewport": {"northeast": {"lat": 51.52423813029149, "lng": -0.156393519708498}, "southwest": {"lat": 51.52154016970849, "lng": -0.159091480291502}}}, "name": "GPEFF", "place_id": "ChIJUUQ9J88adkgRaqoVHhcBLUI", "types": ["point_of_interest", "establishment"]}, "ChIJFTNnef4bdkgRa_bqqvdT1b0": {"geometry": {"location": {"lat": 51.52254079999999, "lng": -0.158229}, "viewport": {"northeast": {"lat": 51.5239368802915, "lng": -0.1566278697084979}, "southwest": {"lat": 51.5212389197085, "lng": -0.159325830291502}}}, "name": "Taco Bell", "place_id": "ChIJFTNnef4bdkgRa_bqqvdT1b0", "types": ["meal_takeaway", "restaurant", "food", "point_of_interest", "establishment"], "rating": 3.7, "user_ratings_total": 39}, "ChIJgyxJ2s4adkgRGqTuSVTEXew": {"geometry": {"location": {"lat": 51.52226839999999, "lng": -0.1578777}, "viewport": {"northeast": {"lat": 51.5236440302915, "lng": -0.156378319708498}, "southwest": {"lat": 51.5209460697085, "lng": -0.159076280291502}}}, "name": "Lloyds Bank ATM", "place_id": "ChIJgyxJ2s4adkgRGqTuSVTEXew", "types": ["atm", "finance", "point_of_interest", "establishment"], "rating": 5, "user_ratings_total": 1}, "ChIJz5yi1s4adkgR77ww_Hr3PYQ": {"geometry": {"location": {"lat": 51.522559, "lng": -0.158308}, "viewport": {"northeast": {"lat": 51.5238308802915, "lng": -0.157207419708498}, "southwest": {"lat": 51.52113291970851, "lng": -0.159905380291502}}}, "name": "Robert Scott", "place_id": "ChIJz5yi1s4adkgR77ww_Hr3PYQ", "types": ["clothing_store", "point_of_interest", "store", "establishment"], "rating": 2.2, "user_ratings_total": 37}, "ChIJhecf0s4adkgR9-mWGVcz0kk": {"geometry": {"location": {"lat": 51.522559, "lng": -0.158308}, "viewport": {"northeast": {"lat": 51.5238308802915, "lng": -0.157207419708498}, "southwest": {"lat": 51.52113291970851, "lng": -0.159905380291502}}}, "name": "Ole", "place_id": "ChIJhecf0s4adkgR9-mWGVcz0kk", "types": ["bar", "restaurant", "food", "point_of_interest", "establishment"], "rating": 4, "user_ratings_total": 1}, "ChIJCYpUv2kbdkgRh4aQ0kYhBgc": {"geometry": {"location": {"lat": 51.5225582, "lng": -0.1583144}, "viewport": {"northeast": {"lat": 51.52383048029149, "lng": -0.157210719708498}, "southwest": {"lat": 51.5211325197085, "lng": -0.159908680291502}}}, "name": "Baker Street Beauty Ltd", "place_id": "ChIJCYpUv2kbdkgRh4aQ0kYhBgc", "types": ["beauty_salon", "hair_care", "spa", "point_of_interest", "establishment"], "rating": 4.3, "user_ratings_total": 6}, "ChIJkwHnKc8adkgRcA9Irup_sPM": {"geometry": {"location": {"lat": 51.5228162, "lng": -0.1582124}, "viewport": {"northeast": {"lat": 51.52426888029149, "lng": -0.156841569708498}, "southwest": {"lat": 51.5215709197085, "lng": -0.159539530291502}}}, "name": "TRADER CAPITAL", "place_id": "ChIJkwHnKc8adkgRcA9Irup_sPM", "types": ["point_of_interest", "establishment"]}, "ChIJ4-Qx3M4adkgRUM89aeWAoTY": {"geometry": {"location": {"lat": 51.5223413, "lng": -0.157282}, "viewport": {"northeast": {"lat": 51.5236902802915, "lng": -0.155933019708498}, "southwest": {"lat": 51.5209923197085, "lng": -0.158630980291502}}}, "name": "Western Union", "place_id": "ChIJ4-Qx3M4adkgRUM89aeWAoTY", "types": ["finance", "point_of_interest", "establishment"]}, "ChIJAQBQwTQFdkgRbqLmnEupDPc": {"geometry": {"location": {"lat": 51.522567, "lng": -0.158329}, "viewport": {"northeast": {"lat": 51.5238719802915, "lng": -0.157220519708498}, "southwest": {"lat": 51.5211740197085, "lng": -0.159918480291502}}}, "name": "THE REAL PROPERTY EXPERTS", "place_id": "ChIJAQBQwTQFdkgRbqLmnEupDPc", "types": ["finance", "real_estate_agency", "point_of_interest", "establishment"], "rating": 4.7, "user_ratings_total": 48}, "ChIJiZPhC80bdkgRTlSqs-f6OZM": {"geometry": {"location": {"lat": 51.5229863, "lng": -0.157894}, "viewport": {"northeast": {"lat": 51.5243352802915, "lng": -0.156545019708498}, "southwest": {"lat": 51.5216373197085, "lng": -0.1592429802915021}}}, "name": "Oaksdale Roofing and Building", "place_id": "ChIJiZPhC80bdkgRTlSqs-f6OZM", "types": ["roofing_contractor", "point_of_interest", "establishment"]}, "ChIJibwpzM4adkgRD3L_R2elR58": {"geometry": {"location": {"lat": 51.52200360010801, "lng": -0.1579290000994079}, "viewport": {"northeast": {"lat": 51.5233525802915, "lng": -0.156580019708498}, "southwest": {"lat": 51.5206546197085, "lng": -0.159277980291502}}}, "name": "65-73 Marylebone Rd", "place_id": "ChIJibwpzM4adkgRD3L_R2elR58", "types": ["route"]}, "ChIJX1Pnv84adkgRXabjTIuMrHk": {"geometry": {"location": {"lat": 51.521314, "lng": -0.15745}, "viewport": {"northeast": {"lat": 51.5226895802915, "lng": -0.155951419708498}, "southwest": {"lat": 51.5199916197085, "lng": -0.158649380291502}}}, "name": "Nando's Baker Street", "place_id": "ChIJX1Pnv84adkgRXabjTIuMrHk", "types": ["restaurant", "food", "point_of_interest", "establishment"], "rating": 4.3, "user_ratings_total": 2585}, "ChIJbYAVxM4adkgRjyJYD0dMFL8": {"geometry": {"location": {"lat": 51.5218479, "lng": -0.1576029}, "viewport": {"northeast": {"lat": 51.5233099302915, "lng": -0.156193969708498}, "southwest": {"lat": 51.5206119697085, "lng": -0.158891930291502}}}, "name": "Pizza Express", "place_id": "ChIJbYAVxM4adkgRjyJYD0dMFL8", "types": ["meal_takeaway", "restaurant", "food", "point_of_interest", "establishment"], "rating": 4, "user_ratings_total": 1035}, "ChIJC9M9vs4adkgRWlcTjNAo5OU": {"geometry": {"location": {"lat": 51.52121509999999, "lng": -0.157265}, "viewport": {"northeast": {"lat": 51.52258743029149, "lng": -0.155836769708498}, "southwest": {"lat": 51.5198894697085, "lng": -0.158534730291502}}}, "name": "Baker Street Post Office", "place_id": "ChIJC9M9vs4adkgRWlcTjNAo5OU", "types": ["post_office", "finance", "point_of_interest", "establishment"], "rating": 2.6, "user_ratings_total": 71}, "ChIJr-Y46s4adkgRJ3ZiQs-ONSQ": {"geometry": {"location": {"lat": 51.52169720000001, "lng": -0.1571508}, "viewport": {"northeast": {"lat": 51.5230329802915, "lng": -0.155872819708498}, "southwest": {"lat": 51.5203350197085, "lng": -0.158570780291502}}}, "name": "KFC London", "place_id": "ChIJr-Y46s4adkgRJ3ZiQs-ONSQ", "types": ["meal_takeaway", "restaurant", "food", "point_of_interest", "establishment"], "rating": 3.4, "user_ratings_total": 1681}, "ChIJUwQq684adkgRRvmVocaGVds": {"geometry": {"location": {"lat": 51.5214533, "lng": -0.1569751}, "viewport": {"northeast": {"lat": 51.5227839802915, "lng": -0.155725719708498}, "southwest": {"lat": 51.5200860197085, "lng": -0.158423680291502}}}, "name": "BJK SOLUTIONS LTD", "place_id": "ChIJUwQq684adkgRRvmVocaGVds", "types": ["point_of_interest", "establishment"]}, "ChIJIzGhlM4adkgRDY22OARVE5s": {"geometry": {"location": {"lat": 51.52138360000001, "lng": -0.156954}, "viewport": {"northeast": {"lat": 51.52269218029151, "lng": -0.155690319708498}, "southwest": {"lat": 51.51999421970851, "lng": -0.158388280291502}}}, "name": "McDonald's Baker Street", "place_id": "ChIJIzGhlM4adkgRDY22OARVE5s", "types": ["restaurant", "meal_takeaway", "food", "point_of_interest", "establishment"], "rating": 3.8, "user_ratings_total": 2130}, "ChIJYwDpuM4adkgR8wze-1Y7pwQ": {"geometry": {"location": {"lat": 51.52138299999999, "lng": -0.1576656}, "viewport": {"northeast": {"lat": 51.52275133029151, "lng": -0.156333719708498}, "southwest": {"lat": 51.52005336970851, "lng": -0.159031680291502}}}, "name": "International Hair Studio", "place_id": "ChIJYwDpuM4adkgR8wze-1Y7pwQ", "types": ["hair_care", "health", "point_of_interest", "establishment"], "rating": 4.3, "user_ratings_total": 36}, "ChIJ1drxw84adkgRith-msJhyGc": {"geometry": {"location": {"lat": 51.5216784, "lng": -0.1575971}, "viewport": {"northeast": {"lat": 51.52305788029149, "lng": -0.156109769708498}, "southwest": {"lat": 51.5203599197085, "lng": -0.158807730291502}}}, "name": "Fishman & Co", "place_id": "ChIJ1drxw84adkgRith-msJhyGc", "types": ["lawyer", "point_of_interest", "establishment"]}, "ChIJd_1sM-8adkgRfxfiH2Lon_M": {"geometry": {"location": {"lat": 51.5213704, "lng": -0.1575264}, "viewport": {"northeast": {"lat": 51.5227510302915, "lng": -0.156005369708498}, "southwest": {"lat": 51.5200530697085, "lng": -0.158703330291502}}}, "name": "Two:D Limited", "place_id": "ChIJd_1sM-8adkgRfxfiH2Lon_M", "types": ["general_contractor", "point_of_interest", "establishment"]}, "ChIJd-HTxs4adkgRg6b5wim_gUY": {"geometry": {"location": {"lat": 51.52166669999999, "lng": -0.1575}, "viewport": {"northeast": {"lat": 51.52298193029149, "lng": -0.156033519708498}, "southwest": {"lat": 51.52028396970849, "lng": -0.158731480291502}}}, "name": "Bill's Baker Street Restaurant", "place_id": "ChIJd-HTxs4adkgRg6b5wim_gUY", "types": ["cafe", "restaurant", "food", "point_of_interest", "establishment"], "rating": 4.2, "user_ratings_total": 1942}, "ChIJcc8YIcwadkgRlZm4urXfeLM": {"geometry": {"location": {"lat": 51.5213704, "lng": -0.1575264}, "viewport": {"northeast": {"lat": 51.5227510302915, "lng": -0.156005369708498}, "southwest": {"lat": 51.5200530697085, "lng": -0.158703330291502}}}, "name": "Sub2 Technologies Ltd", "place_id": "ChIJcc8YIcwadkgRlZm4urXfeLM", "types": ["point_of_interest", "establishment"], "rating": 3.4, "user_ratings_total": 5}, "ChIJg0VNuM4adkgRSZwNAcKVLSw": {"geometry": {"location": {"lat": 51.52131120000001, "lng": -0.1577826},