{"E00023637": {"ChIJB8IIMksFdkgRBe9WnZ3rb84": {"geometry": {"location": {"lat": 51.51471453025986, "lng": -0.168225809251879}, "viewport": {"northeast": {"lat": 51.51606373029149, "lng": -0.166874569708498}, "southwest": {"lat": 51.51336576970849, "lng": -0.169572530291502}}}, "name": "27-33 Hyde Park St", "place_id": "ChIJB8IIMksFdkgRBe9WnZ3rb84", "types": ["route"]}, "ChIJE9afL0sFdkgRDbhQeeLFLCE": {"geometry": {"location": {"lat": 51.5142624, "lng": -0.1679519}, "viewport": {"northeast": {"lat": 51.5155819302915, "lng": -0.166504669708498}, "southwest": {"lat": 51.5128839697085, "lng": -0.169202630291502}}}, "name": "Bombay Palace", "place_id": "ChIJE9afL0sFdkgRDbhQeeLFLCE", "types": ["night_club", "meal_delivery", "meal_takeaway", "bar", "restaurant", "food", "point_of_interest", "establishment"], "rating": 4.2, "user_ratings_total": 423}, "ChIJsapCMksFdkgRz0uYCe9jnT8": {"geometry": {"location": {"lat": 51.514682, "lng": -0.16827}, "viewport": {"northeast": {"lat": 51.51603113029149, "lng": -0.166920069708498}, "southwest": {"lat": 51.5133331697085, "lng": -0.169618030291502}}}, "name": "Satuc", "place_id": "ChIJsapCMksFdkgRz0uYCe9jnT8", "types": ["point_of_interest", "establishment"], "rating": 5, "user_ratings_total": 2}, "ChIJa2-Q0CAFdkgRtaNTnwg3mVk": {"geometry": {"location": {"lat": 51.51435430000001, "lng": -0.1676701}, "viewport": {"northeast": {"lat": 51.51563348029151, "lng": -0.166291819708498}, "southwest": {"lat": 51.51293551970851, "lng": -0.1689897802915021}}}, "name": "Ski France", "place_id": "ChIJa2-Q0CAFdkgRtaNTnwg3mVk", "types": ["point_of_interest", "establishment"], "rating": 4.3, "user_ratings_total": 3}, "ChIJpUrPSLAadkgRtsOKJ1wr61w": {"geometry": {"location": {"lat": 51.514645, "lng": -0.167461}, "viewport": {"northeast": {"lat": 51.5159969302915, "lng": -0.166107169708498}, "southwest": {"lat": 51.5132989697085, "lng": -0.168805130291502}}}, "name": "Edgware Road - Titchbourne Row", "place_id": "ChIJpUrPSLAadkgRtsOKJ1wr61w", "types": ["point_of_interest", "establishment"], "rating": 4.5, "user_ratings_total": 2}, "ChIJj1FNKEsFdkgR1IvmTEOAd1k": {"geometry": {"location": {"lat": 51.5143473, "lng": -0.1676005}, "viewport": {"northeast": {"lat": 51.5156354802915, "lng": -0.166224219708498}, "southwest": {"lat": 51.51293751970851, "lng": -0.168922180291502}}}, "name": "Pullen Dr G C", "place_id": "ChIJj1FNKEsFdkgR1IvmTEOAd1k", "types": ["dentist", "health", "point_of_interest", "establishment"], "rating": 5, "user_ratings_total": 1}, "ChIJs7OiLUsFdkgRCaerUAG-NVc": {"geometry": {"location": {"lat": 51.51468310000001, "lng": -0.1680823}, "viewport": {"northeast": {"lat": 51.51602518029151, "lng": -0.166799419708498}, "southwest": {"lat": 51.51332721970851, "lng": -0.169497380291502}}}, "name": "SULTAN AL THANI KARATE FOUNDATION", "place_id": "ChIJs7OiLUsFdkgRCaerUAG-NVc", "types": ["point_of_interest", "establishment"]}, "ChIJu9v-T4kFdkgRGY_oumPLtYE": {"geometry": {"location": {"lat": 51.5145212, "lng": -0.1680237}, "viewport": {"northeast": {"lat": 51.5158701802915, "lng": -0.166674719708498}, "southwest": {"lat": 51.5131722197085, "lng": -0.1693726802915021}}}, "name": "Two Hyde Park Square", "place_id": "ChIJu9v-T4kFdkgRGY_oumPLtYE", "types": ["point_of_interest", "establishment"]}, "ChIJzWohLksFdkgRJXUvzmPa0E4": {"geometry": {"location": {"lat": 51.5144853, "lng": -0.1679245}, "viewport": {"northeast": {"lat": 51.51568303029151, "lng": -0.166508419708498}, "southwest": {"lat": 51.51298506970851, "lng": -0.169206380291502}}}, "name": "Alexander Samuel And Co", "place_id": "ChIJzWohLksFdkgRJXUvzmPa0E4", "types": ["point_of_interest", "establishment"]}, "ChIJvTKW_ZwFdkgRxk6UEYcvlEk": {"geometry": {"location": {"lat": 51.5144696, "lng": -0.1678551}, "viewport": {"northeast": {"lat": 51.51568073029149, "lng": -0.1664482697084979}, "southwest": {"lat": 51.51298276970849, "lng": -0.169146230291502}}}, "name": "DentalCarePlus Dental Implant Centre Connaught Village", "place_id": "ChIJvTKW_ZwFdkgRxk6UEYcvlEk", "types": ["dentist", "health", "point_of_interest", "establishment"], "rating": 5, "user_ratings_total": 1}, "ChIJt8fLyrQadkgRL79VOVSB4wM": {"geometry": {"location": {"lat": 51.5149042, "lng": -0.1688143}, "viewport": {"northeast": {"lat": 51.5163037302915, "lng": -0.167409719708498}, "southwest": {"lat": 51.51360576970851, "lng": -0.170107680291502}}}, "name": "Mahboubian Company Ltd", "place_id": "ChIJt8fLyrQadkgRL79VOVSB4wM", "types": ["art_gallery", "point_of_interest", "establishment"]}, "ChIJAZiB07QadkgR6Ko303FPoH0": {"geometry": {"location": {"lat": 51.51506, "lng": -0.1678296}, "viewport": {"northeast": {"lat": 51.51633728029149, "lng": -0.1664987697084979}, "southwest": {"lat": 51.5136393197085, "lng": -0.169196730291502}}}, "name": "Southacre", "place_id": "ChIJAZiB07QadkgR6Ko303FPoH0", "types": ["point_of_interest", "establishment"], "rating": 5, "user_ratings_total": 1}, "ChIJ2zqLKEsFdkgRfteCe-YHCHk": {"geometry": {"location": {"lat": 51.5143508, "lng": -0.1676267}, "viewport": {"northeast": {"lat": 51.5156336302915, "lng": -0.166258219708498}, "southwest": {"lat": 51.5129356697085, "lng": -0.168956180291502}}}, "name": "Connaught Village Dentistry", "place_id": "ChIJ2zqLKEsFdkgRfteCe-YHCHk", "types": ["dentist", "doctor", "health", "point_of_interest", "establishment"], "rating": 4.8, "user_ratings_total": 29}, "ChIJGaBoKEsFdkgR_-kDc9bhxlU": {"geometry": {"location": {"lat": 51.5143395, "lng": -0.1675937}, "viewport": {"northeast": {"lat": 51.5156318802915, "lng": -0.166219269708498}, "southwest": {"lat": 51.5129339197085, "lng": -0.168917230291502}}}, "name": "Trevi Interiors Ltd", "place_id": "ChIJGaBoKEsFdkgR_-kDc9bhxlU", "types": ["home_goods_store", "point_of_interest", "store", "establishment"]}, "ChIJ8clHKEsFdkgR5zYtCTRKf-0": {"geometry": {"location": {"lat": 51.5143496, "lng": -0.1675421}, "viewport": {"northeast": {"lat": 51.5156414302915, "lng": -0.166167419708498}, "southwest": {"lat": 51.5129434697085, "lng": -0.168865380291502}}}, "name": "Purple Summer Ltd", "place_id": "ChIJ8clHKEsFdkgR5zYtCTRKf-0", "types": ["point_of_interest", "establishment"]}, "ChIJ8clHKEsFdkgRg8L-5VBo50k": {"geometry": {"location": {"lat": 51.5143496, "lng": -0.1675421}, "viewport": {"northeast": {"lat": 51.5156414302915, "lng": -0.166167419708498}, "southwest": {"lat": 51.5129434697085, "lng": -0.168865380291502}}}, "name": "Riviera", "place_id": "ChIJ8clHKEsFdkgRg8L-5VBo50k", "types": ["restaurant", "food", "point_of_interest", "establishment"]}, "ChIJ8clHKEsFdkgRhPWealSETco": {"geometry": {"location": {"lat": 51.5143496, "lng": -0.1675421}, "viewport": {"northeast": {"lat": 51.5156414302915, "lng": -0.166167419708498}, "southwest": {"lat": 51.5129434697085, "lng": -0.168865380291502}}}, "name": "Ski France", "place_id": "ChIJ8clHKEsFdkgRhPWealSETco", "types": ["point_of_interest", "establishment"]}, "ChIJr9EZGUsFdkgRxeEAHraSxRU": {"geometry": {"location": {"lat": 51.51335920003447, "lng": -0.1678679493490382}, "viewport": {"northeast": {"lat": 51.5147081802915, "lng": -0.166518969708498}, "southwest": {"lat": 51.51201021970851, "lng": -0.169216930291502}}}, "name": "9-31 Hyde Park St", "place_id": "ChIJr9EZGUsFdkgRxeEAHraSxRU", "types": ["route"]}, "ChIJvZfhPEsFdkgRjTYA1ekN_J0": {"geometry": {"location": {"lat": 51.5137448, "lng": -0.1682819}, "viewport": {"northeast": {"lat": 51.5151706302915, "lng": -0.166953269708498}, "southwest": {"lat": 51.5124726697085, "lng": -0.169651230291502}}}, "name": "British Association of Medical Hypnosis", "place_id": "ChIJvZfhPEsFdkgRjTYA1ekN_J0", "types": ["point_of_interest", "establishment"]}, "ChIJc2qoB38FdkgRdA7MkODyIjQ": {"geometry": {"location": {"lat": 51.5136885, "lng": -0.167958}, "viewport": {"northeast": {"lat": 51.5150374802915, "lng": -0.166609019708498}, "southwest": {"lat": 51.5123395197085, "lng": -0.169306980291502}}}, "name": "Compass House", "place_id": "ChIJc2qoB38FdkgRdA7MkODyIjQ", "types": ["lodging", "point_of_interest", "establishment"], "rating": 4.7, "user_ratings_total": 10}, "ChIJu_xnFEsFdkgRnWR_4y3CFjo": {"geometry": {"location": {"lat": 51.5133362, "lng": -0.1686746}, "viewport": {"northeast": {"lat": 51.5146800302915, "lng": -0.167375519708498}, "southwest": {"lat": 51.5119820697085, "lng": -0.170073480291502}}}, "name": "Orti Javier", "place_id": "ChIJu_xnFEsFdkgRnWR_4y3CFjo", "types": ["health", "point_of_interest", "establishment"]}, "ChIJe2njHksFdkgRRBpnsvvueRE": {"geometry": {"location": {"lat": 51.51339300000001, "lng": -0.167671}, "viewport": {"northeast": {"lat": 51.5147313802915, "lng": -0.166422219708498}, "southwest": {"lat": 51.5120334197085, "lng": -0.169120180291502}}}, "name": "SWEET INN - MARBLE ARCH", "place_id": "ChIJe2njHksFdkgRRBpnsvvueRE", "types": ["lodging", "point_of_interest", "establishment"]}, "ChIJe2njHksFdkgRm6xX9J-_hqE": {"geometry": {"location": {"lat": 51.51339300000001, "lng": -0.167671}, "viewport": {"northeast": {"lat": 51.5147313802915, "lng": -0.166422219708498}, "southwest": {"lat": 51.5120334197085, "lng": -0.169120180291502}}}, "name": "SWEET INN - MARBLE ARCH", "place_id": "ChIJe2njHksFdkgRm6xX9J-_hqE", "types": ["lodging", "point_of_interest", "establishment"]}, "ChIJVVVBIEsFdkgRnKxf_7aP3Do": {"geometry": {"location": {"lat": 51.5136769, "lng": -0.1675511}, "viewport": {"northeast": {"lat": 51.5150328302915, "lng": -0.166136719708498}, "southwest": {"lat": 51.5123348697085, "lng": -0.168834680291502}}}, "name": "Paddington Cleaners Ltd", "place_id": "ChIJVVVBIEsFdkgRnKxf_7aP3Do", "types": ["point_of_interest", "establishment"]}, "ChIJZ0uKgXwFdkgRHn5FitUYAEo": {"geometry": {"location": {"lat": 51.5132953, "lng": -0.1688246}, "viewport": {"northeast": {"lat": 51.5146340802915, "lng": -0.167580269708498}, "southwest": {"lat": 51.5119361197085, "lng": -0.170278230291502}}}, "name": "Giles Gilbert Scott Blue Plaque", "place_id": "ChIJZ0uKgXwFdkgRHn5FitUYAEo", "types": ["point_of_interest", "establishment"], "rating": 4, "user_ratings_total": 1}, "ChIJp9bxUc4FdkgR3UkyNl74dXs": {"geometry": {"location": {"lat": 51.5132953, "lng": -0.1688246}, "viewport": {"northeast": {"lat": 51.5146340802915, "lng": -0.167580269708498}, "southwest": {"lat": 51.5119361197085, "lng": -0.170278230291502}}}, "name": "WWRT", "place_id": "ChIJp9bxUc4FdkgR3UkyNl74dXs", "types": ["point_of_interest", "establishment"]}, "ChIJ1_SAv8AFdkgRHjqfpyogDSQ": {"geometry": {"location": {"lat": 51.5131677, "lng": -0.1678293}, "viewport": {"northeast": {"lat": 51.51452268029149, "lng": -0.166423769708498}, "southwest": {"lat": 51.51182471970849, "lng": -0.169121730291502}}}, "name": "Hyde Park Patisserie", "place_id": "ChIJ1_SAv8AFdkgRHjqfpyogDSQ", "types": ["bakery", "food", "point_of_interest", "store", "establishment"]}, "ChIJU5csdksFdkgRgBu6NWX4HVw": {"geometry": {"location": {"lat": 51.51228070194322, "lng": -0.1694436009543005}, "viewport": {"northeast": {"lat": 51.5136296802915, "lng": -0.1680914}, "southwest": {"lat": 51.5109317197085, "lng": -0.1707957999999999}}}, "name": "27-33 Bayswater Rd", "place_id": "ChIJU5csdksFdkgRgBu6NWX4HVw", "types": ["route"]}, "ChIJJdikAUsFdkgRkgB_gOlSNNY": {"geometry": {"location": {"lat": 51.51247619999999, "lng": -0.1675699}, "viewport": {"northeast": {"lat": 51.5138251802915, "lng": -0.166220919708498}, "southwest": {"lat": 51.5111272197085, "lng": -0.168918880291502}}}, "name": "Hamptons International Estate Agents Hyde Park & Bayswater", "place_id": "ChIJJdikAUsFdkgRkgB_gOlSNNY", "types": ["real_estate_agency", "point_of_interest", "establishment"]}, "ChIJV-emdEsFdkgRIQZDfCHrWM4": {"geometry": {"location": {"lat": 51.5125574, "lng": -0.1689153}, "viewport": {"northeast": {"lat": 51.5139106802915, "lng": -0.167521669708498}, "southwest": {"lat": 51.5112127197085, "lng": -0.170219630291502}}}, "name": "ubitricity Charging Station", "place_id": "ChIJV-emdEsFdkgRIQZDfCHrWM4", "types": ["point_of_interest", "establishment"]}, "ChIJmawVejoFdkgR0gO9QPPqbU4": {"geometry": {"location": {"lat": 51.512932, "lng": -0.1679685}, "viewport": {"northeast": {"lat": 51.5142855302915, "lng": -0.166535119708498}, "southwest": {"lat": 51.5115875697085, "lng": -0.169233080291502}}}, "name": "Fender Car Wash", "place_id": "ChIJmawVejoFdkgR0gO9QPPqbU4", "types": ["car_wash", "point_of_interest", "establishment"]}, "ChIJz4dmq0sFdkgRnTNexyYkyQg": {"geometry": {"location": {"lat": 51.51199957488917, "lng": -0.167521645201445}, "viewport": {"northeast": {"lat": 51.5133328802915, "lng": -0.16535615}, "southwest": {"lat": 51.5106349197085, "lng": -0.16967595}}}, "name": "North Carriage Drive", "place_id": "ChIJz4dmq0sFdkgRnTNexyYkyQg", "types": ["route"]}, "ChIJ6Sl-pkwFdkgRRDli2OdtEvc": {"geometry": {"location": {"lat": 51.51406780176931, "lng": -0.1707459901848904}, "viewport": {"northeast": {"lat": 51.5154116802915, "lng": -0.169386819708498}, "southwest": {"lat": 51.5127137197085, "lng": -0.172084780291502}}}, "name": "44-50 Gloucester Square", "place_id": "ChIJ6Sl-pkwFdkgRRDli2OdtEvc", "types": ["route"]}, "ChIJleB6qrQadkgR-2fj_-Gw-yQ": {"geometry": {"location": {"lat": 51.51508030000001, "lng": -0.1703475}, "viewport": {"northeast": {"lat": 51.51639408029151, "lng": -0.168942569708498}, "southwest": {"lat": 51.51369611970851, "lng": -0.171640530291502}}}, "name": "London Apartment RG", "place_id": "ChIJleB6qrQadkgR-2fj_-Gw-yQ", "types": ["lodging", "point_of_interest", "establishment"]}, "ChIJx-OnVksFdkgR3nPRrobsxf4": {"geometry": {"location": {"lat": 51.5145527, "lng": -0.1700633}, "viewport": {"northeast": {"lat": 51.5158729802915, "lng": -0.168674069708498}, "southwest": {"lat": 51.5131750197085, "lng": -0.171372030291502}}}, "name": "Wilc Llp", "place_id": "ChIJx-OnVksFdkgR3nPRrobsxf4", "types": ["point_of_interest", "establishment"]}, "ChIJp8yoSOYFdkgRKXTmjAAASL0": {"geometry": {"location": {"lat": 51.5144062, "lng": -0.1698126}, "viewport": {"northeast": {"lat": 51.51580673029149, "lng": -0.168535919708498}, "southwest": {"lat": 51.5131087697085, "lng": -0.171233880291502}}}, "name": "Violet Bonham Carter Blue Plaque", "place_id": "ChIJp8yoSOYFdkgRKXTmjAAASL0", "types": ["point_of_interest", "establishment"], "rating": 5, "user_ratings_total": 2}, "ChIJPaH9W0sFdkgRd06z1MBfuF4": {"geometry": {"location": {"lat": 51.5138324000032, "lng": -0.1699675999449023}, "viewport": {"northeast": {"lat": 51.5151813802915, "lng": -0.168618619708498}, "southwest": {"lat": 51.5124834197085, "lng": -0.171316580291502}}}, "name": "31-26 Hyde Park Square", "place_id": "ChIJPaH9W0sFdkgRd06z1MBfuF4", "types": ["route"]}, "ChIJ5cFtXUsFdkgRANik8Hv1baM": {"geometry": {"location": {"lat": 51.5136367, "lng": -0.169775}, "viewport": {"northeast": {"lat": 51.5150440802915, "lng": -0.168439869708498}, "southwest": {"lat": 51.5123461197085, "lng": -0.171137830291502}}}, "name": "Dataseat Ltd", "place_id": "ChIJ5cFtXUsFdkgRANik8Hv1baM", "types": ["point_of_interest", "establishment"]}, "ChIJ5cFtXUsFdkgRXX7C8YCt-wM": {"geometry": {"location": {"lat": 51.5136367, "lng": -0.169775}, "viewport": {"northeast": {"lat": 51.5150440802915, "lng": -0.168439869708498}, "southwest": {"lat": 51.5123461197085, "lng": -0.171137830291502}}}, "name": "Iryna Photography", "place_id": "ChIJ5cFtXUsFdkgRXX7C8YCt-wM", "types": ["point_of_interest", "establishment"]}, "ChIJz5XfhUsFdkgRV0C2p3tkLXU": {"geometry": {"location": {"lat": 51.51167893737487, "lng": -0.1699183715163238}, "viewport": {"northeast": {"lat": 51.5130750302915, "lng": -0.1672636}, "southwest": {"lat": 51.5103770697085, "lng": -0.1725932}}}, "name": "North Carriage Drive", "place_id": "ChIJz5XfhUsFdkgRV0C2p3tkLXU", "types": ["route"]}, "ChIJAQX4s0wFdkgRxts0NveuZyM": {"geometry": {"location": {"lat": 51.51459366625026, "lng": -0.1714664535928281}, "viewport": {"northeast": {"lat": 51.5159449302915, "lng": -0.1697745499999999}, "southwest": {"lat": 51.5132469697085, "lng": -0.1731643500000001}}}, "name": "10-27 Gloucester Square", "place_id": "ChIJAQX4s0wFdkgRxts0NveuZyM", "types": ["route"]}, "ChIJI3prQUsFdkgR-GfTw7yTHS8": {"geometry": {"location": {"lat": 51.5150859, "lng": -0.1721519}, "viewport": {"northeast": {"lat": 51.5164836802915, "lng": -0.170868119708498}, "southwest": {"lat": 51.5137857197085, "lng": -0.173566080291502}}}, "name": "Kingsway Park Hotel", "place_id": "ChIJI3prQUsFdkgR-GfTw7yTHS8", "types": ["lodging", "point_of_interest", "establishment"], "rating": 3.3, "user_ratings_total": 173}, "ChIJxc3MNbMadkgRrl-vxgaE0kU": {"geometry": {"location": {"lat": 51.5151294, "lng": -0.1720866}, "viewport": {"northeast": {"lat": 51.51652368029151, "lng": -0.170803369708498}, "southwest": {"lat": 51.51382571970851, "lng": -0.173501330291502}}}, "name": "Hyde Park Rooms Hotel", "place_id": "ChIJxc3MNbMadkgRrl-vxgaE0kU", "types": ["lodging", "point_of_interest", "establishment"], "rating": 4.2, "user_ratings_total": 5}, "ChIJuR1_NbMadkgRJOqJrn-PRa8": {"geometry": {"location": {"lat": 51.5145739, "lng": -0.1720627}, "viewport": {"northeast": {"lat": 51.5159792302915, "lng": -0.170794569708498}, "southwest": {"lat": 51.51328126970851, "lng": -0.173492530291502}}}, "name": "The Dragon Consultancy Ltd", "place_id": "ChIJuR1_NbMadkgRJOqJrn-PRa8", "types": ["point_of_interest", "establishment"]}, "ChIJR5CJqDQbdkgR3RUsidmIHW4": {"geometry": {"location": {"lat": 51.51495389999999, "lng": -0.1719616}, "viewport": {"northeast": {"lat": 51.51626978029149, "lng": -0.170564569708498}, "southwest": {"lat": 51.5135718197085, "lng": -0.173262530291502}}}, "name": "TJ's Crane Hire", "place_id": "ChIJR5CJqDQbdkgR3RUsidmIHW4", "types": ["point_of_interest", "establishment"]}, "ChIJI3prQUsFdkgRR2EuRb1gNvw": {"geometry": {"location": {"lat": 51.515041, "lng": -0.172285}, "viewport": {"northeast": {"lat": 51.5164303302915, "lng": -0.170991769708498}, "southwest": {"lat": 51.5137323697085, "lng": -0.173689730291502}}}, "name": "Admiral Hotel", "place_id": "ChIJI3prQUsFdkgRR2EuRb1gNvw", "types": ["lodging", "point_of_interest", "establishment"], "rating": 3.2, "user_ratings_total": 150}, "ChIJq6pqrUwFdkgRioIWKFU4tI8": {"geometry": {"location": {"lat": 51.5148012, "lng": -0.1710295}, "viewport": {"northeast": {"lat": 51.51614618029149, "lng": -0.169674819708498}, "southwest": {"lat": 51.5134482197085, "lng": -0.172372780291502}}}, "name": "Braxton Law", "place_id": "ChIJq6pqrUwFdkgRioIWKFU4tI8", "types": ["point_of_interest", "establishment"]}, "ChIJ95vh384FdkgR52hEo70ct14": {"geometry": {"location": {"lat": 51.5148012, "lng": -0.1710295}, "viewport": {"northeast": {"lat": 51.51614618029149, "lng": -0.169674819708498}, "southwest": {"lat": 51.5134482197085, "lng": -0.172372780291502}}}, "name": "CARNO HOLDINGS LIMITED.", "place_id": "ChIJ95vh384FdkgR52hEo70ct14", "types": ["point_of_interest", "establishment"]}, "ChIJhxXVi7UFdkgR-hEZBRvuqA4": {"geometry": {"location": {"lat": 51.5148012, "lng": -0.1710295}, "viewport": {"northeast": {"lat": 51.51614618029149, "lng": -0.169674819708498}, "southwest": {"lat": 51.5134482197085, "lng": -0.172372780291502}}}, "name": "train the boys", "place_id": "ChIJhxXVi7UFdkgR-hEZBRvuqA4", "types": ["point_of_interest", "establishment"]}, "ChIJP3KiM7MadkgRn8tmaTS34tQ": {"geometry": {"location": {"lat": 51.51509240000001, "lng": -0.1721966000000001}, "viewport": {"northeast": {"lat": 51.5164805302915, "lng": -0.170901719708498}, "southwest": {"lat": 51.5137825697085, "lng": -0.173599680291502}}}, "name": "The Hotel Columbus", "place_id": "ChIJP3KiM7MadkgRn8tmaTS34tQ", "types": ["lodging", "point_of_interest", "establishment"], "rating": 3.7, "user_ratings_total": 132}, "ChIJb4fpuEwFdkgRvRCcIESi2Ac": {"geometry": {"location": {"lat": 51.5140198, "lng": -0.1718064}, "viewport": {"northeast": {"lat": 51.5153364346143, "lng": -0.1703880029601938}, "southwest": {"lat": 51.5126384740313, "lng": -0.1730859635431978}}}, "name": "Parking lot", "place_id": "ChIJb4fpuEwFdkgRvRCcIESi2Ac", "types": ["parking", "premise", "point_of_interest", "establishment"]}, "ChIJV-cOvUwFdkgR5zdw5W5x_-Q": {"geometry": {"location": {"lat": 51.51368045796166, "lng": -0.1712744322447075}, "viewport": {"northeast": {"lat": 51.51502943029149, "lng": -0.169920769708498}, "southwest": {"lat": 51.5123314697085, "lng": -0.172618730291502}}}, "name": "Gloucester Square", "place_id": "ChIJV-cOvUwFdkgR5zdw5W5x_-Q", "types": ["route"]}, "ChIJRamCokwFdkgRiotnAZdJF3U": {"geometry": {"location": {"lat": 51.51338579999999, "lng": -0.17114}, "viewport": {"northeast": {"lat": 51.51482298029149, "lng": -0.169899119708498}, "southwest": {"lat": 51.51212501970849, "lng": -0.172597080291502}}}, "name": "The Victoria, Paddington", "place_id": "ChIJRamCokwFdkgRiotnAZdJF3U", "types": ["bar", "point_of_interest", "establishment"], "rating": 4.5, "user_ratings_total": 2009}, "ChIJiQm_lkwFdkgRt1K__BB3Mfo": {"geometry": {"location": {"lat": 51.5134459, "lng": -0.1711591}, "viewport": {"northeast": {"lat": 51.5147446802915, "lng": -0.169847969708498}, "southwest": {"lat": 51.5120467197085, "lng": -0.172545930291502}}}, "name": "Maximini Chinese Restaurant", "place_id": "ChIJiQm_lkwFdkgRt1K__BB3Mfo", "types": ["restaurant", "food", "point_of_interest", "establishment"], "rating": 3.9, "user_ratings_total": 261}, "ChIJWdrmlUwFdkgRx3E52cxsack": {"geometry": {"location": {"lat": 51.51346220000001, "lng": -0.1715291}, "viewport": {"northeast": {"lat": 51.51483713029149, "lng": -0.170131869708498}, "southwest": {"lat": 51.5121391697085, "lng": -0.172829830291502}}}, "name": "Noorjahan II", "place_id": "ChIJWdrmlUwFdkgRx3E52cxsack", "types": ["meal_takeaway", "bar", "restaurant", "food", "point_of_interest", "establishment"], "rating": 4.1, "user_ratings_total": 277}, "ChIJeeMolEwFdkgRMO89d1LTB6U": {"geometry": {"location": {"lat": 51.5133724, "lng": -0.1714956}, "viewport": {"northeast": {"lat": 51.5147613302915, "lng": -0.170072269708498}, "southwest": {"lat": 51.5120633697085, "lng": -0.172770230291502}}}, "name": "The Positive Ageing Company", "place_id": "ChIJeeMolEwFdkgRMO89d1LTB6U", "types": ["point_of_interest", "establishment"]}, "ChIJ7YXw6kwFdkgRpZV6I3oRjS8": {"geometry": {"location": {"lat": 51.5138999, "lng": -0.1719425}, "viewport": {"northeast": {"lat": 51.5152590302915, "lng": -0.170582019708498}, "southwest": {"lat": 51.5125610697085, "lng": -0.173279980291502}}}, "name": "Zipcar", "place_id": "ChIJ7YXw6kwFdkgRpZV6I3oRjS8", "types": ["car_rental", "point_of_interest", "establishment"]}, "ChIJiQm_lkwFdkgRFoV_m0aVjHs": {"geometry": {"location": {"lat": 51.5133014, "lng": -0.1710791}, "viewport": {"northeast": {"lat": 51.5146818802915, "lng": -0.169777469708498}, "southwest": {"lat": 51.5119839197085, "lng": -0.172475430291502}}}, "name": "Lurot Brand - Hyde Park Estate Agents", "place_id": "ChIJiQm_lkwFdkgRFoV_m0aVjHs", "types": ["finance", "real_estate_agency", "point_of_interest", "establishment"], "rating": 3.7, "user_ratings_total": 3}, "ChIJdQq_lkwFdkgRguM9xtgAH-k": {"geometry": {"location": {"lat": 51.513538, "lng": -0.1715}, "viewport": {"northeast": {"lat": 51.5148768802915, "lng": -0.170169719708498}, "southwest": {"lat": 51.5121789197085, "lng": -0.172867680291502}}}, "name": "Reborn UK Massage", "place_id": "ChIJdQq_lkwFdkgRguM9xtgAH-k", "types": ["spa", "health", "point_of_interest", "establishment"], "rating": 4.4, "user_ratings_total": 33}, "ChIJaRsPCCwFdkgRMO_N0rIPcgc": {"geometry": {"location": {"lat": 51.51352860000001, "lng": -0.1714846}, "viewport": {"northeast": {"lat": 51.5148668802915, "lng": -0.1701561697084979}, "southwest": {"lat": 51.5121689197085, "lng": -0.172854130291502}}}, "name": "Soapy Massage for Men", "place_id": "ChIJaRsPCCwFdkgRMO_N0rIPcgc", "types": ["point_of_interest", "establishment"]}, "ChIJW-rmlUwFdkgRcvbNqyqIqI0": {"geometry": {"location": {"lat": 51.51350110000001, "lng": -0.1715106}, "viewport": {"northeast": {"lat": 51.5148590802915, "lng": -0.170144919708498}, "southwest": {"lat": 51.51216111970851, "lng": -0.172842880291502}}}, "name": "Holistic Massage Therapy", "place_id": "ChIJW-rmlUwFdkgRcvbNqyqIqI0", "types": ["point_of_interest", "establishment"]}, "ChIJMUOsqToFdkgRH7eFlTninQ4": {"geometry": {"location": {"lat": 51.51340709999999, "lng": -0.1715077}, "viewport": {"northeast": {"lat": 51.5147898802915, "lng": -0.170093869708498}, "southwest": {"lat": 51.5120919197085, "lng": -0.172791830291502}}}, "name": "AEDA London", "place_id": "ChIJMUOsqToFdkgRH7eFlTninQ4", "types": ["restaurant", "food", "point_of_interest", "establishment"], "rating": 4.8, "user_ratings_total": 69}, "ChIJGyZx7EwFdkgRejIoQJUfRS4": {"geometry": {"location": {"lat": 51.51340709999999, "lng": -0.1715077}, "viewport": {"northeast": {"lat": 51.5147904802915, "lng": -0.170094669708498}, "southwest": {"lat": 51.5120925197085, "lng": -0.172792630291502}}}, "name": "Safe Gard London", "place_id": "ChIJGyZx7EwFdkgRejIoQJUfRS4", "types": ["point_of_interest", "establishment"]}, "ChIJMXbOl0wFdkgRrwldfiZMAds": {"geometry": {"location": {"lat": 51.5135209, "lng": -0.1712743}, "viewport": {"northeast": {"lat": 51.5147821802915, "lng": -0.169902369708498}, "southwest": {"lat": 51.5120842197085, "lng": -0.172600330291502}}}, "name": "Fuller's Chiswick", "place_id": "ChIJMXbOl0wFdkgRrwldfiZMAds", "types": ["food", "point_of_interest", "establishment"]}, "ChIJG22YlkwFdkgR9C4RanCDXmk": {"geometry": {"location": {"lat": 51.5133254, "lng": -0.1714405}, "viewport": {"northeast": {"lat": 51.5147158802915, "lng": -0.170014269708498}, "southwest": {"lat": 51.5120179197085, "lng": -0.172712230291502}}}, "name": "Benham & Reeves - Hyde Park", "place_id": "ChIJG22YlkwFdkgR9C4RanCDXmk", "types": ["real_estate_agency", "point_of_interest", "establishment"], "rating": 4.8, "user_ratings_total": 24}, "ChIJ__-8lkwFdkgRIrNiz2uZqiA": {"geometry": {"location": {"lat": 51.513312, "lng": -0.1714227}, "viewport": {"northeast": {"lat": 51.5147026302915, "lng": -0.169996269708498}, "southwest": {"lat": 51.5120046697085, "lng": -0.172694230291502}}}, "name": "Instyle Apartments", "place_id": "ChIJ__-8lkwFdkgRIrNiz2uZqiA", "types": ["real_estate_agency", "point_of_interest", "establishment"]}, "ChIJBSl6510FdkgRxPK82XlNyPk": {"geometry": {"location": {"lat": 51.513317, "lng": -0.171258}, "viewport": {"northeast": {"lat": 51.51467323029149, "lng": -0.169895169708498}, "southwest": {"lat": 51.51197526970849, "lng": -0.172593130291502}}}, "name": "Domus Venus", "place_id": "ChIJBSl6510FdkgRxPK82XlNyPk", "types": ["general_contractor", "point_of_interest", "establishment"]}, "ChIJtSlW6UwFdkgR4UlCCu1bYBg": {"geometry": {"location": {"lat": 51.5132561, "lng": -0.1720721}, "viewport": {"northeast": {"lat": 51.5146178802915, "lng": -0.170744069708498}, "southwest": {"lat": 51.5119199197085, "lng": -0.173442030291502}}}, "name": "ubitricity Charging Station", "place_id": "ChIJtSlW6UwFdkgR4UlCCu1bYBg", "types": ["point_of_interest", "establishment"]}, "ChIJIV2ovEwFdkgRKrzSLIWYyzU": {"geometry": {"location": {"lat": 51.5138896, "lng": -0.1711554}, "viewport": {"northeast": {"lat": 51.51523238029149, "lng": -0.169797319708498}, "southwest": {"lat": 51.5125344197085, "lng": -0.172495280291502}}}, "name": "Motorcycle Parking Bay", "place_id": "ChIJIV2ovEwFdkgRKrzSLIWYyzU", "types": ["parking", "point_of_interest", "establishment"], "rating": 2, "user_ratings_total": 2}, "ChIJmcVWo0wFdkgRDruxvZYSYaY": {"geometry": {"location": {"lat": 51.5138269, "lng": -0.1709756}, "viewport": {"northeast": {"lat": 51.5152061302915, "lng": -0.169670869708498}, "southwest": {"lat": 51.5125081697085, "lng": -0.172368830291502}}}, "name": "Chartwell Court", "place_id": "ChIJmcVWo0wFdkgRDruxvZYSYaY", "types": ["point_of_interest", "establishment"]}, "ChIJpdIwxEwFdkgRKRj74lLzhxw": {"geometry": {"location": {"lat": 51.51409229999999, "lng": -0.1717601}, "viewport": {"northeast": {"lat": 51.5154067802915, "lng": -0.170441869708498}, "southwest": {"lat": 51.5127088197085, "lng": -0.173139830291502}}}, "name": "SourceLondon Charging Station", "place_id": "ChIJpdIwxEwFdkgRKRj74lLzhxw", "types": ["point_of_interest", "establishment"]}, "ChIJcc4IfUwFdkgR89Gpy8Mwa6Q": {"geometry": {"location": {"lat": 51.51213952038487, "lng": -0.1709426299633141}, "viewport": {"northeast": {"lat": 51.5134883802915, "lng": -0.1692967999999999}, "southwest": {"lat": 51.5107904197085, "lng": -0.1725884}}}, "name": "Bayswater Road", "place_id": "ChIJcc4IfUwFdkgR89Gpy8Mwa6Q", "types": ["route"]}, "ChIJu8FMg0wFdkgRfydTMOJKWXI": {"geometry": {"location": {"lat": 51.51278589999999, "lng": -0.1710041}, "viewport": {"northeast": {"lat": 51.51422738029149, "lng": -0.169678369708498}, "southwest": {"lat": 51.51152941970849, "lng": -0.172376330291502}}}, "name": "Sri Lanka High Commission", "place_id": "ChIJu8FMg0wFdkgRfydTMOJKWXI", "types": ["embassy", "point_of_interest", "establishment"], "rating": 3.6, "user_ratings_total": 104}, "ChIJX-wT8UwFdkgR1P7-Gch6K5M": {"geometry": {"location": {"lat": 51.5125244, "lng": -0.1724808}, "viewport": {"northeast": {"lat": 51.51387563029149, "lng": -0.171109119708498}, "southwest": {"lat": 51.51117766970849, "lng": -0.173807080291502}}}, "name": "Zipcar", "place_id": "ChIJX-wT8UwFdkgR1P7-Gch6K5M", "types": ["car_rental", "point_of_interest", "establishment"], "rating": 4, "user_ratings_total": 2}, "ChIJn_mr8kwFdkgR9k_ZlgaahWw": {"geometry": {"location": {"lat": 51.51289149999999, "lng": -0.1718662}, "viewport": {"northeast": {"lat": 51.5142093802915, "lng": -0.170509419708498}, "southwest": {"lat": 51.5115114197085, "lng": -0.173207380291502}}}, "name": "Oxford Global", "place_id": "ChIJn_mr8kwFdkgR9k_ZlgaahWw", "types": ["point_of_interest", "establishment"]}, "ChIJJRf8YUwFdkgRRbJrtz2fvJI": {"geometry": {"location": {"lat": 51.5121928, "lng": -0.1712747}, "viewport": {"northeast": {"lat": 51.5135004802915, "lng": -0.169916869708498}, "southwest": {"lat": 51.51080251970851, "lng": -0.172614830291502}}}, "name": "Victoria Gate (Stop LB)", "place_id": "ChIJJRf8YUwFdkgRRbJrtz2fvJI", "types": ["bus_station", "transit_station", "point_of_interest", "establishment"], "rating": 3, "user_ratings_total": 2}, "ChIJc0wm5LIcdkgR16ttiWHgj2k": {"geometry": {"location": {"lat": 51.5128037, "lng": -0.170992}, "viewport": {"northeast": {"lat": 51.5142370802915, "lng": -0.169664219708498}, "southwest": {"lat": 51.5115391197085, "lng": -0.172362180291502}}}, "name": "Sri Lanka Tourism", "place_id": "ChIJc0wm5LIcdkgR16ttiWHgj2k", "types": ["embassy", "travel_agency", "point_of_interest", "establishment"], "rating": 3.7, "user_ratings_total": 3}, "ChIJzz8m90wFdkgRnvZWYPKghAI": {"geometry": {"location": {"lat": 51.5125373, "lng": -0.1724632}, "viewport": {"northeast": {"lat": 51.5139167302915, "lng": -0.171159669708498}, "southwest": {"lat": 51.51121876970851, "lng": -0.173857630291502}}}, "name": "ESB Charging Station", "place_id": "ChIJzz8m90wFdkgRnvZWYPKghAI", "types": ["point_of_interest", "establishment"]}, "ChIJn6rnu1UFdkgR1N1WgAx1JdY": {"geometry": {"location": {"lat": 51.5126632, "lng": -0.1724416}, "viewport": {"northeast": {"lat": 51.5140121802915, "lng": -0.171092619708498}, "southwest": {"lat": 51.5113142197085, "lng": -0.173790580291502}}}, "name": "London Skate Life", "place_id": "ChIJn6rnu1UFdkgR1N1WgAx1JdY", "types": ["school", "point_of_interest", "establishment"], "rating": 5, "user_ratings_total": 8}, "ChIJDSxWKeAHdkgR8Hru_MiuBxA": {"geometry": {"location": {"lat": 51.51278589999999, "lng": -0.1710041}, "viewport": {"northeast": {"lat": 51.51422738029149, "lng": -0.169678369708498}, "southwest": {"lat": 51.51152941970849, "lng": -0.172376330291502}}}, "name": "Broadway Mini Market", "place_id": "ChIJDSxWKeAHdkgR8Hru_MiuBxA", "types": ["health", "point_of_interest", "establishment"], "rating": 2.3, "user_ratings_total": 3}, "ChIJL5w3fUwFdkgR9f1YGhGy1oM": {"geometry": {"location": {"lat": 51.51216350000001, "lng": -0.1710635}, "viewport": {"northeast": {"lat": 51.5135091302915, "lng": -0.169713719708498}, "southwest": {"lat": 51.5108111697085, "lng": -0.172411680291502}}}, "name": "Victoria Gate", "place_id": "ChIJL5w3fUwFdkgR9f1YGhGy1oM", "types": ["transit_station", "point_of_interest", "establishment"]}, "ChIJjVRm_0wFdkgRnpUTSTdyFX4": {"geometry": {"location": {"lat": 51.5122831, "lng": -0.1730257}, "viewport": {"northeast": {"lat": 51.51363300628439, "lng": -0.1717002847841595}, "southwest": {"lat": 51.51093504570139, "lng": -0.1743982453671636}}}, "name": "Parking lot", "place_id": "ChIJjVRm_0wFdkgRnpUTSTdyFX4", "types": ["parking", "premise", "point_of_interest", "establishment"]}, "ChIJdblQW0wFdkgRUvKicyZzW1Q": {"geometry": {"location": {"lat": 51.5116238636996, "lng": -0.1722281629152351}, "viewport": {"northeast": {"lat": 51.5129760302915, "lng": -0.170887619708498}, "southwest": {"lat": 51.51027806970851, "lng": -0.173585580291502}}}, "name": "West Carriage Drive", "place_id": "ChIJdblQW0wFdkgRUvKicyZzW1Q", "types": ["route"]}, "ChIJhaSlK00FdkgRN4IYunmnmtM": {"geometry": {"location": {"lat": 51.5146866500058, "lng": -0.1735652500167507}, "viewport": {"northeast": {"lat": 51.5160356302915, "lng": -0.172216269708498}, "southwest": {"lat": 51.5133376697085, "lng": -0.174914230291502}}}, "name": "176-168 Sussex Gardens", "place_id": "ChIJhaSlK00FdkgRN4IYunmnmtM", "types": ["route"]}, "ChIJiarS0rIadkgRckYotsfvMYw": {"geometry": {"location": {"lat": 51.51480340000001, "lng": -0.1738199}, "viewport": {"northeast": {"lat": 51.51608033029151, "lng": -0.172368169708498}, "southwest": {"lat": 51.51338236970852, "lng": -0.1750661302915021}}}, "name": "Abbey Court Hotel (Hyde Park)", "place_id": "ChIJiarS0rIadkgRckYotsfvMYw", "types": ["lodging", "point_of_interest", "establishment"], "rating": 3.4, "user_ratings_total": 490}, "ChIJiarS0rIadkgRaWtPkdbPMC8": {"geometry": {"location": {"lat": 51.51486059999999, "lng": -0.1738303}, "viewport": {"northeast": {"lat": 51.5162471302915, "lng": -0.172306069708498}, "southwest": {"lat": 51.5135491697085, "lng": -0.175004030291502}}}, "name": "Westpoint Hotel", "place_id": "ChIJiarS0rIadkgRaWtPkdbPMC8", "types": ["lodging", "point_of_interest", "establishment"], "rating": 3.3, "user_ratings_total": 443}, "ChIJCRPlKbMadkgRWDpSppnecyI": {"geometry": {"location": {"lat": 51.51480609999999, "lng": -0.1727921}, "viewport": {"northeast": {"lat": 51.51618403029151, "lng": -0.171474969708498}, "southwest": {"lat": 51.51348606970851, "lng": -0.174172930291502}}}, "name": "Balmoral House Hotel", "place_id": "ChIJCRPlKbMadkgRWDpSppnecyI", "types": ["lodging", "point_of_interest", "establishment"], "rating": 3.6, "user_ratings_total": 258}, "ChIJizah00wFdkgRe57SikVlKBE": {"geometry": {"location": {"lat": 51.5146548, "lng": -0.1729151}, "viewport": {"northeast": {"lat": 51.5159741302915, "lng": -0.171609119708498}, "southwest": {"lat": 51.5132761697085, "lng": -0.174307080291502}}}, "name": "The Alexandra", "place_id": "ChIJizah00wFdkgRe57SikVlKBE", "types": ["lodging", "point_of_interest", "establishment"], "rating": 3.1, "user_ratings_total": 795}, "ChIJF8S20EwFdkgRqfIqpqXKC-w": {"geometry": {"location": {"lat": 51.51440359999999, "lng": -0.1730875}, "viewport": {"northeast": {"lat": 51.51581098029149, "lng": -0.171640669708498}, "southwest": {"lat": 51.51311301970849, "lng": -0.174338630291502}}}, "name": "Linden House Hotel", "place_id": "ChIJF8S20EwFdkgRqfIqpqXKC-w", "types": ["lodging", "point_of_interest", "establishment"], "rating": 3.3, "user_ratings_total": 481}, "ChIJCRPlKbMadkgRgePl5olWvUk": {"geometry": {"location": {"lat": 51.51517419999999, "lng": -0.1733626}, "viewport": {"northeast": {"lat": 51.51649148029149, "lng": -0.171967369708498}, "southwest": {"lat": 51.51379351970849, "lng": -0.174665330291502}}}, "name": "Stylotel", "place_id": "ChIJCRPlKbMadkgRgePl5olWvUk", "types": ["lodging", "point_of_interest", "establishment"], "rating": 3.7, "user_ratings_total": 322}, "ChIJf2Yg00wFdkgRnkTGwZTjELA": {"geometry": {"location": {"lat": 51.5148488, "lng": -0.1727007}, "viewport": {"northeast": {"lat": 51.51622528029149, "lng": -0.171391669708498}, "southwest": {"lat": 51.51352731970849, "lng": -0.174089630291502}}}, "name": "Albro House", "place_id": "ChIJf2Yg00wFdkgRnkTGwZTjELA", "types": ["lodging", "point_of_interest", "establishment"], "rating": 3.5, "user_ratings_total": 69}, "ChIJTRCV1LIadkgRta-DcYWv_l4": {"geometry": {"location": {"lat": 51.5150598, "lng": -0.1738251}, "viewport": {"northeast": {"lat": 51.5164373802915, "lng": -0.1724281697084979}, "southwest": {"lat": 51.5137394197085, "lng": -0.175126130291502}}}, "name": "The Sussex Arms", "place_id": "ChIJTRCV1LIadkgRta-DcYWv_l4", "types": ["bar", "point_of_interest", "establishment"], "rating": 4.3, "user_ratings_total": 538}, "ChIJFY79xT6m2EcRLzEwe-jvOZY": {"geometry": {"location": {"lat": 51.5150922, "lng": -0.1735357}, "viewport": {"northeast": {"lat": 51.5163305302915, "lng": -0.172045269708498}, "southwest": {"lat": 51.5136325697085, "lng": -0.174743230291502}}}, "name": "The Castleton Hotel", "place_id": "ChIJFY79xT6m2EcRLzEwe-jvOZY", "types": ["lodging", "point_of_interest", "establishment"], "rating": 3.1, "user_ratings_total": 286}, "ChIJlYJRzUwFdkgR8BHoc4fc7kA": {"geometry": {"location": {"lat": 51.51482970000001, "lng": -0.1726506}, "viewport": {"northeast": {"lat": 51.51621918029151, "lng": -0.1713604197084979}, "southwest": {"lat": 51.51352121970852, "lng": -0.174058380291502}}}, "name": "Adare Hotel", "place_id": "ChIJlYJRzUwFdkgR8BHoc4fc7kA", "types": ["lodging", "point_of_interest", "establishment"], "rating": 2.7, "user_ratings_total": 163}, "ChIJl0grxLIadkgRGycKCXxkTr4": {"geometry": {"location": {"lat": 51.514868, "lng": -0.173928}, "viewport": {"northeast": {"lat": 51.5161101302915, "lng": -0.172426719708498}, "southwest": {"lat": 51.5134121697085, "lng": -0.175124680291502}}}, "name": "Margo Tickets & Tours", "place_id": "ChIJl0grxLIadkgRGycKCXxkTr4", "types": ["travel_agency", "point_of_interest", "establishment"], "rating": 5, "user_ratings_total": 5}, "ChIJnUsdnq0adkgRkhHe9v1Brvc": {"geometry": {"location": {"lat": 51.51426710000001, "lng": -0.1732852000000001}, "viewport": {"northeast": {"lat": 51.51557623029151, "lng": -0.171877819708498}, "southwest": {"lat": 51.51287826970852, "lng": -0.1745757802915021}}}, "name": "Tony Heywood Landscapes", "place_id": "ChIJnUsdnq0adkgRkhHe9v1Brvc", "types": ["general_contractor", "point_of_interest", "establishment"]}, "ChIJl5VFXLAadkgRN95tINrK1fI": {"geometry": {"location": {"lat": 51.51511300000001, "lng": -0.173435}, "viewport": {"northeast": {"lat": 51.51636018029151, "lng": -0.171955919708498}, "southwest": {"lat": 51.51366221970851, "lng": -0.1746538802915021}}}, "name": "London Electricians", "place_id": "ChIJl5VFXLAadkgRN95tINrK1fI", "types": ["electrician", "point_of_interest", "establishment"], "rating": 4.8, "user_ratings_total": 68}, "ChIJVd0ZKc0EdkgRrcetztAdsgM": {"geometry": {"location": {"lat": 51.5149891, "lng": -0.1729022}, "viewport": {"northeast": {"lat": 51.5163534802915, "lng": -0.171575169708498}, "southwest": {"lat": 51.5136555197085, "lng": -0.174273130291502}}}, "name": "Meira Burton", "place_id": "ChIJVd0ZKc0EdkgRrcetztAdsgM", "types": ["health", "point_of_interest", "establishment"], "rating": 5, "user_ratings_total": 6}, "ChIJ6UiqK00FdkgRW2cYt_G6wKg": {"geometry": {"location": {"lat": 51.5147073, "lng": -0.1735283}, "viewport": {"northeast": {"lat": 51.51605628029149, "lng": -0.172179319708498}, "southwest": {"lat": 51.51335831970849, "lng": -0.174877280291502}}}, "name": "Easy Legal Team", "place_id": "ChIJ6UiqK00FdkgRW2cYt_G6wKg", "types": ["point_of_interest", "establishment"]}, "ChIJBcjv00wFdkgRXBAh_Hi_xe4": {"geometry": {"location": {"lat": 51.5147725, "lng": -0.1731631}, "viewport": {"northeast": {"lat": 51.51610578029149, "lng": -0.171840619708498}, "southwest": {"lat": 51.51340781970849, "lng": -0.174538580291502}}}, "name": "ubitricity Charging Station", "place_id": "ChIJBcjv00wFdkgRXBAh_Hi_xe4", "types": ["point_of_interest", "establishment"]}, "ChIJxQdht64FdkgRmw06GgC7fL0": {"geometry": {"location": {"lat": 51.51472649999999, "lng": -0.1730097}, "viewport": {"northeast": {"lat": 51.5160468302915, "lng": -0.171710169708498}, "southwest": {"lat": 51.5133488697085, "lng": -0.174408130291502}}}, "name": "England Car Transport Tyburnia", "place_id": "ChIJxQdht64FdkgRmw06GgC7fL0", "types": ["point_of_interest", "establishment"]}, "ChIJGwy31kwFdkgRKMRIe4mhrK0": {"geometry": {"location": {"lat": 51.5144732, "lng": -0.1730151}, "viewport": {"northeast": {"lat": 51.51585153029151, "lng": -0.171612869708498}, "southwest": {"lat": 51.51315356970851, "lng": -0.174310830291502}}}, "name": "Westbourne Car Sales Ltd", "place_id": "ChIJGwy31kwFdkgRKMRIe4mhrK0", "types": ["point_of_interest", "store", "establishment"], "rating": 1, "user_ratings_total": 1}, "ChIJRXHQPUYFdkgRMVWxoHq7zEI": {"geometry": {"location": {"lat": 51.51486320000001, "lng": -0.173889}, "viewport": {"northeast": {"lat": 51.51611273029151, "lng": -0.172398219708498}, "southwest": {"lat": 51.51341476970851, "lng": -0.175096180291502}}}, "name": "Bob hotel", "place_id": "ChIJRXHQPUYFdkgRMVWxoHq7zEI", "types": ["lodging", "point_of_interest", "establishment"]}, "ChIJAdAvLU0FdkgRhuNdvEMKDNI": {"geometry": {"location": {"lat": 51.5148458, "lng": -0.173924}, "viewport": {"northeast": {"lat": 51.5160947802915, "lng": -0.172432419708498}, "southwest": {"lat": 51.5133968197085, "lng": -0.175130380291502}}}, "name": "Ridgemount Hotel", "place_id": "ChIJAdAvLU0FdkgRhuNdvEMKDNI", "types": ["lodging", "point_of_interest", "establishment"]}, "ChIJY6rS0rIadkgRVosQsr_hRnY": {"geometry": {"location": {"lat": 51.5148075, "lng": -0.1739896}, "viewport": {"northeast": {"lat": 51.5160570302915, "lng": -0.172498869708498}, "southwest": {"lat": 51.5133590697085, "lng": -0.175196830291502}}}, "name": "Aspen Apartments", "place_id": "ChIJY6rS0rIadkgRVosQsr_hRnY", "types": ["point_of_interest", "establishment"], "rating": 4.1, "user_ratings_total": 10}, "ChIJTcAcnw0FdkgRUaddbkRyF-0": {"geometry": {"location": {"lat": 51.51468800000001, "lng": -0.174096}, "viewport": {"northeast": {"lat": 51.5160254302915, "lng": -0.172767569708498}, "southwest": {"lat": 51.5133274697085, "lng": -0.175465530291502}}}, "name": "JustPark | London, Sussex Gardens", "place_id": "ChIJTcAcnw0FdkgRUaddbkRyF-0", "types": ["parking", "point_of_interest", "establishment"]}, "ChIJAaJR0rIadkgRaWkgf2Z0yYI": {"geometry": {"location": {"lat": 51.5150535, "lng": -0.1740086}, "viewport": {"northeast": {"lat": 51.5164573802915, "lng": -0.172556469708498}, "southwest": {"lat": 51.5137594197085, "lng": -0.175254430291502}}}, "name": "Sussex Fish Bar", "place_id": "ChIJAaJR0rIadkgRaWkgf2Z0yYI", "types": ["meal_takeaway", "restaurant", "food", "point_of_interest", "establishment"], "rating": 3.6, "user_ratings_total": 413}, "ChIJ6xp64EwFdkgREwd6CTmDWLY": {"geometry": {"location": {"lat": 51.51351309033073, "lng": -0.1732393918289637}, "viewport": {"northeast": {"lat": 51.51485598029149, "lng": -0.171895019708498}, "southwest": {"lat": 51.51215801970849, "lng": -0.174592980291502}}}, "name": "8 Sussex Square", "place_id": "ChIJ6xp64EwFdkgREwd6CTmDWLY", "types": ["route"]}, "ChIJIciDJ00FdkgRqc7PCaHE-Og": {"geometry": {"location": {"lat": 51.51368120000001, "lng": -0.1740857}, "viewport": {"northeast": {"lat": 51.5150456302915, "lng": -0.172759419708498}, "southwest": {"lat": 51.5123476697085, "lng": -0.1754573802915021}}}, "name": "Lyn Joseph P R", "place_id": "ChIJIciDJ00FdkgRqc7PCaHE-Og", "types": ["point_of_interest", "establishment"]}, "ChIJq6vodrkFdkgR95hQl33keBQ": {"geometry": {"location": {"lat": 51.5137554, "lng": -0.1730113}, "viewport": {"northeast": {"lat": 51.51512768029149, "lng": -0.171696269708498}, "southwest": {"lat": 51.5124297197085, "lng": -0.174394230291502}}}, "name": "London Plus Services", "place_id": "ChIJq6vodrkFdkgR95hQl33keBQ", "types": ["point_of_interest", "establishment"]}, "ChIJ5-m7k7kFdkgRSGPpkZlNyuo": {"geometry": {"location": {"lat": 51.5133835, "lng": -0.1729283}, "viewport": {"northeast": {"lat": 51.51475413029149, "lng": -0.171542469708498}, "southwest": {"lat": 51.51205616970849, "lng": -0.174240430291502}}}, "name": "Apaertment 9 sussex", "place_id": "ChIJ5-m7k7kFdkgRSGPpkZlNyuo", "types": ["point_of_interest", "establishment"]}, "ChIJE58iXsMFdkgR5BVbiPDphcw": {"geometry": {"location": {"lat": 51.5138958, "lng": -0.1738052}, "viewport": {"northeast": {"lat": 51.5152299302915, "lng": -0.172434519708498}, "southwest": {"lat": 51.5125319697085, "lng": -0.175132480291502}}}, "name": "Water Damage Hyde Park Estate", "place_id": "ChIJE58iXsMFdkgR5BVbiPDphcw", "types": ["general_contractor", "point_of_interest", "establishment"]}, "ChIJvStRLPAFdkgRmRnVSFxpg8s": {"geometry": {"location": {"lat": 51.5136969, "lng": -0.1740329}, "viewport": {"northeast": {"lat": 51.51506913029149, "lng": -0.172718019708498}, "southwest": {"lat": 51.51237116970849, "lng": -0.175415980291502}}}, "name": "Ruelle cheval", "place_id": "ChIJvStRLPAFdkgRmRnVSFxpg8s", "types": ["point_of_interest", "establishment"]}, "ChIJqYfhF00FdkgRteemOLYFETY": {"geometry": {"location": {"lat": 51.5135564, "lng": -0.1741263}, "viewport": {"northeast": {"lat": 51.5149292802915, "lng": -0.172812319708498}, "southwest": {"lat": 51.5122313197085, "lng": -0.175510280291502}}}, "name": "Wellington Build and Maintenance", "place_id": "ChIJqYfhF00FdkgRteemOLYFETY", "types": ["point_of_interest", "establishment"]}, "ChIJqYfhF00FdkgR87q60E41_H0": {"geometry": {"location": {"lat": 51.5135564, "lng": -0.1741263}, "viewport": {"northeast": {"lat": 51.5149292802915, "lng": -0.172812319708498}, "southwest": {"lat": 51.5122313197085, "lng": -0.175510280291502}}}, "name": "Fine Wine PCC", "place_id": "ChIJqYfhF00FdkgR87q60E41_H0", "types": ["point_of_interest", "establishment"]}, "ChIJy-YvaYgFdkgRpkqRxCht_pY": {"geometry": {"location": {"lat": 51.5136874, "lng": -0.1741658}, "viewport": {"northeast": {"lat": 51.51502363029149, "lng": -0.172798219708498}, "southwest": {"lat": 51.5123256697085, "lng": -0.175496180291502}}}, "name": "Mhoia Interiors & Architecture", "place_id": "ChIJy-YvaYgFdkgRpkqRxCht_pY", "types": ["point_of_interest", "establishment"]}, "ChIJy5SZ1BgFdkgR1Gcn9lGSpqI": {"geometry": {"location": {"lat": 51.5136874, "lng": -0.1741752}, "viewport": {"northeast": {"lat": 51.5150207302915, "lng": -0.172803319708498}, "southwest": {"lat": 51.5123227697085, "lng": -0.175501280291502}}}, "name": "Meeting room Hyde Park Estate", "place_id": "ChIJy5SZ1BgFdkgR1Gcn9lGSpqI", "types": ["point_of_interest", "establishment"]}, "ChIJP77tHU0FdkgRqf_84cYHJLY": {"geometry": {"location": {"lat": 51.5131133, "lng": -0.1733611}, "viewport": {"northeast": {"lat": 51.5143625302915, "lng": -0.172191119708498}, "southwest": {"lat": 51.5116645697085, "lng": -0.174889080291502}}}, "name": "Sussex Square", "place_id": "ChIJP77tHU0FdkgRqf_84cYHJLY", "types": ["park", "point_of_interest", "establishment"], "rating": 4.3, "user_ratings_total": 3}, "ChIJkV88B00FdkgRajNTpknMaBw": {"geometry": {"location": {"lat": 51.51244625059653, "lng": -0.1736095017437005}, "viewport": {"northeast": {"lat": 51.51379523029149, "lng": -0.172260519708498}, "southwest": {"lat": 51.51109726970849, "lng": -0.174958480291502}}}, "name": "8-13 Stanhope Terrace", "place_id": "ChIJkV88B00FdkgRajNTpknMaBw", "types": ["route"]}, "ChIJ_wDYAE0FdkgRNs1AVWOTIus": {"geometry": {"location": {"lat": 51.512415, "lng": -0.173635}, "viewport": {"northeast": {"lat": 51.5137502302915, "lng": -0.172266019708498}, "southwest": {"lat": 51.5110522697085, "lng": -0.174963980291502}}}, "name": "ubitricity Charging Station", "place_id": "ChIJ_wDYAE0FdkgRNs1AVWOTIus", "types": ["point_of_interest", "establishment"]}, "ChIJ67AsqE0FdkgRVBG6DJ0GZE4": {"geometry": {"location": {"lat": 51.5123834, "lng": -0.1738144}, "viewport": {"northeast": {"lat": 51.51371758029151, "lng": -0.172444619708498}, "southwest": {"lat": 51.51101961970851, "lng": -0.175142580291502}}}, "name": "ubitricity Charging Station", "place_id": "ChIJ67AsqE0FdkgRVBG6DJ0GZE4", "types": ["point_of_interest", "establishment"]}, "ChIJU7tDVUwFdkgRkW7621lqwE0": {"geometry": {"location": {"lat": 51.512198, "lng": -0.1732362}, "viewport": {"northeast": {"lat": 51.5135271802915, "lng": -0.1718578197084979}, "southwest": {"lat": 51.5108292197085, "lng": -0.174555780291502}}}, "name": "Clear Project Direction", "place_id": "ChIJU7tDVUwFdkgRkW7621lqwE0", "types": ["general_contractor", "point_of_interest", "establishment"]}, "ChIJh_6g_EwFdkgRrqQGT6S84nc": {"geometry": {"location": {"lat": 51.5128387, "lng": -0.1729594}, "viewport": {"northeast": {"lat": 51.5141876802915, "lng": -0.171610419708498}, "southwest": {"lat": 51.5114897197085, "lng": -0.174308380291502}}}, "name": "Therapeutic Hands", "place_id": "ChIJh_6g_EwFdkgRrqQGT6S84nc", "types": ["point_of_interest", "establishment"]}, "ChIJzVhjU0wFdkgRI_W5MOxQyb0": {"geometry": {"location": {"lat": 51.51194570316718, "lng": -0.1729988011304159}, "viewport": {"northeast": {"lat": 51.51329363029149, "lng": -0.171649519708498}, "southwest": {"lat": 51.5105956697085, "lng": -0.174347480291502}}}, "name": "31 Bayswater Rd", "place_id": "ChIJzVhjU0wFdkgRI_W5MOxQyb0", "types": ["route"]}, "ChIJSxR4YyEFdkgRp9IQgPl73V4": {"geometry": {"location": {"lat": 51.51178089999999, "lng": -0.1728345}, "viewport": {"northeast": {"lat": 51.5132179302915, "lng": -0.171506519708498}, "southwest": {"lat": 51.5105199697085, "lng": -0.174204480291502}}}, "name": "Hyde Park pet cemetery", "place_id": "ChIJSxR4YyEFdkgRp9IQgPl73V4", "types": ["cemetery", "point_of_interest", "establishment"]}, "ChIJvz90Uk0FdkgR6wSangNwPTs": {"geometry": {"location": {"lat": 51.51464130342006, "lng": -0.1755537930868718}, "viewport": {"northeast": {"lat": 51.5159902802915, "lng": -0.174204819708498}, "southwest": {"lat": 51.5132923197085, "lng": -0.176902780291502}}}, "name": "4-14 Spring St", "place_id": "ChIJvz90Uk0FdkgR6wSangNwPTs", "types": ["route"]}, "ChIJQ1CZSE0FdkgRyZB3bVAuaKY": {"geometry": {"location": {"lat": 51.5142325, "lng": -0.1752261}, "viewport": {"northeast": {"lat": 51.5156223302915, "lng": -0.173805469708498}, "southwest": {"lat": 51.5129243697085, "lng": -0.176503430291502}}}, "name": "Edward Hotel London", "place_id": "ChIJQ1CZSE0FdkgRyZB3bVAuaKY", "types": ["lodging", "point_of_interest", "establishment"], "rating": 3.4, "user_ratings_total": 495}, "ChIJBfCSSE0FdkgRybH96E8VI54": {"geometry": {"location": {"lat": 51.5144896, "lng": -0.1750318}, "viewport": {"northeast": {"lat": 51.5157946802915, "lng": -0.173769569708498}, "southwest": {"lat": 51.5130967197085, "lng": -0.176467530291502}}}, "name": "ASK Italian", "place_id": "ChIJBfCSSE0FdkgRybH96E8VI54", "types": ["restaurant", "food", "point_of_interest", "store", "establishment"], "rating": 4.2, "user_ratings_total": 1345}, "ChIJ1UAxNE0FdkgRiHoMJ3cHIO8": {"geometry": {"location": {"lat": 51.5146111, "lng": -0.1746583}, "viewport": {"northeast": {"lat": 51.51598843029149, "lng": -0.173205769708498}, "southwest": {"lat": 51.51329046970849, "lng": -0.175903730291502}}}, "name": "Rose Park Hotel Paddington", "place_id": "ChIJ1UAxNE0FdkgRiHoMJ3cHIO8", "types": ["lodging", "point_of_interest", "establishment"], "rating": 3.2, "user_ratings_total": 351}, "ChIJcwbHqMQEdkgRfG7bXFKkZdw": {"geometry": {"location": {"lat": 51.51449470000001, "lng": -0.1745316}, "viewport": {"northeast": {"lat": 51.5157906802915, "lng": -0.173122719708498}, "southwest": {"lat": 51.5130927197085, "lng": -0.175820680291502}}}, "name": "Mitre House Hotel", "place_id": "ChIJcwbHqMQEdkgRfG7bXFKkZdw", "types": ["lodging", "point_of_interest", "establishment"], "rating": 3.7, "user_ratings_total": 328}, "ChIJiZn6Sk0FdkgRGkGfObP-sXQ": {"geometry": {"location": {"lat": 51.51452459999999, "lng": -0.1744245}, "viewport": {"northeast": {"lat": 51.51590158029149, "lng": -0.1730256697084979}, "southwest": {"lat": 51.51320361970849, "lng": -0.175723630291502}}}, "name": "Talbot Square Gym", "place_id": "ChIJiZn6Sk0FdkgRGkGfObP-sXQ", "types": ["gym", "health", "point_of_interest", "establishment"], "rating": 3.7, "user_ratings_total": 6}, "ChIJLV24SE0FdkgRK-VWswOh9lA": {"geometry": {"location": {"lat": 51.51425450000001, "lng": -0.1752204}, "viewport": {"northeast": {"lat": 51.5156384302915, "lng": -0.173810119708498}, "southwest": {"lat": 51.5129404697085, "lng": -0.176508080291502}}}, "name": "Sinclairs Residential Lettings", "place_id": "ChIJLV24SE0FdkgRK-VWswOh9lA", "types": ["real_estate_agency", "point_of_interest", "establishment"]}, "ChIJk7s7TU0FdkgRhIAmGLETpig": {"geometry": {"location": {"lat": 51.5146107, "lng": -0.1753296}, "viewport": {"northeast": {"lat": 51.5159317802915, "lng": -0.174031269708498}, "southwest": {"lat": 51.5132338197085, "lng": -0.176729230291502}}}, "name": "Wellness Therapy", "place_id": "ChIJk7s7TU0FdkgRhIAmGLETpig", "types": ["health", "point_of_interest", "establishment"]}, "ChIJIaIRUk0FdkgREXgyDT-RhKc": {"geometry": {"location": {"lat": 51.5143225, "lng": -0.1754181}, "viewport": {"northeast": {"lat": 51.5157201802915, "lng": -0.1739792697084979}, "southwest": {"lat": 51.5130222197085, "lng": -0.176677230291502}}}, "name": "Car Hire London", "place_id": "ChIJIaIRUk0FdkgREXgyDT-RhKc", "types": ["car_rental", "point_of_interest", "establishment"], "rating": 5, "user_ratings_total": 2}, "ChIJLdIzTE0FdkgRptIpzPFA_0Y": {"geometry": {"location": {"lat": 51.5146204, "lng": -0.1753165}, "viewport": {"northeast": {"lat": 51.5159373302915, "lng": -0.174025719708498}, "southwest": {"lat": 51.5132393697085, "lng": -0.176723680291502}}}, "name": "Transform Your Life Coaching & Therapy", "place_id": "ChIJLdIzTE0FdkgRptIpzPFA_0Y", "types": ["health", "point_of_interest", "establishment"]}, "ChIJiZn6Sk0FdkgRX6qE_X-eGzU": {"geometry": {"location": {"lat": 51.514748, "lng": -0.1749403}, "viewport": {"northeast": {"lat": 51.51615453029149, "lng": -0.173487769708498}, "southwest": {"lat": 51.5134565697085, "lng": -0.176185730291502}}}, "name": "Paddington Apartments", "place_id": "ChIJiZn6Sk0FdkgRX6qE_X-eGzU", "types": ["lodging", "point_of_interest", "establishment"], "rating": 3.9, "user_ratings_total": 93}, "ChIJHRo1tbIadkgRx702aeDJSxI": {"geometry": {"location": {"lat": 51.514346, "lng": -0.1753026}, "viewport": {"northeast": {"lat": 51.5157141302915, "lng": -0.173944369708498}, "southwest": {"lat": 51.5130161697085, "lng": -0.176642330291502}}}, "name": "GED Advisory", "place_id": "ChIJHRo1tbIadkgRx702aeDJSxI", "types": ["point_of_interest", "establishment"]}, "ChIJBROQUk0FdkgRkLKN54uV13w": {"geometry": {"location": {"lat": 51.514795, "lng": -0.175556}, "viewport": {"northeast": {"lat": 51.5161082802915, "lng": -0.174264469708498}, "southwest": {"lat": 51.51341031970851, "lng": -0.176962430291502}}}, "name": "Monex International", "place_id": "ChIJBROQUk0FdkgRkLKN54uV13w", "types": ["finance", "travel_agency", "point_of_interest", "establishment"], "rating": 4.2, "user_ratings_total": 27}, "ChIJNzeKRU0FdkgR9ddd1cmnww8": {"geometry": {"location": {"lat": 51.5143893, "lng": -0.1754543}, "viewport": {"northeast": {"lat": 51.5157608302915, "lng": -0.1740421197084979}, "southwest": {"lat": 51.51306286970851, "lng": -0.176740080291502}}}, "name": "Dexters Hyde Park & Bayswater Estate Agents", "place_id": "ChIJNzeKRU0FdkgR9ddd1cmnww8", "types": ["finance", "real_estate_agency", "point_of_interest", "establishment"], "rating": 4.9, "user_ratings_total": 413}, "ChIJCbtlUU0FdkgRlCR4F9aWOc8": {"geometry": {"location": {"lat": 51.5144109, "lng": -0.1755361}, "viewport": {"northeast": {"lat": 51.5158077802915, "lng": -0.174100219708498}, "southwest": {"lat": 51.5131098197085, "lng": -0.176798180291502}}}, "name": "Shivhem Logistics", "place_id": "ChIJCbtlUU0FdkgRlCR4F9aWOc8", "types": ["point_of_interest", "establishment"]}, "ChIJD7tlUU0FdkgRebia46WaWKo": {"geometry": {"location": {"lat": 51.5144109, "lng": -0.1755361}, "viewport": {"northeast": {"lat": 51.5158077802915, "lng": -0.174100219708498}, "southwest": {"lat": 51.5131098197085, "lng": -0.176798180291502}}}, "name": "Global Logistic", "place_id": "ChIJD7tlUU0FdkgRebia46WaWKo", "types": ["point_of_interest", "establishment"]}, "ChIJpeA0Tk0FdkgRf5kOkSSgZjA": {"geometry": {"location": {"lat": 51.5144109, "lng": -0.1755361}, "viewport": {"northeast": {"lat": 51.5158077802915, "lng": -0.174100219708498}, "southwest": {"lat": 51.5131098197085, "lng": -0.176798180291502}}}, "name": "Pnp Courier", "place_id": "ChIJpeA0Tk0FdkgRf5kOkSSgZjA", "types": ["point_of_interest", "establishment"]}, "ChIJCbtlUU0FdkgRW6Sop7zqg-o": {"geometry": {"location": {"lat": 51.51439419999999, "lng": -0.175545}, "viewport": {"northeast": {"lat": 51.51579608029149, "lng": -0.1740999697084979}, "southwest": {"lat": 51.51309811970849, "lng": -0.176797930291502}}}, "name": "BuildMe", "place_id": "ChIJCbtlUU0FdkgRW6Sop7zqg-o", "types": ["point_of_interest", "establishment"]}, "ChIJmRNyT00FdkgRn6xKZn-XElg": {"geometry": {"location": {"lat": 51.514286, "lng": -0.1753069}, "viewport": {"northeast": {"lat": 51.51567618029149, "lng": -0.1738857197084979}, "southwest": {"lat": 51.51297821970849, "lng": -0.176583680291502}}}, "name": "Royce Mayfair Ltd", "place_id": "ChIJmRNyT00FdkgRn6xKZn-XElg", "types": ["real_estate_agency", "point_of_interest", "establishment"], "rating": 1, "user_ratings_total": 1}, "ChIJP4ktT00FdkgRhYZ99K1G0mI": {"geometry": {"location": {"lat": 51.51425700000001, "lng": -0.175326}, "viewport": {"northeast": {"lat": 51.51565673029151, "lng": -0.173888019708498}, "southwest": {"lat": 51.51295876970851, "lng": -0.176585980291502}}}, "name": "MeetMyAgent", "place_id": "ChIJP4ktT00FdkgRhYZ99K1G0mI", "types": ["real_estate_agency", "point_of_interest", "establishment"]}, "ChIJT_YfRk0FdkgR_zUVwLtyW5U": {"geometry": {"location": {"lat": 51.5142098, "lng": -0.1752679}, "viewport": {"northeast": {"lat": 51.5156113302915, "lng": -0.1738268197084979}, "southwest": {"lat": 51.51291336970851, "lng": -0.176524780291502}}}, "name": "Sinclairs Residential Property Managment", "place_id": "ChIJT_YfRk0FdkgR_zUVwLtyW5U", "types": ["real_estate_agency", "point_of_interest", "establishment"]}, "ChIJpbDGNE0FdkgR2OIKNmKOSfw": {"geometry": {"location": {"lat": 51.51486259999999, "lng": -0.1745}, "viewport": {"northeast": {"lat": 51.5161899302915, "lng": -0.173133919708498}, "southwest": {"lat": 51.5134919697085, "lng": -0.1758318802915021}}}, "name": "Talbot Square Gardens", "place_id": "ChIJpbDGNE0FdkgR2OIKNmKOSfw", "types": ["park", "point_of_interest", "establishment"], "rating": 4.1, "user_ratings_total": 25}, "ChIJ7aOotLIadkgRFrVjZJvuHKg": {"geometry": {"location": {"lat": 51.5151135, "lng": -0.1751132}, "viewport": {"northeast": {"lat": 51.5164085302915, "lng": -0.173691969708498}, "southwest": {"lat": 51.5137105697085, "lng": -0.176389930291502}}}, "name": "University of London", "place_id": "ChIJ7aOotLIadkgRFrVjZJvuHKg", "types": ["university", "point_of_interest", "establishment"], "rating": 3.5, "user_ratings_total": 11}, "ChIJD0i8Uk0FdkgRLnNCgDfx6SU": {"geometry": {"location": {"lat": 51.51482619999999, "lng": -0.1756039}, "viewport": {"northeast": {"lat": 51.5161422802915, "lng": -0.174298819708498}, "southwest": {"lat": 51.5134443197085, "lng": -0.176996780291502}}}, "name": "Charlie\u2019s Barber Shop", "place_id": "ChIJD0i8Uk0FdkgRLnNCgDfx6SU", "types": ["hair_care", "health", "point_of_interest", "establishment"], "rating": 4.6, "user_ratings_total": 164}, "ChIJk7s7TU0FdkgRfwkOgkWNrRY": {"geometry": {"location": {"lat": 51.514847, "lng": -0.17549}, "viewport": {"northeast": {"lat": 51.51614093029149, "lng": -0.174240919708498}, "southwest": {"lat": 51.51344296970849, "lng": -0.176938880291502}}}, "name": "Katy's Nails", "place_id": "ChIJk7s7TU0FdkgRfwkOgkWNrRY", "types": ["beauty_salon", "point_of_interest", "establishment"], "rating": 3.3, "user_ratings_total": 50}, "ChIJgTa-Uk0FdkgRiZt40g_f77M": {"geometry": {"location": {"lat": 51.514847, "lng": -0.17549}, "viewport": {"northeast": {"lat": 51.51614093029149, "lng": -0.174240919708498}, "southwest": {"lat": 51.51344296970849, "lng": -0.176938880291502}}}, "name": "Spring Dry Cleaners", "place_id": "ChIJgTa-Uk0FdkgRiZt40g_f77M", "types": ["laundry", "point_of_interest", "establishment"], "rating": 4.6, "user_ratings_total": 22}, "ChIJY_2ZUU0FdkgRLoqlXAjL9es": {"geometry": {"location": {"lat": 51.514452, "lng": -0.175546}, "viewport": {"northeast": {"lat": 51.5158480802915, "lng": -0.174132869708498}, "southwest": {"lat": 51.5131501197085, "lng": -0.176830830291502}}}, "name": "Golden Shalimar Indian Restaurant", "place_id": "ChIJY_2ZUU0FdkgRLoqlXAjL9es", "types": ["restaurant", "food", "point_of_interest", "establishment"], "rating": 3.7, "user_ratings_total": 209}, "ChIJv5ZjLk0FdkgRmhUIa3OB3DE": {"geometry": {"location": {"lat": 51.514361, "lng": -0.174769}, "viewport": {"northeast": {"lat": 51.5156128302915, "lng": -0.173281169708498}, "southwest": {"lat": 51.5129148697085, "lng": -0.175979130291502}}}, "name": "Fairways Hotel Paddington", "place_id": "ChIJv5ZjLk0FdkgRmhUIa3OB3DE", "types": ["lodging", "point_of_interest", "establishment"], "rating": 3, "user_ratings_total": 30}, "ChIJz3YqNk0FdkgRYKRWL1GvE6M": {"geometry": {"location": {"lat": 51.51433300000001, "lng": -0.17494}, "viewport": {"northeast": {"lat": 51.5156534802915, "lng": -0.173634219708498}, "southwest": {"lat": 51.51295551970851, "lng": -0.176332180291502}}}, "name": "Mara House", "place_id": "ChIJz3YqNk0FdkgRYKRWL1GvE6M", "types": ["real_estate_agency", "lodging", "point_of_interest", "establishment"], "rating": 3.7, "user_ratings_total": 23}, "ChIJKR3kBLYFdkgRlaT9OpkS7pk": {"geometry": {"location": {"lat": 51.51463289999999, "lng": -0.1752896}, "viewport": {"northeast": {"lat": 51.51594293029149, "lng": -0.174011319708498}, "southwest": {"lat": 51.5132449697085, "lng": -0.176709280291502}}}, "name": "London Staffing Solutions", "place_id": "ChIJKR3kBLYFdkgRlaT9OpkS7pk", "types": ["point_of_interest", "establishment"], "rating": 3.8, "user_ratings_total": 4}, "ChIJDSboeR4FdkgRmKYCExjasok": {"geometry": {"location": {"lat": 51.51460499999999, "lng": -0.1753221}, "viewport": {"northeast": {"lat": 51.51592618029149, "lng": -0.174023619708498}, "southwest": {"lat": 51.5132282197085, "lng": -0.176721580291502}}}, "name": "grp roofing", "place_id": "ChIJDSboeR4FdkgRmKYCExjasok", "types": ["roofing_contractor", "point_of_interest", "establishment"]}, "ChIJlbs7TU0FdkgRluhoflM-9-o": {"geometry": {"location": {"lat": 51.5146107, "lng": -0.1753296}, "viewport": {"northeast": {"lat": 51.5159317802915, "lng": -0.174031269708498}, "southwest": {"lat": 51.5132338197085, "lng": -0.176729230291502}}}, "name": "Osteopathic Consfultancy", "place_id": "ChIJlbs7TU0FdkgRluhoflM-9-o", "types": ["health", "point_of_interest", "establishment"]}, "ChIJlbs7TU0FdkgRc_vFwd1f77A": {"geometry": {"location": {"lat": 51.51464999999999, "lng": -0.1753855}, "viewport": {"northeast": {"lat": 51.5159710802915, "lng": -0.1740871697084979}, "southwest": {"lat": 51.5132731197085, "lng": -0.176785130291502}}}, "name": "Morgan Reed", "place_id": "ChIJlbs7TU0FdkgRc_vFwd1f77A", "types": ["lawyer", "point_of_interest", "establishment"]}, "ChIJqwxggjUFdkgREbM-YOvJ01E": {"geometry": {"location": {"lat": 51.5144897, "lng": -0.1750317}, "viewport": {"northeast": {"lat": 51.51579073029151, "lng": -0.173766819708498}, "southwest": {"lat": 51.51309276970851, "lng": -0.176464780291502}}}, "name": "Coco di Mama Delivery Kitchen", "place_id": "ChIJqwxggjUFdkgREbM-YOvJ01E", "types": ["meal_delivery", "food", "point_of_interest", "establishment"]}, "ChIJyw9uSU0FdkgRPL0RtMYrzlo": {"geometry": {"location": {"lat": 51.5144896, "lng": -0.1750318}, "viewport": {"northeast": {"lat": 51.5157906302915, "lng": -0.173766869708498}, "southwest": {"lat": 51.5130926697085, "lng": -0.1764648302915021}}}, "name": "Grandincome Limited", "place_id": "ChIJyw9uSU0FdkgRPL0RtMYrzlo", "types": ["finance", "point_of_interest", "establishment"]}, "ChIJN_GvGUsFdkgRT_nMcPysDOA": {"geometry": {"location": {"lat": 51.5147341, "lng": -0.1748228}, "viewport": {"northeast": {"lat": 51.5161255302915, "lng": -0.173397419708498}, "southwest": {"lat": 51.5134275697085, "lng": -0.176095380291502}}}, "name": "SEO Training London - Anglux", "place_id": "ChIJN_GvGUsFdkgRT_nMcPysDOA", "types": ["point_of_interest", "establishment"], "rating": 5, "user_ratings_total": 2}, "ChIJi3eJcwoFdkgRqqHI1oFwM78": {"geometry": {"location": {"lat": 51.5147341, "lng": -0.1748228}, "viewport": {"northeast": {"lat": 51.5161255302915, "lng": -0.173397419708498}, "southwest": {"lat": 51.5134275697085, "lng": -0.176095380291502}}}, "name": "Pedro Matias SEO Consultant (West London)", "place_id": "ChIJi3eJcwoFdkgRqqHI1oFwM78", "types": ["point_of_interest", "establishment"], "rating": 5, "user_ratings_total": 2}, "ChIJWSV5gLUFdkgRQUZFkbrwMUQ": {"geometry": {"location": {"lat": 51.514403, "lng": -0.1752135}, "viewport": {"northeast": {"lat": 51.51577328029149, "lng": -0.173827219708498}, "southwest": {"lat": 51.51307531970849, "lng": -0.176525180291502}}}, "name": "Mini & Large Skip Hire", "place_id": "ChIJWSV5gLUFdkgRQUZFkbrwMUQ", "types": ["point_of_interest", "establishment"]}, "ChIJEQzT_PkFdkgR8NOh7AwAyrw": {"geometry": {"location": {"lat": 51.5144055, "lng": -0.1750337}, "viewport": {"northeast": {"lat": 51.5157259802915, "lng": -0.173734469708498}, "southwest": {"lat": 51.5130280197085, "lng": -0.176432430291502}}}, "name": "Mojo JoJo's", "place_id": "ChIJEQzT_PkFdkgR8NOh7AwAyrw", "types": ["point_of_interest", "establishment"]}, "ChIJQSD3yrIadkgRdsdX5QnBFQ4": {"geometry": {"location": {"lat": 51.5148874, "lng": -0.1749135}, "viewport": {"northeast": {"lat": 51.5162588802915, "lng": -0.173524069708498}, "southwest": {"lat": 51.5135609197085, "lng": -0.176222030291502}}}, "name": "hotel londres", "place_id": "ChIJQSD3yrIadkgRdsdX5QnBFQ4", "types": ["lodging", "point_of_interest", "establishment"]}, "ChIJ-RlsNE0FdkgRQ-8b47Tr8E8": {"geometry": {"location": {"lat": 51.5146088, "lng": -0.1746874}, "viewport": {"northeast": {"lat": 51.5160075802915, "lng": -0.173249819708498}, "southwest": {"lat": 51.5133096197085, "lng": -0.1759477802915021}}}, "name": "\u30ed\u30fc\u30ba \u30d1\u30fc\u30af \u30db\u30c6\u30eb", "place_id": "ChIJ-RlsNE0FdkgRQ-8b47Tr8E8", "types": ["lodging", "point_of_interest", "establishment"]}, "ChIJHVCXpcMFdkgRUENXi3_XhAk": {"geometry": {"location": {"lat": 51.514847, "lng": -0.17549}, "viewport": {"northeast": {"lat": 51.51614093029149, "lng": -0.174240919708498}, "southwest": {"lat": 51.51344296970849, "lng": -0.176938880291502}}}, "name": "Monex Fintech", "place_id": "ChIJHVCXpcMFdkgRUENXi3_XhAk", "types": ["finance", "point_of_interest", "establishment"]}, "ChIJbbzAUk0FdkgRD32iWOrmHko": {"geometry": {"location": {"lat": 51.514847, "lng": -0.17549}, "viewport": {"northeast": {"lat": 51.51614093029149, "lng": -0.174240919708498}, "southwest": {"lat": 51.51344296970849, "lng": -0.176938880291502}}}, "name": "Stasher - Luggage Storage Paddington - Book Online", "place_id": "ChIJbbzAUk0FdkgRD32iWOrmHko", "types": ["storage", "point_of_interest", "establishment"], "rating": 4.8, "user_ratings_total": 8}, "ChIJbQ_QUk0FdkgRFFTAr3lFl1s": {"geometry": {"location": {"lat": 51.514847, "lng": -0.17549}, "viewport": {"northeast": {"lat": 51.51614093029149, "lng": -0.174240919708498}, "southwest": {"lat": 51.51344296970849, "lng": -0.176938880291502}}}, "name": "Headshots Universal Photography", "place_id": "ChIJbQ_QUk0FdkgRFFTAr3lFl1s", "types": ["point_of_interest", "establishment"], "rating": 5, "user_ratings_total": 2}, "ChIJEU2UUk0FdkgR7rTYycS1Obw": {"geometry": {"location": {"lat": 51.514847, "lng": -0.17549}, "viewport": {"northeast": {"lat": 51.51614093029149, "lng": -0.174240919708498}, "southwest": {"lat": 51.51344296970849, "lng": -0.176938880291502}}}, "name": "Monex Telecom Ltd", "place_id": "ChIJEU2UUk0FdkgR7rTYycS1Obw", "types": ["point_of_interest", "establishment"], "rating": 3.3, "user_ratings_total": 3}, "ChIJnd0IQk0FdkgRWiCsnX3y7Nc": {"geometry": {"location": {"lat": 51.5135805989359, "lng": -0.1752135230838466}, "viewport": {"northeast": {"lat": 51.5149293302915, "lng": -0.173863769708498}, "southwest": {"lat": 51.5122313697085, "lng": -0.176561730291502}}}, "name": "217-223 Sussex Gardens", "place_id": "ChIJnd0IQk0FdkgRWiCsnX3y7Nc", "types": ["route"]}, "ChIJDUQrQk0FdkgRiVYL1qDls08": {"geometry": {"location": {"lat": 51.5139817, "lng": -0.1753357}, "viewport": {"northeast": {"lat": 51.5153046302915, "lng": -0.173953019708498}, "southwest": {"lat": 51.5126066697085, "lng": -0.176650980291502}}}, "name": "Lancaster Court Hotel", "place_id": "ChIJDUQrQk0FdkgRiVYL1qDls08", "types": ["lodging", "point_of_interest", "establishment"], "rating": 3.3, "user_ratings_total": 308}, "ChIJWxlmbk0FdkgRoqor7YMJUDE": {"geometry": {"location": {"lat": 51.51305559999999, "lng": -0.1752778}, "viewport": {"northeast": {"lat": 51.5143780302915, "lng": -0.174054419708498}, "southwest": {"lat": 51.5116800697085, "lng": -0.176752380291502}}}, "name": "Central London Budget Hotel", "place_id": "ChIJWxlmbk0FdkgRoqor7YMJUDE", "types": ["lodging", "point_of_interest", "establishment"], "rating": 3.3, "user_ratings_total": 121}, "ChIJ1-q5Ik0FdkgR1c4TSDt-xm8": {"geometry": {"location": {"lat": 51.5133253, "lng": -0.174824}, "viewport": {"northeast": {"lat": 51.5146617802915, "lng": -0.173458319708498}, "southwest": {"lat": 51.51196381970851, "lng": -0.176156280291502}}}, "name": "Ross Nye Stables", "place_id": "ChIJ1-q5Ik0FdkgR1c4TSDt-xm8", "types": ["point_of_interest", "establishment"], "rating": 4.4, "user_ratings_total": 36}, "ChIJefsAGE0FdkgRIrejnE6js48": {"geometry": {"location": {"lat": 51.5131159, "lng": -0.174752}, "viewport": {"northeast": {"lat": 51.5144473802915, "lng": -0.173434169708498}, "southwest": {"lat": 51.5117494197085, "lng": -0.176132130291502}}}, "name": "Hyde Park Stables - Horse Riding Central London", "place_id": "ChIJefsAGE0FdkgRIrejnE6js48", "types": ["tourist_attraction", "travel_agency", "point_of_interest", "establishment"], "rating": 4, "user_ratings_total": 70}, "ChIJ5xDVFE0FdkgRSKr5YhM54eU": {"geometry": {"location": {"lat": 51.5133923, "lng": -0.1747838}, "viewport": {"northeast": {"lat": 51.5147092802915, "lng": -0.173392019708498}, "southwest": {"lat": 51.5120113197085, "lng": -0.176089980291502}}}, "name": "\u062e\u064a\u0648\u0644 \u0627\u0644\u0647\u0627\u064a\u062f \u0628\u0627\u0631\u0643", "place_id": "ChIJ5xDVFE0FdkgRSKr5YhM54eU", "types": ["point_of_interest", "establishment"], "rating": 2, "user_ratings_total": 1}, "ChIJ-ZVQaU0FdkgRPjadxoLKBuY": {"geometry": {"location": {"lat": 51.5132243, "lng": -0.1752387}, "viewport": {"northeast": {"lat": 51.5146077802915, "lng": -0.173989369708498}, "southwest": {"lat": 51.5119098197085, "lng": -0.176687330291502}}}, "name": "Shaping Bodies Changing Lives London", "place_id": "ChIJ-ZVQaU0FdkgRPjadxoLKBuY", "types": ["health", "point_of_interest", "establishment"]}, "ChIJO61fRE0FdkgRebOAVq-mUi8": {"geometry": {"location": {"lat": 51.5139817, "lng": -0.1753357}, "viewport": {"northeast": {"lat": 51.5153046302915, "lng": -0.173953019708498}, "southwest": {"lat": 51.5126066697085, "lng": -0.176650980291502}}}, "name": "Key Worker Accommodation", "place_id": "ChIJO61fRE0FdkgRebOAVq-mUi8", "types": ["lodging", "point_of_interest", "establishment"]}, "ChIJS5_4PU0FdkgRNBWeQZ-VPUI": {"geometry": {"location": {"lat": 51.5135813, "lng": -0.1744712}, "viewport": {"northeast": {"lat": 51.5148936302915, "lng": -0.173069969708498}, "southwest": {"lat": 51.5121956697085, "lng": -0.175767930291502}}}, "name": "Redcomb Pubs Ltd", "place_id": "ChIJS5_4PU0FdkgRNBWeQZ-VPUI", "types": ["point_of_interest", "establishment"], "rating": 5, "user_ratings_total": 1}, "ChIJxfHobk0FdkgRY2BdSu6HjNo": {"geometry": {"location": {"lat": 51.5131397, "lng": -0.175288}, "viewport": {"northeast": {"lat": 51.5145535802915, "lng": -0.174024669708498}, "southwest": {"lat": 51.51185561970851, "lng": -0.176722630291502}}}, "name": "One IPTV", "place_id": "ChIJxfHobk0FdkgRY2BdSu6HjNo", "types": ["point_of_interest", "establishment"]}, "ChIJMwHkbk0FdkgRrbDSWzisrvg": {"geometry": {"location": {"lat": 51.5131305, "lng": -0.1753177}, "viewport": {"northeast": {"lat": 51.51454858029149, "lng": -0.174039869708498}, "southwest": {"lat": 51.51185061970849, "lng": -0.176737830291502}}}, "name": "Kronotrade P V T Ltd", "place_id": "ChIJMwHkbk0FdkgRrbDSWzisrvg", "types": ["point_of_interest", "establishment"]}, "ChIJl1yIek0FdkgR-eZZfh5_55o": {"geometry": {"location": {"lat": 51.51276653393774, "lng": -0.1755830047853657}, "viewport": {"northeast": {"lat": 51.51408118029151, "lng": -0.174206469708498}, "southwest": {"lat": 51.51138321970851, "lng": -0.176904430291502}}}, "name": "7 A402", "place_id": "ChIJl1yIek0FdkgR-eZZfh5_55o", "types": ["route"]}, "ChIJYQCtg00FdkgREw34v1ji0m4": {"geometry": {"location": {"lat": 51.512297, "lng": -0.175197}, "viewport": {"northeast": {"lat": 51.51371708029149, "lng": -0.173786369708498}, "southwest": {"lat": 51.51101911970849, "lng": -0.176484330291502}}}, "name": "Royal Lancaster London", "place_id": "ChIJYQCtg00FdkgREw34v1ji0m4", "types": ["lodging", "restaurant", "food", "gym", "health", "point_of_interest", "establishment"], "rating": 4.5, "user_ratings_total": 1645}, "ChIJiWKzc00FdkgRuOcfsuLjjcE": {"geometry": {"location": {"lat": 51.51277779999999, "lng": -0.175}, "viewport": {"northeast": {"lat": 51.5141071302915, "lng": -0.173764419708498}, "southwest": {"lat": 51.5114091697085, "lng": -0.176462380291502}}}, "name": "Assaha Hyde Park Apartments", "place_id": "ChIJiWKzc00FdkgRuOcfsuLjjcE", "types": ["lodging", "point_of_interest", "establishment"], "rating": 2.5, "user_ratings_total": 70}, "ChIJaW2seFIFdkgRUS2sQMnqPpA": {"geometry": {"location": {"lat": 51.5123012, "lng": -0.175029}, "viewport": {"northeast": {"lat": 51.51371123029149, "lng": -0.173669669708498}, "southwest": {"lat": 51.51101326970849, "lng": -0.176367630291502}}}, "name": "Nipa Thai", "place_id": "ChIJaW2seFIFdkgRUS2sQMnqPpA", "types": ["restaurant", "food", "point_of_interest", "establishment"], "rating": 4.4, "user_ratings_total": 253}, "ChIJxzdTDE0FdkgR8ELiJ1oI-NM": {"geometry": {"location": {"lat": 51.5129401, "lng": -0.1747319}, "viewport": {"northeast": {"lat": 51.5142416302915, "lng": -0.173319369708498}, "southwest": {"lat": 51.51154366970851, "lng": -0.1760173302915021}}}, "name": "Angelus Restaurant", "place_id": "ChIJxzdTDE0FdkgR8ELiJ1oI-NM", "types": ["bar", "restaurant", "food", "point_of_interest", "establishment"], "rating": 4.1, "user_ratings_total": 94}, "ChIJ-xK6DE0FdkgRwANtmUf5yeU": {"geometry": {"location": {"lat": 51.5126398, "lng": -0.1747637}, "viewport": {"northeast": {"lat": 51.51393893029149, "lng": -0.1735139197084979}, "southwest": {"lat": 51.5112409697085, "lng": -0.176211880291502}}}, "name": "Kathryn Louise", "place_id": "ChIJ-xK6DE0FdkgRwANtmUf5yeU", "types": ["point_of_interest", "establishment"]}, "ChIJ8RWvqNAFdkgR_yP_PZczF6E": {"geometry": {"location": {"lat": 51.51236859999999, "lng": -0.1751189}, "viewport": {"northeast": {"lat": 51.5137486302915, "lng": -0.1737369697084979}, "southwest": {"lat": 51.5110506697085, "lng": -0.176434930291502}}}, "name": "Bars at the Royal Lancaster Hotel", "place_id": "ChIJ8RWvqNAFdkgR_yP_PZczF6E", "types": ["restaurant", "food", "point_of_interest", "establishment"]}, "ChIJoQijc00FdkgRzruoW0fPHow": {"geometry": {"location": {"lat": 51.5123454, "lng": -0.1749623}, "viewport": {"northeast": {"lat": 51.5137338802915, "lng": -0.173627869708498}, "southwest": {"lat": 51.5110359197085, "lng": -0.176325830291502}}}, "name": "Nine Kings", "place_id": "ChIJoQijc00FdkgRzruoW0fPHow", "types": ["point_of_interest", "establishment"]}, "ChIJ4XYB-HoFdkgRRG4108G64fI": {"geometry": {"location": {"lat": 51.5126465, "lng": -0.1747393}, "viewport": {"northeast": {"lat": 51.5139405802915, "lng": -0.1734995697084979}, "southwest": {"lat": 51.5112426197085, "lng": -0.176197530291502}}}, "name": "Grapple-Strong", "place_id": "ChIJ4XYB-HoFdkgRRG4108G64fI", "types": ["health", "point_of_interest", "establishment"], "rating": 5, "user_ratings_total": 23}, "ChIJoXmVck0FdkgR0ESFZdB1Q44": {"geometry": {"location": {"lat": 51.512797, "lng": -0.1748814}, "viewport": {"northeast": {"lat": 51.5141178802915, "lng": -0.173494769708498}, "southwest": {"lat": 51.5114199197085, "lng": -0.176192730291502}}}, "name": "BATHURST STREET MAYSARA LTD", "place_id": "ChIJoXmVck0FdkgR0ESFZdB1Q44", "types": ["point_of_interest", "establishment"], "rating": 5, "user_ratings_total": 2}, "ChIJq8hJck0FdkgRspBX92xHMaM": {"geometry": {"location": {"lat": 51.51283609999999, "lng": -0.1749189}, "viewport": {"northeast": {"lat": 51.5141056302915, "lng": -0.173696469708498}, "southwest": {"lat": 51.5114076697085, "lng": -0.176394430291502}}}, "name": "Solitaire Developments UK Ltd", "place_id": "ChIJq8hJck0FdkgRspBX92xHMaM", "types": ["point_of_interest", "establishment"]}, "ChIJObu9ck0FdkgRki4H0ya4U4E": {"geometry": {"location": {"lat": 51.5128525, "lng": -0.1748724}, "viewport": {"northeast": {"lat": 51.5141583802915, "lng": -0.173465669708498}, "southwest": {"lat": 51.5114604197085, "lng": -0.176163630291502}}}, "name": "E-Vision Concept Ltd", "place_id": "ChIJObu9ck0FdkgRki4H0ya4U4E", "types": ["point_of_interest", "establishment"], "rating": 5, "user_ratings_total": 1}, "ChIJwUlBQdYEdkgRq-3q2juCYeo": {"geometry": {"location": {"lat": 51.512853, "lng": -0.174872}, "viewport": {"northeast": {"lat": 51.5141587802915, "lng": -0.173465169708498}, "southwest": {"lat": 51.5114608197085, "lng": -0.176163130291502}}}, "name": "Dellasposa Gallery", "place_id": "ChIJwUlBQdYEdkgRq-3q2juCYeo", "types": ["art_gallery", "finance", "point_of_interest", "establishment"], "rating": 5, "user_ratings_total": 8}, "ChIJ-SzIck0FdkgRfNXL1bnVUXo": {"geometry": {"location": {"lat": 51.5128717, "lng": -0.1747372}, "viewport": {"northeast": {"lat": 51.5141925802915, "lng": -0.173350619708498}, "southwest": {"lat": 51.5114946197085, "lng": -0.176048580291502}}}, "name": "Bathurst Deli", "place_id": "ChIJ-SzIck0FdkgRfNXL1bnVUXo", "types": ["food", "point_of_interest", "store", "establishment"], "rating": 4.1, "user_ratings_total": 55}, "ChIJ198cBWsFdkgRAIbInGMUysk": {"geometry": {"location": {"lat": 51.5121141, "lng": -0.1751992}, "viewport": {"northeast": {"lat": 51.5134386302915, "lng": -0.173996119708498}, "southwest": {"lat": 51.5107406697085, "lng": -0.176694080291502}}}, "name": "AK Films", "place_id": "ChIJ198cBWsFdkgRAIbInGMUysk", "types": ["point_of_interest", "establishment"], "rating": 5, "user_ratings_total": 1}, "ChIJK8c5NOcFdkgRe4u9qwV8oBo": {"geometry": {"location": {"lat": 51.5127186, "lng": -0.1746133}, "viewport": {"northeast": {"lat": 51.5141036302915, "lng": -0.173312619708498}, "southwest": {"lat": 51.5114056697085, "lng": -0.176010580291502}}}, "name": "IBU", "place_id": "ChIJK8c5NOcFdkgRe4u9qwV8oBo", "types": ["restaurant", "food", "point_of_interest", "establishment"], "rating": 4.1, "user_ratings_total": 33}, "ChIJs39Ack0FdkgR8QmCA9r-ZKA": {"geometry": {"location": {"lat": 51.51239329999999, "lng": -0.1744772}, "viewport": {"northeast": {"lat": 51.5136979302915, "lng": -0.173204869708498}, "southwest": {"lat": 51.5109999697085, "lng": -0.175902830291502}}}, "name": "88 Technology Limited", "place_id": "ChIJs39Ack0FdkgR8QmCA9r-ZKA", "types": ["point_of_interest", "establishment"]}, "ChIJrXWgEk0FdkgR8EbtiklZk6k": {"geometry": {"location": {"lat": 51.5129074, "lng": -0.174703}, "viewport": {"northeast": {"lat": 51.5142229802915, "lng": -0.173309319708498}, "southwest": {"lat": 51.5115250197085, "lng": -0.1760072802915021}}}, "name": "Archery Tavern", "place_id": "ChIJrXWgEk0FdkgR8EbtiklZk6k", "types": ["bar", "point_of_interest", "establishment"]}, "ChIJdfk1g00FdkgRTT23T8rkhSo": {"geometry": {"location": {"lat": 51.5119611, "lng": -0.1755642}, "viewport": {"northeast": {"lat": 51.51335215729056, "lng": -0.17419032876964}, "southwest": {"lat": 51.51065419670756, "lng": -0.1768882893526441}}}, "name": "Parking lot", "place_id": "ChIJdfk1g00FdkgRTT23T8rkhSo", "types": ["parking", "premise", "point_of_interest", "establishment"]}, "ChIJ67AOE-8FdkgR-ZBJbNfodl4": {"geometry": {"location": {"lat": 51.512781, "lng": -0.1748535}, "viewport": {"northeast": {"lat": 51.51412998029149, "lng": -0.173504519708498}, "southwest": {"lat": 51.51143201970849, "lng": -0.176202480291502}}}, "name": "\u0628\u0642\u0627\u0644\u0629 \u0627\u0644\u0642\u0631\u064a\u0629", "place_id": "ChIJ67AOE-8FdkgR-ZBJbNfodl4", "types": ["grocery_or_supermarket", "food", "point_of_interest", "store", "establishment"]}, "ChIJaVFDmk0FdkgRjRLMULg2fyI": {"geometry": {"location": {"lat": 51.51173160007351, "lng": -0.175074500052824}, "viewport": {"northeast": {"lat": 51.5130805802915, "lng": -0.173725519708498}, "southwest": {"lat": 51.5103826197085, "lng": -0.176423480291502}}}, "name": "48-47 Bayswater Rd", "place_id": "ChIJaVFDmk0FdkgRjRLMULg2fyI", "types": ["route"]}, "ChIJgZ_amk0FdkgRTyJanN2L1wM": {"geometry": {"location": {"lat": 51.5118336, "lng": -0.1754409}, "viewport": {"northeast": {"lat": 51.5131056302915, "lng": -0.174055719708498}, "southwest": {"lat": 51.5104076697085, "lng": -0.176753680291502}}}, "name": "Lancaster Gate", "place_id": "ChIJgZ_amk0FdkgRTyJanN2L1wM", "types": ["subway_station", "transit_station", "point_of_interest", "establishment"], "rating": 4, "user_ratings_total": 77}, "ChIJCe4Ljk0FdkgRLu4K953Kqk4": {"geometry": {"location": {"lat": 51.5112791, "lng": -0.1753223}, "viewport": {"northeast": {"lat": 51.51262808029151, "lng": -0.173973319708498}, "southwest": {"lat": 51.50993011970851, "lng": -0.176671280291502}}}, "name": "The Italian Gardens Cafe", "place_id": "ChIJCe4Ljk0FdkgRLu4K953Kqk4", "types": ["cafe", "food", "point_of_interest", "store", "establishment"], "rating": 4.1, "user_ratings_total": 361}, "ChIJB0qVok0FdkgR2Vutrcdo69c": {"geometry": {"location": {"lat": 51.51159999999999, "lng": -0.175201}, "viewport": {"northeast": {"lat": 51.51300288029149, "lng": -0.1738751197084979}, "southwest": {"lat": 51.5103049197085, "lng": -0.176573080291502}}}, "name": "Lancaster Gate Station (Stop LC)", "place_id": "ChIJB0qVok0FdkgR2Vutrcdo69c", "types": ["bus_station", "transit_station", "point_of_interest", "establishment"], "rating": 3.5, "user_ratings_total": 2}, "ChIJB0qVok0FdkgRSv_DJiQiJnk": {"geometry": {"location": {"lat": 51.51180979999999, "lng": -0.1751776}, "viewport": {"northeast": {"lat": 51.5131116302915, "lng": -0.173811219708498}, "southwest": {"lat": 51.51041366970851, "lng": -0.1765091802915021}}}, "name": "Lancaster Gate Station (Stop LK)", "place_id": "ChIJB0qVok0FdkgRSv_DJiQiJnk", "types": ["bus_station", "transit_station", "point_of_interest", "establishment"], "rating": 3.9, "user_ratings_total": 9}, "ChIJmxBnm00FdkgRlZ6XyGo4uJQ": {"geometry": {"location": {"lat": 51.51189280000001, "lng": -0.1754173}, "viewport": {"northeast": {"lat": 51.5132409302915, "lng": -0.174056269708498}, "southwest": {"lat": 51.5105429697085, "lng": -0.1767542302915021}}}, "name": "Lancaster Gate Station", "place_id": "ChIJmxBnm00FdkgRlZ6XyGo4uJQ", "types": ["transit_station", "point_of_interest", "establishment"]}, "ChIJl4R7eIoFdkgRI85VUVT8O1M": {"geometry": {"location": {"lat": 51.5109574, "lng": -0.1755759}, "viewport": {"northeast": {"lat": 51.51230638029151, "lng": -0.174226919708498}, "southwest": {"lat": 51.50960841970851, "lng": -0.176924880291502}}}, "name": "BG News", "place_id": "ChIJl4R7eIoFdkgRI85VUVT8O1M", "types": ["point_of_interest", "establishment"]}, "ChIJFaYfl00FdkgRKgTCqIv7y50": {"geometry": {"location": {"lat": 51.5114691, "lng": -0.1750093}, "viewport": {"northeast": {"lat": 51.51278621223965, "lng": -0.1736978103204024}, "southwest": {"lat": 51.51008825165665, "lng": -0.1763957709034064}}}, "name": "Parking lot", "place_id": "ChIJFaYfl00FdkgRKgTCqIv7y50", "types": ["parking", "premise", "point_of_interest", "establishment"]}, "ChIJI6MeJEsFdkgRsiqNMUyPpsw": {"geometry": {"location": {"lat": 51.51408479999999, "lng": -0.1677764}, "viewport": {"northeast": {"lat": 51.5154831802915, "lng": -0.166443719708498}, "southwest": {"lat": 51.5127852197085, "lng": -0.169141680291502}}}, "name": "www.movingact.com", "place_id": "ChIJI6MeJEsFdkgRsiqNMUyPpsw", "types": ["moving_company", "point_of_interest", "establishment"]}, "ChIJJ4g62EoFdkgRtE8N_1cLL5E": {"geometry": {"location": {"lat": 51.51416069999999, "lng": -0.1673745}, "viewport": {"northeast": {"lat": 51.5155536802915, "lng": -0.166045319708498}, "southwest": {"lat": 51.5128557197085, "lng": -0.168743280291502}}}, "name": "London Accommodation Services", "place_id": "ChIJJ4g62EoFdkgRtE8N_1cLL5E", "types": ["lodging", "point_of_interest", "establishment"]}, "ChIJHVZdzkn9DDkRNi4za7zAFwg": {"geometry": {"location": {"lat": 51.51411909999999, "lng": -0.167503}, "viewport": {"northeast": {"lat": 51.5154682302915, "lng": -0.166152119708498}, "southwest": {"lat": 51.5127702697085, "lng": -0.168850080291502}}}, "name": "Kola Capital Limited", "place_id": "ChIJHVZdzkn9DDkRNi4za7zAFwg", "types": ["point_of_interest", "establishment"]}, "ChIJs0P6ni4FdkgRdSNMaByYt1I": {"geometry": {"location": {"lat": 51.5139828, "lng": -0.1674979}, "viewport": {"northeast": {"lat": 51.5153218302915, "lng": -0.166198819708498}, "southwest": {"lat": 51.5126238697085, "lng": -0.168896780291502}}}, "name": "Swan Mobile Massage", "place_id": "ChIJs0P6ni4FdkgRdSNMaByYt1I", "types": ["spa", "point_of_interest", "establishment"]}, "ChIJSUcnKEsFdkgRhxknrzuY05s": {"geometry": {"location": {"lat": 51.5143379, "lng": -0.1674455}, "viewport": {"northeast": {"lat": 51.5156436802915, "lng": -0.166072619708498}, "southwest": {"lat": 51.5129457197085, "lng": -0.168770580291502}}}, "name": "Kph Construction", "place_id": "ChIJSUcnKEsFdkgRhxknrzuY05s", "types": ["point_of_interest", "establishment"]}, "ChIJR3Ahll5acEgR2M7__bBTGYg": {"geometry": {"location": {"lat": 51.5143603, "lng": -0.1675099}, "viewport": {"northeast": {"lat": 51.5156497802915, "lng": -0.166134169708498}, "southwest": {"lat": 51.5129518197085, "lng": -0.168832130291502}}}, "name": "Purple Ski Ltd", "place_id": "ChIJR3Ahll5acEgR2M7__bBTGYg", "types": ["point_of_interest", "establishment"]}, "ChIJ4wjj31gFdkgRHqBncZvE91A": {"geometry": {"location": {"lat": 51.513271, "lng": -0.1675375}, "viewport": {"northeast": {"lat": 51.5146042302915, "lng": -0.166337369708498}, "southwest": {"lat": 51.5119062697085, "lng": -0.169035330291502}}}, "name": "WH Smith blue plaque", "place_id": "ChIJ4wjj31gFdkgRHqBncZvE91A", "types": ["point_of_interest", "establishment"], "rating": 4.5, "user_ratings_total": 2}, "ChIJZ6hXHUsFdkgRGQ0xtQPHBYQ": {"geometry": {"location": {"lat": 51.5129584, "lng": -0.1674778}, "viewport": {"northeast": {"lat": 51.514299475372, "lng": -0.166138964287376}, "southwest": {"lat": 51.511601514789, "lng": -0.1688369248703801}}}, "name": "Parking lot", "place_id": "ChIJZ6hXHUsFdkgRGQ0xtQPHBYQ", "types": ["parking", "premise", "point_of_interest", "establishment"]}, "ChIJxbU_trQadkgRVZPjVwNsz78": {"geometry": {"location": {"lat": 51.51517797064432, "lng": -0.1689771477435742}, "viewport": {"northeast": {"lat": 51.5165328802915, "lng": -0.167612969708498}, "southwest": {"lat": 51.5138349197085, "lng": -0.170310930291502}}}, "name": "Hyde Park Crescent", "place_id": "ChIJxbU_trQadkgRVZPjVwNsz78", "types": ["route"]}, "ChIJP22mn_kbdkgRmxAq3LRn4Lk": {"geometry": {"location": {"lat": 51.5149297, "lng": -0.1691872}, "viewport": {"northeast": {"lat": 51.5162786802915, "lng": -0.167838219708498}, "southwest": {"lat": 51.5135807197085, "lng": -0.170536180291502}}}, "name": "music studio LFR", "place_id": "ChIJP22mn_kbdkgRmxAq3LRn4Lk", "types": ["electronics_store", "home_goods_store", "point_of_interest", "store", "establishment"]}, "ChIJu3rTR0sFdkgRlPCbDdASsDU": {"geometry": {"location": {"lat": 51.51416445095852, "lng": -0.1695781504883808}, "viewport": {"northeast": {"lat": 51.5155134302915, "lng": -0.168229169708498}, "southwest": {"lat": 51.5128154697085, "lng": -0.170927130291502}}}, "name": "20-15 Hyde Park Square", "place_id": "ChIJu3rTR0sFdkgRlPCbDdASsDU", "types": ["route"]}, "ChIJHzATR0sFdkgRZ7Q3qh18kWo": {"geometry": {"location": {"lat": 51.514011, "lng": -0.169004}, "viewport": {"northeast": {"lat": 51.5152680802915, "lng": -0.167628769708498}, "southwest": {"lat": 51.5125701197085, "lng": -0.170326730291502}}}, "name": "VASKO Photography", "place_id": "ChIJHzATR0sFdkgRZ7Q3qh18kWo", "types": ["point_of_interest", "establishment"], "rating": 5, "user_ratings_total": 2}, "ChIJM9MdR0sFdkgRrsx2tcFHQeA": {"geometry": {"location": {"lat": 51.5139828, "lng": -0.1690013}, "viewport": {"northeast": {"lat": 51.51525368029149, "lng": -0.167630019708498}, "southwest": {"lat": 51.5125557197085, "lng": -0.170327980291502}}}, "name": "Hyde Park Square", "place_id": "ChIJM9MdR0sFdkgRrsx2tcFHQeA", "types": ["park", "tourist_attraction", "point_of_interest", "establishment"], "rating": 4.5, "user_ratings_total": 56}, "ChIJaZpXZEsFdkgRggYM3g_JDxg": {"geometry": {"location": {"lat": 51.51308613978382, "lng": -0.1698656482217177}, "viewport": {"northeast": {"lat": 51.5144351302915, "lng": -0.16814895}, "southwest": {"lat": 51.5117371697085, "lng": -0.17158235}}}, "name": "1-11 Hyde Park Gardens", "place_id": "ChIJaZpXZEsFdkgRggYM3g_JDxg", "types": ["route"]}, "ChIJkyK7FEsFdkgRearWVSLDFm4": {"geometry": {"location": {"lat": 51.5131003, "lng": -0.1687891}, "viewport": {"northeast": {"lat": 51.5144287802915, "lng": -0.167522569708498}, "southwest": {"lat": 51.5117308197085, "lng": -0.170220530291502}}}, "name": "Freeman Martin", "place_id": "ChIJkyK7FEsFdkgRearWVSLDFm4", "types": ["health", "point_of_interest", "establishment"]}, "ChIJFyW1r0wFdkgRZe0oiXkVckc": {"geometry": {"location": {"lat": 51.51439070000001, "lng": -0.170935}, "viewport": {"northeast": {"lat": 51.51562223029151, "lng": -0.169413969708498}, "southwest": {"lat": 51.51292426970851, "lng": -0.172111930291502}}}, "name": "Gloucester Square", "place_id": "ChIJFyW1r0wFdkgRZe0oiXkVckc", "types": ["park", "point_of_interest", "establishment"], "rating": 4, "user_ratings_total": 22}, "ChIJWb93kkwFdkgRn-CPccnvuXU": {"geometry": {"location": {"lat": 51.51291656486726, "lng": -0.1716087545747827}, "viewport": {"northeast": {"lat": 51.5142655302915, "lng": -0.16983925}, "southwest": {"lat": 51.5115675697085, "lng": -0.17337825}}}, "name": "38-20 Hyde Park Gardens", "place_id": "ChIJWb93kkwFdkgRn-CPccnvuXU", "types": ["route"]}, "ChIJf_L1fkwFdkgRGVtha9_43y8": {"geometry": {"location": {"lat": 51.51205720000001, "lng": -0.1711271}, "viewport": {"northeast": {"lat": 51.5134379802915, "lng": -0.169785969708498}, "southwest": {"lat": 51.5107400197085, "lng": -0.172483930291502}}}, "name": "Victoria Gate (Stop LD)", "place_id": "ChIJf_L1fkwFdkgRGVtha9_43y8", "types": ["bus_station", "transit_station", "point_of_interest", "establishment"], "rating": 5, "user_ratings_total": 2}, "ChIJKfSpMrMadkgRnQCUDh0qG_w": {"geometry": {"location": {"lat": 51.51493740000001, "lng": -0.1725338}, "viewport": {"northeast": {"lat": 51.5163223802915, "lng": -0.171214269708498}, "southwest": {"lat": 51.5136244197085, "lng": -0.173912230291502}}}, "name": "Queensway Hotel (Sure Collection by Best Western)", "place_id": "ChIJKfSpMrMadkgRnQCUDh0qG_w", "types": ["lodging", "restaurant", "food", "point_of_interest", "establishment"], "rating": 3.6, "user_ratings_total": 233}, "ChIJeY9ULbMadkgR2vguOj_MTT8": {"geometry": {"location": {"lat": 51.5148783, "lng": -0.1725663}, "viewport": {"northeast": {"lat": 51.5162674802915, "lng": -0.171275669708498}, "southwest": {"lat": 51.5135695197085, "lng": -0.173973630291502}}}, "name": "Europa House Hotel", "place_id": "ChIJeY9ULbMadkgR2vguOj_MTT8", "types": ["lodging", "point_of_interest", "establishment"], "rating": 3.1, "user_ratings_total": 149}, "ChIJr5EkrQEbdkgR4yxULAs6d6w": {"geometry": {"location": {"lat": 51.5151529, "lng": -0.172642}, "viewport": {"northeast": {"lat": 51.5165084302915, "lng": -0.1713023697084979}, "southwest": {"lat": 51.5138104697085, "lng": -0.174000330291502}}}, "name": "\u0410\u043d\u0433\u043b\u0438\u044f \u043e\u0442\u0435\u043b\u044c \u043a\u0432\u0438\u043d", "place_id": "ChIJr5EkrQEbdkgR4yxULAs6d6w", "types": ["lodging", "point_of_interest", "establishment"], "rating": 5, "user_ratings_total": 2}, "ChIJ3284NvgbdkgRYgADRMF8XhM": {"geometry": {"location": {"lat": 51.5149469, "lng": -0.1724596}, "viewport": {"northeast": {"lat": 51.5163336802915, "lng": -0.171165519708498}, "southwest": {"lat": 51.5136357197085, "lng": -0.173863480291502}}}, "name": "Estacion St.Pancras", "place_id": "ChIJ3284NvgbdkgRYgADRMF8XhM", "types": ["lodging", "point_of_interest", "establishment"], "rating": 4.5, "user_ratings_total": 2}, "ChIJF8S20EwFdkgRq92gxBkLpDo": {"geometry": {"location": {"lat": 51.51427150000001, "lng": -0.172716}, "viewport": {"northeast": {"lat": 51.5156472802915, "lng": -0.171312019708498}, "southwest": {"lat": 51.5129493197085, "lng": -0.174009980291502}}}, "name": "Piccolino Hotel", "place_id": "ChIJF8S20EwFdkgRq92gxBkLpDo", "types": ["lodging", "point_of_interest", "establishment"], "rating": 3.7, "user_ratings_total": 128}, "ChIJy5D50UwFdkgRT9vGCM3O2UU": {"geometry": {"location": {"lat": 51.5144444, "lng": -0.1725}, "viewport": {"northeast": {"lat": 51.5157496302915, "lng": -0.171227469708498}, "southwest": {"lat": 51.5130516697085, "lng": -0.173925430291502}}}, "name": "Hyde Park Radnor Hotel", "place_id": "ChIJy5D50UwFdkgRT9vGCM3O2UU", "types": ["lodging", "point_of_interest", "establishment"], "rating": 3.7, "user_ratings_total": 214}, "ChIJF8S20EwFdkgR1gPRRLMeO8U": {"geometry": {"location": {"lat": 51.514278, "lng": -0.172781}, "viewport": {"northeast": {"lat": 51.51566493029149, "lng": -0.171365719708498}, "southwest": {"lat": 51.51296696970849, "lng": -0.174063680291502}}}, "name": "Barry House", "place_id": "ChIJF8S20EwFdkgR1gPRRLMeO8U", "types": ["lodging", "point_of_interest", "establishment"], "rating": 3.6, "user_ratings_total": 191}, "ChIJy5D50UwFdkgRXmvj9CjN7Hg": {"geometry": {"location": {"lat": 51.5144909, "lng": -0.172614}, "viewport": {"northeast": {"lat": 51.5158036802915, "lng": -0.1713297697084979}, "southwest": {"lat": 51.5131057197085, "lng": -0.174027730291502}}}, "name": "Apartments Inn London - Lancaster Gate", "place_id": "ChIJy5D50UwFdkgRXmvj9CjN7Hg", "types": ["lodging", "point_of_interest", "establishment"], "rating": 3.1, "user_ratings_total": 93}, "ChIJS3xe0EwFdkgRdc4AFclCUOg": {"geometry": {"location": {"lat": 51.51427150000001, "lng": -0.172716}, "viewport": {"northeast": {"lat": 51.5156498302915, "lng": -0.171315719708498}, "southwest": {"lat": 51.5129518697085, "lng": -0.174013680291502}}}, "name": "\u83e9\u63d0\u5225\u5885\u98ef\u5e97London House Hotel", "place_id": "ChIJS3xe0EwFdkgRdc4AFclCUOg", "types": ["lodging", "point_of_interest", "establishment"]}, "ChIJT3g2_O0FdkgR3yIkUtJkJpA": {"geometry": {"location": {"lat": 51.514278, "lng": -0.172781}, "viewport": {"northeast": {"lat": 51.51566493029149, "lng": -0.171365719708498}, "southwest": {"lat": 51.51296696970849, "lng": -0.174063680291502}}}, "name": "Bounce - Luggage Storage Paddington", "place_id": "ChIJT3g2_O0FdkgR3yIkUtJkJpA", "types": ["storage", "point_of_interest", "store", "establishment"]}, "ChIJ__9MzkwFdkgRm1Ikexi2zx0": {"geometry": {"location": {"lat": 51.5143987, "lng": -0.172464}, "viewport": {"northeast": {"lat": 51.5157088302915, "lng": -0.1711829697084979}, "southwest": {"lat": 51.5130108697085, "lng": -0.173880930291502}}}, "name": "Carole Cutner Photography", "place_id": "ChIJ__9MzkwFdkgRm1Ikexi2zx0", "types": ["point_of_interest", "establishment"]}, "ChIJ6_195UwFdkgRE9W1HprDLio": {"geometry": {"location": {"lat": 51.51305990002714, "lng": -0.1725902999647452}, "viewport": {"northeast": {"lat": 51.5144088802915, "lng": -0.171241319708498}, "southwest": {"lat": 51.51171091970851, "lng": -0.173939280291502}}}, "name": "4 Stanhope Terrace", "place_id": "ChIJ6_195UwFdkgRE9W1HprDLio", "types": ["route"]}, "ChIJG1qkul0FdkgRRSSg96s6zyo": {"geometry": {"location": {"lat": 51.5132218, "lng": -0.1724868}, "viewport": {"northeast": {"lat": 51.5145423802915, "lng": -0.171257719708498}, "southwest": {"lat": 51.5118444197085, "lng": -0.173955680291502}}}, "name": "home4holidayuk", "place_id": "ChIJG1qkul0FdkgRRSSg96s6zyo", "types": ["lodging", "point_of_interest", "establishment"]}, "ChIJix0DGRMFdkgRHkEXmKtodJM": {"geometry": {"location": {"lat": 51.5132218, "lng": -0.1724868}, "viewport": {"northeast": {"lat": 51.5145423802915, "lng": -0.171257719708498}, "southwest": {"lat": 51.5118444197085, "lng": -0.173955680291502}}}, "name": "home4holidayuk", "place_id": "ChIJix0DGRMFdkgRHkEXmKtodJM", "types": ["lodging", "point_of_interest", "establishment"]}, "ChIJvZ9Op_QFdkgR4dirdW1yJ6w": {"geometry": {"location": {"lat": 51.5133506, "lng": -0.1726052}, "viewport": {"northeast": {"lat": 51.5146643802915, "lng": -0.1713556697084979}, "southwest": {"lat": 51.5119664197085, "lng": -0.174053630291502}}}, "name": "Blue plaque: Winston Churchill", "place_id": "ChIJvZ9Op_QFdkgR4dirdW1yJ6w", "types": ["point_of_interest", "establishment"]}, "ChIJ1TwsD6wFdkgRvsNF4T-KLcQ": {"geometry": {"location": {"lat": 51.5130679, "lng": -0.1731026}, "viewport": {"northeast": {"lat": 51.5144168802915, "lng": -0.171753619708498}, "southwest": {"lat": 51.5117189197085, "lng": -0.174451580291502}}}, "name": "EXOFITNESS LONDON", "place_id": "ChIJ1TwsD6wFdkgRvsNF4T-KLcQ", "types": ["point_of_interest", "clothing_store", "store", "establishment"], "rating": 5, "user_ratings_total": 12}, "ChIJRVFJi-gFdkgR_fakC0JceLM": {"geometry": {"location": {"lat": 51.51192939999999, "lng": -0.1722535}, "viewport": {"northeast": {"lat": 51.51332103029149, "lng": -0.170915669708498}, "southwest": {"lat": 51.51062306970849, "lng": -0.173613630291502}}}, "name": "Victoria Gate", "place_id": "ChIJRVFJi-gFdkgR_fakC0JceLM", "types": ["point_of_interest", "establishment"]}, "ChIJ3XDv0bIadkgRkvKSFfO2L7A": {"geometry": {"location": {"lat": 51.5151463, "lng": -0.1740581}, "viewport": {"northeast": {"lat": 51.5165386802915, "lng": -0.172631769708498}, "southwest": {"lat": 51.5138407197085, "lng": -0.175329730291502}}}, "name": "London Street Brasserie", "place_id": "ChIJ3XDv0bIadkgRkvKSFfO2L7A", "types": ["cafe", "bar", "restaurant", "food", "point_of_interest", "establishment"], "rating": 3.6, "user_ratings_total": 284}, "ChIJPS1uzLIadkgRU6U3y5oip1c": {"geometry": {"location": {"lat": 51.51509429999999, "lng": -0.1743858}, "viewport": {"northeast": {"lat": 51.5164015302915, "lng": -0.1731110197084979}, "southwest": {"lat": 51.5137035697085, "lng": -0.175808980291502}}}, "name": "London Town Group", "place_id": "ChIJPS1uzLIadkgRU6U3y5oip1c", "types": ["point_of_interest", "establishment"]}, "ChIJN0SHy7IadkgR43pbbxVgBas": {"geometry": {"location": {"lat": 51.5150914, "lng": -0.1744049}, "viewport": {"northeast": {"lat": 51.5164022302915, "lng": -0.173123669708498}, "southwest": {"lat": 51.5137042697085, "lng": -0.175821630291502}}}, "name": "Mercure London Hyde Park Hotel", "place_id": "ChIJN0SHy7IadkgR43pbbxVgBas", "types": ["lodging", "point_of_interest", "establishment"], "rating": 4.2, "user_ratings_total": 435}, "ChIJHfjOO3kGcUgRDmFHdohTdUo": {"geometry": {"location": {"lat": 51.5151463, "lng": -0.1740581}, "viewport": {"northeast": {"lat": 51.5165386802915, "lng": -0.172631769708498}, "southwest": {"lat": 51.5138407197085, "lng": -0.175329730291502}}}, "name": "U R C Thames North Synod", "place_id": "ChIJHfjOO3kGcUgRDmFHdohTdUo", "types": ["point_of_interest", "establishment"]}, "ChIJS3aWzLIadkgRYyOJhEkxSkQ": {"geometry": {"location": {"lat": 51.51496760000001, "lng": -0.1743648}, "viewport": {"northeast": {"lat": 51.5163047302915, "lng": -0.173036869708498}, "southwest": {"lat": 51.5136067697085, "lng": -0.175734830291502}}}, "name": "KILI PEOPLE", "place_id": "ChIJS3aWzLIadkgRYyOJhEkxSkQ", "types": ["point_of_interest", "establishment"]}, "ChIJoWRA0rIadkgR-rVHP5GOaac": {"geometry": {"location": {"lat": 51.5150861, "lng": -0.1740502}, "viewport": {"northeast": {"lat": 51.51649113029151, "lng": -0.172601119708498}, "southwest": {"lat": 51.51379316970851, "lng": -0.175299080291502}}},