{"E00023930": {"ChIJqYnvkkwbdkgRTpeG6ZGJXTA": {"geometry": {"location": {"lat": 51.51680543555768, "lng": -0.1102322514011841}, "viewport": {"northeast": {"lat": 51.51815363029149, "lng": -0.108883219708498}, "southwest": {"lat": 51.51545566970849, "lng": -0.111581180291502}}}, "name": "27-18 Norwich St", "place_id": "ChIJqYnvkkwbdkgRTpeG6ZGJXTA", "types": ["route"]}, "ChIJCf9gM00bdkgRWyCc61kGc78": {"geometry": {"location": {"lat": 51.51689009999999, "lng": -0.1100479}, "viewport": {"northeast": {"lat": 51.5181984802915, "lng": -0.1086969697084979}, "southwest": {"lat": 51.5155005197085, "lng": -0.111394930291502}}}, "name": "9 Gough Chambers", "place_id": "ChIJCf9gM00bdkgRWyCc61kGc78", "types": ["lawyer", "point_of_interest", "establishment"], "rating": 4.9, "user_ratings_total": 12}, "ChIJH1NMwS0bdkgR-rdsV-MES5g": {"geometry": {"location": {"lat": 51.5170504, "lng": -0.1102451}, "viewport": {"northeast": {"lat": 51.5184020302915, "lng": -0.108999619708498}, "southwest": {"lat": 51.5157040697085, "lng": -0.111697580291502}}}, "name": "BPAS PRESS and PR ONLY (NOT A CLINIC)", "place_id": "ChIJH1NMwS0bdkgR-rdsV-MES5g", "types": ["point_of_interest", "establishment"]}, "ChIJSdxBi0wbdkgRl-jIyfwk_YU": {"geometry": {"location": {"lat": 51.51639400000001, "lng": -0.1100022}, "viewport": {"northeast": {"lat": 51.5177777802915, "lng": -0.108667719708498}, "southwest": {"lat": 51.5150798197085, "lng": -0.111365680291502}}}, "name": "cibsys", "place_id": "ChIJSdxBi0wbdkgRl-jIyfwk_YU", "types": ["point_of_interest", "establishment"]}, "ChIJXynw2DIFdkgR-wJWvZhJn3M": {"geometry": {"location": {"lat": 51.5162255, "lng": -0.1105073}, "viewport": {"northeast": {"lat": 51.51749863029151, "lng": -0.109105919708498}, "southwest": {"lat": 51.51480066970851, "lng": -0.111803880291502}}}, "name": "Flexible Office Space", "place_id": "ChIJXynw2DIFdkgR-wJWvZhJn3M", "types": ["real_estate_agency", "point_of_interest", "establishment"]}, "ChIJUaqr7UwbdkgRRwhwV-uNHpE": {"geometry": {"location": {"lat": 51.51664, "lng": -0.1099638}, "viewport": {"northeast": {"lat": 51.5180741302915, "lng": -0.108623369708498}, "southwest": {"lat": 51.5153761697085, "lng": -0.111321330291502}}}, "name": "Anglo-American Charity Limited", "place_id": "ChIJUaqr7UwbdkgRRwhwV-uNHpE", "types": ["point_of_interest", "establishment"]}, "ChIJq6qa7EwbdkgRgLvXtvT8hqQ": {"geometry": {"location": {"lat": 51.51664, "lng": -0.1099638}, "viewport": {"northeast": {"lat": 51.5180741302915, "lng": -0.108623369708498}, "southwest": {"lat": 51.5153761697085, "lng": -0.111321330291502}}}, "name": "DFN Charitable Foundation", "place_id": "ChIJq6qa7EwbdkgRgLvXtvT8hqQ", "types": ["point_of_interest", "establishment"]}, "ChIJS6PbciEFdkgREdj5s0bBuMM": {"geometry": {"location": {"lat": 51.5164172, "lng": -0.1104472}, "viewport": {"northeast": {"lat": 51.5178293302915, "lng": -0.109103269708498}, "southwest": {"lat": 51.5151313697085, "lng": -0.111801230291502}}}, "name": "The Lady R Foundation", "place_id": "ChIJS6PbciEFdkgREdj5s0bBuMM", "types": ["point_of_interest", "establishment"]}, "ChIJISZhjEwbdkgRgZuejvegrZo": {"geometry": {"location": {"lat": 51.51684540000001, "lng": -0.110383}, "viewport": {"northeast": {"lat": 51.5181961802915, "lng": -0.109067969708498}, "southwest": {"lat": 51.5154982197085, "lng": -0.111765930291502}}}, "name": "Jam Design", "place_id": "ChIJISZhjEwbdkgRgZuejvegrZo", "types": ["point_of_interest", "establishment"]}, "ChIJOUEL9uoEdkgR1GYx23ihnR4": {"geometry": {"location": {"lat": 51.5168395, "lng": -0.1104053}, "viewport": {"northeast": {"lat": 51.51818908029151, "lng": -0.109069369708498}, "southwest": {"lat": 51.51549111970851, "lng": -0.111767330291502}}}, "name": "Ashbury - The Product Information People", "place_id": "ChIJOUEL9uoEdkgR1GYx23ihnR4", "types": ["point_of_interest", "establishment"], "rating": 5, "user_ratings_total": 6}, "ChIJP53PCkwbdkgR1BjCDNwJ6aM": {"geometry": {"location": {"lat": 51.5168395, "lng": -0.1104053}, "viewport": {"northeast": {"lat": 51.51818908029151, "lng": -0.109069369708498}, "southwest": {"lat": 51.51549111970851, "lng": -0.111767330291502}}}, "name": "Petroleum Economist Ltd", "place_id": "ChIJP53PCkwbdkgR1BjCDNwJ6aM", "types": ["point_of_interest", "establishment"]}, "ChIJT3nONE0bdkgRDBjRL_u4wjY": {"geometry": {"location": {"lat": 51.51689009999999, "lng": -0.1100479}, "viewport": {"northeast": {"lat": 51.5181984802915, "lng": -0.1086969697084979}, "southwest": {"lat": 51.5155005197085, "lng": -0.111394930291502}}}, "name": "Andrew Ritchie QC", "place_id": "ChIJT3nONE0bdkgRDBjRL_u4wjY", "types": ["lawyer", "point_of_interest", "establishment"]}, "ChIJuSsDsbUadkgROM7jBmExc5c": {"geometry": {"location": {"lat": 51.51689009999999, "lng": -0.1100479}, "viewport": {"northeast": {"lat": 51.51823908029149, "lng": -0.1086989197084979}, "southwest": {"lat": 51.51554111970849, "lng": -0.111396880291502}}}, "name": "Mediaplanet UK", "place_id": "ChIJuSsDsbUadkgROM7jBmExc5c", "types": ["point_of_interest", "establishment"]}, "ChIJt_q9NE0bdkgR7zzt03TXPRs": {"geometry": {"location": {"lat": 51.51689009999999, "lng": -0.1100479}, "viewport": {"northeast": {"lat": 51.5181984802915, "lng": -0.1086969697084979}, "southwest": {"lat": 51.5155005197085, "lng": -0.111394930291502}}}, "name": "Simon D. Butler", "place_id": "ChIJt_q9NE0bdkgR7zzt03TXPRs", "types": ["point_of_interest", "establishment"], "rating": 5, "user_ratings_total": 4}, "ChIJEU5E-K4cdkgRL5bUWy5XPb0": {"geometry": {"location": {"lat": 51.5168319, "lng": -0.110521}, "viewport": {"northeast": {"lat": 51.5181808802915, "lng": -0.109171869708498}, "southwest": {"lat": 51.5154829197085, "lng": -0.111869830291502}}}, "name": "Epiq", "place_id": "ChIJEU5E-K4cdkgRL5bUWy5XPb0", "types": ["lawyer", "point_of_interest", "establishment"]}, "ChIJzeYbdUsbdkgRv2UIwotRSW8": {"geometry": {"location": {"lat": 51.5168319, "lng": -0.110521}, "viewport": {"northeast": {"lat": 51.5181808802915, "lng": -0.109171869708498}, "southwest": {"lat": 51.5154829197085, "lng": -0.111869830291502}}}, "name": "Epiq Systems", "place_id": "ChIJzeYbdUsbdkgRv2UIwotRSW8", "types": ["point_of_interest", "establishment"]}, "ChIJexZdvUwbdkgRb19wjkxJm_Q": {"geometry": {"location": {"lat": 51.5161482, "lng": -0.1104343}, "viewport": {"northeast": {"lat": 51.5174615802915, "lng": -0.109069419708498}, "southwest": {"lat": 51.5147636197085, "lng": -0.111767380291502}}}, "name": "Asylum and Immigration Tribunal", "place_id": "ChIJexZdvUwbdkgRb19wjkxJm_Q", "types": ["courthouse", "local_government_office", "point_of_interest", "establishment"], "rating": 3.9, "user_ratings_total": 40}, "ChIJ00YrkEwbdkgR3Z4mUUuMhR0": {"geometry": {"location": {"lat": 51.5169107, "lng": -0.110658}, "viewport": {"northeast": {"lat": 51.51828808029151, "lng": -0.109208469708498}, "southwest": {"lat": 51.51559011970851, "lng": -0.111906430291502}}}, "name": "SSRO, Finlaison House,", "place_id": "ChIJ00YrkEwbdkgR3Z4mUUuMhR0", "types": ["point_of_interest", "establishment"], "rating": 3.3, "user_ratings_total": 3}, "ChIJ13qYlkwbdkgREEwksisyC8o": {"geometry": {"location": {"lat": 51.5164172, "lng": -0.1104472}, "viewport": {"northeast": {"lat": 51.5178293302915, "lng": -0.109103269708498}, "southwest": {"lat": 51.5151313697085, "lng": -0.111801230291502}}}, "name": "Macfarlanes LLP", "place_id": "ChIJ13qYlkwbdkgREEwksisyC8o", "types": ["lawyer", "point_of_interest", "establishment"], "rating": 4.1, "user_ratings_total": 34}, "ChIJ-yMOjUwbdkgRdf1CcXbCl5s": {"geometry": {"location": {"lat": 51.5170362, "lng": -0.1102425}, "viewport": {"northeast": {"lat": 51.51838728029151, "lng": -0.108998769708498}, "southwest": {"lat": 51.51568931970851, "lng": -0.111696730291502}}}, "name": "TANDA UK Ltd", "place_id": "ChIJ-yMOjUwbdkgRdf1CcXbCl5s", "types": ["point_of_interest", "establishment"]}, "ChIJ8yMOjUwbdkgRfJ-2bdGxwVQ": {"geometry": {"location": {"lat": 51.5170362, "lng": -0.1102426}, "viewport": {"northeast": {"lat": 51.51838728029151, "lng": -0.108998819708498}, "southwest": {"lat": 51.51568931970851, "lng": -0.111696780291502}}}, "name": "Forces Recruitment Services", "place_id": "ChIJ8yMOjUwbdkgRfJ-2bdGxwVQ", "types": ["point_of_interest", "establishment"]}, "ChIJwT3AkUIFdkgRXEXHxXsFK48": {"geometry": {"location": {"lat": 51.516443, "lng": -0.1109678}, "viewport": {"northeast": {"lat": 51.51782653029149, "lng": -0.109626369708498}, "southwest": {"lat": 51.51512856970849, "lng": -0.112324330291502}}}, "name": "Synchronicity Earth", "place_id": "ChIJwT3AkUIFdkgRXEXHxXsFK48", "types": ["point_of_interest", "establishment"], "rating": 4, "user_ratings_total": 2}, "ChIJjQH4uU0bdkgRIYyC2EgRMtk": {"geometry": {"location": {"lat": 51.5170504, "lng": -0.1102451}, "viewport": {"northeast": {"lat": 51.51839938029149, "lng": -0.108896119708498}, "southwest": {"lat": 51.5157014197085, "lng": -0.111594080291502}}}, "name": "Philip Friede & Co.", "place_id": "ChIJjQH4uU0bdkgRIYyC2EgRMtk", "types": ["accounting", "finance", "point_of_interest", "establishment"], "rating": 5, "user_ratings_total": 1}, "ChIJ2xqHmUwbdkgRczTae4aU-ZU": {"geometry": {"location": {"lat": 51.5165898, "lng": -0.1109886}, "viewport": {"northeast": {"lat": 51.5179003802915, "lng": -0.1096312197084979}, "southwest": {"lat": 51.5152024197085, "lng": -0.112329180291502}}}, "name": "Franks & Co", "place_id": "ChIJ2xqHmUwbdkgRczTae4aU-ZU", "types": ["lawyer", "point_of_interest", "establishment"]}, "ChIJHfYPjUwbdkgR-sXIh4U3_Qs": {"geometry": {"location": {"lat": 51.5170504, "lng": -0.110245}, "viewport": {"northeast": {"lat": 51.5184020302915, "lng": -0.108999569708498}, "southwest": {"lat": 51.5157040697085, "lng": -0.111697530291502}}}, "name": "SATEN", "place_id": "ChIJHfYPjUwbdkgR-sXIh4U3_Qs", "types": ["electronics_store", "home_goods_store", "point_of_interest", "store", "establishment"]}, "ChIJA_YPjUwbdkgRL4DGbpqKe1o": {"geometry": {"location": {"lat": 51.5170504, "lng": -0.1102451}, "viewport": {"northeast": {"lat": 51.5184020302915, "lng": -0.108999619708498}, "southwest": {"lat": 51.5157040697085, "lng": -0.111697580291502}}}, "name": "Tattoo Central", "place_id": "ChIJA_YPjUwbdkgRL4DGbpqKe1o", "types": ["point_of_interest", "establishment"]}, "ChIJYYWCl1UDdkgRFRamzJcttig": {"geometry": {"location": {"lat": 51.5170504, "lng": -0.1102452}, "viewport": {"northeast": {"lat": 51.5184020302915, "lng": -0.108999669708498}, "southwest": {"lat": 51.5157040697085, "lng": -0.111697630291502}}}, "name": "3 ACE Contractors (UK) Ltd", "place_id": "ChIJYYWCl1UDdkgRFRamzJcttig", "types": ["point_of_interest", "establishment"]}, "ChIJ5ave9EkbdkgRk2LYjWtwBjU": {"geometry": {"location": {"lat": 51.5165736, "lng": -0.1110105}, "viewport": {"northeast": {"lat": 51.5178912302915, "lng": -0.109654669708498}, "southwest": {"lat": 51.5151932697085, "lng": -0.112352630291502}}}, "name": "Furrer+Frey GB", "place_id": "ChIJ5ave9EkbdkgRk2LYjWtwBjU", "types": ["point_of_interest", "establishment"], "rating": 4, "user_ratings_total": 1}, "ChIJA1yAi0wbdkgRIWp1mbGIoDI": {"geometry": {"location": {"lat": 51.51706180000001, "lng": -0.1103494}, "viewport": {"northeast": {"lat": 51.5184120802915, "lng": -0.109051469708498}, "southwest": {"lat": 51.51571411970851, "lng": -0.111749430291502}}}, "name": "Cellhire PLC", "place_id": "ChIJA1yAi0wbdkgRIWp1mbGIoDI", "types": ["point_of_interest", "establishment"]}, "ChIJTZ8PjkwbdkgRjFMrfr0VbKg": {"geometry": {"location": {"lat": 51.5164033, "lng": -0.1110083}, "viewport": {"northeast": {"lat": 51.51780463029149, "lng": -0.109670769708498}, "southwest": {"lat": 51.51510666970849, "lng": -0.112368730291502}}}, "name": "Legastat", "place_id": "ChIJTZ8PjkwbdkgRjFMrfr0VbKg", "types": ["point_of_interest", "establishment"]}, "ChIJYT3k3tQadkgRmN6q-_eM5Og": {"geometry": {"location": {"lat": 51.5164033, "lng": -0.1110083}, "viewport": {"northeast": {"lat": 51.51780463029149, "lng": -0.109670769708498}, "southwest": {"lat": 51.51510666970849, "lng": -0.112368730291502}}}, "name": "Linesight", "place_id": "ChIJYT3k3tQadkgRmN6q-_eM5Og", "types": ["general_contractor", "point_of_interest", "establishment"]}, "ChIJBWXtvgwbdkgRoOI9HM7KV8Y": {"geometry": {"location": {"lat": 51.5166432, "lng": -0.1102292}, "viewport": {"northeast": {"lat": 51.5180732302915, "lng": -0.108841319708498}, "southwest": {"lat": 51.5153752697085, "lng": -0.111539280291502}}}, "name": "26 Furnival Street", "place_id": "ChIJBWXtvgwbdkgRoOI9HM7KV8Y", "types": ["bar", "point_of_interest", "establishment"], "rating": 4.5, "user_ratings_total": 67}, "ChIJmQQRlEwbdkgRcXTZeR-1xOI": {"geometry": {"location": {"lat": 51.5165075, "lng": -0.1104022}, "viewport": {"northeast": {"lat": 51.5178626302915, "lng": -0.1090537197084979}, "southwest": {"lat": 51.5151646697085, "lng": -0.111751680291502}}}, "name": "The Mixbus and The Auxbus", "place_id": "ChIJmQQRlEwbdkgRcXTZeR-1xOI", "types": ["point_of_interest", "establishment"]}, "ChIJq6qa7EwbdkgRJBJuptobFPQ": {"geometry": {"location": {"lat": 51.51664, "lng": -0.1099638}, "viewport": {"northeast": {"lat": 51.5180741302915, "lng": -0.108623369708498}, "southwest": {"lat": 51.5153761697085, "lng": -0.111321330291502}}}, "name": "Castle Trust", "place_id": "ChIJq6qa7EwbdkgRJBJuptobFPQ", "types": ["point_of_interest", "establishment"]}, "ChIJeZyP7EwbdkgRFlg-9qk1Bfk": {"geometry": {"location": {"lat": 51.5166434, "lng": -0.1099537}, "viewport": {"northeast": {"lat": 51.5180760302915, "lng": -0.108613119708498}, "southwest": {"lat": 51.5153780697085, "lng": -0.111311080291502}}}, "name": "5 Hertford Street Limited", "place_id": "ChIJeZyP7EwbdkgRFlg-9qk1Bfk", "types": ["point_of_interest", "establishment"]}, "ChIJeZyP7EwbdkgR7vrFimkqpaA": {"geometry": {"location": {"lat": 51.5166434, "lng": -0.1099537}, "viewport": {"northeast": {"lat": 51.5180760302915, "lng": -0.108613119708498}, "southwest": {"lat": 51.5153780697085, "lng": -0.111311080291502}}}, "name": "Get Doc", "place_id": "ChIJeZyP7EwbdkgR7vrFimkqpaA", "types": ["point_of_interest", "establishment"]}, "ChIJjdqBlkwbdkgRzA16liin4mw": {"geometry": {"location": {"lat": 51.5164473, "lng": -0.1104705}, "viewport": {"northeast": {"lat": 51.5178440802915, "lng": -0.109125319708498}, "southwest": {"lat": 51.5151461197085, "lng": -0.111823280291502}}}, "name": "Spectrum House", "place_id": "ChIJjdqBlkwbdkgRzA16liin4mw", "types": ["point_of_interest", "establishment"], "rating": 4, "user_ratings_total": 1}, "ChIJUYbRRk0bdkgR_MjOkgreGEs": {"geometry": {"location": {"lat": 51.51671280000001, "lng": -0.1103844}, "viewport": {"northeast": {"lat": 51.51810638029151, "lng": -0.108918769708498}, "southwest": {"lat": 51.51540841970851, "lng": -0.111616730291502}}}, "name": "Chronicle Club", "place_id": "ChIJUYbRRk0bdkgR_MjOkgreGEs", "types": ["point_of_interest", "establishment"]}, "ChIJqyNNqasbdkgRGNHZ6uJFUiY": {"geometry": {"location": {"lat": 51.5167532, "lng": -0.1102737}, "viewport": {"northeast": {"lat": 51.5181244802915, "lng": -0.108859219708498}, "southwest": {"lat": 51.51542651970851, "lng": -0.111557180291502}}}, "name": "The Chronicle by Supercity Aparthotels", "place_id": "ChIJqyNNqasbdkgRGNHZ6uJFUiY", "types": ["real_estate_agency", "lodging", "point_of_interest", "establishment"], "rating": 4.6, "user_ratings_total": 38}, "ChIJqSaqXUwbdkgRlLnVg-usBTU": {"geometry": {"location": {"lat": 51.5166177, "lng": -0.1105623}, "viewport": {"northeast": {"lat": 51.5179654302915, "lng": -0.109181619708498}, "southwest": {"lat": 51.5152674697085, "lng": -0.1118795802915021}}}, "name": "Site of Furnival's Inn Marker", "place_id": "ChIJqSaqXUwbdkgRlLnVg-usBTU", "types": ["point_of_interest", "establishment"]}, "ChIJpY2pWOoEdkgR_k4QXdlhiOs": {"geometry": {"location": {"lat": 51.51672569999999, "lng": -0.1104749}, "viewport": {"northeast": {"lat": 51.5180744802915, "lng": -0.109075319708498}, "southwest": {"lat": 51.5153765197085, "lng": -0.111773280291502}}}, "name": "Ashbury Training", "place_id": "ChIJpY2pWOoEdkgR_k4QXdlhiOs", "types": ["point_of_interest", "establishment"], "rating": 4.8, "user_ratings_total": 13}, "ChIJt_q9NE0bdkgR44WAk-hordk": {"geometry": {"location": {"lat": 51.51684139999999, "lng": -0.110042}, "viewport": {"northeast": {"lat": 51.5181894802915, "lng": -0.108693019708498}, "southwest": {"lat": 51.51549151970851, "lng": -0.111390980291502}}}, "name": "Hugh Rimmer", "place_id": "ChIJt_q9NE0bdkgR44WAk-hordk", "types": ["lawyer", "point_of_interest", "establishment"]}, "ChIJo-zvsysbdkgRzKFHiu83MRQ": {"geometry": {"location": {"lat": 51.5168395, "lng": -0.1104053}, "viewport": {"northeast": {"lat": 51.51818918029149, "lng": -0.109068869708498}, "southwest": {"lat": 51.51549121970849, "lng": -0.111766830291502}}}, "name": "Divisible Space", "place_id": "ChIJo-zvsysbdkgRzKFHiu83MRQ", "types": ["real_estate_agency", "point_of_interest", "establishment"], "rating": 5, "user_ratings_total": 3}, "ChIJP2bOvEwbdkgRXGTV4S1YGcA": {"geometry": {"location": {"lat": 51.5164276, "lng": -0.1096533}, "viewport": {"northeast": {"lat": 51.5179722802915, "lng": -0.108311169708498}, "southwest": {"lat": 51.5152743197085, "lng": -0.111009130291502}}}, "name": "Farebrother Street Guide", "place_id": "ChIJP2bOvEwbdkgRXGTV4S1YGcA", "types": ["real_estate_agency", "point_of_interest", "establishment"]}, "ChIJcTCEaiIbdkgRUEmARwC1PGs": {"geometry": {"location": {"lat": 51.51689009999999, "lng": -0.1100479}, "viewport": {"northeast": {"lat": 51.5181984802915, "lng": -0.1086969697084979}, "southwest": {"lat": 51.5155005197085, "lng": -0.111394930291502}}}, "name": "9 Gough Chambers", "place_id": "ChIJcTCEaiIbdkgRUEmARwC1PGs", "types": ["lawyer", "point_of_interest", "establishment"]}, "ChIJc2iSkUwbdkgR_j4BAmA9TGY": {"geometry": {"location": {"lat": 51.5168319, "lng": -0.110521}, "viewport": {"northeast": {"lat": 51.5181808802915, "lng": -0.109171569708498}, "southwest": {"lat": 51.5154829197085, "lng": -0.111869530291502}}}, "name": "Arturius International Limited", "place_id": "ChIJc2iSkUwbdkgR_j4BAmA9TGY", "types": ["point_of_interest", "establishment"]}, "ChIJc2iSkUwbdkgRpnYp9Qjqf74": {"geometry": {"location": {"lat": 51.5168319, "lng": -0.110521}, "viewport": {"northeast": {"lat": 51.5181808802915, "lng": -0.109171869708498}, "southwest": {"lat": 51.5154829197085, "lng": -0.111869830291502}}}, "name": "Blink Ltd", "place_id": "ChIJc2iSkUwbdkgRpnYp9Qjqf74", "types": ["point_of_interest", "establishment"]}, "ChIJc2iSkUwbdkgRj474q9DIJc0": {"geometry": {"location": {"lat": 51.5168319, "lng": -0.110521}, "viewport": {"northeast": {"lat": 51.5181808802915, "lng": -0.109171869708498}, "southwest": {"lat": 51.5154829197085, "lng": -0.111869830291502}}}, "name": "Cubic Products Ltd", "place_id": "ChIJc2iSkUwbdkgRj474q9DIJc0", "types": ["point_of_interest", "establishment"]}, "ChIJkdJhsVcbdkgRA5fjqVlUDew": {"geometry": {"location": {"lat": 51.5168319, "lng": -0.110521}, "viewport": {"northeast": {"lat": 51.5181808802915, "lng": -0.109171869708498}, "southwest": {"lat": 51.5154829197085, "lng": -0.111869830291502}}}, "name": "Chedzoy Butterworth Accountants and Business Advisers", "place_id": "ChIJkdJhsVcbdkgRA5fjqVlUDew", "types": ["accounting", "finance", "point_of_interest", "establishment"]}, "ChIJAe67TSYbdkgRJWt2Zlkx8Zc": {"geometry": {"location": {"lat": 51.5168319, "lng": -0.110521}, "viewport": {"northeast": {"lat": 51.5181808802915, "lng": -0.109171869708498}, "southwest": {"lat": 51.5154829197085, "lng": -0.111869830291502}}}, "name": "Cavalry - London", "place_id": "ChIJAe67TSYbdkgRJWt2Zlkx8Zc", "types": ["point_of_interest", "establishment"]}, "ChIJtSL_i0wbdkgR7_g_HULfAto": {"geometry": {"location": {"lat": 51.5170178, "lng": -0.1103755}, "viewport": {"northeast": {"lat": 51.5183672302915, "lng": -0.109057519708498}, "southwest": {"lat": 51.5156692697085, "lng": -0.111755480291502}}}, "name": "Furnival Chambers", "place_id": "ChIJtSL_i0wbdkgR7_g_HULfAto", "types": ["point_of_interest", "establishment"], "rating": 4.5, "user_ratings_total": 11}, "ChIJwfJh7kwbdkgRuP_7fAKBSrg": {"geometry": {"location": {"lat": 51.5167684, "lng": -0.1096632}, "viewport": {"northeast": {"lat": 51.5181364802915, "lng": -0.108315219708498}, "southwest": {"lat": 51.5154385197085, "lng": -0.111013180291502}}}, "name": "Macfailanes", "place_id": "ChIJwfJh7kwbdkgRuP_7fAKBSrg", "types": ["finance", "point_of_interest", "establishment"]}, "ChIJidW40UAbdkgRKTEoMgoqe_s": {"geometry": {"location": {"lat": 51.51655780000001, "lng": -0.1108399}, "viewport": {"northeast": {"lat": 51.51790678029151, "lng": -0.109490919708498}, "southwest": {"lat": 51.51520881970852, "lng": -0.112188880291502}}}, "name": "Mulberry Bow LLP", "place_id": "ChIJidW40UAbdkgRKTEoMgoqe_s", "types": ["finance", "point_of_interest", "establishment"]}, "ChIJsfRwvkwbdkgRzjDpQbXI_A8": {"geometry": {"location": {"lat": 51.51615200000001, "lng": -0.1104338}, "viewport": {"northeast": {"lat": 51.5174641802915, "lng": -0.109065969708498}, "southwest": {"lat": 51.5147662197085, "lng": -0.111763930291502}}}, "name": "Hm Courts & Tribunals Service", "place_id": "ChIJsfRwvkwbdkgRzjDpQbXI_A8", "types": ["courthouse", "point_of_interest", "establishment"]}, "ChIJ0Tv7i0wbdkgROn-vGq9ufHE": {"geometry": {"location": {"lat": 51.5169692, "lng": -0.110535}, "viewport": {"northeast": {"lat": 51.51831638029149, "lng": -0.109158519708498}, "southwest": {"lat": 51.5156184197085, "lng": -0.111856480291502}}}, "name": "Government Actuary's Department", "place_id": "ChIJ0Tv7i0wbdkgROn-vGq9ufHE", "types": ["point_of_interest", "establishment"], "rating": 4.5, "user_ratings_total": 4}, "ChIJu20v6okbdkgR1ugCbXxRu7A": {"geometry": {"location": {"lat": 51.5162704, "lng": -0.109546}, "viewport": {"northeast": {"lat": 51.51789463029149, "lng": -0.108256219708498}, "southwest": {"lat": 51.51519666970849, "lng": -0.110954180291502}}}, "name": "Sea Horse Marine Services UK", "place_id": "ChIJu20v6okbdkgR1ugCbXxRu7A", "types": ["point_of_interest", "store", "establishment"]}, "ChIJQ7cqQX8bdkgRnG2gzGGkN4w": {"geometry": {"location": {"lat": 51.5165617, "lng": -0.1109587}, "viewport": {"northeast": {"lat": 51.5178951802915, "lng": -0.109606319708498}, "southwest": {"lat": 51.5151972197085, "lng": -0.112304280291502}}}, "name": "COINBIT TRADE LIMITED", "place_id": "ChIJQ7cqQX8bdkgRnG2gzGGkN4w", "types": ["finance", "point_of_interest", "establishment"], "rating": 4, "user_ratings_total": 1}, "ChIJvR_FmUwbdkgRORdnKdpPAiw": {"geometry": {"location": {"lat": 51.5165617, "lng": -0.1109587}, "viewport": {"northeast": {"lat": 51.5178951802915, "lng": -0.109606319708498}, "southwest": {"lat": 51.5151972197085, "lng": -0.112304280291502}}}, "name": "Apartamento Londres", "place_id": "ChIJvR_FmUwbdkgRORdnKdpPAiw", "types": ["lodging", "point_of_interest", "establishment"]}, "ChIJQ5-DvkwbdkgRkuiaXGAIPT0": {"geometry": {"location": {"lat": 51.5160759, "lng": -0.1104493}, "viewport": {"northeast": {"lat": 51.5174561802915, "lng": -0.109105869708498}, "southwest": {"lat": 51.5147582197085, "lng": -0.111803830291502}}}, "name": "MLT DIRECTIONS", "place_id": "ChIJQ5-DvkwbdkgRkuiaXGAIPT0", "types": ["point_of_interest", "establishment"]}, "ChIJb4O1zUwbdkgReLwYKKQ7cvs": {"geometry": {"location": {"lat": 51.51520048035663, "lng": -0.1095128666580191}, "viewport": {"northeast": {"lat": 51.5165487802915, "lng": -0.108159619708498}, "southwest": {"lat": 51.5138508197085, "lng": -0.110857580291502}}}, "name": "Fetter Lane", "place_id": "ChIJb4O1zUwbdkgReLwYKKQ7cvs", "types": ["route"]}, "ChIJkZ9Mq7QEdkgR91WpYxsGB04": {"geometry": {"location": {"lat": 51.5151711, "lng": -0.1105017}, "viewport": {"northeast": {"lat": 51.5164528302915, "lng": -0.109618969708498}, "southwest": {"lat": 51.5137548697085, "lng": -0.112316930291502}}}, "name": "Family and Matrimonial Lawyers", "place_id": "ChIJkZ9Mq7QEdkgR91WpYxsGB04", "types": ["lawyer", "point_of_interest", "establishment"], "rating": 5, "user_ratings_total": 1}, "ChIJe_M8w0wbdkgRTrjh0f_X9EE": {"geometry": {"location": {"lat": 51.51528580000001, "lng": -0.1093455}, "viewport": {"northeast": {"lat": 51.5166078802915, "lng": -0.108054369708498}, "southwest": {"lat": 51.5139099197085, "lng": -0.110752330291502}}}, "name": "Peters & Peters", "place_id": "ChIJe_M8w0wbdkgRTrjh0f_X9EE", "types": ["lawyer", "point_of_interest", "establishment"], "rating": 4.3, "user_ratings_total": 6}, "ChIJkUUQxEwbdkgRGeSQGD3b5ZE": {"geometry": {"location": {"lat": 51.5157232, "lng": -0.1101202}, "viewport": {"northeast": {"lat": 51.5170399302915, "lng": -0.108669319708498}, "southwest": {"lat": 51.5143419697085, "lng": -0.111367280291502}}}, "name": "Technology & Construction Court", "place_id": "ChIJkUUQxEwbdkgRGeSQGD3b5ZE", "types": ["courthouse", "point_of_interest", "establishment"], "rating": 3.5, "user_ratings_total": 4}, "ChIJX2kyVskbdkgR-w05gPUszRw": {"geometry": {"location": {"lat": 51.5153337, "lng": -0.1104606}, "viewport": {"northeast": {"lat": 51.5165133802915, "lng": -0.109624269708498}, "southwest": {"lat": 51.5138154197085, "lng": -0.112322230291502}}}, "name": "ShiftManagement Consulting", "place_id": "ChIJX2kyVskbdkgR-w05gPUszRw", "types": ["point_of_interest", "establishment"]}, "ChIJgQTxs0wbdkgR88PxVNrYOpU": {"geometry": {"location": {"lat": 51.51523169999999, "lng": -0.1104956}, "viewport": {"northeast": {"lat": 51.5165126802915, "lng": -0.109625519708498}, "southwest": {"lat": 51.5138147197085, "lng": -0.112323480291502}}}, "name": "BIT ZONE TECH", "place_id": "ChIJgQTxs0wbdkgR88PxVNrYOpU", "types": ["point_of_interest", "establishment"]}, "ChIJkUUQxEwbdkgR3vb0yeZXT5M": {"geometry": {"location": {"lat": 51.5157226, "lng": -0.1101657}, "viewport": {"northeast": {"lat": 51.51704873029149, "lng": -0.108678519708498}, "southwest": {"lat": 51.51435076970849, "lng": -0.111376480291502}}}, "name": "CITY COURT HOUSE, Rolls Building", "place_id": "ChIJkUUQxEwbdkgR3vb0yeZXT5M", "types": ["courthouse", "local_government_office", "point_of_interest", "establishment"], "rating": 4.3, "user_ratings_total": 24}, "ChIJj66puUwbdkgRs90vp7R5ovk": {"geometry": {"location": {"lat": 51.5157688, "lng": -0.1103146}, "viewport": {"northeast": {"lat": 51.5170558302915, "lng": -0.108766519708498}, "southwest": {"lat": 51.5143578697085, "lng": -0.111464480291502}}}, "name": "Commercial & Admiralty Court", "place_id": "ChIJj66puUwbdkgRs90vp7R5ovk", "types": ["courthouse", "local_government_office", "point_of_interest", "establishment"], "rating": 1, "user_ratings_total": 1}, "ChIJw82_uEwbdkgRxo3qkCSA9g4": {"geometry": {"location": {"lat": 51.5158522, "lng": -0.1100562}, "viewport": {"northeast": {"lat": 51.5170997802915, "lng": -0.108637319708498}, "southwest": {"lat": 51.5144018197085, "lng": -0.111335280291502}}}, "name": "Rolls Building", "place_id": "ChIJw82_uEwbdkgRxo3qkCSA9g4", "types": ["courthouse", "point_of_interest", "establishment"], "rating": 4.3, "user_ratings_total": 4}, "ChIJMchba6cFdkgR4DVUMgUa3ug": {"geometry": {"location": {"lat": 51.51491610000001, "lng": -0.1100122}, "viewport": {"northeast": {"lat": 51.51625533029151, "lng": -0.108467619708498}, "southwest": {"lat": 51.51355736970851, "lng": -0.111165580291502}}}, "name": "Qogita", "place_id": "ChIJMchba6cFdkgR4DVUMgUa3ug", "types": ["point_of_interest", "establishment"], "rating": 5, "user_ratings_total": 2}, "ChIJJys9ObMEdkgR-6MBP6yPeco": {"geometry": {"location": {"lat": 51.51404800007356, "lng": -0.1098610500875033}, "viewport": {"northeast": {"lat": 51.5153969802915, "lng": -0.108512069708498}, "southwest": {"lat": 51.5126990197085, "lng": -0.111210030291502}}}, "name": "37-38 Fleet St", "place_id": "ChIJJys9ObMEdkgR-6MBP6yPeco", "types": ["route"]}, "ChIJlU-fObMEdkgRmzyiqD0Y-NQ": {"geometry": {"location": {"lat": 51.51421500000001, "lng": -0.110211}, "viewport": {"northeast": {"lat": 51.51545453029151, "lng": -0.108804269708498}, "southwest": {"lat": 51.51275656970851, "lng": -0.111502230291502}}}, "name": "St Dunstan-in-the-West", "place_id": "ChIJlU-fObMEdkgRmzyiqD0Y-NQ", "types": ["tourist_attraction", "church", "place_of_worship", "point_of_interest", "establishment"], "rating": 4.4, "user_ratings_total": 52}, "ChIJWctKN7MEdkgRHGifh-bCX2k": {"geometry": {"location": {"lat": 51.5143922, "lng": -0.1096822}, "viewport": {"northeast": {"lat": 51.5157530802915, "lng": -0.108253219708498}, "southwest": {"lat": 51.5130551197085, "lng": -0.110951180291502}}}, "name": "Fetter Barbers", "place_id": "ChIJWctKN7MEdkgRHGifh-bCX2k", "types": ["hair_care", "health", "point_of_interest", "establishment"], "rating": 4.3, "user_ratings_total": 38}, "ChIJNxsccUobdkgRdO2mhAsbrk8": {"geometry": {"location": {"lat": 51.51439449999999, "lng": -0.1108934}, "viewport": {"northeast": {"lat": 51.5157265302915, "lng": -0.109707019708498}, "southwest": {"lat": 51.5130285697085, "lng": -0.112404980291502}}}, "name": "Infinite Global", "place_id": "ChIJNxsccUobdkgRdO2mhAsbrk8", "types": ["point_of_interest", "establishment"]}, "ChIJZQjzRrMEdkgRoykyhFQYxIw": {"geometry": {"location": {"lat": 51.5143792, "lng": -0.1109109}, "viewport": {"northeast": {"lat": 51.51570853029149, "lng": -0.109712519708498}, "southwest": {"lat": 51.51301056970849, "lng": -0.112410480291502}}}, "name": "187 Fleet Street", "place_id": "ChIJZQjzRrMEdkgRoykyhFQYxIw", "types": ["lawyer", "point_of_interest", "establishment"], "rating": 5, "user_ratings_total": 1}, "ChIJ5emNLp8NdkgRScC6gxxjRvI": {"geometry": {"location": {"lat": 51.5143864, "lng": -0.1093831}, "viewport": {"northeast": {"lat": 51.5157261802915, "lng": -0.108094519708498}, "southwest": {"lat": 51.5130282197085, "lng": -0.110792480291502}}}, "name": "ITN Mark Education - Teacher Recruitment", "place_id": "ChIJ5emNLp8NdkgRScC6gxxjRvI", "types": ["point_of_interest", "establishment"]}, "ChIJR1xrZksbdkgR3rVOOWVPLEw": {"geometry": {"location": {"lat": 51.5145761, "lng": -0.1101923}, "viewport": {"northeast": {"lat": 51.51595123029151, "lng": -0.108547969708498}, "southwest": {"lat": 51.51325326970851, "lng": -0.111245930291502}}}, "name": "Triplet & Associ\u00e9s", "place_id": "ChIJR1xrZksbdkgR3rVOOWVPLEw", "types": ["lawyer", "point_of_interest", "establishment"]}, "ChIJHVT6T60EdkgRLw_bZr_2Bi0": {"geometry": {"location": {"lat": 51.5141996, "lng": -0.1098413}, "viewport": {"northeast": {"lat": 51.5154791802915, "lng": -0.108480919708498}, "southwest": {"lat": 51.5127812197085, "lng": -0.111178880291502}}}, "name": "Dundee Courier", "place_id": "ChIJHVT6T60EdkgRLw_bZr_2Bi0", "types": ["point_of_interest", "establishment"]}, "ChIJlY1WOLMEdkgRgZ7Uc2wRXPc": {"geometry": {"location": {"lat": 51.5142576, "lng": -0.110165}, "viewport": {"northeast": {"lat": 51.5156065802915, "lng": -0.108816019708498}, "southwest": {"lat": 51.5129086197085, "lng": -0.111513980291502}}}, "name": "Romanian Saint George Church", "place_id": "ChIJlY1WOLMEdkgRgZ7Uc2wRXPc", "types": ["church", "place_of_worship", "point_of_interest", "establishment"], "rating": 4.7, "user_ratings_total": 215}, "ChIJb02TSbMEdkgRCJGDfkBv6Y8": {"geometry": {"location": {"lat": 51.51456899999999, "lng": -0.110186}, "viewport": {"northeast": {"lat": 51.5159439302915, "lng": -0.108543969708498}, "southwest": {"lat": 51.5132459697085, "lng": -0.111241930291502}}}, "name": "NINTEX", "place_id": "ChIJb02TSbMEdkgRCJGDfkBv6Y8", "types": ["point_of_interest", "establishment"], "rating": 3.4, "user_ratings_total": 9}, "ChIJ71PNlv8E2UcRkgDzqAlUAuk": {"geometry": {"location": {"lat": 51.5141996, "lng": -0.1098413}, "viewport": {"northeast": {"lat": 51.5154839302915, "lng": -0.108460369708498}, "southwest": {"lat": 51.5127859697085, "lng": -0.111158330291502}}}, "name": "Make It Today Dressmaker", "place_id": "ChIJ71PNlv8E2UcRkgDzqAlUAuk", "types": ["point_of_interest", "establishment"]}, "ChIJ71PNlv8E2UcRsTHzk484DDw": {"geometry": {"location": {"lat": 51.5141996, "lng": -0.1098413}, "viewport": {"northeast": {"lat": 51.5154839302915, "lng": -0.108460369708498}, "southwest": {"lat": 51.5127859697085, "lng": -0.111158330291502}}}, "name": "Global Franchise.", "place_id": "ChIJ71PNlv8E2UcRsTHzk484DDw", "types": ["point_of_interest", "establishment"]}, "ChIJQU65ObMEdkgReQtR3wBexqk": {"geometry": {"location": {"lat": 51.5141996, "lng": -0.1098412}, "viewport": {"northeast": {"lat": 51.5154839302915, "lng": -0.108460319708498}, "southwest": {"lat": 51.5127859697085, "lng": -0.111158280291502}}}, "name": "Commando Comics", "place_id": "ChIJQU65ObMEdkgReQtR3wBexqk", "types": ["point_of_interest", "establishment"], "rating": 3, "user_ratings_total": 1}, "ChIJ97HaMLMEdkgRcZRFvbCL3tY": {"geometry": {"location": {"lat": 51.5143699, "lng": -0.1097018}, "viewport": {"northeast": {"lat": 51.5157327302915, "lng": -0.108259519708498}, "southwest": {"lat": 51.5130347697085, "lng": -0.110957480291502}}}, "name": "Cliffords Inn", "place_id": "ChIJ97HaMLMEdkgRcZRFvbCL3tY", "types": ["point_of_interest", "establishment"], "rating": 5, "user_ratings_total": 2}, "ChIJAXCORrMEdkgRSpuRdyvdFWs": {"geometry": {"location": {"lat": 51.5140971, "lng": -0.1103493}, "viewport": {"northeast": {"lat": 51.51537743029149, "lng": -0.108967519708498}, "southwest": {"lat": 51.51267946970849, "lng": -0.111665480291502}}}, "name": "Which", "place_id": "ChIJAXCORrMEdkgRSpuRdyvdFWs", "types": ["lawyer", "point_of_interest", "establishment"]}, "ChIJAXCORrMEdkgR-5_8ddDj_to": {"geometry": {"location": {"lat": 51.5140971, "lng": -0.1103493}, "viewport": {"northeast": {"lat": 51.51537743029149, "lng": -0.108967519708498}, "southwest": {"lat": 51.51267946970849, "lng": -0.111665480291502}}}, "name": "187 Traffic Lawyers", "place_id": "ChIJAXCORrMEdkgR-5_8ddDj_to", "types": ["point_of_interest", "establishment"]}, "ChIJOwjIOLMEdkgRQRXbZSYkPho": {"geometry": {"location": {"lat": 51.5143406, "lng": -0.1096792}, "viewport": {"northeast": {"lat": 51.5155754802915, "lng": -0.108270769708498}, "southwest": {"lat": 51.5128775197085, "lng": -0.110968730291502}}}, "name": "Bar Golfing Society", "place_id": "ChIJOwjIOLMEdkgRQRXbZSYkPho", "types": ["point_of_interest", "establishment"]}, "ChIJVVVVJU0bdkgRWPI8_GXxGCE": {"geometry": {"location": {"lat": 51.5142083, "lng": -0.1096817}, "viewport": {"northeast": {"lat": 51.5155572802915, "lng": -0.108332719708498}, "southwest": {"lat": 51.5128593197085, "lng": -0.1110306802915021}}}, "name": "Toby Watkin", "place_id": "ChIJVVVVJU0bdkgRWPI8_GXxGCE", "types": ["lawyer", "point_of_interest", "establishment"]}, "ChIJVVVVJU0bdkgR0TytEzyz8h8": {"geometry": {"location": {"lat": 51.5142183, "lng": -0.1096617}, "viewport": {"northeast": {"lat": 51.51556728029149, "lng": -0.108312719708498}, "southwest": {"lat": 51.51286931970849, "lng": -0.111010680291502}}}, "name": "Scott Lyness", "place_id": "ChIJVVVVJU0bdkgR0TytEzyz8h8", "types": ["lawyer", "point_of_interest", "establishment"]}, "ChIJNz8YOrMEdkgRHqDtrNpz1FI": {"geometry": {"location": {"lat": 51.5142237, "lng": -0.109684}, "viewport": {"northeast": {"lat": 51.51551103029148, "lng": -0.108302919708498}, "southwest": {"lat": 51.51281306970849, "lng": -0.111000880291502}}}, "name": "Rating and Valuation Reporter", "place_id": "ChIJNz8YOrMEdkgRHqDtrNpz1FI", "types": ["point_of_interest", "establishment"]}, "ChIJIUGlNrMEdkgRQ63tzaIAIhU": {"geometry": {"location": {"lat": 51.514591, "lng": -0.1097764}, "viewport": {"northeast": {"lat": 51.51594833029149, "lng": -0.108337669708498}, "southwest": {"lat": 51.51325036970849, "lng": -0.111035630291502}}}, "name": "Skillstudio - London", "place_id": "ChIJIUGlNrMEdkgRQ63tzaIAIhU", "types": ["point_of_interest", "establishment"]}, "ChIJJwjIOLMEdkgR5s_fLHmUMD8": {"geometry": {"location": {"lat": 51.5140261, "lng": -0.1100032}, "viewport": {"northeast": {"lat": 51.5153953802915, "lng": -0.108665269708498}, "southwest": {"lat": 51.5126974197085, "lng": -0.111363230291502}}}, "name": "Handmade & Bound", "place_id": "ChIJJwjIOLMEdkgR5s_fLHmUMD8", "types": ["point_of_interest", "establishment"]}, "ChIJl1sG0LIEdkgRPwvq0aW8mBI": {"geometry": {"location": {"lat": 51.5146002, "lng": -0.1097356}, "viewport": {"northeast": {"lat": 51.5159552802915, "lng": -0.108317819708498}, "southwest": {"lat": 51.5132573197085, "lng": -0.111015780291502}}}, "name": "Signature Litigation", "place_id": "ChIJl1sG0LIEdkgRPwvq0aW8mBI", "types": ["lawyer", "point_of_interest", "establishment"], "rating": 4.5, "user_ratings_total": 2}, "ChIJf3z4RLMEdkgRFi8uaS0Y7Ow": {"geometry": {"location": {"lat": 51.5140604, "lng": -0.1105396}, "viewport": {"northeast": {"lat": 51.5153413802915, "lng": -0.109158269708498}, "southwest": {"lat": 51.5126434197085, "lng": -0.111856230291502}}}, "name": "The Legal 500", "place_id": "ChIJf3z4RLMEdkgRFi8uaS0Y7Ow", "types": ["point_of_interest", "establishment"], "rating": 4.2, "user_ratings_total": 5}, "ChIJA0zuGvYPdkgRXeinCcPp7wo": {"geometry": {"location": {"lat": 51.51400169999999, "lng": -0.1105191}, "viewport": {"northeast": {"lat": 51.5153113802915, "lng": -0.109151469708498}, "southwest": {"lat": 51.51261341970851, "lng": -0.111849430291502}}}, "name": "Legalease", "place_id": "ChIJA0zuGvYPdkgRXeinCcPp7wo", "types": ["point_of_interest", "establishment"], "rating": 5, "user_ratings_total": 2}, "ChIJeXz4RLMEdkgRIhfAJ8Dw2dQ": {"geometry": {"location": {"lat": 51.51410230000001, "lng": -0.1106446}, "viewport": {"northeast": {"lat": 51.51535488029151, "lng": -0.109257369708498}, "southwest": {"lat": 51.51265691970851, "lng": -0.1119553302915021}}}, "name": "The Practical Lawyer", "place_id": "ChIJeXz4RLMEdkgRIhfAJ8Dw2dQ", "types": ["lawyer", "point_of_interest", "establishment"]}, "ChIJUTs8ULMEdkgRkfUkp9778Ko": {"geometry": {"location": {"lat": 51.5144214, "lng": -0.110814}, "viewport": {"northeast": {"lat": 51.5157490302915, "lng": -0.109669719708498}, "southwest": {"lat": 51.5130510697085, "lng": -0.112367680291502}}}, "name": "Aviculas Security Services", "place_id": "ChIJUTs8ULMEdkgRkfUkp9778Ko", "types": ["point_of_interest", "establishment"]}, "ChIJ12D4Q7MEdkgRBN3hnh17UrU": {"geometry": {"location": {"lat": 51.5140932, "lng": -0.1106885}, "viewport": {"northeast": {"lat": 51.5153468802915, "lng": -0.1093017197084979}, "southwest": {"lat": 51.5126489197085, "lng": -0.111999680291502}}}, "name": "LINK.ORG", "place_id": "ChIJ12D4Q7MEdkgRBN3hnh17UrU", "types": ["point_of_interest", "establishment"]}, "ChIJr3Z8-kwbdkgReG2e6TvFwtA": {"geometry": {"location": {"lat": 51.5142955, "lng": -0.1094894}, "viewport": {"northeast": {"lat": 51.5156390302915, "lng": -0.108176969708498}, "southwest": {"lat": 51.5129410697085, "lng": -0.1108749302915021}}}, "name": "VWV approach", "place_id": "ChIJr3Z8-kwbdkgReG2e6TvFwtA", "types": ["point_of_interest", "establishment"]}, "ChIJRZJf-FAbdkgRAYRA6OZY78M": {"geometry": {"location": {"lat": 51.514396, "lng": -0.1108934}, "viewport": {"northeast": {"lat": 51.51572798029149, "lng": -0.109707219708498}, "southwest": {"lat": 51.51303001970849, "lng": -0.112405180291502}}}, "name": "Hanscomb Intercontinental", "place_id": "ChIJRZJf-FAbdkgRAYRA6OZY78M", "types": ["finance", "point_of_interest", "establishment"]}, "ChIJxXqRvEwbdkgRKyTnf1X0mL4": {"geometry": {"location": {"lat": 51.51439449999999, "lng": -0.1108934}, "viewport": {"northeast": {"lat": 51.5157265302915, "lng": -0.109707019708498}, "southwest": {"lat": 51.5130285697085, "lng": -0.112404980291502}}}, "name": "Ridgeback Consulting Limited", "place_id": "ChIJxXqRvEwbdkgRKyTnf1X0mL4", "types": ["general_contractor", "point_of_interest", "establishment"], "rating": 5, "user_ratings_total": 1}, "ChIJ9ZaGBDQbdkgRbIuLCt4zB-k": {"geometry": {"location": {"lat": 51.51439449999999, "lng": -0.1108933}, "viewport": {"northeast": {"lat": 51.5157265302915, "lng": -0.109706969708498}, "southwest": {"lat": 51.5130285697085, "lng": -0.112404930291502}}}, "name": "Whitelock Storr Solicitors", "place_id": "ChIJ9ZaGBDQbdkgRbIuLCt4zB-k", "types": ["lawyer", "point_of_interest", "establishment"]}, "ChIJ3XGlV7IEdkgRgDeBBRgMbwk": {"geometry": {"location": {"lat": 51.514405, "lng": -0.1108827}, "viewport": {"northeast": {"lat": 51.5157363302915, "lng": -0.109702869708498}, "southwest": {"lat": 51.5130383697085, "lng": -0.1124008302915021}}}, "name": "WATSON BRADY LLP", "place_id": "ChIJ3XGlV7IEdkgRgDeBBRgMbwk", "types": ["point_of_interest", "establishment"], "rating": 3, "user_ratings_total": 2}, "ChIJ41fZL7MEdkgRSqe-jRrV-to": {"geometry": {"location": {"lat": 51.51440600000001, "lng": -0.110887}, "viewport": {"northeast": {"lat": 51.5157375302915, "lng": -0.109705219708498}, "southwest": {"lat": 51.51303956970851, "lng": -0.112403180291502}}}, "name": "Arbicon", "place_id": "ChIJ41fZL7MEdkgRSqe-jRrV-to", "types": ["finance", "point_of_interest", "establishment"], "rating": 1, "user_ratings_total": 1}, "ChIJ0X-Ye9QadkgRm8_1pUbC_fk": {"geometry": {"location": {"lat": 51.5144056, "lng": -0.1108865}, "viewport": {"northeast": {"lat": 51.5157371302915, "lng": -0.109704919708498}, "southwest": {"lat": 51.51303916970851, "lng": -0.112402880291502}}}, "name": "Company Documents Ltd / www.CompanyDocuments.com", "place_id": "ChIJ0X-Ye9QadkgRm8_1pUbC_fk", "types": ["point_of_interest", "establishment"]}, "ChIJ15g7ULMEdkgRGVwwBVBbOfc": {"geometry": {"location": {"lat": 51.5144056, "lng": -0.1108865}, "viewport": {"northeast": {"lat": 51.5157371302915, "lng": -0.109704919708498}, "southwest": {"lat": 51.51303916970851, "lng": -0.112402880291502}}}, "name": "Black British PR", "place_id": "ChIJ15g7ULMEdkgRGVwwBVBbOfc", "types": ["point_of_interest", "establishment"]}, "ChIJ-5tAULMEdkgRj4_39mk55QQ": {"geometry": {"location": {"lat": 51.5144056, "lng": -0.1108865}, "viewport": {"northeast": {"lat": 51.5157371302915, "lng": -0.109704919708498}, "southwest": {"lat": 51.51303916970851, "lng": -0.112402880291502}}}, "name": "SMG Mediation Ltd", "place_id": "ChIJ-5tAULMEdkgRj4_39mk55QQ", "types": ["point_of_interest", "establishment"], "rating": 5, "user_ratings_total": 3}, "ChIJUTs8ULMEdkgRSHUbYZGUJLs": {"geometry": {"location": {"lat": 51.5144056, "lng": -0.1108865}, "viewport": {"northeast": {"lat": 51.5157371302915, "lng": -0.109704919708498}, "southwest": {"lat": 51.51303916970851, "lng": -0.112402880291502}}}, "name": "Phillips & Cohen LLP", "place_id": "ChIJUTs8ULMEdkgRSHUbYZGUJLs", "types": ["lawyer", "point_of_interest", "establishment"], "rating": 5, "user_ratings_total": 1}, "ChIJ41fZL7MEdkgRlJKRtyLmEyk": {"geometry": {"location": {"lat": 51.5144056, "lng": -0.1108865}, "viewport": {"northeast": {"lat": 51.5157371302915, "lng": -0.109704919708498}, "southwest": {"lat": 51.51303916970851, "lng": -0.112402880291502}}}, "name": "Infrata Limited", "place_id": "ChIJ41fZL7MEdkgRlJKRtyLmEyk", "types": ["point_of_interest", "establishment"], "rating": 5, "user_ratings_total": 2}, "ChIJ15g7ULMEdkgRe05MfPXgqwQ": {"geometry": {"location": {"lat": 51.5144056, "lng": -0.1108865}, "viewport": {"northeast": {"lat": 51.5157371302915, "lng": -0.109704919708498}, "southwest": {"lat": 51.51303916970851, "lng": -0.112402880291502}}}, "name": "Cinergy IP", "place_id": "ChIJ15g7ULMEdkgRe05MfPXgqwQ", "types": ["point_of_interest", "establishment"], "rating": 5, "user_ratings_total": 2}, "ChIJnQfcL7MEdkgRwS0BGneNMPc": {"geometry": {"location": {"lat": 51.51440600000001, "lng": -0.110887}, "viewport": {"northeast": {"lat": 51.5157375302915, "lng": -0.109705219708498}, "southwest": {"lat": 51.51303956970851, "lng": -0.112403180291502}}}, "name": "James Cowper Kreston", "place_id": "ChIJnQfcL7MEdkgRwS0BGneNMPc", "types": ["accounting", "finance", "point_of_interest", "establishment"]}, "ChIJq6rWe0sbdkgRLzH7Ic4l634": {"geometry": {"location": {"lat": 51.51440600000001, "lng": -0.110887}, "viewport": {"northeast": {"lat": 51.5157375302915, "lng": -0.109705219708498}, "southwest": {"lat": 51.51303956970851, "lng": -0.112403180291502}}}, "name": "Strand Legal", "place_id": "ChIJq6rWe0sbdkgRLzH7Ic4l634", "types": ["point_of_interest", "establishment"], "rating": 5, "user_ratings_total": 4}, "ChIJUTs8ULMEdkgRLmbjlHC8_XY": {"geometry": {"location": {"lat": 51.51440600000001, "lng": -0.110887}, "viewport": {"northeast": {"lat": 51.5157375302915, "lng": -0.109705219708498}, "southwest": {"lat": 51.51303956970851, "lng": -0.112403180291502}}}, "name": "THE SKILLS SANCTUARY LTD", "place_id": "ChIJUTs8ULMEdkgRLmbjlHC8_XY", "types": ["point_of_interest", "establishment"], "rating": 5, "user_ratings_total": 1}, "ChIJa2WT6EsbdkgRz_0LMMEF_EI": {"geometry": {"location": {"lat": 51.51440600000001, "lng": -0.110887}, "viewport": {"northeast": {"lat": 51.5157375302915, "lng": -0.109705219708498}, "southwest": {"lat": 51.51303956970851, "lng": -0.112403180291502}}}, "name": "Cassadys Solicitors", "place_id": "ChIJa2WT6EsbdkgRz_0LMMEF_EI", "types": ["point_of_interest", "establishment"], "rating": 5, "user_ratings_total": 22}, "ChIJK5c7ULMEdkgRqOy36LaqE5s": {"geometry": {"location": {"lat": 51.5144049, "lng": -0.1108885}, "viewport": {"northeast": {"lat": 51.5157365302915, "lng": -0.109705869708498}, "southwest": {"lat": 51.51303856970851, "lng": -0.112403830291502}}}, "name": "CRM 114", "place_id": "ChIJK5c7ULMEdkgRqOy36LaqE5s", "types": ["point_of_interest", "establishment"]}, "ChIJ7Tw8ULMEdkgRD2n-cjQIgNk": {"geometry": {"location": {"lat": 51.514395, "lng": -0.110893}, "viewport": {"northeast": {"lat": 51.5157269802915, "lng": -0.1097068697084979}, "southwest": {"lat": 51.5130290197085, "lng": -0.112404830291502}}}, "name": "LAROS", "place_id": "ChIJ7Tw8ULMEdkgRD2n-cjQIgNk", "types": ["point_of_interest", "establishment"]}, "ChIJZzs8ULMEdkgR5c4bMfMHJDc": {"geometry": {"location": {"lat": 51.51439449999999, "lng": -0.1108931}, "viewport": {"northeast": {"lat": 51.5157265302915, "lng": -0.109706869708498}, "southwest": {"lat": 51.5130285697085, "lng": -0.112404830291502}}}, "name": "Media Industries Group", "place_id": "ChIJZzs8ULMEdkgR5c4bMfMHJDc", "types": ["point_of_interest", "establishment"]}, "ChIJ6VqgU84EdkgRtGyT0IkJzCw": {"geometry": {"location": {"lat": 51.51439449999999, "lng": -0.1108933}, "viewport": {"northeast": {"lat": 51.5157265302915, "lng": -0.109706969708498}, "southwest": {"lat": 51.5130285697085, "lng": -0.112404930291502}}}, "name": "Wristbands DCD Ltd - Wristbands24.co.uk", "place_id": "ChIJ6VqgU84EdkgRtGyT0IkJzCw", "types": ["point_of_interest", "establishment"], "rating": 3, "user_ratings_total": 2}, "ChIJ34iX6yEFdkgRThfWOwCdtZQ": {"geometry": {"location": {"lat": 51.51439449999999, "lng": -0.1108933}, "viewport": {"northeast": {"lat": 51.5157265302915, "lng": -0.109706969708498}, "southwest": {"lat": 51.5130285697085, "lng": -0.112404930291502}}}, "name": "Definitive Immigration Services Ltd", "place_id": "ChIJ34iX6yEFdkgRThfWOwCdtZQ", "types": ["point_of_interest", "establishment"]}, "ChIJWzs8ULMEdkgRIEmSde25WtY": {"geometry": {"location": {"lat": 51.51439449999999, "lng": -0.1108933}, "viewport": {"northeast": {"lat": 51.5157265302915, "lng": -0.109706969708498}, "southwest": {"lat": 51.5130285697085, "lng": -0.112404930291502}}}, "name": "Marchmont Partners", "place_id": "ChIJWzs8ULMEdkgRIEmSde25WtY", "types": ["point_of_interest", "establishment"]}, "ChIJWzs8ULMEdkgROX2MC5-wQmY": {"geometry": {"location": {"lat": 51.51439449999999, "lng": -0.1108933}, "viewport": {"northeast": {"lat": 51.5157265302915, "lng": -0.109706969708498}, "southwest": {"lat": 51.5130285697085, "lng": -0.112404930291502}}}, "name": "WH LAWRENCE SOLICITORS", "place_id": "ChIJWzs8ULMEdkgROX2MC5-wQmY", "types": ["point_of_interest", "establishment"], "rating": 1, "user_ratings_total": 1}, "ChIJWzs8ULMEdkgRBJaaWTOnc-8": {"geometry": {"location": {"lat": 51.51439449999999, "lng": -0.1108933}, "viewport": {"northeast": {"lat": 51.5157265302915, "lng": -0.109706969708498}, "southwest": {"lat": 51.5130285697085, "lng": -0.112404930291502}}}, "name": "MIB Business Finance", "place_id": "ChIJWzs8ULMEdkgRBJaaWTOnc-8", "types": ["finance", "point_of_interest", "establishment"]}, "ChIJWzs8ULMEdkgRHFJRRq6Iyc4": {"geometry": {"location": {"lat": 51.51439449999999, "lng": -0.1108933}, "viewport": {"northeast": {"lat": 51.5157265302915, "lng": -0.109706969708498}, "southwest": {"lat": 51.5130285697085, "lng": -0.112404930291502}}}, "name": "Process Servers Group", "place_id": "ChIJWzs8ULMEdkgRHFJRRq6Iyc4", "types": ["point_of_interest", "establishment"]}, "ChIJWzs8ULMEdkgRq1syg91n9dY": {"geometry": {"location": {"lat": 51.51439449999999, "lng": -0.1108933}, "viewport": {"northeast": {"lat": 51.5157265302915, "lng": -0.109706969708498}, "southwest": {"lat": 51.5130285697085, "lng": -0.112404930291502}}}, "name": "Skillsology Ltd", "place_id": "ChIJWzs8ULMEdkgRq1syg91n9dY", "types": ["point_of_interest", "establishment"], "rating": 4.5, "user_ratings_total": 2}, "ChIJUTs8ULMEdkgRJAeX2_2cTv0": {"geometry": {"location": {"lat": 51.51439449999999, "lng": -0.1108934}, "viewport": {"northeast": {"lat": 51.5157265302915, "lng": -0.109707019708498}, "southwest": {"lat": 51.5130285697085, "lng": -0.112404980291502}}}, "name": "Chancery Estates", "place_id": "ChIJUTs8ULMEdkgRJAeX2_2cTv0", "types": ["real_estate_agency", "point_of_interest", "establishment"], "rating": 1, "user_ratings_total": 1}, "ChIJUTs8ULMEdkgRaI284yrza1I": {"geometry": {"location": {"lat": 51.51439449999999, "lng": -0.1108934}, "viewport": {"northeast": {"lat": 51.5157265302915, "lng": -0.109707019708498}, "southwest": {"lat": 51.5130285697085, "lng": -0.112404980291502}}}, "name": "Business Partnership Corporate", "place_id": "ChIJUTs8ULMEdkgRaI284yrza1I", "types": ["point_of_interest", "establishment"], "rating": 1, "user_ratings_total": 1}, "ChIJUTs8ULMEdkgRI963LcYJlcs": {"geometry": {"location": {"lat": 51.51439449999999, "lng": -0.1108934}, "viewport": {"northeast": {"lat": 51.5157265302915, "lng": -0.109707019708498}, "southwest": {"lat": 51.5130285697085, "lng": -0.112404980291502}}}, "name": "Patrick Bamford Limited", "place_id": "ChIJUTs8ULMEdkgRI963LcYJlcs", "types": ["accounting", "finance", "point_of_interest", "establishment"]}, "ChIJUTs8ULMEdkgRGzqGM5dFCRs": {"geometry": {"location": {"lat": 51.51439449999999, "lng": -0.1108934}, "viewport": {"northeast": {"lat": 51.5157265302915, "lng": -0.109707019708498}, "southwest": {"lat": 51.5130285697085, "lng": -0.112404980291502}}}, "name": "Regal Nannies LTD", "place_id": "ChIJUTs8ULMEdkgRGzqGM5dFCRs", "types": ["point_of_interest", "establishment"]}, "ChIJUTs8ULMEdkgRxZUoRUBXvJY": {"geometry": {"location": {"lat": 51.51439449999999, "lng": -0.1108934}, "viewport": {"northeast": {"lat": 51.5157265302915, "lng": -0.109707019708498}, "southwest": {"lat": 51.5130285697085, "lng": -0.112404980291502}}}, "name": "De Jure Chambers", "place_id": "ChIJUTs8ULMEdkgRxZUoRUBXvJY", "types": ["point_of_interest", "establishment"], "rating": 5, "user_ratings_total": 27}, "ChIJM_eierMEdkgRIsLt7uB8hfg": {"geometry": {"location": {"lat": 51.51292219327985, "lng": -0.1108671357455916}, "viewport": {"northeast": {"lat": 51.5142922802915, "lng": -0.109550369708498}, "southwest": {"lat": 51.5115943197085, "lng": -0.1122483302915021}}}, "name": "1-3 Pump Ct", "place_id": "ChIJM_eierMEdkgRIsLt7uB8hfg", "types": ["route"]}, "ChIJRfyrbbMEdkgR79OO2x9D8is": {"geometry": {"location": {"lat": 51.5132637, "lng": -0.1102647}, "viewport": {"northeast": {"lat": 51.5145205802915, "lng": -0.108421169708498}, "southwest": {"lat": 51.5118226197085, "lng": -0.1111191302915021}}}, "name": "Temple Church", "place_id": "ChIJRfyrbbMEdkgR79OO2x9D8is", "types": ["church", "tourist_attraction", "place_of_worship", "point_of_interest", "establishment"], "rating": 4.6, "user_ratings_total": 1786}, "ChIJsecEQrMEdkgRvd4CVnayQPs": {"geometry": {"location": {"lat": 51.51373410000001, "lng": -0.1104919}, "viewport": {"northeast": {"lat": 51.5151712302915, "lng": -0.109177869708498}, "southwest": {"lat": 51.5124732697085, "lng": -0.111875830291502}}}, "name": "Ye Olde Cock Tavern", "place_id": "ChIJsecEQrMEdkgRvd4CVnayQPs", "types": ["bar", "point_of_interest", "establishment"], "rating": 4.2, "user_ratings_total": 645}, "ChIJsecEQrMEdkgRq-akdk6gLhw": {"geometry": {"location": {"lat": 51.513713, "lng": -0.110213}, "viewport": {"northeast": {"lat": 51.51506198029149, "lng": -0.108864019708498}, "southwest": {"lat": 51.5123640197085, "lng": -0.111561980291502}}}, "name": "Fleet Street Clinic", "place_id": "ChIJsecEQrMEdkgRq-akdk6gLhw", "types": ["dentist", "health", "point_of_interest", "establishment"], "rating": 4.5, "user_ratings_total": 59}, "ChIJa0J_C7MEdkgRRY4meFKFFhY": {"geometry": {"location": {"lat": 51.5128905, "lng": -0.1097816}, "viewport": {"northeast": {"lat": 51.51414373029149, "lng": -0.108352669708498}, "southwest": {"lat": 51.51144576970849, "lng": -0.1110506302915021}}}, "name": "Honourable Society of the Inner Temple", "place_id": "ChIJa0J_C7MEdkgRRY4meFKFFhY", "types": ["library", "point_of_interest", "establishment"], "rating": 4.6, "user_ratings_total": 34}, "ChIJBca-GbMEdkgRbJUotIfI_VE": {"geometry": {"location": {"lat": 51.513269, "lng": -0.110796}, "viewport": {"northeast": {"lat": 51.5146179802915, "lng": -0.109447019708498}, "southwest": {"lat": 51.5119200197085, "lng": -0.112144980291502}}}, "name": "Immigration Barristers", "place_id": "ChIJBca-GbMEdkgRbJUotIfI_VE", "types": ["lawyer", "point_of_interest", "establishment"], "rating": 5, "user_ratings_total": 3}, "ChIJ_dWObLMEdkgRq9JVSwJke8w": {"geometry": {"location": {"lat": 51.513262, "lng": -0.1102476}, "viewport": {"northeast": {"lat": 51.5143240802915, "lng": -0.108599019708498}, "southwest": {"lat": 51.5116261197085, "lng": -0.111296980291502}}}, "name": "Temple Music", "place_id": "ChIJ_dWObLMEdkgRq9JVSwJke8w", "types": ["point_of_interest", "establishment"]}, "ChIJn5Pea7MEdkgRNelaAqWsTi0": {"geometry": {"location": {"lat": 51.5133246, "lng": -0.1104341}, "viewport": {"northeast": {"lat": 51.5146591302915, "lng": -0.108510919708498}, "southwest": {"lat": 51.5119611697085, "lng": -0.111208880291502}}}, "name": "Playford's shop", "place_id": "ChIJn5Pea7MEdkgRNelaAqWsTi0", "types": ["point_of_interest", "establishment"], "rating": 5, "user_ratings_total": 1}, "ChIJ2TXdGrMEdkgRRN7YdtSYWhQ": {"geometry": {"location": {"lat": 51.5131854, "lng": -0.1098473}, "viewport": {"northeast": {"lat": 51.5145556302915, "lng": -0.108210369708498}, "southwest": {"lat": 51.5118576697085, "lng": -0.110908330291502}}}, "name": "2 K B W Kadri's Chambers", "place_id": "ChIJ2TXdGrMEdkgRRN7YdtSYWhQ", "types": ["lawyer", "point_of_interest", "establishment"]}, "ChIJm7pkP7MEdkgR6kVVevLgSkE": {"geometry": {"location": {"lat": 51.5136006, "lng": -0.1105029}, "viewport": {"northeast": {"lat": 51.5150998302915, "lng": -0.109213619708498}, "southwest": {"lat": 51.5124018697085, "lng": -0.111911580291502}}}, "name": "Denyer-Green Barry", "place_id": "ChIJm7pkP7MEdkgR6kVVevLgSkE", "types": ["lawyer", "point_of_interest", "establishment"]}, "ChIJ608Cb7QEdkgRMGLzmKxHTIo": {"geometry": {"location": {"lat": 51.5132149, "lng": -0.1095867}, "viewport": {"northeast": {"lat": 51.5145638802915, "lng": -0.108237719708498}, "southwest": {"lat": 51.5118659197085, "lng": -0.1109356802915021}}}, "name": "John Jolliffe", "place_id": "ChIJ608Cb7QEdkgRMGLzmKxHTIo", "types": ["lawyer", "point_of_interest", "establishment"]}, "ChIJifJDEbMEdkgRoxSL1An2a1A": {"geometry": {"location": {"lat": 51.5132534, "lng": -0.1096269}, "viewport": {"northeast": {"lat": 51.51460238029149, "lng": -0.108277919708498}, "southwest": {"lat": 51.51190441970849, "lng": -0.110975880291502}}}, "name": "Gerald Gouriet QC", "place_id": "ChIJifJDEbMEdkgRoxSL1An2a1A", "types": ["point_of_interest", "establishment"], "rating": 3, "user_ratings_total": 2}, "ChIJq6oGSx8OdkgRciJeqYh9i5g": {"geometry": {"location": {"lat": 51.51360749999999, "lng": -0.1105134}, "viewport": {"northeast": {"lat": 51.5151027302915, "lng": -0.109222519708498}, "southwest": {"lat": 51.5124047697085, "lng": -0.111920480291502}}}, "name": "EXTRADITION LAWYER UK", "place_id": "ChIJq6oGSx8OdkgRciJeqYh9i5g", "types": ["point_of_interest", "establishment"], "rating": 5, "user_ratings_total": 3}, "ChIJHSamaLMEdkgRPOflbgdSHzE": {"geometry": {"location": {"lat": 51.513355, "lng": -0.110809}, "viewport": {"northeast": {"lat": 51.5147039802915, "lng": -0.109460019708498}, "southwest": {"lat": 51.5120060197085, "lng": -0.112157980291502}}}, "name": "Lovebarristers", "place_id": "ChIJHSamaLMEdkgRPOflbgdSHzE", "types": ["lawyer", "point_of_interest", "establishment"]}, "ChIJifJDEbMEdkgR8T6MKjMbCtk": {"geometry": {"location": {"lat": 51.51327, "lng": -0.1095712}, "viewport": {"northeast": {"lat": 51.5146189802915, "lng": -0.108222219708498}, "southwest": {"lat": 51.5119210197085, "lng": -0.110920180291502}}}, "name": "Francis Taylor Building", "place_id": "ChIJifJDEbMEdkgR8T6MKjMbCtk", "types": ["lawyer", "point_of_interest", "establishment"], "rating": 4.5, "user_ratings_total": 10}, "ChIJ608Cb7QEdkgRfRpnmf5tJPs": {"geometry": {"location": {"lat": 51.5128618, "lng": -0.1101326}, "viewport": {"northeast": {"lat": 51.5140893302915, "lng": -0.108642319708498}, "southwest": {"lat": 51.5113913697085, "lng": -0.111340280291502}}}, "name": "Neil Sheldon", "place_id": "ChIJ608Cb7QEdkgRfRpnmf5tJPs", "types": ["lawyer", "point_of_interest", "establishment"]}, "ChIJ608Cb7QEdkgR7gqbkVW4ZaM": {"geometry": {"location": {"lat": 51.5128618, "lng": -0.1101326}, "viewport": {"northeast": {"lat": 51.5140893302915, "lng": -0.108642319708498}, "southwest": {"lat": 51.5113913697085, "lng": -0.111340280291502}}}, "name": "John Whitting Qc", "place_id": "ChIJ608Cb7QEdkgR7gqbkVW4ZaM", "types": ["lawyer", "point_of_interest", "establishment"]}, "ChIJ608Cb7QEdkgRkD0dqVa5INU": {"geometry": {"location": {"lat": 51.5128618, "lng": -0.1101326}, "viewport": {"northeast": {"lat": 51.5140893302915, "lng": -0.108642319708498}, "southwest": {"lat": 51.5113913697085, "lng": -0.111340280291502}}}, "name": "Sally Smith Qc", "place_id": "ChIJ608Cb7QEdkgRkD0dqVa5INU", "types": ["point_of_interest", "establishment"]}, "ChIJQf5qQbMEdkgR0qbknzCDDhY": {"geometry": {"location": {"lat": 51.5137134, "lng": -0.1102133}, "viewport": {"northeast": {"lat": 51.5151815802915, "lng": -0.108921269708498}, "southwest": {"lat": 51.5124836197085, "lng": -0.111619230291502}}}, "name": "Andrew Doody", "place_id": "ChIJQf5qQbMEdkgR0qbknzCDDhY", "types": ["health", "point_of_interest", "establishment"], "rating": 5, "user_ratings_total": 5}, "ChIJ608Cb7QEdkgRD5bUykGVrDU": {"geometry": {"location": {"lat": 51.5128618, "lng": -0.1101326}, "viewport": {"northeast": {"lat": 51.5140893302915, "lng": -0.108642319708498}, "southwest": {"lat": 51.5113913697085, "lng": -0.111340280291502}}}, "name": "Philippa Whipple Qc", "place_id": "ChIJ608Cb7QEdkgRD5bUykGVrDU", "types": ["point_of_interest", "establishment"]}, "ChIJ608Cb7QEdkgRkCYri-VHiTo": {"geometry": {"location": {"lat": 51.5128618, "lng": -0.1101326}, "viewport": {"northeast": {"lat": 51.5140893302915, "lng": -0.108642319708498}, "southwest": {"lat": 51.5113913697085, "lng": -0.111340280291502}}}, "name": "William Edis Qc", "place_id": "ChIJ608Cb7QEdkgRkCYri-VHiTo", "types": ["lawyer", "point_of_interest", "establishment"]}, "ChIJ608Cb7QEdkgRW13mtWNv8Wg": {"geometry": {"location": {"lat": 51.5128618, "lng": -0.1101326}, "viewport": {"northeast": {"lat": 51.5140893302915, "lng": -0.108642319708498}, "southwest": {"lat": 51.5113913697085, "lng": -0.111340280291502}}}, "name": "Christina Lambert Qc", "place_id": "ChIJ608Cb7QEdkgRW13mtWNv8Wg", "types": ["lawyer", "point_of_interest", "establishment"]}, "ChIJUb0aQbMEdkgRLjg8jbZFqiU": {"geometry": {"location": {"lat": 51.5137134, "lng": -0.1102133}, "viewport": {"northeast": {"lat": 51.5151815802915, "lng": -0.108921269708498}, "southwest": {"lat": 51.5124836197085, "lng": -0.111619230291502}}}, "name": "Temple Removals", "place_id": "ChIJUb0aQbMEdkgRLjg8jbZFqiU", "types": ["point_of_interest", "establishment"]}, "ChIJ608Cb7QEdkgRYb3YXLk67N8": {"geometry": {"location": {"lat": 51.5128618, "lng": -0.1101326}, "viewport": {"northeast": {"lat": 51.5140893302915, "lng": -0.108642319708498}, "southwest": {"lat": 51.5113913697085, "lng": -0.111340280291502}}}, "name": "Neil Garnham Qc", "place_id": "ChIJ608Cb7QEdkgRYb3YXLk67N8", "types": ["lawyer", "point_of_interest", "establishment"]}, "ChIJ608Cb7QEdkgRneMYo1PL40E": {"geometry": {"location": {"lat": 51.5128618, "lng": -0.1101326}, "viewport": {"northeast": {"lat": 51.5140893302915, "lng": -0.108642319708498}, "southwest": {"lat": 51.5113913697085, "lng": -0.111340280291502}}}, "name": "Suzanne Lambert", "place_id": "ChIJ608Cb7QEdkgRneMYo1PL40E", "types": ["lawyer", "point_of_interest", "establishment"]}, "ChIJ608Cb7QEdkgRdwemDoRPhww": {"geometry": {"location": {"lat": 51.5128618, "lng": -0.1101326}, "viewport": {"northeast": {"lat": 51.5140893302915, "lng": -0.108642319708498}, "southwest": {"lat": 51.5113913697085, "lng": -0.111340280291502}}}, "name": "Giles Colin", "place_id": "ChIJ608Cb7QEdkgRdwemDoRPhww", "types": ["lawyer", "point_of_interest", "establishment"]}, "ChIJ608Cb7QEdkgRpUXl04KtThE": {"geometry": {"location": {"lat": 51.5128618, "lng": -0.1101326}, "viewport": {"northeast": {"lat": 51.5140893302915, "lng": -0.108642319708498}, "southwest": {"lat": 51.5113913697085, "lng": -0.111340280291502}}}, "name": "Margaret Bowron Qc", "place_id": "ChIJ608Cb7QEdkgRpUXl04KtThE", "types": ["lawyer", "point_of_interest", "establishment"]}, "ChIJ608Cb7QEdkgRE-P_QuWmlcs": {"geometry": {"location": {"lat": 51.5128618, "lng": -0.1101326}, "viewport": {"northeast": {"lat": 51.5140893302915, "lng": -0.108642319708498}, "southwest": {"lat": 51.5113913697085, "lng": -0.111340280291502}}}, "name": "Sarah Lambert", "place_id": "ChIJ608Cb7QEdkgRE-P_QuWmlcs", "types": ["point_of_interest", "establishment"]}, "ChIJ608Cb7QEdkgRhtP7mT83bDA": {"geometry": {"location": {"lat": 51.5128618, "lng": -0.1101326}, "viewport": {"northeast": {"lat": 51.5140893302915, "lng": -0.108642319708498}, "southwest": {"lat": 51.5113913697085, "lng": -0.111340280291502}}}, "name": "Elizabeth-Anne Gumbel QC", "place_id": "ChIJ608Cb7QEdkgRhtP7mT83bDA", "types": ["lawyer", "point_of_interest", "establishment"]}, "ChIJ608Cb7QEdkgRMRQP2wgpVrI": {"geometry": {"location": {"lat": 51.5128618, "lng": -0.1101326}, "viewport": {"northeast": {"lat": 51.5140893302915, "lng": -0.108642319708498}, "southwest": {"lat": 51.5113913697085, "lng": -0.111340280291502}}}, "name": "Martin Forde Qc", "place_id": "ChIJ608Cb7QEdkgRMRQP2wgpVrI", "types": ["point_of_interest", "establishment"], "rating": 3, "user_ratings_total": 2}, "ChIJ608Cb7QEdkgRtmiRsrJUOl0": {"geometry": {"location": {"lat": 51.5128618, "lng": -0.1101326}, "viewport": {"northeast": {"lat": 51.5140893302915, "lng": -0.108642319708498}, "southwest": {"lat": 51.5113913697085, "lng": -0.111340280291502}}}, "name": "Peter Skelton", "place_id": "ChIJ608Cb7QEdkgRtmiRsrJUOl0", "types": ["lawyer", "point_of_interest", "establishment"]}, "ChIJ608Cb7QEdkgR3NGqm2hjYf8": {"geometry": {"location": {"lat": 51.5128618, "lng": -0.1101326}, "viewport": {"northeast": {"lat": 51.5140893302915, "lng": -0.108642319708498}, "southwest": {"lat": 51.5113913697085, "lng": -0.111340280291502}}}, "name": "James Badenoch Qc", "place_id": "ChIJ608Cb7QEdkgR3NGqm2hjYf8", "types": ["lawyer", "point_of_interest", "establishment"]}, "ChIJ608Cb7QEdkgRuzAkv-Tk6sY": {"geometry": {"location": {"lat": 51.5128618, "lng": -0.1101326}, "viewport": {"northeast": {"lat": 51.5140893302915, "lng": -0.108642319708498}, "southwest": {"lat": 51.5113913697085, "lng": -0.111340280291502}}}, "name": "Jeremy Hyam", "place_id": "ChIJ608Cb7QEdkgRuzAkv-Tk6sY", "types": ["point_of_interest", "establishment"]}, "ChIJ608Cb7QEdkgRP6Ie06k-fe4": {"geometry": {"location": {"lat": 51.5128618, "lng": -0.1101326}, "viewport": {"northeast": {"lat": 51.5140893302915, "lng": -0.108642319708498}, "southwest": {"lat": 51.5113913697085, "lng": -0.111340280291502}}}, "name": "Marina Wheeler", "place_id": "ChIJ608Cb7QEdkgRP6Ie06k-fe4", "types": ["lawyer", "point_of_interest", "establishment"]}, "ChIJ608Cb7QEdkgROPPXlJbQSc8": {"geometry": {"location": {"lat": 51.5128618, "lng": -0.1101326}, "viewport": {"northeast": {"lat": 51.5140893302915, "lng": -0.108642319708498}, "southwest": {"lat": 51.5113913697085, "lng": -0.111340280291502}}}, "name": "Justin Levinson", "place_id": "ChIJ608Cb7QEdkgROPPXlJbQSc8", "types": ["lawyer", "point_of_interest", "establishment"]}, "ChIJ608Cb7QEdkgRLGfwDrPcrBM": {"geometry": {"location": {"lat": 51.5128618, "lng": -0.1101326}, "viewport": {"northeast": {"lat": 51.5140893302915, "lng": -0.108642319708498}, "southwest": {"lat": 51.5113913697085, "lng": -0.111340280291502}}}, "name": "Owain Thomas", "place_id": "ChIJ608Cb7QEdkgRLGfwDrPcrBM", "types": ["lawyer", "point_of_interest", "establishment"]}, "ChIJ608Cb7QEdkgRnWrYRguZrzM": {"geometry": {"location": {"lat": 51.5128618, "lng": -0.1101326}, "viewport": {"northeast": {"lat": 51.5140893302915, "lng": -0.108642319708498}, "southwest": {"lat": 51.5113913697085, "lng": -0.111340280291502}}}, "name": "Wendy Outhwaite Qc", "place_id": "ChIJ608Cb7QEdkgRnWrYRguZrzM", "types": ["lawyer", "point_of_interest", "establishment"]}, "ChIJ608Cb7QEdkgRVifwoS6ssEI": {"geometry": {"location": {"lat": 51.5128618, "lng": -0.1101326}, "viewport": {"northeast": {"lat": 51.5140893302915, "lng": -0.108642319708498}, "southwest": {"lat": 51.5113913697085, "lng": -0.111340280291502}}}, "name": "Angus McCullough QC", "place_id": "ChIJ608Cb7QEdkgRVifwoS6ssEI", "types": ["lawyer", "point_of_interest", "establishment"]}, "ChIJ608Cb7QEdkgRW2dZ3AUlv-s": {"geometry": {"location": {"lat": 51.5128618, "lng": -0.1101326}, "viewport": {"northeast": {"lat": 51.5140893302915, "lng": -0.108642319708498}, "southwest": {"lat": 51.5113913697085, "lng": -0.111340280291502}}}, "name": "Zoe Taylor", "place_id": "ChIJ608Cb7QEdkgRW2dZ3AUlv-s", "types": ["lawyer", "point_of_interest", "establishment"]}, "ChIJ608Cb7QEdkgRoI_tuINjeiM": {"geometry": {"location": {"lat": 51.5128618, "lng": -0.1101326}, "viewport": {"northeast": {"lat": 51.5140893302915, "lng": -0.108642319708498}, "southwest": {"lat": 51.5113913697085, "lng": -0.111340280291502}}}, "name": "Joanna Glynn Qc", "place_id": "ChIJ608Cb7QEdkgRoI_tuINjeiM", "types": ["lawyer", "point_of_interest", "establishment"]}, "ChIJ608Cb7QEdkgRyvVo0DitsEE": {"geometry": {"location": {"lat": 51.5128618, "lng": -0.1101326}, "viewport": {"northeast": {"lat": 51.5140893302915, "lng": -0.108642319708498}, "southwest": {"lat": 51.5113913697085, "lng": -0.111340280291502}}}, "name": "Henry Witcomb", "place_id": "ChIJ608Cb7QEdkgRyvVo0DitsEE", "types": ["lawyer", "point_of_interest", "establishment"], "rating": 5, "user_ratings_total": 1}, "ChIJ608Cb7QEdkgR7KEr_tu4j1s": {"geometry": {"location": {"lat": 51.5128618, "lng": -0.1101326}, "viewport": {"northeast": {"lat": 51.5140893302915, "lng": -0.108642319708498}, "southwest": {"lat": 51.5113913697085, "lng": -0.111340280291502}}}, "name": "Paul Rees Qc", "place_id": "ChIJ608Cb7QEdkgR7KEr_tu4j1s", "types": ["lawyer", "point_of_interest", "establishment"]}, "ChIJ608Cb7QEdkgRW1g9YNvTFQ8": {"geometry": {"location": {"lat": 51.5128618, "lng": -0.1101326}, "viewport": {"northeast": {"lat": 51.5140893302915, "lng": -0.108642319708498}, "southwest": {"lat": 51.5113913697085, "lng": -0.111340280291502}}}, "name": "Karwan Eskerie", "place_id": "ChIJ608Cb7QEdkgRW1g9YNvTFQ8", "types": ["lawyer", "point_of_interest", "establishment"], "rating": 3, "user_ratings_total": 1}, "ChIJ608Cb7QEdkgRVB-5O9zvX-c": {"geometry": {"location": {"lat": 51.5128618, "lng": -0.1101326}, "viewport": {"northeast": {"lat": 51.5140893302915, "lng": -0.108642319708498}, "southwest": {"lat": 51.5113913697085, "lng": -0.111340280291502}}}, "name": "Andrea Lindsay Strugo", "place_id": "ChIJ608Cb7QEdkgRVB-5O9zvX-c", "types": ["lawyer", "point_of_interest", "establishment"]}, "ChIJ608Cb7QEdkgRS_is6aunTR4": {"geometry": {"location": {"lat": 51.5128618, "lng": -0.1101326}, "viewport": {"northeast": {"lat": 51.5140893302915, "lng": -0.108642319708498}, "southwest": {"lat": 51.5113913697085, "lng": -0.111340280291502}}}, "name": "Sydney Chawatama", "place_id": "ChIJ608Cb7QEdkgRS_is6aunTR4", "types": ["lawyer", "point_of_interest", "establishment"]}, "ChIJ608Cb7QEdkgR4zSBWppE55Q": {"geometry": {"location": {"lat": 51.5128618, "lng": -0.1101326}, "viewport": {"northeast": {"lat": 51.5140893302915, "lng": -0.108642319708498}, "southwest": {"lat": 51.5113913697085, "lng": -0.111340280291502}}}, "name": "Andrew Kennedy", "place_id": "ChIJ608Cb7QEdkgR4zSBWppE55Q", "types": ["lawyer", "point_of_interest", "establishment"]}, "ChIJ608Cb7QEdkgRIBRyZjqGsFU": {"geometry": {"location": {"lat": 51.5128618, "lng": -0.1101326}, "viewport": {"northeast": {"lat": 51.5140893302915, "lng": -0.108642319708498}, "southwest": {"lat": 51.5113913697085, "lng": -0.111340280291502}}}, "name": "Rachel Marcus", "place_id": "ChIJ608Cb7QEdkgRIBRyZjqGsFU", "types": ["lawyer", "point_of_interest", "establishment"]}, "ChIJ608Cb7QEdkgReApwpJFMaBY": {"geometry": {"location": {"lat": 51.5128618, "lng": -0.1101326}, "viewport": {"northeast": {"lat": 51.5140893302915, "lng": -0.108642319708498}, "southwest": {"lat": 51.5113913697085, "lng": -0.111340280291502}}}, "name": "Terence Coghlan Qc", "place_id": "ChIJ608Cb7QEdkgReApwpJFMaBY", "types": ["lawyer", "point_of_interest", "establishment"]}, "ChIJ608Cb7QEdkgRdXAySl2yuW0": {"geometry": {"location": {"lat": 51.5128618, "lng": -0.1101326}, "viewport": {"northeast": {"lat": 51.5140893302915, "lng": -0.108642319708498}, "southwest": {"lat": 51.5113913697085, "lng": -0.111340280291502}}}, "name": "Martin Downs", "place_id": "ChIJ608Cb7QEdkgRdXAySl2yuW0", "types": ["point_of_interest", "establishment"]}, "ChIJ608Cb7QEdkgRuyzjToxhC8U": {"geometry": {"location": {"lat": 51.5128618, "lng": -0.1101326}, "viewport": {"northeast": {"lat": 51.5140893302915, "lng": -0.108642319708498}, "southwest": {"lat": 51.5113913697085, "lng": -0.111340280291502}}}, "name": "Pritesh Rathod", "place_id": "ChIJ608Cb7QEdkgRuyzjToxhC8U", "types": ["lawyer", "point_of_interest", "establishment"]}, "ChIJ608Cb7QEdkgRBkXrUtjuRxc": {"geometry": {"location": {"lat": 51.5128618, "lng": -0.1101326}, "viewport": {"northeast": {"lat": 51.5140893302915, "lng": -0.108642319708498}, "southwest": {"lat": 51.5113913697085, "lng": -0.111340280291502}}}, "name": "Shaheen Rahman", "place_id": "ChIJ608Cb7QEdkgRBkXrUtjuRxc", "types": ["lawyer", "point_of_interest", "establishment"]}, "ChIJ608Cb7QEdkgRHhJAyK4mJAA": {"geometry": {"location": {"lat": 51.5128618, "lng": -0.1101326}, "viewport": {"northeast": {"lat": 51.5140893302915, "lng": -0.108642319708498}, "southwest": {"lat": 51.5113913697085, "lng": -0.111340280291502}}}, "name": "John Gimlette", "place_id": "ChIJ608Cb7QEdkgRHhJAyK4mJAA", "types": ["lawyer", "point_of_interest", "establishment"]}, "ChIJ608Cb7QEdkgRhWWwtWdq2UM": {"geometry": {"location": {"lat": 51.5128618, "lng": -0.1101326}, "viewport": {"northeast": {"lat": 51.5140893302915, "lng": -0.108642319708498}, "southwest": {"lat": 51.5113913697085, "lng": -0.111340280291502}}}, "name": "Maria Roche", "place_id": "ChIJ608Cb7QEdkgRhWWwtWdq2UM", "types": ["lawyer", "point_of_interest", "establishment"]}, "ChIJ608Cb7QEdkgRF4n30n6U5co": {"geometry": {"location": {"lat": 51.5128618, "lng": -0.1101326}, "viewport": {"northeast": {"lat": 51.5140893302915, "lng": -0.108642319708498}, "southwest": {"lat": 51.5113913697085, "lng": -0.111340280291502}}}, "name": "Caroline Cross", "place_id": "ChIJ608Cb7QEdkgRF4n30n6U5co", "types": ["lawyer", "point_of_interest", "establishment"]}, "ChIJ608Cb7QEdkgRW-AadBeyuuU": {"geometry": {"location": {"lat": 51.5128618, "lng": -0.1101326}, "viewport": {"northeast": {"lat": 51.5140893302915, "lng": -0.108642319708498}, "southwest": {"lat": 51.5113913697085, "lng": -0.111340280291502}}}, "name": "Sarabjit Singh", "place_id": "ChIJ608Cb7QEdkgRW-AadBeyuuU", "types": ["lawyer", "point_of_interest", "establishment"]}, "ChIJ608Cb7QEdkgRpffAXpTNBeU": {"geometry": {"location": {"lat": 51.5128583, "lng": -0.1101378}, "viewport": {"northeast": {"lat": 51.5140862302915, "lng": -0.108647969708498}, "southwest": {"lat": 51.5113882697085, "lng": -0.111345930291502}}}, "name": "Isabel McArdle", "place_id": "ChIJ608Cb7QEdkgRpffAXpTNBeU", "types": ["lawyer", "point_of_interest", "establishment"]}, "ChIJ608Cb7QEdkgR5Qq5wkMYwg0": {"geometry": {"location": {"lat": 51.51283830000001, "lng": -0.1102186}, "viewport": {"northeast": {"lat": 51.51405208029149, "lng": -0.1087487697084979}, "southwest": {"lat": 51.51135411970849, "lng": -0.111446730291502}}}, "name": "Crown Office Chambers, Isabel Hitching", "place_id": "ChIJ608Cb7QEdkgR5Qq5wkMYwg0", "types": ["lawyer", "point_of_interest", "establishment"]}, "ChIJ608Cb7QEdkgRhBwe9Skc0Bs": {"geometry": {"location": {"lat": 51.51283830000001, "lng": -0.1102186}, "viewport": {"northeast": {"lat": 51.51405208029149, "lng": -0.1087487697084979}, "southwest": {"lat": 51.51135411970849, "lng": -0.111446730291502}}}, "name": "Andrew Bartlett Qc", "place_id": "ChIJ608Cb7QEdkgRhBwe9Skc0Bs", "types": ["lawyer", "point_of_interest", "establishment"]}, "ChIJ608Cb7QEdkgRZjILguLab-M": {"geometry": {"location": {"lat": 51.51283830000001, "lng": -0.1102186}, "viewport": {"northeast": {"lat": 51.51405208029149, "lng": -0.1087487697084979}, "southwest": {"lat": 51.51135411970849, "lng": -0.111446730291502}}}, "name": "David Hart QC", "place_id": "ChIJ608Cb7QEdkgRZjILguLab-M", "types": ["lawyer", "point_of_interest", "establishment"]}, "ChIJlTXzj7MEdkgRQILNf5xKBD4": {"geometry": {"location": {"lat": 51.51169356295495, "lng": -0.1107967480544266}, "viewport": {"northeast": {"lat": 51.5130354302915, "lng": -0.109531269708498}, "southwest": {"lat": 51.5103374697085, "lng": -0.112229230291502}}}, "name": "1 Middle Temple Ln", "place_id": "ChIJlTXzj7MEdkgRQILNf5xKBD4", "types": ["route"]}, "ChIJy2m8nLMEdkgRCB2UlEu9Q-0": {"geometry": {"location": {"lat": 51.51205359999999, "lng": -0.1107439}, "viewport": {"northeast": {"lat": 51.51339083029149, "lng": -0.109479369708498}, "southwest": {"lat": 51.51069286970849, "lng": -0.112177330291502}}}, "name": "Harcourt Chambers", "place_id": "ChIJy2m8nLMEdkgRCB2UlEu9Q-0", "types": ["lawyer", "point_of_interest", "establishment"], "rating": 5, "user_ratings_total": 4}, "ChIJy2m8nLMEdkgRy8b5c6HtErY": {"geometry": {"location": {"lat": 51.51205359999999, "lng": -0.1107439}, "viewport": {"northeast": {"lat": 51.51339083029149, "lng": -0.109479369708498}, "southwest": {"lat": 51.51069286970849, "lng": -0.112177330291502}}}, "name": "Henderson Chambers", "place_id": "ChIJy2m8nLMEdkgRy8b5c6HtErY", "types": ["lawyer", "point_of_interest", "establishment"], "rating": 5, "user_ratings_total": 2}, "ChIJx2m8nLMEdkgRJcQothe1GyM": {"geometry": {"location": {"lat": 51.51205359999999, "lng": -0.1107439}, "viewport": {"northeast": {"lat": 51.51339083029149, "lng": -0.109479369708498}, "southwest": {"lat": 51.51069286970849, "lng": -0.112177330291502}}}, "name": "Michael Shorrock", "place_id": "ChIJx2m8nLMEdkgRJcQothe1GyM", "types": ["lawyer", "point_of_interest", "establishment"]}, "ChIJx2m8nLMEdkgRPRadYwYgQvc": {"geometry": {"location": {"lat": 51.5120407, "lng": -0.110754}, "viewport": {"northeast": {"lat": 51.5133788802915, "lng": -0.109482419708498}, "southwest": {"lat": 51.5106809197085, "lng": -0.112180380291502}}}, "name": "Sally Halkerston", "place_id": "ChIJx2m8nLMEdkgRPRadYwYgQvc", "types": ["lawyer", "point_of_interest", "establishment"]}, "ChIJx2m8nLMEdkgR-t6LDaAlV5g": {"geometry": {"location": {"lat": 51.5120407, "lng": -0.110754}, "viewport": {"northeast": {"lat": 51.5133788802915, "lng": -0.109482419708498}, "southwest": {"lat": 51.5106809197085, "lng": -0.112180380291502}}}, "name": "Christopher Stimpson", "place_id": "ChIJx2m8nLMEdkgR-t6LDaAlV5g", "types": ["lawyer", "point_of_interest", "establishment"]}, "ChIJx2m8nLMEdkgRjztv1Yt5oyg": {"geometry": {"location": {"lat": 51.5120407, "lng": -0.110754}, "viewport": {"northeast": {"lat": 51.5133788802915, "lng": -0.109482419708498}, "southwest": {"lat": 51.5106809197085, "lng": -0.112180380291502}}}, "name": "Shaman Kapoor", "place_id": "ChIJx2m8nLMEdkgRjztv1Yt5oyg", "types": ["lawyer", "point_of_interest", "establishment"]}, "ChIJx2m8nLMEdkgRYu3dZBDkmWY": {"geometry": {"location": {"lat": 51.5120407, "lng": -0.110754}, "viewport": {"northeast": {"lat": 51.5133788802915, "lng": -0.109482419708498}, "southwest": {"lat": 51.5106809197085, "lng": -0.112180380291502}}}, "name": "James Brown", "place_id": "ChIJx2m8nLMEdkgRYu3dZBDkmWY", "types": ["point_of_interest", "establishment"]}, "ChIJx2m8nLMEdkgRapRuqlGT598": {"geometry": {"location": {"lat": 51.51205359999999, "lng": -0.1107439}, "viewport": {"northeast": {"lat": 51.51339083029149, "lng": -0.109479369708498}, "southwest": {"lat": 51.51069286970849, "lng": -0.112177330291502}}}, "name": "Margaret Styles", "place_id": "ChIJx2m8nLMEdkgRapRuqlGT598", "types": ["hair_care", "point_of_interest", "establishment"]}, "ChIJy2m8nLMEdkgR3cSKN0Q_LJQ": {"geometry": {"location": {"lat": 51.512043, "lng": -0.110777}, "viewport": {"northeast": {"lat": 51.5133826802915, "lng": -0.109494869708498}, "southwest": {"lat": 51.5106847197085, "lng": -0.112192830291502}}}, "name": "Two Harcourt Buildings", "place_id": "ChIJy2m8nLMEdkgR3cSKN0Q_LJQ", "types": ["lawyer", "point_of_interest", "establishment"], "rating": 4.8, "user_ratings_total": 4}, "ChIJx2m8nLMEdkgR7-6VdQACMcI": {"geometry": {"location": {"lat": 51.5120407, "lng": -0.110754}, "viewport": {"northeast": {"lat": 51.5133788802915, "lng": -0.109482419708498}, "southwest": {"lat": 51.5106809197085, "lng": -0.112180380291502}}}, "name": "Alastair McFarlane", "place_id": "ChIJx2m8nLMEdkgR7-6VdQACMcI", "types": ["lawyer", "point_of_interest", "establishment"]}, "ChIJx2m8nLMEdkgRjKlq5jcwTjg": {"geometry": {"location": {"lat": 51.5120407, "lng": -0.110754}, "viewport": {"northeast": {"lat": 51.5133788802915, "lng": -0.109482419708498}, "southwest": {"lat": 51.5106809197085, "lng": -0.112180380291502}}}, "name": "Hugo Daniel Lodge", "place_id": "ChIJx2m8nLMEdkgRjKlq5jcwTjg", "types": ["lawyer", "point_of_interest", "establishment"]}, "ChIJx2m8nLMEdkgRBQLE4dSUHgc": {"geometry": {"location": {"lat": 51.51205359999999, "lng": -0.1107439}, "viewport": {"northeast": {"lat": 51.51339083029149, "lng": -0.109479369708498}, "southwest": {"lat": 51.51069286970849, "lng": -0.112177330291502}}}, "name": "Aidan Vine", "place_id": "ChIJx2m8nLMEdkgRBQLE4dSUHgc", "types": ["lawyer", "point_of_interest", "establishment"], "rating": 3, "user_ratings_total": 2}, "ChIJx2m8nLMEdkgRM7BjWKXVkgY": {"geometry": {"location": {"lat": 51.5120407, "lng": -0.110754}, "viewport": {"northeast": {"lat": 51.5133788802915, "lng": -0.109482419708498}, "southwest": {"lat": 51.5106809197085, "lng": -0.112180380291502}}}, "name": "Heather Stangoe", "place_id": "ChIJx2m8nLMEdkgRM7BjWKXVkgY", "types": ["lawyer", "point_of_interest", "establishment"]}, "ChIJx2m8nLMEdkgRAp6uSJnSoX4": {"geometry": {"location": {"lat": 51.5120407, "lng": -0.110754}, "viewport": {"northeast": {"lat": 51.5133788802915, "lng": -0.109482419708498}, "southwest": {"lat": 51.5106809197085, "lng": -0.112180380291502}}}, "name": "Rodney Dixon", "place_id": "ChIJx2m8nLMEdkgRAp6uSJnSoX4", "types": ["lawyer", "point_of_interest", "establishment"], "rating": 3.3, "user_ratings_total": 3}, "ChIJx2m8nLMEdkgRHfpdElT-Mgo": {"geometry": {"location": {"lat": 51.51205359999999, "lng": -0.1107439}, "viewport": {"northeast": {"lat": 51.51339083029149, "lng": -0.109479369708498}, "southwest": {"lat": 51.51069286970849, "lng": -0.112177330291502}}}, "name": "Fiona Hay", "place_id": "ChIJx2m8nLMEdkgRHfpdElT-Mgo", "types": ["point_of_interest", "establishment"]}, "ChIJx2m8nLMEdkgR5Wrnd2CAeXk": {"geometry": {"location": {"lat": 51.51205359999999, "lng": -0.1107439}, "viewport": {"northeast": {"lat": 51.51339083029149, "lng": -0.109479369708498}, "southwest": {"lat": 51.51069286970849, "lng": -0.112177330291502}}}, "name": "Simon Miller", "place_id": "ChIJx2m8nLMEdkgR5Wrnd2CAeXk", "types": ["lawyer", "point_of_interest", "establishment"]}, "ChIJx2m8nLMEdkgR0TsFGTNJCio": {"geometry": {"location": {"lat": 51.5120407, "lng": -0.110754}, "viewport": {"northeast": {"lat": 51.5133788802915, "lng": -0.109482419708498}, "southwest": {"lat": 51.5106809197085, "lng": -0.112180380291502}}}, "name": "Tim Sharpe", "place_id": "ChIJx2m8nLMEdkgR0TsFGTNJCio", "types": ["lawyer", "point_of_interest", "establishment"]}, "ChIJx2m8nLMEdkgROyE2d5r0aSY": {"geometry": {"location": {"lat": 51.5120407, "lng": -0.110754}, "viewport": {"northeast": {"lat": 51.5133788802915, "lng": -0.109482419708498}, "southwest": {"lat": 51.5106809197085, "lng": -0.112180380291502}}}, "name": "Heather Dardis", "place_id": "ChIJx2m8nLMEdkgROyE2d5r0aSY", "types": ["lawyer", "point_of_interest", "establishment"]}, "ChIJx2m8nLMEdkgRBlYTssXRJaI": {"geometry": {"location": {"lat": 51.5120407, "lng": -0.110754}, "viewport": {"northeast": {"lat": 51.5133788802915, "lng": -0.109482419708498}, "southwest": {"lat": 51.5106809197085, "lng": -0.112180380291502}}}, "name": "Simon Jackson Qc", "place_id": "ChIJx2m8nLMEdkgRBlYTssXRJaI", "types": ["lawyer", "point_of_interest", "establishment"]}, "ChIJx2m8nLMEdkgR55xZtCawwLs": {"geometry": {"location": {"lat": 51.51205359999999, "lng": -0.1107439}, "viewport": {"northeast": {"lat": 51.51339083029149, "lng": -0.109479369708498}, "southwest": {"lat": 51.51069286970849, "lng": -0.112177330291502}}}, "name": "Alex Perry", "place_id": "ChIJx2m8nLMEdkgR55xZtCawwLs", "types": ["lawyer", "point_of_interest", "establishment"]}, "ChIJx2m8nLMEdkgR_6WvHqVuMVs": {"geometry": {"location": {"lat": 51.5120407, "lng": -0.110754}, "viewport": {"northeast": {"lat": 51.5133788802915, "lng": -0.109482419708498}, "southwest": {"lat": 51.5106809197085, "lng": -0.112180380291502}}}, "name": "Paul Kilcoyne", "place_id": "ChIJx2m8nLMEdkgR_6WvHqVuMVs", "types": ["lawyer", "point_of_interest", "establishment"]}, "ChIJx2m8nLMEdkgRW6FCJL2XcyY": {"geometry": {"location": {"lat": 51.5120407, "lng": -0.110754}, "viewport": {"northeast": {"lat": 51.5133788802915, "lng": -0.109482419708498}, "southwest": {"lat": 51.5106809197085, "lng": -0.112180380291502}}}, "name": "Lionel Stride", "place_id": "ChIJx2m8nLMEdkgRW6FCJL2XcyY", "types": ["lawyer", "point_of_interest", "establishment"]}, "ChIJx2m8nLMEdkgRB3pLuN4MOEE": {"geometry": {"location": {"lat": 51.5120407, "lng": -0.110754}, "viewport": {"northeast": {"lat": 51.5133788802915, "lng": -0.109482419708498}, "southwest": {"lat": 51.5106809197085, "lng": -0.112180380291502}}}, "name": "Lydia Sweeney", "place_id": "ChIJx2m8nLMEdkgRB3pLuN4MOEE", "types": ["lawyer", "point_of_interest", "establishment"]}, "ChIJx2m8nLMEdkgRZaNTE1nSTAQ": {"geometry": {"location": {"lat": 51.51205359999999, "lng": -0.1107439}, "viewport": {"northeast": {"lat": 51.51339083029149, "lng": -0.109479369708498}, "southwest": {"lat": 51.51069286970849, "lng": -0.112177330291502}}}, "name": "Damian Garrido", "place_id": "ChIJx2m8nLMEdkgRZaNTE1nSTAQ", "types": ["lawyer", "point_of_interest", "establishment"]}, "ChIJx2m8nLMEdkgRzj22IKTULOQ": {"geometry": {"location": {"lat": 51.5120407, "lng": -0.110754}, "viewport": {"northeast": {"lat": 51.5133788802915, "lng": -0.109482419708498}, "southwest": {"lat": 51.5106809197085, "lng": -0.112180380291502}}}, "name": "Jenny Burgess", "place_id": "ChIJx2m8nLMEdkgRzj22IKTULOQ", "types": ["lawyer", "point_of_interest", "establishment"]}, "ChIJx2m8nLMEdkgRJnJo0sZ8Syo": {"geometry": {"location": {"lat": 51.5120407, "lng": -0.110754}, "viewport": {"northeast": {"lat": 51.5133788802915, "lng": -0.109482419708498}, "southwest": {"lat": 51.5106809197085, "lng": -0.112180380291502}}}, "name": "Joanna Hughes", "place_id": "ChIJx2m8nLMEdkgRJnJo0sZ8Syo", "types": ["point_of_interest", "establishment"]}, "ChIJx2m8nLMEdkgR1gxC0e-dSPw": {"geometry": {"location": {"lat": 51.5120407, "lng": -0.110754}, "viewport": {"northeast": {"lat": 51.5133788802915, "lng": -0.109482419708498}, "southwest": {"lat": 51.5106809197085, "lng": -0.112180380291502}}}, "name": "Brian Fitzherbert", "place_id": "ChIJx2m8nLMEdkgR1gxC0e-dSPw", "types": ["lawyer", "point_of_interest", "establishment"]}, "ChIJx2m8nLMEdkgR17-xk8lWIQs": {"geometry": {"location": {"lat": 51.5120407, "lng": -0.110754}, "viewport": {"northeast": {"lat": 51.5133788802915, "lng": -0.109482419708498}, "southwest": {"lat": 51.5106809197085, "lng": -0.112180380291502}}}, "name": "Sarah Giddens", "place_id": "ChIJx2m8nLMEdkgR17-xk8lWIQs", "types": ["point_of_interest", "establishment"]}, "ChIJx2m8nLMEdkgR2Ljturc8qSM": {"geometry": {"location": {"lat": 51.5120407, "lng": -0.110754}, "viewport": {"northeast": {"lat": 51.5133788802915, "lng": -0.109482419708498}, "southwest": {"lat": 51.5106809197085, "lng": -0.112180380291502}}}, "name": "Jennifer Knight", "place_id": "ChIJx2m8nLMEdkgR2Ljturc8qSM", "types": ["lawyer", "point_of_interest", "establishment"], "rating": 4, "user_ratings_total": 3}, "ChIJx2m8nLMEdkgRoU2ue3xQufs": {"geometry": {"location": {"lat": 51.5120407, "lng": -0.110754}, "viewport": {"northeast": {"lat": 51.5133788802915, "lng": -0.109482419708498}, "southwest": {"lat": 51.5106809197085, "lng": -0.112180380291502}}}, "name": "Kate Blumgart", "place_id": "ChIJx2m8nLMEdkgRoU2ue3xQufs", "types": ["lawyer", "point_of_interest", "establishment"]}, "ChIJx2m8nLMEdkgRapONJRTXCaA": {"geometry": {"location": {"lat": 51.5120407, "lng": -0.110754}, "viewport": {"northeast": {"lat": 51.5133788802915, "lng": -0.109482419708498}, "southwest": {"lat": 51.5106809197085, "lng": -0.112180380291502}}}, "name": "Benjamin Casey", "place_id": "ChIJx2m8nLMEdkgRapONJRTXCaA", "types": ["lawyer", "point_of_interest", "establishment"]}, "ChIJx2m8nLMEdkgRj7id7a-Lj0c": {"geometry": {"location": {"lat": 51.5120407, "lng": -0.110754}, "viewport": {"northeast": {"lat": 51.5133788802915, "lng": -0.109482419708498}, "southwest": {"lat": 51.5106809197085, "lng": -0.112180380291502}}}, "name": "Stephen Cottrell", "place_id": "ChIJx2m8nLMEdkgRj7id7a-Lj0c", "types": ["lawyer", "point_of_interest", "establishment"]}, "ChIJx2m8nLMEdkgRzfdlxpEzd6M": {"geometry": {"location": {"lat": 51.5120407, "lng": -0.110754}, "viewport": {"northeast": {"lat": 51.5133788802915, "lng": -0.109482419708498}, "southwest": {"lat": 51.5106809197085, "lng": -0.112180380291502}}}, "name": "Kevin McLoughlin", "place_id": "ChIJx2m8nLMEdkgRzfdlxpEzd6M", "types": ["lawyer", "point_of_interest", "establishment"]}, "ChIJx2m8nLMEdkgRiLeROkH9Xg0": {"geometry": {"location": {"lat": 51.5120407, "lng": -0.110754}, "viewport": {"northeast": {"lat": 51.5133788802915, "lng": -0.109482419708498}, "southwest": {"lat": 51.5106809197085, "lng": -0.112180380291502}}}, "name": "Nicola Fleck", "place_id": "ChIJx2m8nLMEdkgRiLeROkH9Xg0", "types": ["lawyer", "point_of_interest", "establishment"]}, "ChIJ7UH7drMEdkgRe98M_DKDE7g": {"geometry": {"location": {"lat": 51.51258479999999, "lng": -0.1103085}, "viewport": {"northeast": {"lat": 51.5138875802915, "lng": -0.108926169708498}, "southwest": {"lat": 51.5111896197085, "lng": -0.111624130291502}}}, "name": "One Crown Office Row", "place_id": "ChIJ7UH7drMEdkgRe98M_DKDE7g", "types": ["lawyer", "point_of_interest", "establishment"], "rating": 4.6, "user_ratings_total": 13}, "ChIJ608Cb7QEdkgRe48mS5mlin8": {"geometry": {"location": {"lat": 51.5125332, "lng": -0.1105981}, "viewport": {"northeast": {"lat": 51.5138250802915, "lng": -0.109213469708498}, "southwest": {"lat": 51.5111271197085, "lng": -0.111911430291502}}}, "name": "Matthew Barnes", "place_id": "ChIJ608Cb7QEdkgRe48mS5mlin8", "types": ["lawyer", "point_of_interest", "establishment"]}, "ChIJQUo0prMEdkgRPqPSLevZAfY": {"geometry": {"location": {"lat": 51.5123127, "lng": -0.1095226}, "viewport": {"northeast": {"lat": 51.51369063029149, "lng": -0.108001019708498}, "southwest": {"lat": 51.51099266970849, "lng": -0.110698980291502}}}, "name": "Jones Victoria", "place_id": "ChIJQUo0prMEdkgRPqPSLevZAfY", "types": ["lawyer", "point_of_interest", "establishment"], "rating": 4, "user_ratings_total": 1}, "ChIJr5-Bp7MEdkgRmcbJjT-Af68": {"geometry": {"location": {"lat": 51.5123127, "lng": -0.1095226}, "viewport": {"northeast": {"lat": 51.51369063029149, "lng": -0.108001019708498}, "southwest": {"lat": 51.51099266970849, "lng": -0.110698980291502}}}, "name": "David Bartlett", "place_id": "ChIJr5-Bp7MEdkgRmcbJjT-Af68", "types": ["lawyer", "point_of_interest", "establishment"]}, "ChIJr5-Bp7MEdkgRngCmI7gBAKY": {"geometry": {"location": {"lat": 51.5123127, "lng": -0.1095226}, "viewport": {"northeast": {"lat": 51.51369063029149, "lng": -0.108001019708498}, "southwest": {"lat": 51.51099266970849, "lng": -0.110698980291502}}}, "name": "David Reid", "place_id": "ChIJr5-Bp7MEdkgRngCmI7gBAKY", "types": ["lawyer", "point_of_interest", "establishment"]}, "ChIJp5-Bp7MEdkgR_ucL-EyWVLA": {"geometry": {"location": {"lat": 51.5123127, "lng": -0.1095226}, "viewport": {"northeast": {"lat": 51.51369063029149, "lng": -0.108001019708498}, "southwest": {"lat": 51.51099266970849, "lng": -0.110698980291502}}}, "name": "Rob Littlewood", "place_id": "ChIJp5-Bp7MEdkgR_ucL-EyWVLA", "types": ["lawyer", "point_of_interest", "establishment"]}, "ChIJr5-Bp7MEdkgRE4ioIAIbkX4": {"geometry": {"location": {"lat": 51.5123127, "lng": -0.1095226}, "viewport": {"northeast": {"lat": 51.51369063029149, "lng": -0.108001019708498}, "southwest": {"lat": 51.51099266970849, "lng": -0.110698980291502}}}, "name": "Aeberli Peter", "place_id": "ChIJr5-Bp7MEdkgRE4ioIAIbkX4", "types": ["lawyer", "point_of_interest", "establishment"]}, "ChIJp5-Bp7MEdkgRqXTRS3Wu6M4": {"geometry": {"location": {"lat": 51.5123127, "lng": -0.1095226}, "viewport": {"northeast": {"lat": 51.51369063029149, "lng": -0.108001019708498}, "southwest": {"lat": 51.51099266970849, "lng": -0.110698980291502}}}, "name": "Infield Paul", "place_id": "ChIJp5-Bp7MEdkgRqXTRS3Wu6M4", "types": ["lawyer", "point_of_interest", "establishment"]}, "ChIJp5-Bp7MEdkgR7Ix5CiRXjfQ": {"geometry": {"location": {"lat": 51.5123127, "lng": -0.1095226}, "viewport": {"northeast": {"lat": 51.51369063029149, "lng": -0.108001019708498}, "southwest": {"lat": 51.51099266970849, "lng": -0.110698980291502}}}, "name": "Samantha Woodham", "place_id": "ChIJp5-Bp7MEdkgR7Ix5CiRXjfQ", "types": ["lawyer", "point_of_interest", "establishment"]}, "ChIJQUo0prMEdkgR-nhv6u6XTJ0": {"geometry": {"location": {"lat": 51.5123127, "lng": -0.1095226}, "viewport": {"northeast": {"lat": 51.51369063029149, "lng": -0.108001019708498}, "southwest": {"lat": 51.51099266970849, "lng": -0.110698980291502}}}, "name": "Barrington-Smyth Amanda", "place_id": "ChIJQUo0prMEdkgR-nhv6u6XTJ0", "types": ["point_of_interest", "establishment"]}, "ChIJp5-Bp7MEdkgReqbMdHqVIlU": {"geometry": {"location": {"lat": 51.5123127, "lng": -0.1095226}, "viewport": {"northeast": {"lat": 51.51369063029149, "lng": -0.108001019708498}, "southwest": {"lat": 51.51099266970849, "lng": -0.110698980291502}}}, "name": "Barbara Mills", "place_id": "ChIJp5-Bp7MEdkgReqbMdHqVIlU", "types": ["lawyer", "point_of_interest", "establishment"]}, "ChIJp5-Bp7MEdkgRG7IMBK7x6As": {"geometry": {"location": {"lat": 51.5123127, "lng": -0.1095226}, "viewport": {"northeast": {"lat": 51.51369063029149, "lng": -0.108001019708498}, "southwest": {"lat": 51.51099266970849, "lng": -0.110698980291502}}}, "name": "Sally Hobson", "place_id": "ChIJp5-Bp7MEdkgRG7IMBK7x6As", "types": ["lawyer", "point_of_interest", "establishment"]}, "ChIJp5-Bp7MEdkgRGRW5G3gy470": {"geometry": {"location": {"lat": 51.5123127, "lng": -0.1095226}, "viewport": {"northeast": {"lat": 51.51369063029149, "lng": -0.108001019708498}, "southwest": {"lat": 51.51099266970849, "lng": -0.110698980291502}}}, "name": "Stephen Lyon", "place_id": "ChIJp5-Bp7MEdkgRGRW5G3gy470", "types": ["lawyer", "point_of_interest", "establishment"]}, "ChIJp5-Bp7MEdkgRkv3e4Z9RBVI": {"geometry": {"location": {"lat": 51.5123127, "lng": -0.1095226}, "viewport": {"northeast": {"lat": 51.51369063029149, "lng": -0.108001019708498}, "southwest": {"lat": 51.51099266970849, "lng": -0.110698980291502}}}, "name": "Ruth Kirby", "place_id": "ChIJp5-Bp7MEdkgRkv3e4Z9RBVI", "types": ["lawyer", "point_of_interest", "establishment"]}, "ChIJ1wCuqLMEdkgR86Q6OrNxutk": {"geometry": {"location": {"lat": 51.5123127, "lng": -0.1095226}, "viewport": {"northeast": {"lat": 51.51369063029149, "lng": -0.108001019708498}, "southwest": {"lat": 51.51099266970849, "lng": -0.110698980291502}}}, "name": "Denman Robert", "place_id": "ChIJ1wCuqLMEdkgR86Q6OrNxutk", "types": ["lawyer", "point_of_interest", "establishment"]}, "ChIJp5-Bp7MEdkgRKdV5MWLT9k4": {"geometry": {"location": {"lat": 51.5123127, "lng": -0.1095226}, "viewport": {"northeast": {"lat": 51.51369063029149, "lng": -0.108001019708498}, "southwest": {"lat": 51.51099266970849, "lng": -0.110698980291502}}}, "name": "Jasper Baird Murray", "place_id": "ChIJp5-Bp7MEdkgRKdV5MWLT9k4", "types": ["point_of_interest", "establishment"]}, "ChIJp5-Bp7MEdkgRqxxc547TTtQ": {"geometry": {"location": {"lat": 51.5123127, "lng": -0.1095226}, "viewport": {"northeast": {"lat": 51.51369063029149, "lng": -0.108001019708498}, "southwest": {"lat": 51.51099266970849, "lng": -0.110698980291502}}}, "name": "Gill Satinder", "place_id": "ChIJp5-Bp7MEdkgRqxxc547TTtQ", "types": ["point_of_interest", "establishment"]}, "ChIJp5-Bp7MEdkgReWlx7Tqb60o": {"geometry": {"location": {"lat": 51.5123127, "lng": -0.1095226}, "viewport": {"northeast": {"lat": 51.51369063029149, "lng": -0.108001019708498}, "southwest": {"lat": 51.51099266970849, "lng": -0.110698980291502}}}, "name": "Jehad Mustafa", "place_id": "ChIJp5-Bp7MEdkgReWlx7Tqb60o", "types": ["lawyer", "point_of_interest", "establishment"]}, "ChIJp5-Bp7MEdkgRItuWprhOE7o": {"geometry": {"location": {"lat": 51.5123127, "lng": -0.1095226}, "viewport": {"northeast": {"lat": 51.51369063029149, "lng": -0.108001019708498}, "southwest": {"lat": 51.51099266970849, "lng": -0.110698980291502}}}, "name": "Stefano Nuvoloni", "place_id": "ChIJp5-Bp7MEdkgRItuWprhOE7o", "types": ["lawyer", "point_of_interest", "establishment"]}, "ChIJp5-Bp7MEdkgRNORdDV8qbjs": {"geometry": {"location": {"lat": 51.5123127, "lng": -0.1095226}, "viewport": {"northeast": {"lat": 51.51369063029149, "lng": -0.108001019708498}, "southwest": {"lat": 51.51099266970849, "lng": -0.110698980291502}}}, "name": "Nicholas Cotter", "place_id": "ChIJp5-Bp7MEdkgRNORdDV8qbjs", "types": ["lawyer", "point_of_interest", "establishment"]}, "ChIJp5-Bp7MEdkgRmmj7FXNCR5g": {"geometry": {"location": {"lat": 51.5123127, "lng": -0.1095226}, "viewport": {"northeast": {"lat": 51.51369063029149, "lng": -0.108001019708498}, "southwest": {"lat": 51.51099266970849, "lng": -0.110698980291502}}}, "name": "Susan Baldock", "place_id": "ChIJp5-Bp7MEdkgRmmj7FXNCR5g", "types": ["lawyer", "point_of_interest", "establishment"]}, "ChIJp5-Bp7MEdkgRU2y-IXaNCnU": {"geometry": {"location": {"lat": 51.5123127, "lng": -0.1095226}, "viewport": {"northeast": {"lat": 51.51369063029149, "lng": -0.108001019708498}, "southwest": {"lat": 51.51099266970849, "lng": -0.110698980291502}}}, "name": "Jane Probyn", "place_id": "ChIJp5-Bp7MEdkgRU2y-IXaNCnU", "types": ["lawyer", "point_of_interest", "establishment"]}, "ChIJp5-Bp7MEdkgRbuYsq8h0oL8": {"geometry": {"location": {"lat": 51.5123127, "lng": -0.1095226}, "viewport": {"northeast": {"lat": 51.51369063029149, "lng": -0.108001019708498}, "southwest": {"lat": 51.51099266970849, "lng": -0.110698980291502}}}, "name": "Matthew Jewell", "place_id": "ChIJp5-Bp7MEdkgRbuYsq8h0oL8", "types": ["lawyer", "point_of_interest", "establishment"]}, "ChIJr5-Bp7MEdkgRUyR2IxkHbvU": {"geometry": {"location": {"lat": 51.5123127, "lng": -0.1095226}, "viewport": {"northeast": {"lat": 51.51369063029149, "lng": -0.108001019708498}, "southwest": {"lat": 51.51099266970849, "lng": -0.110698980291502}}}, "name": "David Marshall", "place_id": "ChIJr5-Bp7MEdkgRUyR2IxkHbvU", "types": ["lawyer", "point_of_interest", "establishment"]}, "ChIJKzTSirMEdkgR5c_YFRpn_jk": {"geometry": {"location": {"lat": 51.51106440753491, "lng": -0.1113734810780299}, "viewport": {"northeast": {"lat": 51.5124072802915, "lng": -0.1100242697084979}, "southwest": {"lat": 51.5097093197085, "lng": -0.112722230291502}}}, "name": "8 A3211", "place_id": "ChIJKzTSirMEdkgR5c_YFRpn_jk", "types": ["route"]}, "ChIJoVCakLMEdkgRir_oqHw13Zs": {"geometry": {"location": {"lat": 51.51154359999999, "lng": -0.1106276}, "viewport": {"northeast": {"lat": 51.5128867802915, "lng": -0.109340269708498}, "southwest": {"lat": 51.5101888197085, "lng": -0.112038230291502}}}, "name": "2 Temple Gardens", "place_id": "ChIJoVCakLMEdkgRir_oqHw13Zs", "types": ["lawyer", "point_of_interest", "establishment"], "rating": 4.8, "user_ratings_total": 17}, "ChIJoVCakLMEdkgRSDy6K6xrkuo": {"geometry": {"location": {"lat": 51.5112366, "lng": -0.1107239}, "viewport": {"northeast": {"lat": 51.5125857802915, "lng": -0.109331319708498}, "southwest": {"lat": 51.5098878197085, "lng": -0.112029280291502}}}, "name": "Charles Dougherty", "place_id": "ChIJoVCakLMEdkgRSDy6K6xrkuo", "types": ["lawyer", "point_of_interest", "establishment"]}, "ChIJKUySjbMEdkgRGtR2yXBW4MI": {"geometry": {"location": {"lat": 51.51124600000001, "lng": -0.110871}, "viewport": {"northeast": {"lat": 51.5125952302915, "lng": -0.109452019708498}, "southwest": {"lat": 51.50989726970851, "lng": -0.112149980291502}}}, "name": "Direct Brief", "place_id": "ChIJKUySjbMEdkgRGtR2yXBW4MI", "types": ["point_of_interest", "establishment"]}, "ChIJjSRVv7MEdkgRZUqqDEmti5A": {"geometry": {"location": {"lat": 51.5110225, "lng": -0.109716}, "viewport": {"northeast": {"lat": 51.51238248029149, "lng": -0.108366969708498}, "southwest": {"lat": 51.50968451970849, "lng": -0.111064930291502}}}, "name": "Temple Avenue", "place_id": "ChIJjSRVv7MEdkgRZUqqDEmti5A", "types": ["transit_station", "point_of_interest", "establishment"]}, "ChIJkcuI1wAFdkgRzIQSoIHtMl8": {"geometry": {"location": {"lat": 51.51112149999999, "lng": -0.1102804}, "viewport": {"northeast": {"lat": 51.5124465802915, "lng": -0.108931569708498}, "southwest": {"lat": 51.5097486197085, "lng": -0.111629530291502}}}, "name": "\u30f4\u30a3\u30af\u30c8\u30ea\u30a2\u5973\u738b\u8a18\u5ff5\u7891", "place_id": "ChIJkcuI1wAFdkgRzIQSoIHtMl8", "types": ["tourist_attraction", "point_of_interest", "establishment"], "rating": 3.5, "user_ratings_total": 2}, "ChIJ14eW6rMEdkgR-DuqVcHNbRE": {"geometry": {"location": {"lat": 51.510921, "lng": -0.110145}, "viewport": {"northeast": {"lat": 51.51226998029149, "lng": -0.108796019708498}, "southwest": {"lat": 51.50957201970849, "lng": -0.111493980291502}}}, "name": "Temple Avenue", "place_id": "ChIJ14eW6rMEdkgR-DuqVcHNbRE", "types": ["transit_station", "point_of_interest", "establishment"]}, "ChIJ-T3p23YFdkgRS75lypvTBbA": {"geometry": {"location": {"lat": 51.5109456, "lng": -0.1107092}, "viewport": {"northeast": {"lat": 51.5123551802915, "lng": -0.109359719708498}, "southwest": {"lat": 51.5096572197085, "lng": -0.112057680291502}}}, "name": "Stained Glass Phone Box Of Embankment", "place_id": "ChIJ-T3p23YFdkgRS75lypvTBbA", "types": ["point_of_interest", "establishment"]}, "ChIJ4d_PP7IEdkgR7Bd74nXYK9o": {"geometry": {"location": {"lat": 51.5108409, "lng": -0.1097251}, "viewport": {"northeast": {"lat": 51.51227333029149, "lng": -0.10610035}, "southwest": {"lat": 51.50957536970849, "lng": -0.11093335}}}, "name": "Crown Pier", "place_id": "ChIJ4d_PP7IEdkgR7Bd74nXYK9o", "types": ["point_of_interest", "establishment"], "rating": 4.2, "user_ratings_total": 38}, "ChIJUdyn22AFdkgRs2gEdYvDElY": {"geometry": {"location": {"lat": 51.51088629999999, "lng": -0.1107702}, "viewport": {"northeast": {"lat": 51.51232553029148, "lng": -0.109421669708498}, "southwest": {"lat": 51.50962756970849, "lng": -0.112119630291502}}}, "name": "Red telephone booth", "place_id": "ChIJUdyn22AFdkgRs2gEdYvDElY", "types": ["point_of_interest", "establishment"]}, "ChIJUYgPx0sbdkgR8q6pii-BP7s": {"geometry": {"location": {"lat": 51.5112242, "lng": -0.1109186}, "viewport": {"northeast": {"lat": 51.5125735302915, "lng": -0.109475719708498}, "southwest": {"lat": 51.50987556970851, "lng": -0.112173680291502}}},