{"E00023641": {"ChIJ6Sl-pkwFdkgRRDli2OdtEvc": {"geometry": {"location": {"lat": 51.51406780176931, "lng": -0.1707459901848904}, "viewport": {"northeast": {"lat": 51.5154116802915, "lng": -0.169386819708498}, "southwest": {"lat": 51.5127137197085, "lng": -0.172084780291502}}}, "name": "44-50 Gloucester Square", "place_id": "ChIJ6Sl-pkwFdkgRRDli2OdtEvc", "types": ["route"]}, "ChIJRamCokwFdkgRiotnAZdJF3U": {"geometry": {"location": {"lat": 51.51338579999999, "lng": -0.17114}, "viewport": {"northeast": {"lat": 51.51482298029149, "lng": -0.169899119708498}, "southwest": {"lat": 51.51212501970849, "lng": -0.172597080291502}}}, "name": "The Victoria, Paddington", "place_id": "ChIJRamCokwFdkgRiotnAZdJF3U", "types": ["bar", "point_of_interest", "establishment"], "rating": 4.5, "user_ratings_total": 2009}, "ChIJiQm_lkwFdkgRt1K__BB3Mfo": {"geometry": {"location": {"lat": 51.5134459, "lng": -0.1711591}, "viewport": {"northeast": {"lat": 51.5147446802915, "lng": -0.169847969708498}, "southwest": {"lat": 51.5120467197085, "lng": -0.172545930291502}}}, "name": "Maximini Chinese Restaurant", "place_id": "ChIJiQm_lkwFdkgRt1K__BB3Mfo", "types": ["restaurant", "food", "point_of_interest", "establishment"], "rating": 3.9, "user_ratings_total": 261}, "ChIJWdrmlUwFdkgRx3E52cxsack": {"geometry": {"location": {"lat": 51.51346220000001, "lng": -0.1715291}, "viewport": {"northeast": {"lat": 51.51483713029149, "lng": -0.170131869708498}, "southwest": {"lat": 51.5121391697085, "lng": -0.172829830291502}}}, "name": "Noorjahan II", "place_id": "ChIJWdrmlUwFdkgRx3E52cxsack", "types": ["meal_takeaway", "bar", "restaurant", "food", "point_of_interest", "establishment"], "rating": 4.1, "user_ratings_total": 277}, "ChIJ7YXw6kwFdkgRpZV6I3oRjS8": {"geometry": {"location": {"lat": 51.5138999, "lng": -0.1719425}, "viewport": {"northeast": {"lat": 51.5152590302915, "lng": -0.170582019708498}, "southwest": {"lat": 51.5125610697085, "lng": -0.173279980291502}}}, "name": "Zipcar", "place_id": "ChIJ7YXw6kwFdkgRpZV6I3oRjS8", "types": ["car_rental", "point_of_interest", "establishment"]}, "ChIJeeMolEwFdkgRMO89d1LTB6U": {"geometry": {"location": {"lat": 51.5133724, "lng": -0.1714956}, "viewport": {"northeast": {"lat": 51.5147613302915, "lng": -0.170072269708498}, "southwest": {"lat": 51.5120633697085, "lng": -0.172770230291502}}}, "name": "The Positive Ageing Company", "place_id": "ChIJeeMolEwFdkgRMO89d1LTB6U", "types": ["point_of_interest", "establishment"]}, "ChIJdQq_lkwFdkgRguM9xtgAH-k": {"geometry": {"location": {"lat": 51.513538, "lng": -0.1715}, "viewport": {"northeast": {"lat": 51.5148768802915, "lng": -0.170169719708498}, "southwest": {"lat": 51.5121789197085, "lng": -0.172867680291502}}}, "name": "Reborn UK Massage", "place_id": "ChIJdQq_lkwFdkgRguM9xtgAH-k", "types": ["spa", "health", "point_of_interest", "establishment"], "rating": 4.4, "user_ratings_total": 33}, "ChIJIV2ovEwFdkgRKrzSLIWYyzU": {"geometry": {"location": {"lat": 51.5138896, "lng": -0.1711554}, "viewport": {"northeast": {"lat": 51.51523238029149, "lng": -0.169797319708498}, "southwest": {"lat": 51.5125344197085, "lng": -0.172495280291502}}}, "name": "Motorcycle Parking Bay", "place_id": "ChIJIV2ovEwFdkgRKrzSLIWYyzU", "types": ["parking", "point_of_interest", "establishment"], "rating": 2, "user_ratings_total": 2}, "ChIJaRsPCCwFdkgRMO_N0rIPcgc": {"geometry": {"location": {"lat": 51.51352860000001, "lng": -0.1714846}, "viewport": {"northeast": {"lat": 51.5148668802915, "lng": -0.1701561697084979}, "southwest": {"lat": 51.5121689197085, "lng": -0.172854130291502}}}, "name": "Soapy Massage for Men", "place_id": "ChIJaRsPCCwFdkgRMO_N0rIPcgc", "types": ["point_of_interest", "establishment"]}, "ChIJW-rmlUwFdkgRcvbNqyqIqI0": {"geometry": {"location": {"lat": 51.51350110000001, "lng": -0.1715106}, "viewport": {"northeast": {"lat": 51.5148590802915, "lng": -0.170144919708498}, "southwest": {"lat": 51.51216111970851, "lng": -0.172842880291502}}}, "name": "Holistic Massage Therapy", "place_id": "ChIJW-rmlUwFdkgRcvbNqyqIqI0", "types": ["point_of_interest", "establishment"]}, "ChIJMXbOl0wFdkgRrwldfiZMAds": {"geometry": {"location": {"lat": 51.5135209, "lng": -0.1712743}, "viewport": {"northeast": {"lat": 51.5147821802915, "lng": -0.169902369708498}, "southwest": {"lat": 51.5120842197085, "lng": -0.172600330291502}}}, "name": "Fuller's Chiswick", "place_id": "ChIJMXbOl0wFdkgRrwldfiZMAds", "types": ["food", "point_of_interest", "establishment"]}, "ChIJmcVWo0wFdkgRDruxvZYSYaY": {"geometry": {"location": {"lat": 51.5138269, "lng": -0.1709756}, "viewport": {"northeast": {"lat": 51.5152061302915, "lng": -0.169670869708498}, "southwest": {"lat": 51.5125081697085, "lng": -0.172368830291502}}}, "name": "Chartwell Court", "place_id": "ChIJmcVWo0wFdkgRDruxvZYSYaY", "types": ["point_of_interest", "establishment"]}, "ChIJpdIwxEwFdkgRKRj74lLzhxw": {"geometry": {"location": {"lat": 51.51409229999999, "lng": -0.1717601}, "viewport": {"northeast": {"lat": 51.5154067802915, "lng": -0.170441869708498}, "southwest": {"lat": 51.5127088197085, "lng": -0.173139830291502}}}, "name": "SourceLondon Charging Station", "place_id": "ChIJpdIwxEwFdkgRKRj74lLzhxw", "types": ["point_of_interest", "establishment"]}, "ChIJMUOsqToFdkgRH7eFlTninQ4": {"geometry": {"location": {"lat": 51.51340709999999, "lng": -0.1715077}, "viewport": {"northeast": {"lat": 51.5147898802915, "lng": -0.170093869708498}, "southwest": {"lat": 51.5120919197085, "lng": -0.172791830291502}}}, "name": "AEDA London", "place_id": "ChIJMUOsqToFdkgRH7eFlTninQ4", "types": ["restaurant", "food", "point_of_interest", "establishment"], "rating": 4.8, "user_ratings_total": 69}, "ChIJGyZx7EwFdkgRejIoQJUfRS4": {"geometry": {"location": {"lat": 51.51340709999999, "lng": -0.1715077}, "viewport": {"northeast": {"lat": 51.5147904802915, "lng": -0.170094669708498}, "southwest": {"lat": 51.5120925197085, "lng": -0.172792630291502}}}, "name": "Safe Gard London", "place_id": "ChIJGyZx7EwFdkgRejIoQJUfRS4", "types": ["point_of_interest", "establishment"]}, "ChIJG22YlkwFdkgR9C4RanCDXmk": {"geometry": {"location": {"lat": 51.5133254, "lng": -0.1714405}, "viewport": {"northeast": {"lat": 51.5147158802915, "lng": -0.170014269708498}, "southwest": {"lat": 51.5120179197085, "lng": -0.172712230291502}}}, "name": "Benham & Reeves - Hyde Park", "place_id": "ChIJG22YlkwFdkgR9C4RanCDXmk", "types": ["real_estate_agency", "point_of_interest", "establishment"], "rating": 4.8, "user_ratings_total": 24}, "ChIJ__-8lkwFdkgRIrNiz2uZqiA": {"geometry": {"location": {"lat": 51.513312, "lng": -0.1714227}, "viewport": {"northeast": {"lat": 51.5147026302915, "lng": -0.169996269708498}, "southwest": {"lat": 51.5120046697085, "lng": -0.172694230291502}}}, "name": "Instyle Apartments", "place_id": "ChIJ__-8lkwFdkgRIrNiz2uZqiA", "types": ["real_estate_agency", "point_of_interest", "establishment"]}, "ChIJBSl6510FdkgRxPK82XlNyPk": {"geometry": {"location": {"lat": 51.513317, "lng": -0.171258}, "viewport": {"northeast": {"lat": 51.51467323029149, "lng": -0.169895169708498}, "southwest": {"lat": 51.51197526970849, "lng": -0.172593130291502}}}, "name": "Domus Venus", "place_id": "ChIJBSl6510FdkgRxPK82XlNyPk", "types": ["general_contractor", "point_of_interest", "establishment"]}, "ChIJb4fpuEwFdkgRvRCcIESi2Ac": {"geometry": {"location": {"lat": 51.5140198, "lng": -0.1718064}, "viewport": {"northeast": {"lat": 51.5153364346143, "lng": -0.1703880029601938}, "southwest": {"lat": 51.5126384740313, "lng": -0.1730859635431978}}}, "name": "Parking lot", "place_id": "ChIJb4fpuEwFdkgRvRCcIESi2Ac", "types": ["parking", "premise", "point_of_interest", "establishment"]}, "ChIJWb93kkwFdkgRn-CPccnvuXU": {"geometry": {"location": {"lat": 51.51291656486726, "lng": -0.1716087545747827}, "viewport": {"northeast": {"lat": 51.5142655302915, "lng": -0.16983925}, "southwest": {"lat": 51.5115675697085, "lng": -0.17337825}}}, "name": "38-20 Hyde Park Gardens", "place_id": "ChIJWb93kkwFdkgRn-CPccnvuXU", "types": ["route"]}, "ChIJu8FMg0wFdkgRfydTMOJKWXI": {"geometry": {"location": {"lat": 51.51278589999999, "lng": -0.1710041}, "viewport": {"northeast": {"lat": 51.51422738029149, "lng": -0.169678369708498}, "southwest": {"lat": 51.51152941970849, "lng": -0.172376330291502}}}, "name": "Sri Lanka High Commission", "place_id": "ChIJu8FMg0wFdkgRfydTMOJKWXI", "types": ["embassy", "point_of_interest", "establishment"], "rating": 3.6, "user_ratings_total": 104}, "ChIJc0wm5LIcdkgR16ttiWHgj2k": {"geometry": {"location": {"lat": 51.5128037, "lng": -0.170992}, "viewport": {"northeast": {"lat": 51.5142370802915, "lng": -0.169664219708498}, "southwest": {"lat": 51.5115391197085, "lng": -0.172362180291502}}}, "name": "Sri Lanka Tourism", "place_id": "ChIJc0wm5LIcdkgR16ttiWHgj2k", "types": ["embassy", "travel_agency", "point_of_interest", "establishment"], "rating": 3.7, "user_ratings_total": 3}, "ChIJDSxWKeAHdkgR8Hru_MiuBxA": {"geometry": {"location": {"lat": 51.51278589999999, "lng": -0.1710041}, "viewport": {"northeast": {"lat": 51.51422738029149, "lng": -0.169678369708498}, "southwest": {"lat": 51.51152941970849, "lng": -0.172376330291502}}}, "name": "Broadway Mini Market", "place_id": "ChIJDSxWKeAHdkgR8Hru_MiuBxA", "types": ["health", "point_of_interest", "establishment"], "rating": 2.3, "user_ratings_total": 3}, "ChIJn_mr8kwFdkgR9k_ZlgaahWw": {"geometry": {"location": {"lat": 51.51289149999999, "lng": -0.1718662}, "viewport": {"northeast": {"lat": 51.5142093802915, "lng": -0.170509419708498}, "southwest": {"lat": 51.5115114197085, "lng": -0.173207380291502}}}, "name": "Oxford Global", "place_id": "ChIJn_mr8kwFdkgR9k_ZlgaahWw", "types": ["point_of_interest", "establishment"]}, "ChIJcc4IfUwFdkgR89Gpy8Mwa6Q": {"geometry": {"location": {"lat": 51.51213952038487, "lng": -0.1709426299633141}, "viewport": {"northeast": {"lat": 51.5134883802915, "lng": -0.1692967999999999}, "southwest": {"lat": 51.5107904197085, "lng": -0.1725884}}}, "name": "Bayswater Road", "place_id": "ChIJcc4IfUwFdkgR89Gpy8Mwa6Q", "types": ["route"]}, "ChIJf_L1fkwFdkgRGVtha9_43y8": {"geometry": {"location": {"lat": 51.51205720000001, "lng": -0.1711271}, "viewport": {"northeast": {"lat": 51.5134379802915, "lng": -0.169785969708498}, "southwest": {"lat": 51.5107400197085, "lng": -0.172483930291502}}}, "name": "Victoria Gate (Stop LD)", "place_id": "ChIJf_L1fkwFdkgRGVtha9_43y8", "types": ["bus_station", "transit_station", "point_of_interest", "establishment"], "rating": 5, "user_ratings_total": 2}, "ChIJ6xp64EwFdkgREwd6CTmDWLY": {"geometry": {"location": {"lat": 51.51351309033073, "lng": -0.1732393918289637}, "viewport": {"northeast": {"lat": 51.51485598029149, "lng": -0.171895019708498}, "southwest": {"lat": 51.51215801970849, "lng": -0.174592980291502}}}, "name": "8 Sussex Square", "place_id": "ChIJ6xp64EwFdkgREwd6CTmDWLY", "types": ["route"]}, "ChIJnUsdnq0adkgRkhHe9v1Brvc": {"geometry": {"location": {"lat": 51.51426710000001, "lng": -0.1732852000000001}, "viewport": {"northeast": {"lat": 51.51557623029151, "lng": -0.171877819708498}, "southwest": {"lat": 51.51287826970852, "lng": -0.1745757802915021}}}, "name": "Tony Heywood Landscapes", "place_id": "ChIJnUsdnq0adkgRkhHe9v1Brvc", "types": ["general_contractor", "point_of_interest", "establishment"]}, "ChIJq6vodrkFdkgR95hQl33keBQ": {"geometry": {"location": {"lat": 51.5137554, "lng": -0.1730113}, "viewport": {"northeast": {"lat": 51.51512768029149, "lng": -0.171696269708498}, "southwest": {"lat": 51.5124297197085, "lng": -0.174394230291502}}}, "name": "London Plus Services", "place_id": "ChIJq6vodrkFdkgR95hQl33keBQ", "types": ["point_of_interest", "establishment"]}, "ChIJE58iXsMFdkgR5BVbiPDphcw": {"geometry": {"location": {"lat": 51.5138958, "lng": -0.1738052}, "viewport": {"northeast": {"lat": 51.5152299302915, "lng": -0.172434519708498}, "southwest": {"lat": 51.5125319697085, "lng": -0.175132480291502}}}, "name": "Water Damage Hyde Park Estate", "place_id": "ChIJE58iXsMFdkgR5BVbiPDphcw", "types": ["general_contractor", "point_of_interest", "establishment"]}, "ChIJ5-m7k7kFdkgRSGPpkZlNyuo": {"geometry": {"location": {"lat": 51.5133835, "lng": -0.1729283}, "viewport": {"northeast": {"lat": 51.51475413029149, "lng": -0.171542469708498}, "southwest": {"lat": 51.51205616970849, "lng": -0.174240430291502}}}, "name": "Apaertment 9 sussex", "place_id": "ChIJ5-m7k7kFdkgRSGPpkZlNyuo", "types": ["point_of_interest", "establishment"]}, "ChIJvStRLPAFdkgRmRnVSFxpg8s": {"geometry": {"location": {"lat": 51.5136969, "lng": -0.1740329}, "viewport": {"northeast": {"lat": 51.51506913029149, "lng": -0.172718019708498}, "southwest": {"lat": 51.51237116970849, "lng": -0.175415980291502}}}, "name": "Ruelle cheval", "place_id": "ChIJvStRLPAFdkgRmRnVSFxpg8s", "types": ["point_of_interest", "establishment"]}, "ChIJZdqM_EwFdkgRU3bOoVi9tL4": {"geometry": {"location": {"lat": 51.51271227263176, "lng": -0.1731494053429856}, "viewport": {"northeast": {"lat": 51.5140612802915, "lng": -0.171800469708498}, "southwest": {"lat": 51.5113633197085, "lng": -0.174498430291502}}}, "name": "23-24 Stanhope Terrace", "place_id": "ChIJZdqM_EwFdkgRU3bOoVi9tL4", "types": ["route"]}, "ChIJX-wT8UwFdkgR1P7-Gch6K5M": {"geometry": {"location": {"lat": 51.5125244, "lng": -0.1724808}, "viewport": {"northeast": {"lat": 51.51387563029149, "lng": -0.171109119708498}, "southwest": {"lat": 51.51117766970849, "lng": -0.173807080291502}}}, "name": "Zipcar", "place_id": "ChIJX-wT8UwFdkgR1P7-Gch6K5M", "types": ["car_rental", "point_of_interest", "establishment"], "rating": 4, "user_ratings_total": 2}, "ChIJh_6g_EwFdkgRrqQGT6S84nc": {"geometry": {"location": {"lat": 51.5128387, "lng": -0.1729594}, "viewport": {"northeast": {"lat": 51.5141876802915, "lng": -0.171610419708498}, "southwest": {"lat": 51.5114897197085, "lng": -0.174308380291502}}}, "name": "Therapeutic Hands", "place_id": "ChIJh_6g_EwFdkgRrqQGT6S84nc", "types": ["point_of_interest", "establishment"]}, "ChIJ1TwsD6wFdkgRvsNF4T-KLcQ": {"geometry": {"location": {"lat": 51.5130679, "lng": -0.1731026}, "viewport": {"northeast": {"lat": 51.5144168802915, "lng": -0.171753619708498}, "southwest": {"lat": 51.5117189197085, "lng": -0.174451580291502}}}, "name": "EXOFITNESS LONDON", "place_id": "ChIJ1TwsD6wFdkgRvsNF4T-KLcQ", "types": ["point_of_interest", "clothing_store", "store", "establishment"], "rating": 5, "user_ratings_total": 12}, "ChIJP77tHU0FdkgRqf_84cYHJLY": {"geometry": {"location": {"lat": 51.5131133, "lng": -0.1733611}, "viewport": {"northeast": {"lat": 51.5143625302915, "lng": -0.172191119708498}, "southwest": {"lat": 51.5116645697085, "lng": -0.174889080291502}}}, "name": "Sussex Square", "place_id": "ChIJP77tHU0FdkgRqf_84cYHJLY", "types": ["park", "point_of_interest", "establishment"], "rating": 4.3, "user_ratings_total": 3}, "ChIJ_wDYAE0FdkgRNs1AVWOTIus": {"geometry": {"location": {"lat": 51.512415, "lng": -0.173635}, "viewport": {"northeast": {"lat": 51.5137502302915, "lng": -0.172266019708498}, "southwest": {"lat": 51.5110522697085, "lng": -0.174963980291502}}}, "name": "ubitricity Charging Station", "place_id": "ChIJ_wDYAE0FdkgRNs1AVWOTIus", "types": ["point_of_interest", "establishment"]}, "ChIJn6rnu1UFdkgR1N1WgAx1JdY": {"geometry": {"location": {"lat": 51.5126632, "lng": -0.1724416}, "viewport": {"northeast": {"lat": 51.5140121802915, "lng": -0.171092619708498}, "southwest": {"lat": 51.5113142197085, "lng": -0.173790580291502}}}, "name": "London Skate Life", "place_id": "ChIJn6rnu1UFdkgR1N1WgAx1JdY", "types": ["school", "point_of_interest", "establishment"], "rating": 5, "user_ratings_total": 8}, "ChIJzz8m90wFdkgRnvZWYPKghAI": {"geometry": {"location": {"lat": 51.5125373, "lng": -0.1724632}, "viewport": {"northeast": {"lat": 51.5139167302915, "lng": -0.171159669708498}, "southwest": {"lat": 51.51121876970851, "lng": -0.173857630291502}}}, "name": "ESB Charging Station", "place_id": "ChIJzz8m90wFdkgRnvZWYPKghAI", "types": ["point_of_interest", "establishment"]}, "ChIJ67AsqE0FdkgRVBG6DJ0GZE4": {"geometry": {"location": {"lat": 51.5123834, "lng": -0.1738144}, "viewport": {"northeast": {"lat": 51.51371758029151, "lng": -0.172444619708498}, "southwest": {"lat": 51.51101961970851, "lng": -0.175142580291502}}}, "name": "ubitricity Charging Station", "place_id": "ChIJ67AsqE0FdkgRVBG6DJ0GZE4", "types": ["point_of_interest", "establishment"]}, "ChIJU7tDVUwFdkgRkW7621lqwE0": {"geometry": {"location": {"lat": 51.512198, "lng": -0.1732362}, "viewport": {"northeast": {"lat": 51.5135271802915, "lng": -0.1718578197084979}, "southwest": {"lat": 51.5108292197085, "lng": -0.174555780291502}}}, "name": "Clear Project Direction", "place_id": "ChIJU7tDVUwFdkgRkW7621lqwE0", "types": ["general_contractor", "point_of_interest", "establishment"]}, "ChIJjVRm_0wFdkgRnpUTSTdyFX4": {"geometry": {"location": {"lat": 51.5122831, "lng": -0.1730257}, "viewport": {"northeast": {"lat": 51.51363300628439, "lng": -0.1717002847841595}, "southwest": {"lat": 51.51093504570139, "lng": -0.1743982453671636}}}, "name": "Parking lot", "place_id": "ChIJjVRm_0wFdkgRnpUTSTdyFX4", "types": ["parking", "premise", "point_of_interest", "establishment"]}, "ChIJzVhjU0wFdkgRI_W5MOxQyb0": {"geometry": {"location": {"lat": 51.51194570316718, "lng": -0.1729988011304159}, "viewport": {"northeast": {"lat": 51.51329363029149, "lng": -0.171649519708498}, "southwest": {"lat": 51.5105956697085, "lng": -0.174347480291502}}}, "name": "31 Bayswater Rd", "place_id": "ChIJzVhjU0wFdkgRI_W5MOxQyb0", "types": ["route"]}, "ChIJSxR4YyEFdkgRp9IQgPl73V4": {"geometry": {"location": {"lat": 51.51178089999999, "lng": -0.1728345}, "viewport": {"northeast": {"lat": 51.5132179302915, "lng": -0.171506519708498}, "southwest": {"lat": 51.5105199697085, "lng": -0.174204480291502}}}, "name": "Hyde Park pet cemetery", "place_id": "ChIJSxR4YyEFdkgRp9IQgPl73V4", "types": ["cemetery", "point_of_interest", "establishment"]}, "ChIJM8Mayk0FdkgRRN3fASdZBDc": {"geometry": {"location": {"lat": 51.5108111, "lng": -0.1736111}, "viewport": {"northeast": {"lat": 51.5121600802915, "lng": -0.172262119708498}, "southwest": {"lat": 51.5094621197085, "lng": -0.174960080291502}}}, "name": "Buckhill Playground", "place_id": "ChIJM8Mayk0FdkgRRN3fASdZBDc", "types": ["point_of_interest", "establishment"], "rating": 4.2, "user_ratings_total": 26}, "ChIJl1_nQ00FdkgR5C-RhIYPPuo": {"geometry": {"location": {"lat": 51.51384695019925, "lng": -0.1751717003490899}, "viewport": {"northeast": {"lat": 51.5151959302915, "lng": -0.173822719708498}, "southwest": {"lat": 51.5124979697085, "lng": -0.176520680291502}}}, "name": "204 Sussex Gardens", "place_id": "ChIJl1_nQ00FdkgR5C-RhIYPPuo", "types": ["route"]}, "ChIJDUQrQk0FdkgRiVYL1qDls08": {"geometry": {"location": {"lat": 51.5139817, "lng": -0.1753357}, "viewport": {"northeast": {"lat": 51.5153046302915, "lng": -0.173953019708498}, "southwest": {"lat": 51.5126066697085, "lng": -0.176650980291502}}}, "name": "Lancaster Court Hotel", "place_id": "ChIJDUQrQk0FdkgRiVYL1qDls08", "types": ["lodging", "point_of_interest", "establishment"], "rating": 3.3, "user_ratings_total": 308}, "ChIJSS4aO00FdkgREbfIWp128gQ": {"geometry": {"location": {"lat": 51.51399579999999, "lng": -0.1741744}, "viewport": {"northeast": {"lat": 51.51538053029149, "lng": -0.172877569708498}, "southwest": {"lat": 51.5126825697085, "lng": -0.175575530291502}}}, "name": "Rhodes Hotel", "place_id": "ChIJSS4aO00FdkgREbfIWp128gQ", "types": ["lodging", "point_of_interest", "establishment"], "rating": 4, "user_ratings_total": 301}, "ChIJQ1CZSE0FdkgRyZB3bVAuaKY": {"geometry": {"location": {"lat": 51.5142325, "lng": -0.1752261}, "viewport": {"northeast": {"lat": 51.5156223302915, "lng": -0.173805469708498}, "southwest": {"lat": 51.5129243697085, "lng": -0.176503430291502}}}, "name": "Edward Hotel London", "place_id": "ChIJQ1CZSE0FdkgRyZB3bVAuaKY", "types": ["lodging", "point_of_interest", "establishment"], "rating": 3.4, "user_ratings_total": 495}, "ChIJLV24SE0FdkgRK-VWswOh9lA": {"geometry": {"location": {"lat": 51.51425450000001, "lng": -0.1752204}, "viewport": {"northeast": {"lat": 51.5156384302915, "lng": -0.173810119708498}, "southwest": {"lat": 51.5129404697085, "lng": -0.176508080291502}}}, "name": "Sinclairs Residential Lettings", "place_id": "ChIJLV24SE0FdkgRK-VWswOh9lA", "types": ["real_estate_agency", "point_of_interest", "establishment"]}, "ChIJT_YfRk0FdkgR_zUVwLtyW5U": {"geometry": {"location": {"lat": 51.5142098, "lng": -0.1752679}, "viewport": {"northeast": {"lat": 51.5156113302915, "lng": -0.1738268197084979}, "southwest": {"lat": 51.51291336970851, "lng": -0.176524780291502}}}, "name": "Sinclairs Residential Property Managment", "place_id": "ChIJT_YfRk0FdkgR_zUVwLtyW5U", "types": ["real_estate_agency", "point_of_interest", "establishment"]}, "ChIJ1-q5Ik0FdkgR1c4TSDt-xm8": {"geometry": {"location": {"lat": 51.5133253, "lng": -0.174824}, "viewport": {"northeast": {"lat": 51.5146617802915, "lng": -0.173458319708498}, "southwest": {"lat": 51.51196381970851, "lng": -0.176156280291502}}}, "name": "Ross Nye Stables", "place_id": "ChIJ1-q5Ik0FdkgR1c4TSDt-xm8", "types": ["point_of_interest", "establishment"], "rating": 4.4, "user_ratings_total": 36}, "ChIJP4ktT00FdkgRhYZ99K1G0mI": {"geometry": {"location": {"lat": 51.51425700000001, "lng": -0.175326}, "viewport": {"northeast": {"lat": 51.51565673029151, "lng": -0.173888019708498}, "southwest": {"lat": 51.51295876970851, "lng": -0.176585980291502}}}, "name": "MeetMyAgent", "place_id": "ChIJP4ktT00FdkgRhYZ99K1G0mI", "types": ["real_estate_agency", "point_of_interest", "establishment"]}, "ChIJmRNyT00FdkgRn6xKZn-XElg": {"geometry": {"location": {"lat": 51.514286, "lng": -0.1753069}, "viewport": {"northeast": {"lat": 51.51567618029149, "lng": -0.1738857197084979}, "southwest": {"lat": 51.51297821970849, "lng": -0.176583680291502}}}, "name": "Royce Mayfair Ltd", "place_id": "ChIJmRNyT00FdkgRn6xKZn-XElg", "types": ["real_estate_agency", "point_of_interest", "establishment"], "rating": 1, "user_ratings_total": 1}, "ChIJIciDJ00FdkgRqc7PCaHE-Og": {"geometry": {"location": {"lat": 51.51368120000001, "lng": -0.1740857}, "viewport": {"northeast": {"lat": 51.5150456302915, "lng": -0.172759419708498}, "southwest": {"lat": 51.5123476697085, "lng": -0.1754573802915021}}}, "name": "Lyn Joseph P R", "place_id": "ChIJIciDJ00FdkgRqc7PCaHE-Og", "types": ["point_of_interest", "establishment"]}, "ChIJy6AdPE0FdkgRMltTemLCvrE": {"geometry": {"location": {"lat": 51.5138411, "lng": -0.1744192}, "viewport": {"northeast": {"lat": 51.5152314802915, "lng": -0.173129019708498}, "southwest": {"lat": 51.51253351970851, "lng": -0.175826980291502}}}, "name": "BAHH Boutique - Hyde Park", "place_id": "ChIJy6AdPE0FdkgRMltTemLCvrE", "types": ["lodging", "point_of_interest", "establishment"]}, "ChIJO61fRE0FdkgRebOAVq-mUi8": {"geometry": {"location": {"lat": 51.5139817, "lng": -0.1753357}, "viewport": {"northeast": {"lat": 51.5153046302915, "lng": -0.173953019708498}, "southwest": {"lat": 51.5126066697085, "lng": -0.176650980291502}}}, "name": "Key Worker Accommodation", "place_id": "ChIJO61fRE0FdkgRebOAVq-mUi8", "types": ["lodging", "point_of_interest", "establishment"]}, "ChIJoamDd8kFdkgRukpuUXD0pX4": {"geometry": {"location": {"lat": 51.5138737, "lng": -0.1743498}, "viewport": {"northeast": {"lat": 51.5152656302915, "lng": -0.173061869708498}, "southwest": {"lat": 51.5125676697085, "lng": -0.175759830291502}}}, "name": "GCSE Tuition Hyde Park Estate", "place_id": "ChIJoamDd8kFdkgRukpuUXD0pX4", "types": ["point_of_interest", "establishment"]}, "ChIJS5_4PU0FdkgRNBWeQZ-VPUI": {"geometry": {"location": {"lat": 51.5135813, "lng": -0.1744712}, "viewport": {"northeast": {"lat": 51.5148936302915, "lng": -0.173069969708498}, "southwest": {"lat": 51.5121956697085, "lng": -0.175767930291502}}}, "name": "Redcomb Pubs Ltd", "place_id": "ChIJS5_4PU0FdkgRNBWeQZ-VPUI", "types": ["point_of_interest", "establishment"], "rating": 5, "user_ratings_total": 1}, "ChIJqaOam9IFdkgRkLHqvaVc-8A": {"geometry": {"location": {"lat": 51.5139211, "lng": -0.1743174}, "viewport": {"northeast": {"lat": 51.5153047302915, "lng": -0.1730176697084979}, "southwest": {"lat": 51.5126067697085, "lng": -0.175715630291502}}}, "name": "Chez Deacon", "place_id": "ChIJqaOam9IFdkgRkLHqvaVc-8A", "types": ["lodging", "point_of_interest", "establishment"], "rating": 5, "user_ratings_total": 1}, "ChIJ2730yFIFdkgRD8gIN334bLA": {"geometry": {"location": {"lat": 51.5141973, "lng": -0.1751637}, "viewport": {"northeast": {"lat": 51.5155855302915, "lng": -0.173745919708498}, "southwest": {"lat": 51.5128875697085, "lng": -0.176443880291502}}}, "name": "Maxis Healthcare", "place_id": "ChIJ2730yFIFdkgRD8gIN334bLA", "types": ["health", "point_of_interest", "establishment"]}, "ChIJkwkuiXcFdkgRg7pJIpslVUQ": {"geometry": {"location": {"lat": 51.5141508, "lng": -0.1745199}, "viewport": {"northeast": {"lat": 51.5154762302915, "lng": -0.173137269708498}, "southwest": {"lat": 51.5127782697085, "lng": -0.175835230291502}}}, "name": "Office Cleaning Paddington", "place_id": "ChIJkwkuiXcFdkgRg7pJIpslVUQ", "types": ["point_of_interest", "establishment"]}, "ChIJ5xDVFE0FdkgRSKr5YhM54eU": {"geometry": {"location": {"lat": 51.5133923, "lng": -0.1747838}, "viewport": {"northeast": {"lat": 51.5147092802915, "lng": -0.173392019708498}, "southwest": {"lat": 51.5120113197085, "lng": -0.176089980291502}}}, "name": "\u062e\u064a\u0648\u0644 \u0627\u0644\u0647\u0627\u064a\u062f \u0628\u0627\u0631\u0643", "place_id": "ChIJ5xDVFE0FdkgRSKr5YhM54eU", "types": ["point_of_interest", "establishment"], "rating": 2, "user_ratings_total": 1}, "ChIJD74o6McFdkgRyiBeLbrca_I": {"geometry": {"location": {"lat": 51.5142823, "lng": -0.174866}, "viewport": {"northeast": {"lat": 51.51554108029151, "lng": -0.173388119708498}, "southwest": {"lat": 51.51284311970851, "lng": -0.176086080291502}}}, "name": "Studyo in Paddington", "place_id": "ChIJD74o6McFdkgRyiBeLbrca_I", "types": ["real_estate_agency", "travel_agency", "point_of_interest", "establishment"]}, "ChIJY5BY5bQFdkgRsSY_yJ771q8": {"geometry": {"location": {"lat": 51.5142823, "lng": -0.174866}, "viewport": {"northeast": {"lat": 51.51554108029151, "lng": -0.173388119708498}, "southwest": {"lat": 51.51284311970851, "lng": -0.176086080291502}}}, "name": "Bonda Kitchen Paddington", "place_id": "ChIJY5BY5bQFdkgRsSY_yJ771q8", "types": ["restaurant", "food", "point_of_interest", "establishment"], "rating": 4.8, "user_ratings_total": 14}, "ChIJy5SZ1BgFdkgR1Gcn9lGSpqI": {"geometry": {"location": {"lat": 51.5136874, "lng": -0.1741752}, "viewport": {"northeast": {"lat": 51.5150207302915, "lng": -0.172803319708498}, "southwest": {"lat": 51.5123227697085, "lng": -0.175501280291502}}}, "name": "Meeting room Hyde Park Estate", "place_id": "ChIJy5SZ1BgFdkgR1Gcn9lGSpqI", "types": ["point_of_interest", "establishment"]}, "ChIJy-YvaYgFdkgRpkqRxCht_pY": {"geometry": {"location": {"lat": 51.5136874, "lng": -0.1741658}, "viewport": {"northeast": {"lat": 51.51502363029149, "lng": -0.172798219708498}, "southwest": {"lat": 51.5123256697085, "lng": -0.175496180291502}}}, "name": "Mhoia Interiors & Architecture", "place_id": "ChIJy-YvaYgFdkgRpkqRxCht_pY", "types": ["point_of_interest", "establishment"]}, "ChIJz3YqNk0FdkgRYKRWL1GvE6M": {"geometry": {"location": {"lat": 51.51433300000001, "lng": -0.17494}, "viewport": {"northeast": {"lat": 51.5156534802915, "lng": -0.173634219708498}, "southwest": {"lat": 51.51295551970851, "lng": -0.176332180291502}}}, "name": "Mara House", "place_id": "ChIJz3YqNk0FdkgRYKRWL1GvE6M", "types": ["real_estate_agency", "lodging", "point_of_interest", "establishment"], "rating": 3.7, "user_ratings_total": 23}, "ChIJHTSxHDUbdkgRQU2M2qfi4cA": {"geometry": {"location": {"lat": 51.5142508, "lng": -0.1753371}, "viewport": {"northeast": {"lat": 51.5156536802915, "lng": -0.173893619708498}, "southwest": {"lat": 51.5129557197085, "lng": -0.176591580291502}}}, "name": "Selected Accountants Ltd", "place_id": "ChIJHTSxHDUbdkgRQU2M2qfi4cA", "types": ["accounting", "finance", "point_of_interest", "establishment"]}, "ChIJq6p5T00FdkgR6xndU9EG4IY": {"geometry": {"location": {"lat": 51.5142508, "lng": -0.1753371}, "viewport": {"northeast": {"lat": 51.5156536802915, "lng": -0.173893619708498}, "southwest": {"lat": 51.5129557197085, "lng": -0.176591580291502}}}, "name": "Sm Funding Ltd", "place_id": "ChIJq6p5T00FdkgR6xndU9EG4IY", "types": ["finance", "point_of_interest", "establishment"]}, "ChIJ6fV5T00FdkgRnV6_PKEQAu8": {"geometry": {"location": {"lat": 51.51425700000001, "lng": -0.175326}, "viewport": {"northeast": {"lat": 51.51565673029151, "lng": -0.173888019708498}, "southwest": {"lat": 51.51295876970851, "lng": -0.176585980291502}}}, "name": "Fountain Gardens Properties Ltd", "place_id": "ChIJ6fV5T00FdkgRnV6_PKEQAu8", "types": ["real_estate_agency", "point_of_interest", "establishment"]}, "ChIJY_2ZUU0FdkgRvKJ5FKMjRLg": {"geometry": {"location": {"lat": 51.514286, "lng": -0.1753069}, "viewport": {"northeast": {"lat": 51.51567618029149, "lng": -0.1738857197084979}, "southwest": {"lat": 51.51297821970849, "lng": -0.176583680291502}}}, "name": "Sloan Property Services", "place_id": "ChIJY_2ZUU0FdkgRvKJ5FKMjRLg", "types": ["point_of_interest", "establishment"]}, "ChIJl1yIek0FdkgR-eZZfh5_55o": {"geometry": {"location": {"lat": 51.51276653393774, "lng": -0.1755830047853657}, "viewport": {"northeast": {"lat": 51.51408118029151, "lng": -0.174206469708498}, "southwest": {"lat": 51.51138321970851, "lng": -0.176904430291502}}}, "name": "7 A402", "place_id": "ChIJl1yIek0FdkgR-eZZfh5_55o", "types": ["route"]}, "ChIJYQCtg00FdkgREw34v1ji0m4": {"geometry": {"location": {"lat": 51.512297, "lng": -0.175197}, "viewport": {"northeast": {"lat": 51.51371708029149, "lng": -0.173786369708498}, "southwest": {"lat": 51.51101911970849, "lng": -0.176484330291502}}}, "name": "Royal Lancaster London", "place_id": "ChIJYQCtg00FdkgREw34v1ji0m4", "types": ["lodging", "restaurant", "food", "gym", "health", "point_of_interest", "establishment"], "rating": 4.5, "user_ratings_total": 1645}, "ChIJWxlmbk0FdkgRoqor7YMJUDE": {"geometry": {"location": {"lat": 51.51305559999999, "lng": -0.1752778}, "viewport": {"northeast": {"lat": 51.5143780302915, "lng": -0.174054419708498}, "southwest": {"lat": 51.5116800697085, "lng": -0.176752380291502}}}, "name": "Central London Budget Hotel", "place_id": "ChIJWxlmbk0FdkgRoqor7YMJUDE", "types": ["lodging", "point_of_interest", "establishment"], "rating": 3.3, "user_ratings_total": 121}, "ChIJxzdTDE0FdkgR8ELiJ1oI-NM": {"geometry": {"location": {"lat": 51.5129401, "lng": -0.1747319}, "viewport": {"northeast": {"lat": 51.5142416302915, "lng": -0.173319369708498}, "southwest": {"lat": 51.51154366970851, "lng": -0.1760173302915021}}}, "name": "Angelus Restaurant", "place_id": "ChIJxzdTDE0FdkgR8ELiJ1oI-NM", "types": ["bar", "restaurant", "food", "point_of_interest", "establishment"], "rating": 4.1, "user_ratings_total": 94}, "ChIJiWKzc00FdkgRuOcfsuLjjcE": {"geometry": {"location": {"lat": 51.51277779999999, "lng": -0.175}, "viewport": {"northeast": {"lat": 51.5141071302915, "lng": -0.173764419708498}, "southwest": {"lat": 51.5114091697085, "lng": -0.176462380291502}}}, "name": "Assaha Hyde Park Apartments", "place_id": "ChIJiWKzc00FdkgRuOcfsuLjjcE", "types": ["lodging", "point_of_interest", "establishment"], "rating": 2.5, "user_ratings_total": 70}, "ChIJaW2seFIFdkgRUS2sQMnqPpA": {"geometry": {"location": {"lat": 51.5123012, "lng": -0.175029}, "viewport": {"northeast": {"lat": 51.51371123029149, "lng": -0.173669669708498}, "southwest": {"lat": 51.51101326970849, "lng": -0.176367630291502}}}, "name": "Nipa Thai", "place_id": "ChIJaW2seFIFdkgRUS2sQMnqPpA", "types": ["restaurant", "food", "point_of_interest", "establishment"], "rating": 4.4, "user_ratings_total": 253}, "ChIJefsAGE0FdkgRIrejnE6js48": {"geometry": {"location": {"lat": 51.5131159, "lng": -0.174752}, "viewport": {"northeast": {"lat": 51.5144473802915, "lng": -0.173434169708498}, "southwest": {"lat": 51.5117494197085, "lng": -0.176132130291502}}}, "name": "Hyde Park Stables - Horse Riding Central London", "place_id": "ChIJefsAGE0FdkgRIrejnE6js48", "types": ["tourist_attraction", "travel_agency", "point_of_interest", "establishment"], "rating": 4, "user_ratings_total": 70}, "ChIJ-xK6DE0FdkgRwANtmUf5yeU": {"geometry": {"location": {"lat": 51.5126398, "lng": -0.1747637}, "viewport": {"northeast": {"lat": 51.51393893029149, "lng": -0.1735139197084979}, "southwest": {"lat": 51.5112409697085, "lng": -0.176211880291502}}}, "name": "Kathryn Louise", "place_id": "ChIJ-xK6DE0FdkgRwANtmUf5yeU", "types": ["point_of_interest", "establishment"]}, "ChIJ-SzIck0FdkgRfNXL1bnVUXo": {"geometry": {"location": {"lat": 51.5128717, "lng": -0.1747372}, "viewport": {"northeast": {"lat": 51.5141925802915, "lng": -0.173350619708498}, "southwest": {"lat": 51.5114946197085, "lng": -0.176048580291502}}}, "name": "Bathurst Deli", "place_id": "ChIJ-SzIck0FdkgRfNXL1bnVUXo", "types": ["food", "point_of_interest", "store", "establishment"], "rating": 4.1, "user_ratings_total": 55}, "ChIJoXmVck0FdkgR0ESFZdB1Q44": {"geometry": {"location": {"lat": 51.512797, "lng": -0.1748814}, "viewport": {"northeast": {"lat": 51.5141178802915, "lng": -0.173494769708498}, "southwest": {"lat": 51.5114199197085, "lng": -0.176192730291502}}}, "name": "BATHURST STREET MAYSARA LTD", "place_id": "ChIJoXmVck0FdkgR0ESFZdB1Q44", "types": ["point_of_interest", "establishment"], "rating": 5, "user_ratings_total": 2}, "ChIJq8hJck0FdkgRspBX92xHMaM": {"geometry": {"location": {"lat": 51.51283609999999, "lng": -0.1749189}, "viewport": {"northeast": {"lat": 51.5141056302915, "lng": -0.173696469708498}, "southwest": {"lat": 51.5114076697085, "lng": -0.176394430291502}}}, "name": "Solitaire Developments UK Ltd", "place_id": "ChIJq8hJck0FdkgRspBX92xHMaM", "types": ["point_of_interest", "establishment"]}, "ChIJ4XYB-HoFdkgRRG4108G64fI": {"geometry": {"location": {"lat": 51.5126465, "lng": -0.1747393}, "viewport": {"northeast": {"lat": 51.5139405802915, "lng": -0.1734995697084979}, "southwest": {"lat": 51.5112426197085, "lng": -0.176197530291502}}}, "name": "Grapple-Strong", "place_id": "ChIJ4XYB-HoFdkgRRG4108G64fI", "types": ["health", "point_of_interest", "establishment"], "rating": 5, "user_ratings_total": 23}, "ChIJObu9ck0FdkgRki4H0ya4U4E": {"geometry": {"location": {"lat": 51.5128525, "lng": -0.1748724}, "viewport": {"northeast": {"lat": 51.5141583802915, "lng": -0.173465669708498}, "southwest": {"lat": 51.5114604197085, "lng": -0.176163630291502}}}, "name": "E-Vision Concept Ltd", "place_id": "ChIJObu9ck0FdkgRki4H0ya4U4E", "types": ["point_of_interest", "establishment"], "rating": 5, "user_ratings_total": 1}, "ChIJwUlBQdYEdkgRq-3q2juCYeo": {"geometry": {"location": {"lat": 51.512853, "lng": -0.174872}, "viewport": {"northeast": {"lat": 51.5141587802915, "lng": -0.173465169708498}, "southwest": {"lat": 51.5114608197085, "lng": -0.176163130291502}}}, "name": "Dellasposa Gallery", "place_id": "ChIJwUlBQdYEdkgRq-3q2juCYeo", "types": ["art_gallery", "finance", "point_of_interest", "establishment"], "rating": 5, "user_ratings_total": 8}, "ChIJK8c5NOcFdkgRe4u9qwV8oBo": {"geometry": {"location": {"lat": 51.5127186, "lng": -0.1746133}, "viewport": {"northeast": {"lat": 51.5141036302915, "lng": -0.173312619708498}, "southwest": {"lat": 51.5114056697085, "lng": -0.176010580291502}}}, "name": "IBU", "place_id": "ChIJK8c5NOcFdkgRe4u9qwV8oBo", "types": ["restaurant", "food", "point_of_interest", "establishment"], "rating": 4.1, "user_ratings_total": 33}, "ChIJrXWgEk0FdkgR8EbtiklZk6k": {"geometry": {"location": {"lat": 51.5129074, "lng": -0.174703}, "viewport": {"northeast": {"lat": 51.5142229802915, "lng": -0.173309319708498}, "southwest": {"lat": 51.5115250197085, "lng": -0.1760072802915021}}}, "name": "Archery Tavern", "place_id": "ChIJrXWgEk0FdkgR8EbtiklZk6k", "types": ["bar", "point_of_interest", "establishment"]}, "ChIJIXb1Ek0FdkgRECV2lWny2gI": {"geometry": {"location": {"lat": 51.5129993, "lng": -0.1746089}, "viewport": {"northeast": {"lat": 51.5143061802915, "lng": -0.173194769708498}, "southwest": {"lat": 51.5116082197085, "lng": -0.175892730291502}}}, "name": "Rob and Nick Carter", "place_id": "ChIJIXb1Ek0FdkgRECV2lWny2gI", "types": ["point_of_interest", "establishment"], "rating": 5, "user_ratings_total": 4}, "ChIJ8RWvqNAFdkgR_yP_PZczF6E": {"geometry": {"location": {"lat": 51.51236859999999, "lng": -0.1751189}, "viewport": {"northeast": {"lat": 51.5137486302915, "lng": -0.1737369697084979}, "southwest": {"lat": 51.5110506697085, "lng": -0.176434930291502}}}, "name": "Bars at the Royal Lancaster Hotel", "place_id": "ChIJ8RWvqNAFdkgR_yP_PZczF6E", "types": ["restaurant", "food", "point_of_interest", "establishment"]}, "ChIJoQijc00FdkgRzruoW0fPHow": {"geometry": {"location": {"lat": 51.5123454, "lng": -0.1749623}, "viewport": {"northeast": {"lat": 51.5137338802915, "lng": -0.173627869708498}, "southwest": {"lat": 51.5110359197085, "lng": -0.176325830291502}}}, "name": "Nine Kings", "place_id": "ChIJoQijc00FdkgRzruoW0fPHow", "types": ["point_of_interest", "establishment"]}, "ChIJs39Ack0FdkgR8QmCA9r-ZKA": {"geometry": {"location": {"lat": 51.51239329999999, "lng": -0.1744772}, "viewport": {"northeast": {"lat": 51.5136979302915, "lng": -0.173204869708498}, "southwest": {"lat": 51.5109999697085, "lng": -0.175902830291502}}}, "name": "88 Technology Limited", "place_id": "ChIJs39Ack0FdkgR8QmCA9r-ZKA", "types": ["point_of_interest", "establishment"]}, "ChIJxfHobk0FdkgRY2BdSu6HjNo": {"geometry": {"location": {"lat": 51.5131397, "lng": -0.175288}, "viewport": {"northeast": {"lat": 51.5145535802915, "lng": -0.174024669708498}, "southwest": {"lat": 51.51185561970851, "lng": -0.176722630291502}}}, "name": "One IPTV", "place_id": "ChIJxfHobk0FdkgRY2BdSu6HjNo", "types": ["point_of_interest", "establishment"]}, "ChIJMwHkbk0FdkgRrbDSWzisrvg": {"geometry": {"location": {"lat": 51.5131305, "lng": -0.1753177}, "viewport": {"northeast": {"lat": 51.51454858029149, "lng": -0.174039869708498}, "southwest": {"lat": 51.51185061970849, "lng": -0.176737830291502}}}, "name": "Kronotrade P V T Ltd", "place_id": "ChIJMwHkbk0FdkgRrbDSWzisrvg", "types": ["point_of_interest", "establishment"]}, "ChIJ67AOE-8FdkgR-ZBJbNfodl4": {"geometry": {"location": {"lat": 51.512781, "lng": -0.1748535}, "viewport": {"northeast": {"lat": 51.51412998029149, "lng": -0.173504519708498}, "southwest": {"lat": 51.51143201970849, "lng": -0.176202480291502}}}, "name": "\u0628\u0642\u0627\u0644\u0629 \u0627\u0644\u0642\u0631\u064a\u0629", "place_id": "ChIJ67AOE-8FdkgR-ZBJbNfodl4", "types": ["grocery_or_supermarket", "food", "point_of_interest", "store", "establishment"]}, "ChIJaVFDmk0FdkgRjRLMULg2fyI": {"geometry": {"location": {"lat": 51.51173160007351, "lng": -0.175074500052824}, "viewport": {"northeast": {"lat": 51.5130805802915, "lng": -0.173725519708498}, "southwest": {"lat": 51.5103826197085, "lng": -0.176423480291502}}}, "name": "48-47 Bayswater Rd", "place_id": "ChIJaVFDmk0FdkgRjRLMULg2fyI", "types": ["route"]}, "ChIJaW2seFIFdkgRpkPaSwoDU5A": {"geometry": {"location": {"lat": 51.51184319999999, "lng": -0.1757425}, "viewport": {"northeast": {"lat": 51.51309028029149, "lng": -0.174405519708498}, "southwest": {"lat": 51.5103923197085, "lng": -0.177103480291502}}}, "name": "Island Grill", "place_id": "ChIJaW2seFIFdkgRpkPaSwoDU5A", "types": ["restaurant", "bar", "food", "point_of_interest", "establishment"], "rating": 4.3, "user_ratings_total": 279}, "ChIJgZ_amk0FdkgRTyJanN2L1wM": {"geometry": {"location": {"lat": 51.5118336, "lng": -0.1754409}, "viewport": {"northeast": {"lat": 51.5131056302915, "lng": -0.174055719708498}, "southwest": {"lat": 51.5104076697085, "lng": -0.176753680291502}}}, "name": "Lancaster Gate", "place_id": "ChIJgZ_amk0FdkgRTyJanN2L1wM", "types": ["subway_station", "transit_station", "point_of_interest", "establishment"], "rating": 4, "user_ratings_total": 77}, "ChIJB0qVok0FdkgR2Vutrcdo69c": {"geometry": {"location": {"lat": 51.51159999999999, "lng": -0.175201}, "viewport": {"northeast": {"lat": 51.51300288029149, "lng": -0.1738751197084979}, "southwest": {"lat": 51.5103049197085, "lng": -0.176573080291502}}}, "name": "Lancaster Gate Station (Stop LC)", "place_id": "ChIJB0qVok0FdkgR2Vutrcdo69c", "types": ["bus_station", "transit_station", "point_of_interest", "establishment"], "rating": 3.5, "user_ratings_total": 2}, "ChIJB0qVok0FdkgRSv_DJiQiJnk": {"geometry": {"location": {"lat": 51.51180979999999, "lng": -0.1751776}, "viewport": {"northeast": {"lat": 51.5131116302915, "lng": -0.173811219708498}, "southwest": {"lat": 51.51041366970851, "lng": -0.1765091802915021}}}, "name": "Lancaster Gate Station (Stop LK)", "place_id": "ChIJB0qVok0FdkgRSv_DJiQiJnk", "types": ["bus_station", "transit_station", "point_of_interest", "establishment"], "rating": 3.9, "user_ratings_total": 9}, "ChIJmxBnm00FdkgRlZ6XyGo4uJQ": {"geometry": {"location": {"lat": 51.51189280000001, "lng": -0.1754173}, "viewport": {"northeast": {"lat": 51.5132409302915, "lng": -0.174056269708498}, "southwest": {"lat": 51.5105429697085, "lng": -0.1767542302915021}}}, "name": "Lancaster Gate Station", "place_id": "ChIJmxBnm00FdkgRlZ6XyGo4uJQ", "types": ["transit_station", "point_of_interest", "establishment"]}, "ChIJexNr_sUFdkgR-VgHgTz_II0": {"geometry": {"location": {"lat": 51.5115861, "lng": -0.1743468}, "viewport": {"northeast": {"lat": 51.51293508029151, "lng": -0.172997819708498}, "southwest": {"lat": 51.51023711970851, "lng": -0.1756957802915021}}}, "name": "Buckhill Lodge", "place_id": "ChIJexNr_sUFdkgR-VgHgTz_II0", "types": ["point_of_interest", "establishment"]}, "ChIJTfbuo00FdkgR2vF_jLc8Ohg": {"geometry": {"location": {"lat": 51.511933, "lng": -0.174411}, "viewport": {"northeast": {"lat": 51.5132915802915, "lng": -0.173076269708498}, "southwest": {"lat": 51.5105936197085, "lng": -0.175774230291502}}}, "name": "Santander Cycles", "place_id": "ChIJTfbuo00FdkgR2vF_jLc8Ohg", "types": ["point_of_interest", "establishment"], "rating": 3.6, "user_ratings_total": 5}, "ChIJCe4Ljk0FdkgRLu4K953Kqk4": {"geometry": {"location": {"lat": 51.5112791, "lng": -0.1753223}, "viewport": {"northeast": {"lat": 51.51262808029151, "lng": -0.173973319708498}, "southwest": {"lat": 51.50993011970851, "lng": -0.176671280291502}}}, "name": "The Italian Gardens Cafe", "place_id": "ChIJCe4Ljk0FdkgRLu4K953Kqk4", "types": ["cafe", "food", "point_of_interest", "store", "establishment"], "rating": 4.1, "user_ratings_total": 361}, "ChIJ198cBWsFdkgRAIbInGMUysk": {"geometry": {"location": {"lat": 51.5121141, "lng": -0.1751992}, "viewport": {"northeast": {"lat": 51.5134386302915, "lng": -0.173996119708498}, "southwest": {"lat": 51.5107406697085, "lng": -0.176694080291502}}}, "name": "AK Films", "place_id": "ChIJ198cBWsFdkgRAIbInGMUysk", "types": ["point_of_interest", "establishment"], "rating": 5, "user_ratings_total": 1}, "ChIJFaYfl00FdkgRKgTCqIv7y50": {"geometry": {"location": {"lat": 51.5114691, "lng": -0.1750093}, "viewport": {"northeast": {"lat": 51.51278621223965, "lng": -0.1736978103204024}, "southwest": {"lat": 51.51008825165665, "lng": -0.1763957709034064}}}, "name": "Parking lot", "place_id": "ChIJFaYfl00FdkgRKgTCqIv7y50", "types": ["parking", "premise", "point_of_interest", "establishment"]}, "ChIJdfk1g00FdkgRTT23T8rkhSo": {"geometry": {"location": {"lat": 51.5119611, "lng": -0.1755642}, "viewport": {"northeast": {"lat": 51.51335215729056, "lng": -0.17419032876964}, "southwest": {"lat": 51.51065419670756, "lng": -0.1768882893526441}}}, "name": "Parking lot", "place_id": "ChIJdfk1g00FdkgRTT23T8rkhSo", "types": ["parking", "premise", "point_of_interest", "establishment"]}, "ChIJ66HLy0kFdkgRlliylQJ5MVc": {"geometry": {"location": {"lat": 51.51072710000001, "lng": -0.1755901}, "viewport": {"northeast": {"lat": 51.51207608029151, "lng": -0.174241119708498}, "southwest": {"lat": 51.50937811970851, "lng": -0.176939080291502}}}, "name": "Italian Gardens", "place_id": "ChIJ66HLy0kFdkgRlliylQJ5MVc", "types": ["tourist_attraction", "park", "point_of_interest", "establishment"], "rating": 4.7, "user_ratings_total": 1636}, "ChIJr4cEmlIFdkgR2b21VUDMNW4": {"geometry": {"location": {"lat": 51.51347, "lng": -0.176593}, "viewport": {"northeast": {"lat": 51.5148633302915, "lng": -0.175271819708498}, "southwest": {"lat": 51.51216536970851, "lng": -0.177969780291502}}}, "name": "Apple Apartments", "place_id": "ChIJr4cEmlIFdkgR2b21VUDMNW4", "types": ["lodging", "point_of_interest", "establishment"], "rating": 4, "user_ratings_total": 18}, "ChIJS8cxlVIFdkgRsZoaTm__Ft0": {"geometry": {"location": {"lat": 51.51341439999999, "lng": -0.1766194}, "viewport": {"northeast": {"lat": 51.5147026802915, "lng": -0.175185269708498}, "southwest": {"lat": 51.5120047197085, "lng": -0.177883230291502}}}, "name": "CityPads Hyde Park", "place_id": "ChIJS8cxlVIFdkgRsZoaTm__Ft0", "types": ["real_estate_agency", "lodging", "point_of_interest", "establishment"], "rating": 3.6, "user_ratings_total": 10}, "ChIJVWh8WE0FdkgR3i4Ixh_lAjc": {"geometry": {"location": {"lat": 51.5140482, "lng": -0.1764468}, "viewport": {"northeast": {"lat": 51.5153604802915, "lng": -0.175162519708498}, "southwest": {"lat": 51.5126625197085, "lng": -0.177860480291502}}}, "name": "Roseate House London", "place_id": "ChIJVWh8WE0FdkgR3i4Ixh_lAjc", "types": ["lodging", "bar", "restaurant", "food", "point_of_interest", "clothing_store", "store", "establishment"], "rating": 4.3, "user_ratings_total": 260}, "ChIJX50rn1IFdkgRd6W7_iVVTXc": {"geometry": {"location": {"lat": 51.51341439999999, "lng": -0.1766194}, "viewport": {"northeast": {"lat": 51.5147026802915, "lng": -0.175185269708498}, "southwest": {"lat": 51.5120047197085, "lng": -0.177883230291502}}}, "name": "CASA Westbourne", "place_id": "ChIJX50rn1IFdkgRd6W7_iVVTXc", "types": ["lodging", "point_of_interest", "establishment"]}, "ChIJ640Br1IFdkgR_BAUOM5_4lg": {"geometry": {"location": {"lat": 51.5141743, "lng": -0.1766117}, "viewport": {"northeast": {"lat": 51.51548353029149, "lng": -0.175332819708498}, "southwest": {"lat": 51.5127855697085, "lng": -0.178030780291502}}}, "name": "Hyde Park Music", "place_id": "ChIJ640Br1IFdkgR_BAUOM5_4lg", "types": ["point_of_interest", "establishment"], "rating": 5, "user_ratings_total": 3}, "ChIJL4mbWE0FdkgR80w4jXtZh7I": {"geometry": {"location": {"lat": 51.5139406, "lng": -0.1762686}, "viewport": {"northeast": {"lat": 51.5152519802915, "lng": -0.174992819708498}, "southwest": {"lat": 51.5125540197085, "lng": -0.177690780291502}}}, "name": "The Hyde Restaurant, Bar & Hyde Garden", "place_id": "ChIJL4mbWE0FdkgR80w4jXtZh7I", "types": ["restaurant", "bar", "food", "point_of_interest", "establishment"], "rating": 4.4, "user_ratings_total": 63}, "ChIJyWg2DgAQdkgRhWa0Uq07JiQ": {"geometry": {"location": {"lat": 51.51417899999999, "lng": -0.1767483}, "viewport": {"northeast": {"lat": 51.51550978029152, "lng": -0.175431319708498}, "southwest": {"lat": 51.51281181970852, "lng": -0.178129280291502}}}, "name": "Autostop Leather Ltd", "place_id": "ChIJyWg2DgAQdkgRhWa0Uq07JiQ", "types": ["point_of_interest", "establishment"]}, "ChIJs1JUnlIFdkgR2CynuA9LkPg": {"geometry": {"location": {"lat": 51.5133844, "lng": -0.1764353}, "viewport": {"northeast": {"lat": 51.5147028302915, "lng": -0.175063469708498}, "southwest": {"lat": 51.51200486970851, "lng": -0.177761430291502}}}, "name": "Vietnam2uk Ltd", "place_id": "ChIJs1JUnlIFdkgR2CynuA9LkPg", "types": ["point_of_interest", "establishment"]}, "ChIJD8bznVIFdkgROxK8v-dlpdk": {"geometry": {"location": {"lat": 51.51334939999999, "lng": -0.1765067}, "viewport": {"northeast": {"lat": 51.5146734802915, "lng": -0.175122819708498}, "southwest": {"lat": 51.5119755197085, "lng": -0.177820780291502}}}, "name": "St James's Church, Sussex Gardens", "place_id": "ChIJD8bznVIFdkgROxK8v-dlpdk", "types": ["tourist_attraction", "church", "place_of_worship", "point_of_interest", "establishment"], "rating": 4.7, "user_ratings_total": 157}, "ChIJlaJn4-UFdkgRwBKl2L_2Psw": {"geometry": {"location": {"lat": 51.51382099999999, "lng": -0.176496}, "viewport": {"northeast": {"lat": 51.5151916302915, "lng": -0.175105769708498}, "southwest": {"lat": 51.5124936697085, "lng": -0.177803730291502}}}, "name": "JustPark Westbourne Terrace", "place_id": "ChIJlaJn4-UFdkgRwBKl2L_2Psw", "types": ["parking", "point_of_interest", "establishment"], "rating": 3.5, "user_ratings_total": 2}, "ChIJvznieNYFdkgRcspjjUsuFGM": {"geometry": {"location": {"lat": 51.51401120000001, "lng": -0.1766283}, "viewport": {"northeast": {"lat": 51.5153809802915, "lng": -0.175242619708498}, "southwest": {"lat": 51.5126830197085, "lng": -0.177940580291502}}}, "name": "Basketble.com", "place_id": "ChIJvznieNYFdkgRcspjjUsuFGM", "types": ["point_of_interest", "establishment"]}, "ChIJs1JUnlIFdkgRZ2LPnatVgM0": {"geometry": {"location": {"lat": 51.5133844, "lng": -0.1764353}, "viewport": {"northeast": {"lat": 51.5147028302915, "lng": -0.175063469708498}, "southwest": {"lat": 51.51200486970851, "lng": -0.177761430291502}}}, "name": "Al-reyashi Ltd", "place_id": "ChIJs1JUnlIFdkgRZ2LPnatVgM0", "types": ["real_estate_agency", "point_of_interest", "establishment"]}, "ChIJHSfiRE0FdkgRGoXJBOkhTs4": {"geometry": {"location": {"lat": 51.51389169999999, "lng": -0.1758866}, "viewport": {"northeast": {"lat": 51.51516343029149, "lng": -0.174375319708498}, "southwest": {"lat": 51.51246546970849, "lng": -0.177073280291502}}}, "name": "Native Hyde Park", "place_id": "ChIJHSfiRE0FdkgRGoXJBOkhTs4", "types": ["lodging", "point_of_interest", "establishment"], "rating": 4.3, "user_ratings_total": 112}, "ChIJtQV5nlIFdkgR2kn1fV7Gj48": {"geometry": {"location": {"lat": 51.51329440000001, "lng": -0.1764233}, "viewport": {"northeast": {"lat": 51.51459397471677, "lng": -0.1750642784263196}, "southwest": {"lat": 51.51189601413378, "lng": -0.1777622390093236}}}, "name": "Parking lot", "place_id": "ChIJtQV5nlIFdkgR2kn1fV7Gj48", "types": ["parking", "premise", "point_of_interest", "establishment"]}, "ChIJUw7Ee00FdkgRH-c0eKZlBMA": {"geometry": {"location": {"lat": 51.51252957299396, "lng": -0.1757874839459127}, "viewport": {"northeast": {"lat": 51.5138788302915, "lng": -0.174440869708498}, "southwest": {"lat": 51.5111808697085, "lng": -0.177138830291502}}}, "name": "81 Lancaster Terrace", "place_id": "ChIJUw7Ee00FdkgRH-c0eKZlBMA", "types": ["route"]}, "ChIJx73UfU0FdkgRssfJpxgYvq0": {"geometry": {"location": {"lat": 51.5126174, "lng": -0.1760281}, "viewport": {"northeast": {"lat": 51.51395128029149, "lng": -0.174549119708498}, "southwest": {"lat": 51.5112533197085, "lng": -0.177247080291502}}}, "name": "Web Essence", "place_id": "ChIJx73UfU0FdkgRssfJpxgYvq0", "types": ["point_of_interest", "establishment"]}, "ChIJ3Sa45hgadkgRk_NN-rJUrrI": {"geometry": {"location": {"lat": 51.51230839999999, "lng": -0.176693}, "viewport": {"northeast": {"lat": 51.51371733029149, "lng": -0.175236369708498}, "southwest": {"lat": 51.51101936970849, "lng": -0.177934330291502}}}, "name": "Digivation - Smart Homes", "place_id": "ChIJ3Sa45hgadkgRk_NN-rJUrrI", "types": ["electronics_store", "home_goods_store", "point_of_interest", "store", "establishment"]}, "ChIJx73UfU0FdkgROwXvlUgZHO0": {"geometry": {"location": {"lat": 51.5125411, "lng": -0.1760679}, "viewport": {"northeast": {"lat": 51.5138718802915, "lng": -0.174583019708498}, "southwest": {"lat": 51.5111739197085, "lng": -0.177280980291502}}}, "name": "Privilege Entertainment Ltd", "place_id": "ChIJx73UfU0FdkgROwXvlUgZHO0", "types": ["night_club", "point_of_interest", "establishment"], "rating": 4.5, "user_ratings_total": 78}, "ChIJ6cQcY00FdkgRGhs34yaquzE": {"geometry": {"location": {"lat": 51.51302529999999, "lng": -0.1760283}, "viewport": {"northeast": {"lat": 51.51442588029149, "lng": -0.174673469708498}, "southwest": {"lat": 51.51172791970849, "lng": -0.1773714302915021}}}, "name": "Bright Horzions", "place_id": "ChIJ6cQcY00FdkgRGhs34yaquzE", "types": ["school", "point_of_interest", "establishment"]}, "ChIJn5C9m1IFdkgRXcuHGCowgbU": {"geometry": {"location": {"lat": 51.5127964, "lng": -0.1767798}, "viewport": {"northeast": {"lat": 51.5141103302915, "lng": -0.175493819708498}, "southwest": {"lat": 51.5114123697085, "lng": -0.178191780291502}}}, "name": "Bright Horizons Hyde Park Day Nursery and Preschool", "place_id": "ChIJn5C9m1IFdkgRXcuHGCowgbU", "types": ["school", "point_of_interest", "establishment"], "rating": 5, "user_ratings_total": 2}, "ChIJB9O6_qgFdkgREvetskqhXOQ": {"geometry": {"location": {"lat": 51.5125411, "lng": -0.1760679}, "viewport": {"northeast": {"lat": 51.5138718802915, "lng": -0.174583019708498}, "southwest": {"lat": 51.5111739197085, "lng": -0.177280980291502}}}, "name": "Precious Lashes - Eyelash Extensions", "place_id": "ChIJB9O6_qgFdkgREvetskqhXOQ", "types": ["beauty_salon", "hair_care", "health", "point_of_interest", "establishment"], "rating": 5, "user_ratings_total": 1}, "ChIJKyLIfk0FdkgRjCIJC7UhwHQ": {"geometry": {"location": {"lat": 51.512592, "lng": -0.175882}, "viewport": {"northeast": {"lat": 51.5139264302915, "lng": -0.174480019708498}, "southwest": {"lat": 51.5112284697085, "lng": -0.177177980291502}}}, "name": "Lancaster Gate Station (Stop LH)", "place_id": "ChIJKyLIfk0FdkgRjCIJC7UhwHQ", "types": ["bus_station", "transit_station", "point_of_interest", "establishment"], "rating": 2.7, "user_ratings_total": 3}, "ChIJ66d8fU0FdkgRwnN6We76Sug": {"geometry": {"location": {"lat": 51.5126992, "lng": -0.1762126}, "viewport": {"northeast": {"lat": 51.5141275040641, "lng": -0.1748874110280607}, "southwest": {"lat": 51.5114295434811, "lng": -0.1775853716110647}}}, "name": "Parking lot", "place_id": "ChIJ66d8fU0FdkgRwnN6We76Sug", "types": ["parking", "premise", "point_of_interest", "establishment"]}, "ChIJV_c0d1IFdkgRW9f570f0LFc": {"geometry": {"location": {"lat": 51.51150810004849, "lng": -0.1766095000346964}, "viewport": {"northeast": {"lat": 51.5128570802915, "lng": -0.175260519708498}, "southwest": {"lat": 51.5101591197085, "lng": -0.177958480291502}}}, "name": "Bayswater Road", "place_id": "ChIJV_c0d1IFdkgRW9f570f0LFc", "types": ["route"]}, "ChIJJ0jFgE0FdkgRjGgYgJOTgIU": {"geometry": {"location": {"lat": 51.51202189999999, "lng": -0.1762414}, "viewport": {"northeast": {"lat": 51.5133549302915, "lng": -0.174744019708498}, "southwest": {"lat": 51.5106569697085, "lng": -0.177441980291502}}}, "name": "London Elizabeth Hotel", "place_id": "ChIJJ0jFgE0FdkgRjGgYgJOTgIU", "types": ["lodging", "point_of_interest", "establishment"], "rating": 2.7, "user_ratings_total": 586}, "ChIJmfeeh00FdkgR69uc2G4_GbE": {"geometry": {"location": {"lat": 51.5117892, "lng": -0.1762218}, "viewport": {"northeast": {"lat": 51.51313578029151, "lng": -0.174758219708498}, "southwest": {"lat": 51.51043781970851, "lng": -0.177456180291502}}}, "name": "Fountain House", "place_id": "ChIJmfeeh00FdkgR69uc2G4_GbE", "types": ["real_estate_agency", "lodging", "travel_agency", "point_of_interest", "establishment"], "rating": 3.6, "user_ratings_total": 27}, "ChIJGYJXd1IFdkgR77azbZ60xug": {"geometry": {"location": {"lat": 51.5116269, "lng": -0.1765921}, "viewport": {"northeast": {"lat": 51.51292043029152, "lng": -0.175223269708498}, "southwest": {"lat": 51.51022246970852, "lng": -0.177921230291502}}}, "name": "Number 63", "place_id": "ChIJGYJXd1IFdkgR77azbZ60xug", "types": ["lodging", "point_of_interest", "establishment"], "rating": 4.5, "user_ratings_total": 60}, "ChIJ9yn9eVIFdkgRGM1zBYADG40": {"geometry": {"location": {"lat": 51.51168489999999, "lng": -0.1765812}, "viewport": {"northeast": {"lat": 51.5129515302915, "lng": -0.175202769708498}, "southwest": {"lat": 51.5102535697085, "lng": -0.177900730291502}}}, "name": "The Soroptimist Residential Club", "place_id": "ChIJ9yn9eVIFdkgRGM1zBYADG40", "types": ["lodging", "point_of_interest", "establishment"], "rating": 4, "user_ratings_total": 3}, "ChIJGSXEeVIFdkgREmvbCaXd94I": {"geometry": {"location": {"lat": 51.5116495, "lng": -0.1764968}, "viewport": {"northeast": {"lat": 51.5129388802915, "lng": -0.175125369708498}, "southwest": {"lat": 51.5102409197085, "lng": -0.177823330291502}}}, "name": "Independent Social Research Foundation", "place_id": "ChIJGSXEeVIFdkgREmvbCaXd94I", "types": ["point_of_interest", "establishment"], "rating": 5, "user_ratings_total": 1}, "ChIJq5E5f9UadkgRAm16HNwKXoU": {"geometry": {"location": {"lat": 51.5116927, "lng": -0.1765051000000001}, "viewport": {"northeast": {"lat": 51.51296103029149, "lng": -0.175125719708498}, "southwest": {"lat": 51.51026306970849, "lng": -0.177823680291502}}}, "name": "Chappuis Halder & Co.", "place_id": "ChIJq5E5f9UadkgRAm16HNwKXoU", "types": ["point_of_interest", "establishment"]}, "ChIJG1CjeVIFdkgRJIBD9Ao7-k8": {"geometry": {"location": {"lat": 51.5117156, "lng": -0.176508}, "viewport": {"northeast": {"lat": 51.51297288029149, "lng": -0.175124469708498}, "southwest": {"lat": 51.51027491970849, "lng": -0.177822430291502}}}, "name": "CIG London", "place_id": "ChIJG1CjeVIFdkgRJIBD9Ao7-k8", "types": ["point_of_interest", "establishment"]}, "ChIJ16CjeVIFdkgR44qcM99-A6o": {"geometry": {"location": {"lat": 51.51172409999999, "lng": -0.1765124}, "viewport": {"northeast": {"lat": 51.51297708029149, "lng": -0.175127219708498}, "southwest": {"lat": 51.51027911970849, "lng": -0.177825180291502}}}, "name": "DECTA Limited", "place_id": "ChIJ16CjeVIFdkgR44qcM99-A6o", "types": ["finance", "point_of_interest", "establishment"], "rating": 5, "user_ratings_total": 4}, "ChIJ1yfpd1IFdkgR7FSbrpW7S6s": {"geometry": {"location": {"lat": 51.5114994, "lng": -0.1762939}, "viewport": {"northeast": {"lat": 51.5128689302915, "lng": -0.174952669708498}, "southwest": {"lat": 51.5101709697085, "lng": -0.177650630291502}}}, "name": "Bayswater Road Sunday Art Exhibition", "place_id": "ChIJ1yfpd1IFdkgR7FSbrpW7S6s", "types": ["museum", "tourist_attraction", "point_of_interest", "establishment"], "rating": 4.4, "user_ratings_total": 17}, "ChIJ91yHeVIFdkgRjjya18_EJqc": {"geometry": {"location": {"lat": 51.5117339, "lng": -0.1764134}, "viewport": {"northeast": {"lat": 51.5129890802915, "lng": -0.175029069708498}, "southwest": {"lat": 51.5102911197085, "lng": -0.177727030291502}}}, "name": "Hyde Park Dental Clinic", "place_id": "ChIJ91yHeVIFdkgRjjya18_EJqc", "types": ["dentist", "health", "point_of_interest", "establishment"], "rating": 4.3, "user_ratings_total": 109}, "ChIJmaQzY1IFdkgR02BN6C6ok2k": {"geometry": {"location": {"lat": 51.51211250000001, "lng": -0.176445}, "viewport": {"northeast": {"lat": 51.51345728029151, "lng": -0.175163119708498}, "southwest": {"lat": 51.51075931970851, "lng": -0.177861080291502}}}, "name": "Europcar London Bayswater", "place_id": "ChIJmaQzY1IFdkgR02BN6C6ok2k", "types": ["car_rental", "point_of_interest", "establishment"], "rating": 3, "user_ratings_total": 89}, "ChIJJ0jFgE0FdkgR-coTs4JqME8": {"geometry": {"location": {"lat": 51.5120391, "lng": -0.1761436}, "viewport": {"northeast": {"lat": 51.5133584802915, "lng": -0.174696419708498}, "southwest": {"lat": 51.5106605197085, "lng": -0.177394380291502}}}, "name": "Rose Garden Restaurant", "place_id": "ChIJJ0jFgE0FdkgR-coTs4JqME8", "types": ["restaurant", "food", "point_of_interest", "establishment"], "rating": 3.5, "user_ratings_total": 133}, "ChIJVR6beVIFdkgR4pt3XOVHD5w": {"geometry": {"location": {"lat": 51.5117156, "lng": -0.1765081}, "viewport": {"northeast": {"lat": 51.51297288029149, "lng": -0.175124569708498}, "southwest": {"lat": 51.51027491970849, "lng": -0.177822530291502}}}, "name": "M T A", "place_id": "ChIJVR6beVIFdkgR4pt3XOVHD5w", "types": ["point_of_interest", "establishment"], "rating": 4, "user_ratings_total": 1}, "ChIJVR6beVIFdkgRKpkJvpLBUkg": {"geometry": {"location": {"lat": 51.5116495, "lng": -0.1764968}, "viewport": {"northeast": {"lat": 51.5129388802915, "lng": -0.175125369708498}, "southwest": {"lat": 51.5102409197085, "lng": -0.177823330291502}}}, "name": "Engineering Industries Association", "place_id": "ChIJVR6beVIFdkgRKpkJvpLBUkg", "types": ["point_of_interest", "establishment"]}, "ChIJV1W5eVIFdkgRWHwYMioexO8": {"geometry": {"location": {"lat": 51.5116927, "lng": -0.176505}, "viewport": {"northeast": {"lat": 51.51296103029151, "lng": -0.175125619708498}, "southwest": {"lat": 51.51026306970851, "lng": -0.177823580291502}}}, "name": "Engineering and Machinery Alliance", "place_id": "ChIJV1W5eVIFdkgRWHwYMioexO8", "types": ["point_of_interest", "establishment"]}, "ChIJHVCjeVIFdkgRduqlpMju1AA": {"geometry": {"location": {"lat": 51.5117156, "lng": -0.1765081}, "viewport": {"northeast": {"lat": 51.51297288029149, "lng": -0.175124569708498}, "southwest": {"lat": 51.51027491970849, "lng": -0.177822530291502}}}, "name": "CELIMO", "place_id": "ChIJHVCjeVIFdkgRduqlpMju1AA", "types": ["point_of_interest", "establishment"]}, "ChIJG1CjeVIFdkgRs-eEGTmW19A": {"geometry": {"location": {"lat": 51.5117156, "lng": -0.176508}, "viewport": {"northeast": {"lat": 51.51297288029149, "lng": -0.175124469708498}, "southwest": {"lat": 51.51027491970849, "lng": -0.177822430291502}}}, "name": "No.62 BAYSWATER ROAD", "place_id": "ChIJG1CjeVIFdkgRs-eEGTmW19A", "types": ["point_of_interest", "establishment"], "rating": 5, "user_ratings_total": 1}, "ChIJrY_ud1IFdkgRL5iPN37MvLI": {"geometry": {"location": {"lat": 51.511537, "lng": -0.1763167}, "viewport": {"northeast": {"lat": 51.5128677302915, "lng": -0.1749608697084979}, "southwest": {"lat": 51.5101697697085, "lng": -0.177658830291502}}}, "name": "KSHATRIYA", "place_id": "ChIJrY_ud1IFdkgRL5iPN37MvLI", "types": ["point_of_interest", "establishment"]}, "ChIJNS_JrX8FdkgRN1GzDRDHPws": {"geometry": {"location": {"lat": 51.5119063, "lng": -0.1765265}, "viewport": {"northeast": {"lat": 51.5133118302915, "lng": -0.175245769708498}, "southwest": {"lat": 51.5106138697085, "lng": -0.177943730291502}}}, "name": "CAMELOT TOURS", "place_id": "ChIJNS_JrX8FdkgRN1GzDRDHPws", "types": ["travel_agency", "point_of_interest", "establishment"]}, "ChIJtbtXC5UFdkgR7fRQub3iEio": {"geometry": {"location": {"lat": 51.5117641, "lng": -0.1761462}, "viewport": {"northeast": {"lat": 51.51311148029151, "lng": -0.174721069708498}, "southwest": {"lat": 51.51041351970851, "lng": -0.177419030291502}}}, "name": "\u0645\u0637\u0639\u0645 \u0625\u064a\u0631\u0627\u0646\u064a", "place_id": "ChIJtbtXC5UFdkgR7fRQub3iEio", "types": ["restaurant", "food", "point_of_interest", "establishment"]}, "ChIJgz4CaFIFdkgRmqOIp7ZMnuw": {"geometry": {"location": {"lat": 51.5121194, "lng": -0.176455}, "viewport": {"northeast": {"lat": 51.51346343029149, "lng": -0.175168569708498}, "southwest": {"lat": 51.5107654697085, "lng": -0.177866530291502}}}, "name": "Zipcar", "place_id": "ChIJgz4CaFIFdkgRmqOIp7ZMnuw", "types": ["car_rental", "point_of_interest", "establishment"]}, "ChIJn2GPgE0FdkgRp2b64Fl7IcE": {"geometry": {"location": {"lat": 51.5120566, "lng": -0.1762079}, "viewport": {"northeast": {"lat": 51.51339088029149, "lng": -0.174722119708498}, "southwest": {"lat": 51.5106929197085, "lng": -0.177420080291502}}}, "name": "Tea House London - Lancaster Gate", "place_id": "ChIJn2GPgE0FdkgRp2b64Fl7IcE", "types": ["point_of_interest", "establishment"]}, "ChIJnyiFu_QFdkgR08EqRiG9UFc": {"geometry": {"location": {"lat": 51.5120566, "lng": -0.1762079}, "viewport": {"northeast": {"lat": 51.51339088029149, "lng": -0.174722119708498}, "southwest": {"lat": 51.5106929197085, "lng": -0.177420080291502}}}, "name": "YourParkingSpace Elizabeth Hotel Lancaster Gate car park", "place_id": "ChIJnyiFu_QFdkgR08EqRiG9UFc", "types": ["parking", "point_of_interest", "establishment"]}, "ChIJK-ELfFIFdkgRhpfrxDXFZXA": {"geometry": {"location": {"lat": 51.5119595, "lng": -0.1765758}, "viewport": {"northeast": {"lat": 51.51328334476447, "lng": -0.1753430195906575}, "southwest": {"lat": 51.51058538418147, "lng": -0.1780409801736615}}}, "name": "Parking lot", "place_id": "ChIJK-ELfFIFdkgRhpfrxDXFZXA", "types": ["parking", "premise", "point_of_interest", "establishment"]}, "ChIJrwW76jgFdkgRVb43KpxsBtM": {"geometry": {"location": {"lat": 51.5108072, "lng": -0.1761936}, "viewport": {"northeast": {"lat": 51.51215618029149, "lng": -0.174844619708498}, "southwest": {"lat": 51.5094582197085, "lng": -0.1775425802915021}}}, "name": "Two Bears Drinking Fountain", "place_id": "ChIJrwW76jgFdkgRVb43KpxsBtM", "types": ["point_of_interest", "establishment"], "rating": 2.5, "user_ratings_total": 8}, "ChIJ_34JnM4adkgRLSKeJON7TNQ": {"geometry": {"location": {"lat": 51.5109466, "lng": -0.1760508}, "viewport": {"northeast": {"lat": 51.51229558029149, "lng": -0.174701819708498}, "southwest": {"lat": 51.50959761970849, "lng": -0.177399780291502}}}, "name": "Marine Louise", "place_id": "ChIJ_34JnM4adkgRLSKeJON7TNQ", "types": ["point_of_interest", "establishment"]}, "ChIJiQm_lkwFdkgRFoV_m0aVjHs": {"geometry": {"location": {"lat": 51.5133014, "lng": -0.1710791}, "viewport": {"northeast": {"lat": 51.5146818802915, "lng": -0.169777469708498}, "southwest": {"lat": 51.5119839197085, "lng": -0.172475430291502}}}, "name": "Lurot Brand - Hyde Park Estate Agents", "place_id": "ChIJiQm_lkwFdkgRFoV_m0aVjHs", "types": ["finance", "real_estate_agency", "point_of_interest", "establishment"], "rating": 3.7, "user_ratings_total": 3}, "ChIJL5w3fUwFdkgR9f1YGhGy1oM": {"geometry": {"location": {"lat": 51.51216350000001, "lng": -0.1710635}, "viewport": {"northeast": {"lat": 51.5135091302915, "lng": -0.169713719708498}, "southwest": {"lat": 51.5108111697085, "lng": -0.172411680291502}}}, "name": "Victoria Gate", "place_id": "ChIJL5w3fUwFdkgR9f1YGhGy1oM", "types": ["transit_station", "point_of_interest", "establishment"]}, "ChIJJRf8YUwFdkgRRbJrtz2fvJI": {"geometry": {"location": {"lat": 51.5121928, "lng": -0.1712747}, "viewport": {"northeast": {"lat": 51.5135004802915, "lng": -0.169916869708498}, "southwest": {"lat": 51.51080251970851, "lng": -0.172614830291502}}}, "name": "Victoria Gate (Stop LB)", "place_id": "ChIJJRf8YUwFdkgRRbJrtz2fvJI", "types": ["bus_station", "transit_station", "point_of_interest", "establishment"], "rating": 3, "user_ratings_total": 2}, "ChIJF8S20EwFdkgRq92gxBkLpDo": {"geometry": {"location": {"lat": 51.51427150000001, "lng": -0.172716}, "viewport": {"northeast": {"lat": 51.5156472802915, "lng": -0.171312019708498}, "southwest": {"lat": 51.5129493197085, "lng": -0.174009980291502}}}, "name": "Piccolino Hotel", "place_id": "ChIJF8S20EwFdkgRq92gxBkLpDo", "types": ["lodging", "point_of_interest", "establishment"], "rating": 3.7, "user_ratings_total": 128}, "ChIJF8S20EwFdkgR1gPRRLMeO8U": {"geometry": {"location": {"lat": 51.514278, "lng": -0.172781}, "viewport": {"northeast": {"lat": 51.51566493029149, "lng": -0.171365719708498}, "southwest": {"lat": 51.51296696970849, "lng": -0.174063680291502}}}, "name": "Barry House", "place_id": "ChIJF8S20EwFdkgR1gPRRLMeO8U", "types": ["lodging", "point_of_interest", "establishment"], "rating": 3.6, "user_ratings_total": 191}, "ChIJS3xe0EwFdkgRdc4AFclCUOg": {"geometry": {"location": {"lat": 51.51427150000001, "lng": -0.172716}, "viewport": {"northeast": {"lat": 51.5156498302915, "lng": -0.171315719708498}, "southwest": {"lat": 51.5129518697085, "lng": -0.174013680291502}}}, "name": "\u83e9\u63d0\u5225\u5885\u98ef\u5e97London House Hotel", "place_id": "ChIJS3xe0EwFdkgRdc4AFclCUOg", "types": ["lodging", "point_of_interest", "establishment"]}, "ChIJT3g2_O0FdkgR3yIkUtJkJpA": {"geometry": {"location": {"lat": 51.514278, "lng": -0.172781}, "viewport": {"northeast": {"lat": 51.51566493029149, "lng": -0.171365719708498}, "southwest": {"lat": 51.51296696970849, "lng": -0.174063680291502}}}, "name": "Bounce - Luggage Storage Paddington", "place_id": "ChIJT3g2_O0FdkgR3yIkUtJkJpA", "types": ["storage", "point_of_interest", "store", "establishment"]}, "ChIJo5u57kwFdkgRlYIFl1DF5JY": {"geometry": {"location": {"lat": 51.51321055000722, "lng": -0.1722419000198523}, "viewport": {"northeast": {"lat": 51.51455953029151, "lng": -0.170892919708498}, "southwest": {"lat": 51.51186156970851, "lng": -0.173590880291502}}}, "name": "Stanhope Terrace", "place_id": "ChIJo5u57kwFdkgRlYIFl1DF5JY", "types": ["route"]}, "ChIJG1qkul0FdkgRRSSg96s6zyo": {"geometry": {"location": {"lat": 51.5132218, "lng": -0.1724868}, "viewport": {"northeast": {"lat": 51.5145423802915, "lng": -0.171257719708498}, "southwest": {"lat": 51.5118444197085, "lng": -0.173955680291502}}}, "name": "home4holidayuk", "place_id": "ChIJG1qkul0FdkgRRSSg96s6zyo", "types": ["lodging", "point_of_interest", "establishment"]}, "ChIJix0DGRMFdkgRHkEXmKtodJM": {"geometry": {"location": {"lat": 51.5132218, "lng": -0.1724868}, "viewport": {"northeast": {"lat": 51.5145423802915, "lng": -0.171257719708498}, "southwest": {"lat": 51.5118444197085, "lng": -0.173955680291502}}}, "name": "home4holidayuk", "place_id": "ChIJix0DGRMFdkgRHkEXmKtodJM", "types": ["lodging", "point_of_interest", "establishment"]}, "ChIJtSlW6UwFdkgR4UlCCu1bYBg": {"geometry": {"location": {"lat": 51.5132561, "lng": -0.1720721}, "viewport": {"northeast": {"lat": 51.5146178802915, "lng": -0.170744069708498}, "southwest": {"lat": 51.5119199197085, "lng": -0.173442030291502}}}, "name": "ubitricity Charging Station", "place_id": "ChIJtSlW6UwFdkgR4UlCCu1bYBg", "types": ["point_of_interest", "establishment"]}, "ChIJvZ9Op_QFdkgR4dirdW1yJ6w": {"geometry": {"location": {"lat": 51.5133506, "lng": -0.1726052}, "viewport": {"northeast": {"lat": 51.5146643802915, "lng": -0.1713556697084979}, "southwest": {"lat": 51.5119664197085, "lng": -0.174053630291502}}}, "name": "Blue plaque: Winston Churchill", "place_id": "ChIJvZ9Op_QFdkgR4dirdW1yJ6w", "types": ["point_of_interest", "establishment"]}, "ChIJEYVZXkwFdkgRh-vX1mkTAnM": {"geometry": {"location": {"lat": 51.51204110412689, "lng": -0.1720036734043974}, "viewport": {"northeast": {"lat": 51.5133892802915, "lng": -0.170654519708498}, "southwest": {"lat": 51.51069131970851, "lng": -0.173352480291502}}}, "name": "29 Bayswater Rd", "place_id": "ChIJEYVZXkwFdkgRh-vX1mkTAnM", "types": ["route"]}, "ChIJRVFJi-gFdkgR_fakC0JceLM": {"geometry": {"location": {"lat": 51.51192939999999, "lng": -0.1722535}, "viewport": {"northeast": {"lat": 51.51332103029149, "lng": -0.170915669708498}, "southwest": {"lat": 51.51062306970849, "lng": -0.173613630291502}}}, "name": "Victoria Gate", "place_id": "ChIJRVFJi-gFdkgR_fakC0JceLM", "types": ["point_of_interest", "establishment"]}, "ChIJ29yzOEwFdkgRIQvKz4l5P-o": {"geometry": {"location": {"lat": 51.51084449906438, "lng": -0.1722349194513355}, "viewport": {"northeast": {"lat": 51.5122135302915, "lng": -0.170852119708498}, "southwest": {"lat": 51.5095155697085, "lng": -0.173550080291502}}}, "name": "West Carriage Drive", "place_id": "ChIJ29yzOEwFdkgRIQvKz4l5P-o", "types": ["route"]}, "ChIJm-q5xc0FdkgRGsu1zMNrB6E": {"geometry": {"location": {"lat": 51.5141717, "lng": -0.1738477}, "viewport": {"northeast": {"lat": 51.5155588302915, "lng": -0.172554419708498}, "southwest": {"lat": 51.5128608697085, "lng": -0.175252380291502}}}, "name": "Cleaning Services Hyde Park Estate", "place_id": "ChIJm-q5xc0FdkgRGsu1zMNrB6E", "types": ["point_of_interest", "establishment"]}, "ChIJzQleGk0FdkgRpj2aeLm0LY8": {"geometry": {"location": {"lat": 51.51309250003487, "lng": -0.1739582498542971}, "viewport": {"northeast": {"lat": 51.5144414802915, "lng": -0.172609269708498}, "southwest": {"lat": 51.5117435197085, "lng": -0.175307230291502}}}, "name": "69-63 Sussex Square", "place_id": "ChIJzQleGk0FdkgRpj2aeLm0LY8", "types": ["route"]}, "ChIJKx8wEU0FdkgRg6aPRQ8j9XM": {"geometry": {"location": {"lat": 51.5131994, "lng": -0.1742858}, "viewport": {"northeast": {"lat": 51.5145382802915, "lng": -0.172818319708498}, "southwest": {"lat": 51.5118403197085, "lng": -0.175516280291502}}}, "name": "Reichwald Mediation", "place_id": "ChIJKx8wEU0FdkgRg6aPRQ8j9XM", "types": ["point_of_interest", "establishment"]}, "ChIJqYfhF00FdkgRteemOLYFETY": {"geometry": {"location": {"lat": 51.5135564, "lng": -0.1741263}, "viewport": {"northeast": {"lat": 51.5149292802915, "lng": -0.172812319708498}, "southwest": {"lat": 51.5122313197085, "lng": -0.175510280291502}}}, "name": "Wellington Build and Maintenance", "place_id": "ChIJqYfhF00FdkgRteemOLYFETY", "types": ["point_of_interest", "establishment"]}, "ChIJqYfhF00FdkgR87q60E41_H0": {"geometry": {"location": {"lat": 51.5135564, "lng": -0.1741263}, "viewport": {"northeast": {"lat": 51.5149292802915, "lng": -0.172812319708498}, "southwest": {"lat": 51.5122313197085, "lng": -0.175510280291502}}}, "name": "Fine Wine PCC", "place_id": "ChIJqYfhF00FdkgR87q60E41_H0", "types": ["point_of_interest", "establishment"]}, "ChIJxSRor00FdkgRin7j-BDoCWQ": {"geometry": {"location": {"lat": 51.51185370002403, "lng": -0.1739955999811817}, "viewport": {"northeast": {"lat": 51.51320268029151, "lng": -0.172646619708498}, "southwest": {"lat": 51.51050471970851, "lng": -0.175344580291502}}}, "name": "Bayswater Road", "place_id": "ChIJxSRor00FdkgRin7j-BDoCWQ", "types": ["route"]}, "ChIJIaIRUk0FdkgREXgyDT-RhKc": {"geometry": {"location": {"lat": 51.5143225, "lng": -0.1754181}, "viewport": {"northeast": {"lat": 51.5157201802915, "lng": -0.1739792697084979}, "southwest": {"lat": 51.5130222197085, "lng": -0.176677230291502}}}, "name": "Car Hire London", "place_id": "ChIJIaIRUk0FdkgREXgyDT-RhKc", "types": ["car_rental", "point_of_interest", "establishment"], "rating": 5, "user_ratings_total": 2}, "ChIJHRo1tbIadkgRx702aeDJSxI": {"geometry": {"location": {"lat": 51.514346, "lng": -0.1753026}, "viewport": {"northeast": {"lat": 51.5157141302915, "lng": -0.173944369708498}, "southwest": {"lat": 51.5130161697085, "lng": -0.176642330291502}}}, "name": "GED Advisory", "place_id": "ChIJHRo1tbIadkgRx702aeDJSxI", "types": ["point_of_interest", "establishment"]}, "ChIJ5TSJUE0FdkgRBgIToGD-vM4": {"geometry": {"location": {"lat": 51.51427510000001, "lng": -0.1757392}, "viewport": {"northeast": {"lat": 51.5155924802915, "lng": -0.174349569708498}, "southwest": {"lat": 51.5128945197085, "lng": -0.177047530291502}}}, "name": "iDisrupted", "place_id": "ChIJ5TSJUE0FdkgRBgIToGD-vM4", "types": ["point_of_interest", "establishment"]}, "ChIJMwlKEU8FdkgRTh_yzz2BOJk": {"geometry": {"location": {"lat": 51.5143225, "lng": -0.1754181}, "viewport": {"northeast": {"lat": 51.5157215802915, "lng": -0.173981319708498}, "southwest": {"lat": 51.5130236197085, "lng": -0.176679280291502}}}, "name": "Harrison\u2019s coffee Paddington", "place_id": "ChIJMwlKEU8FdkgRTh_yzz2BOJk", "types": ["cafe", "food", "point_of_interest", "establishment"], "rating": 4.9, "user_ratings_total": 76}, "ChIJZZ5n2W0FdkgRprFjExSuO5E": {"geometry": {"location": {"lat": 51.5143225, "lng": -0.1754181}, "viewport": {"northeast": {"lat": 51.5157215802915, "lng": -0.173981319708498}, "southwest": {"lat": 51.5130236197085, "lng": -0.176679280291502}}}, "name": "Harrison\u2019s Coffee Paddington", "place_id": "ChIJZZ5n2W0FdkgRprFjExSuO5E", "types": ["cafe", "food", "point_of_interest", "establishment"], "rating": 5, "user_ratings_total": 1}, "ChIJgeoNZ00FdkgRuiVP03Vb8u0": {"geometry": {"location": {"lat": 51.5133981, "lng": -0.1757112}, "viewport": {"northeast": {"lat": 51.5146726302915, "lng": -0.174466769708498}, "southwest": {"lat": 51.51197466970851, "lng": -0.177164730291502}}}, "name": "Sussex Gardens Open Space", "place_id": "ChIJgeoNZ00FdkgRuiVP03Vb8u0", "types": ["park", "point_of_interest", "establishment"], "rating": 4, "user_ratings_total": 47}, "ChIJt42fZE0FdkgRZezaPXkzUjg": {"geometry": {"location": {"lat": 51.51298920000001, "lng": -0.1758857}, "viewport": {"northeast": {"lat": 51.5143449802915, "lng": -0.174432969708498}, "southwest": {"lat": 51.51164701970851, "lng": -0.177130930291502}}}, "name": "Saba Properties", "place_id": "ChIJt42fZE0FdkgRZezaPXkzUjg", "types": ["point_of_interest", "establishment"]}, "ChIJ-ZVQaU0FdkgRPjadxoLKBuY": {"geometry": {"location": {"lat": 51.5132243, "lng": -0.1752387}, "viewport": {"northeast": {"lat": 51.5146077802915, "lng": -0.173989369708498}, "southwest": {"lat": 51.5119098197085, "lng": -0.176687330291502}}}, "name": "Shaping Bodies Changing Lives London", "place_id": "ChIJ-ZVQaU0FdkgRPjadxoLKBuY", "types": ["health", "point_of_interest", "establishment"]}, "ChIJlbICgk0FdkgRUV8arz3Bn8U": {"geometry": {"location": {"lat": 51.51222960000126, "lng": -0.1758761500206304}, "viewport": {"northeast": {"lat": 51.5135785802915, "lng": -0.174527169708498}, "southwest": {"lat": 51.5108806197085, "lng": -0.177225130291502}}}, "name": "Lancaster Terrace", "place_id": "ChIJlbICgk0FdkgRUV8arz3Bn8U", "types": ["route"]}, "ChIJ9Q8RgU0FdkgRT4KUB8DOF_Y": {"geometry": {"location": {"lat": 51.512087, "lng": -0.1760483}, "viewport": {"northeast": {"lat": 51.5134424802915, "lng": -0.1746328197084979}, "southwest": {"lat": 51.5107445197085, "lng": -0.177330780291502}}}, "name": "Lancaster Gate Station (Stop LA)", "place_id": "ChIJ9Q8RgU0FdkgRT4KUB8DOF_Y", "types": ["bus_station", "transit_station", "point_of_interest", "establishment"], "rating": 4.3, "user_ratings_total": 3}, "ChIJYdVzgE0FdkgRxY2S_ODD-Mw": {"geometry": {"location": {"lat": 51.5121449, "lng": -0.176221}, "viewport": {"northeast": {"lat": 51.51353408029149, "lng": -0.174843819708498}, "southwest": {"lat": 51.51083611970849, "lng": -0.177541780291502}}}, "name": "ubitricity Charging Station", "place_id": "ChIJYdVzgE0FdkgRxY2S_ODD-Mw", "types": ["point_of_interest", "establishment"]}, "ChIJ46uFhU0FdkgR2PxYV4EQK9w": {"geometry": {"location": {"lat": 51.51161155002287, "lng": -0.1759201500198847}, "viewport": {"northeast": {"lat": 51.5129605302915, "lng": -0.174571169708498}, "southwest": {"lat": 51.5102625697085, "lng": -0.177269130291502}}}, "name": "Bayswater Road", "place_id": "ChIJ46uFhU0FdkgR2PxYV4EQK9w", "types": ["route"]}, "ChIJP1b9kU0FdkgRgYXPzoVmKAg": {"geometry": {"location": {"lat": 51.5113685, "lng": -0.1757092}, "viewport": {"northeast": {"lat": 51.5128328302915, "lng": -0.174502369708498}, "southwest": {"lat": 51.5101348697085, "lng": -0.177200330291502}}}, "name": "Marlborough Gate Toilets", "place_id": "ChIJP1b9kU0FdkgRgYXPzoVmKAg", "types": ["point_of_interest", "establishment"], "rating": 3.6, "user_ratings_total": 24}, "ChIJl4R7eIoFdkgRI85VUVT8O1M": {"geometry": {"location": {"lat": 51.5109574, "lng": -0.1755759}, "viewport": {"northeast": {"lat": 51.51230638029151, "lng": -0.174226919708498}, "southwest": {"lat": 51.50960841970851, "lng": -0.176924880291502}}}, "name": "BG News", "place_id": "ChIJl4R7eIoFdkgRI85VUVT8O1M", "types": ["point_of_interest", "establishment"]}}}