{"E00023865": {"ChIJAf6wAhEQdkgR_YeXnRjuCr4": {"geometry": {"location": {"lat": 51.52806699444515, "lng": -0.2035596140539105}, "viewport": {"northeast": {"lat": 51.52959860000004, "lng": -0.202210719708498}, "southwest": {"lat": 51.52653539999995, "lng": -0.204908680291502}}}, "name": "54-104 Portnall Rd", "place_id": "ChIJAf6wAhEQdkgR_YeXnRjuCr4", "types": ["route"]}, "ChIJvXg9khAQdkgRc0mZF-Wt27E": {"geometry": {"location": {"lat": 51.5273742, "lng": -0.2044758}, "viewport": {"northeast": {"lat": 51.52872763029151, "lng": -0.203185819708498}, "southwest": {"lat": 51.52602966970851, "lng": -0.205883780291502}}}, "name": "Studio 29 Architects", "place_id": "ChIJvXg9khAQdkgRc0mZF-Wt27E", "types": ["general_contractor", "point_of_interest", "establishment"], "rating": 5, "user_ratings_total": 2}, "ChIJiZLq5BAQdkgR0DGsa1rVdQM": {"geometry": {"location": {"lat": 51.52755550000001, "lng": -0.2036947}, "viewport": {"northeast": {"lat": 51.52890448029149, "lng": -0.2023458697084979}, "southwest": {"lat": 51.5262065197085, "lng": -0.205043830291502}}}, "name": "Silvertree Residents Association Ltd", "place_id": "ChIJiZLq5BAQdkgR0DGsa1rVdQM", "types": ["point_of_interest", "establishment"]}, "ChIJO4ZT-xAQdkgRzprk_cHhFao": {"geometry": {"location": {"lat": 51.527624, "lng": -0.2035839}, "viewport": {"northeast": {"lat": 51.52896958029149, "lng": -0.202259669708498}, "southwest": {"lat": 51.5262716197085, "lng": -0.204957630291502}}}, "name": "ubitricity Charging Station", "place_id": "ChIJO4ZT-xAQdkgRzprk_cHhFao", "types": ["point_of_interest", "establishment"]}, "ChIJz-h8qUgRdkgRJ1L4jpyMrhQ": {"geometry": {"location": {"lat": 51.5274946, "lng": -0.203519}, "viewport": {"northeast": {"lat": 51.52884788029151, "lng": -0.202236869708498}, "southwest": {"lat": 51.52614991970851, "lng": -0.204934830291502}}}, "name": "Presto Learn", "place_id": "ChIJz-h8qUgRdkgRJ1L4jpyMrhQ", "types": ["point_of_interest", "establishment"]}, "ChIJWT0m-xAQdkgR8zyRM22mYOc": {"geometry": {"location": {"lat": 51.5274946, "lng": -0.203519}, "viewport": {"northeast": {"lat": 51.52884783029149, "lng": -0.202236869708498}, "southwest": {"lat": 51.5261498697085, "lng": -0.204934830291502}}}, "name": "Movult Motion Graphics", "place_id": "ChIJWT0m-xAQdkgR8zyRM22mYOc", "types": ["point_of_interest", "establishment"], "rating": 5, "user_ratings_total": 3}, "ChIJYw9h3hAQdkgRvqK9QzhAIBY": {"geometry": {"location": {"lat": 51.52771279999999, "lng": -0.2045037}, "viewport": {"northeast": {"lat": 51.5290618802915, "lng": -0.203159969708498}, "southwest": {"lat": 51.5263639197085, "lng": -0.205857930291502}}}, "name": "ubitricity Charging Station", "place_id": "ChIJYw9h3hAQdkgRvqK9QzhAIBY", "types": ["point_of_interest", "establishment"]}, "ChIJ82c3IBEQdkgRVzg9_29BFCk": {"geometry": {"location": {"lat": 51.5280813, "lng": -0.2045374}, "viewport": {"northeast": {"lat": 51.52942763029149, "lng": -0.203150519708498}, "southwest": {"lat": 51.52672966970849, "lng": -0.205848480291502}}}, "name": "ubitricity Charging Station", "place_id": "ChIJ82c3IBEQdkgRVzg9_29BFCk", "types": ["point_of_interest", "establishment"]}, "ChIJn6qS8tgRdkgRoY__OGzcq8s": {"geometry": {"location": {"lat": 51.5271716, "lng": -0.2038794}, "viewport": {"northeast": {"lat": 51.52854883029149, "lng": -0.202525719708498}, "southwest": {"lat": 51.5258508697085, "lng": -0.205223680291502}}}, "name": "Zipcar", "place_id": "ChIJn6qS8tgRdkgRoY__OGzcq8s", "types": ["point_of_interest", "establishment"]}, "ChIJsVLikxAQdkgR8AU5Il17EVY": {"geometry": {"location": {"lat": 51.52634598586749, "lng": -0.2038641266031093}, "viewport": {"northeast": {"lat": 51.52809280000005, "lng": -0.202525269708498}, "southwest": {"lat": 51.52460279999995, "lng": -0.205223230291502}}}, "name": "69-1 Portnall Rd", "place_id": "ChIJsVLikxAQdkgR8AU5Il17EVY", "types": ["route"]}, "ChIJC_tjwBAQdkgRacUm6eyn0ns": {"geometry": {"location": {"lat": 51.5264894, "lng": -0.2044453}, "viewport": {"northeast": {"lat": 51.5278477302915, "lng": -0.203244169708498}, "southwest": {"lat": 51.5251497697085, "lng": -0.205942130291502}}}, "name": "Rainbow Nursery (Rainbow Family Centre)", "place_id": "ChIJC_tjwBAQdkgRacUm6eyn0ns", "types": ["school", "point_of_interest", "establishment"], "rating": 3.4, "user_ratings_total": 5}, "ChIJ1eUTNiEFdkgRUQJ9vvWUAZE": {"geometry": {"location": {"lat": 51.52713079999999, "lng": -0.2042159}, "viewport": {"northeast": {"lat": 51.52854043029149, "lng": -0.2028568697084979}, "southwest": {"lat": 51.5258424697085, "lng": -0.205554830291502}}}, "name": "Aventurine web design training", "place_id": "ChIJ1eUTNiEFdkgRUQJ9vvWUAZE", "types": ["point_of_interest", "establishment"]}, "ChIJu-Ou7RAQdkgR9PB74b_FdCQ": {"geometry": {"location": {"lat": 51.52685100000001, "lng": -0.203743}, "viewport": {"northeast": {"lat": 51.52819843029149, "lng": -0.202372619708498}, "southwest": {"lat": 51.5255004697085, "lng": -0.205070580291502}}}, "name": "ubitricity Charging Station", "place_id": "ChIJu-Ou7RAQdkgR9PB74b_FdCQ", "types": ["point_of_interest", "establishment"]}, "ChIJq6oevxAQdkgRJO8u5eVCb8Y": {"geometry": {"location": {"lat": 51.5265141, "lng": -0.2045797}, "viewport": {"northeast": {"lat": 51.52786813029149, "lng": -0.203310069708498}, "southwest": {"lat": 51.5251701697085, "lng": -0.206008030291502}}}, "name": "The Westminster Society", "place_id": "ChIJq6oevxAQdkgRJO8u5eVCb8Y", "types": ["point_of_interest", "establishment"]}, "ChIJe5b1hRAQdkgRCCPlz97YD1k": {"geometry": {"location": {"lat": 51.52642410000001, "lng": -0.2032095}, "viewport": {"northeast": {"lat": 51.5277642302915, "lng": -0.201727719708498}, "southwest": {"lat": 51.5250662697085, "lng": -0.204425680291502}}}, "name": "Angellula Childminding", "place_id": "ChIJe5b1hRAQdkgRCCPlz97YD1k", "types": ["point_of_interest", "establishment"]}, "ChIJobyKkRAQdkgRPBtVzVPAtyo": {"geometry": {"location": {"lat": 51.5261563, "lng": -0.2036909}, "viewport": {"northeast": {"lat": 51.52751268029149, "lng": -0.202446719708498}, "southwest": {"lat": 51.5248147197085, "lng": -0.205144680291502}}}, "name": "DWL Barbados Villas", "place_id": "ChIJobyKkRAQdkgRPBtVzVPAtyo", "types": ["real_estate_agency", "travel_agency", "point_of_interest", "establishment"]}, "ChIJqQe26RAQdkgRyCc7Z-XBwf8": {"geometry": {"location": {"lat": 51.5271303, "lng": -0.2042367}, "viewport": {"northeast": {"lat": 51.5285408302915, "lng": -0.202877519708498}, "southwest": {"lat": 51.52584286970851, "lng": -0.205575480291502}}}, "name": "A M G Tech Ltd", "place_id": "ChIJqQe26RAQdkgRyCc7Z-XBwf8", "types": ["point_of_interest", "establishment"]}, "ChIJod_H6RAQdkgRfoOaP-TaSzc": {"geometry": {"location": {"lat": 51.5271303, "lng": -0.2042367}, "viewport": {"northeast": {"lat": 51.5285408302915, "lng": -0.202877519708498}, "southwest": {"lat": 51.52584286970851, "lng": -0.205575480291502}}}, "name": "Italian Tuition", "place_id": "ChIJod_H6RAQdkgRfoOaP-TaSzc", "types": ["point_of_interest", "establishment"]}, "ChIJoXBbnxAQdkgRLxpdG_V-x1A": {"geometry": {"location": {"lat": 51.52556498128373, "lng": -0.2041951317604067}, "viewport": {"northeast": {"lat": 51.5269131302915, "lng": -0.202847419708498}, "southwest": {"lat": 51.5242151697085, "lng": -0.205545380291502}}}, "name": "413-417 Harrow Rd", "place_id": "ChIJoXBbnxAQdkgRLxpdG_V-x1A", "types": ["route"]}, "ChIJDcUaeBoQdkgRH8P75I4i0Vo": {"geometry": {"location": {"lat": 51.52530509999999, "lng": -0.2035377}, "viewport": {"northeast": {"lat": 51.5266195802915, "lng": -0.202232519708498}, "southwest": {"lat": 51.5239216197085, "lng": -0.204930480291502}}}, "name": "Generous Apartments", "place_id": "ChIJDcUaeBoQdkgRH8P75I4i0Vo", "types": ["lodging", "point_of_interest", "establishment"]}, "ChIJKysenhAQdkgRKvjRFOdeISY": {"geometry": {"location": {"lat": 51.5253394, "lng": -0.204036}, "viewport": {"northeast": {"lat": 51.5267239802915, "lng": -0.202635669708498}, "southwest": {"lat": 51.5240260197085, "lng": -0.205333630291502}}}, "name": "Pindi's Corner", "place_id": "ChIJKysenhAQdkgRKvjRFOdeISY", "types": ["home_goods_store", "general_contractor", "point_of_interest", "store", "establishment"], "rating": 5, "user_ratings_total": 14}, "ChIJvXg9khAQdkgRYTkmdrqSRRo": {"geometry": {"location": {"lat": 51.5257515, "lng": -0.2038332}, "viewport": {"northeast": {"lat": 51.5271047302915, "lng": -0.2025514697084979}, "southwest": {"lat": 51.5244067697085, "lng": -0.205249430291502}}}, "name": "SD Urban Architect", "place_id": "ChIJvXg9khAQdkgRYTkmdrqSRRo", "types": ["point_of_interest", "establishment"]}, "ChIJ86ZTnBAQdkgRbYd8RUy1xA8": {"geometry": {"location": {"lat": 51.5255204, "lng": -0.2037976}, "viewport": {"northeast": {"lat": 51.5269002302915, "lng": -0.202551769708498}, "southwest": {"lat": 51.5242022697085, "lng": -0.205249730291502}}}, "name": "Red Emu Advertising Studio", "place_id": "ChIJ86ZTnBAQdkgRbYd8RUy1xA8", "types": ["point_of_interest", "establishment"]}, "ChIJ1ytbmRAQdkgRaJOWPGY-J_U": {"geometry": {"location": {"lat": 51.5258578, "lng": -0.2040589}, "viewport": {"northeast": {"lat": 51.5272031802915, "lng": -0.2026610197084979}, "southwest": {"lat": 51.5245052197085, "lng": -0.205358980291502}}}, "name": "Freta Hair Salon", "place_id": "ChIJ1ytbmRAQdkgRaJOWPGY-J_U", "types": ["beauty_salon", "hair_care", "point_of_interest", "establishment"], "rating": 4.5, "user_ratings_total": 46}, "ChIJE8OMdhoQdkgRc8cim6bW1Gw": {"geometry": {"location": {"lat": 51.525192, "lng": -0.2037751}, "viewport": {"northeast": {"lat": 51.5265809302915, "lng": -0.202382269708498}, "southwest": {"lat": 51.5238829697085, "lng": -0.205080230291502}}}, "name": "Bangladesh Caterers Association - UK", "place_id": "ChIJE8OMdhoQdkgRc8cim6bW1Gw", "types": ["restaurant", "food", "point_of_interest", "establishment"], "rating": 3.8, "user_ratings_total": 6}, "ChIJXTisghAQdkgRZeDiTYwDYPU": {"geometry": {"location": {"lat": 51.52530509999999, "lng": -0.2035377}, "viewport": {"northeast": {"lat": 51.5266216302915, "lng": -0.202230769708498}, "southwest": {"lat": 51.5239236697085, "lng": -0.204928730291502}}}, "name": "Hayat Estates", "place_id": "ChIJXTisghAQdkgRZeDiTYwDYPU", "types": ["real_estate_agency", "point_of_interest", "establishment"]}, "ChIJzwo7dRoQdkgR7OztQzsN65A": {"geometry": {"location": {"lat": 51.5251629, "lng": -0.2042839}, "viewport": {"northeast": {"lat": 51.5265391302915, "lng": -0.202987769708498}, "southwest": {"lat": 51.5238411697085, "lng": -0.205685730291502}}}, "name": "Bradman", "place_id": "ChIJzwo7dRoQdkgR7OztQzsN65A", "types": ["car_repair", "point_of_interest", "establishment"], "rating": 4, "user_ratings_total": 2}, "ChIJE8OMdhoQdkgRBVGoN7IovvU": {"geometry": {"location": {"lat": 51.5252552, "lng": -0.2039756}, "viewport": {"northeast": {"lat": 51.52664968029149, "lng": -0.202547869708498}, "southwest": {"lat": 51.5239517197085, "lng": -0.205245830291502}}}, "name": "Crystal Fish Bar And Kebabs", "place_id": "ChIJE8OMdhoQdkgRBVGoN7IovvU", "types": ["restaurant", "meal_takeaway", "food", "point_of_interest", "establishment"], "rating": 3.1, "user_ratings_total": 70}, "ChIJXTisghAQdkgRB3sny5Y4IlM": {"geometry": {"location": {"lat": 51.5253671, "lng": -0.2036433}, "viewport": {"northeast": {"lat": 51.5266889802915, "lng": -0.202348419708498}, "southwest": {"lat": 51.5239910197085, "lng": -0.205046380291502}}}, "name": "Atlantis Dry Cleaners", "place_id": "ChIJXTisghAQdkgRB3sny5Y4IlM", "types": ["locksmith", "laundry", "point_of_interest", "establishment"], "rating": 4.9, "user_ratings_total": 30}, "ChIJobyKkRAQdkgRYrw0fjyUUFA": {"geometry": {"location": {"lat": 51.52553, "lng": -0.2038844}, "viewport": {"northeast": {"lat": 51.52690778029149, "lng": -0.202591419708498}, "southwest": {"lat": 51.5242098197085, "lng": -0.205289380291502}}}, "name": "Allnations", "place_id": "ChIJobyKkRAQdkgRYrw0fjyUUFA", "types": ["grocery_or_supermarket", "food", "point_of_interest", "store", "establishment"], "rating": 4.6, "user_ratings_total": 9}, "ChIJq20Yp9ERdkgRMZnNDWzistY": {"geometry": {"location": {"lat": 51.5255204, "lng": -0.2037977}, "viewport": {"northeast": {"lat": 51.5268217802915, "lng": -0.202529569708498}, "southwest": {"lat": 51.5241238197085, "lng": -0.205227530291502}}}, "name": "Amigos Burgers & Shakes Harrow Road", "place_id": "ChIJq20Yp9ERdkgRMZnNDWzistY", "types": ["restaurant", "food", "point_of_interest", "establishment"], "rating": 4, "user_ratings_total": 134}, "ChIJ_WKnnRAQdkgRir9eZ5UG41Y": {"geometry": {"location": {"lat": 51.525498, "lng": -0.2037695}, "viewport": {"northeast": {"lat": 51.5267974802915, "lng": -0.202492019708498}, "southwest": {"lat": 51.5240995197085, "lng": -0.205189980291502}}}, "name": "Carolina Chicken", "place_id": "ChIJ_WKnnRAQdkgRir9eZ5UG41Y", "types": ["restaurant", "food", "point_of_interest", "establishment"], "rating": 2.8, "user_ratings_total": 30}, "ChIJvYsqnxAQdkgRMR3GwL1QCJM": {"geometry": {"location": {"lat": 51.525692, "lng": -0.204133}, "viewport": {"northeast": {"lat": 51.52699888029149, "lng": -0.202850219708498}, "southwest": {"lat": 51.52430091970849, "lng": -0.205548180291502}}}, "name": "Freta Hair, Beauty & Cosmetics London", "place_id": "ChIJvYsqnxAQdkgRMR3GwL1QCJM", "types": ["beauty_salon", "point_of_interest", "establishment"], "rating": 5, "user_ratings_total": 1}, "ChIJkenjthwRdkgRhQ9kLoq4PU0": {"geometry": {"location": {"lat": 51.5256807, "lng": -0.204184}, "viewport": {"northeast": {"lat": 51.5269973302915, "lng": -0.202882469708498}, "southwest": {"lat": 51.5242993697085, "lng": -0.205580430291502}}}, "name": "freta hair and cosmetics", "place_id": "ChIJkenjthwRdkgRhQ9kLoq4PU0", "types": ["hair_care", "point_of_interest", "establishment"]}, "ChIJe1mhnRAQdkgRBiziNCx8HVA": {"geometry": {"location": {"lat": 51.5254762, "lng": -0.2037316}, "viewport": {"northeast": {"lat": 51.5267758302915, "lng": -0.2024538697084979}, "southwest": {"lat": 51.5240778697085, "lng": -0.205151830291502}}}, "name": "W9 Computer & Mobiles", "place_id": "ChIJe1mhnRAQdkgRBiziNCx8HVA", "types": ["point_of_interest", "store", "establishment"], "rating": 4.8, "user_ratings_total": 183}, "ChIJI-nHmBAQdkgRUkHnoRJBUjU": {"geometry": {"location": {"lat": 51.52571709999999, "lng": -0.204224}, "viewport": {"northeast": {"lat": 51.52702998029149, "lng": -0.202927919708498}, "southwest": {"lat": 51.5243320197085, "lng": -0.205625880291502}}}, "name": "Harrow Road Food Centre", "place_id": "ChIJI-nHmBAQdkgRUkHnoRJBUjU", "types": ["transit_station", "point_of_interest", "establishment"]}, "ChIJTdiknRAQdkgRQIEj2RsNegA": {"geometry": {"location": {"lat": 51.5254217, "lng": -0.2037118}, "viewport": {"northeast": {"lat": 51.5267315302915, "lng": -0.202413469708498}, "southwest": {"lat": 51.5240335697085, "lng": -0.205111430291502}}}, "name": "Sol's Gents Hairdressing", "place_id": "ChIJTdiknRAQdkgRQIEj2RsNegA", "types": ["hair_care", "health", "point_of_interest", "establishment"], "rating": 4.1, "user_ratings_total": 21}, "ChIJ4S7oohAQdkgRMGQ6XLXBijU": {"geometry": {"location": {"lat": 51.5257523, "lng": -0.2042007}, "viewport": {"northeast": {"lat": 51.5270591302915, "lng": -0.202936419708498}, "southwest": {"lat": 51.5243611697085, "lng": -0.205634380291502}}}, "name": "Asian Food Centre Ltd.", "place_id": "ChIJ4S7oohAQdkgRMGQ6XLXBijU", "types": ["grocery_or_supermarket", "food", "point_of_interest", "store", "establishment"], "rating": 4.2, "user_ratings_total": 24}, "ChIJ01XM1JARdkgRMCXDxIZJU-4": {"geometry": {"location": {"lat": 51.5254408, "lng": -0.2036664999999999}, "viewport": {"northeast": {"lat": 51.5267401802915, "lng": -0.2023891697084979}, "southwest": {"lat": 51.5240422197085, "lng": -0.205087130291502}}}, "name": "Whyegal.ltd painter's", "place_id": "ChIJ01XM1JARdkgRMCXDxIZJU-4", "types": ["general_contractor", "point_of_interest", "establishment"]}, "ChIJ52T8dRoQdkgRYumOZKfDOMs": {"geometry": {"location": {"lat": 51.52530959999999, "lng": -0.2039843}, "viewport": {"northeast": {"lat": 51.52669303029149, "lng": -0.202583769708498}, "southwest": {"lat": 51.52399506970849, "lng": -0.205281730291502}}}, "name": "Morgans News", "place_id": "ChIJ52T8dRoQdkgRYumOZKfDOMs", "types": ["store", "point_of_interest", "establishment"]}, "ChIJCZ9UeoIRdkgR8qRfiC50RAQ": {"geometry": {"location": {"lat": 51.52575179999999, "lng": -0.2042778}, "viewport": {"northeast": {"lat": 51.52706363029149, "lng": -0.2029833197084979}, "southwest": {"lat": 51.52436566970849, "lng": -0.205681280291502}}}, "name": "Istanbul food centre", "place_id": "ChIJCZ9UeoIRdkgR8qRfiC50RAQ", "types": ["grocery_or_supermarket", "food", "point_of_interest", "store", "establishment"]}, "ChIJSbT4dRoQdkgR4YTvTug-D5c": {"geometry": {"location": {"lat": 51.525285, "lng": -0.2040499}, "viewport": {"northeast": {"lat": 51.5266802802915, "lng": -0.202613119708498}, "southwest": {"lat": 51.5239823197085, "lng": -0.205311080291502}}}, "name": "Morgans News Food & Wine", "place_id": "ChIJSbT4dRoQdkgR4YTvTug-D5c", "types": ["point_of_interest", "store", "establishment"]}, "ChIJq5JtohAQdkgR2-3qwbUF5QQ": {"geometry": {"location": {"lat": 51.525764, "lng": -0.2043460000000001}, "viewport": {"northeast": {"lat": 51.5270829302915, "lng": -0.203041019708498}, "southwest": {"lat": 51.5243849697085, "lng": -0.205738980291502}}}, "name": "Portnall Road (Stop R)", "place_id": "ChIJq5JtohAQdkgR2-3qwbUF5QQ", "types": ["transit_station", "point_of_interest", "establishment"], "rating": 5, "user_ratings_total": 1}, "ChIJXaFRmhAQdkgRRRtmA2Thcpw": {"geometry": {"location": {"lat": 51.5258644, "lng": -0.2038051999999999}, "viewport": {"northeast": {"lat": 51.5272179802915, "lng": -0.2025280197084979}, "southwest": {"lat": 51.5245200197085, "lng": -0.205225980291502}}}, "name": "Alreem Beauty Salon", "place_id": "ChIJXaFRmhAQdkgRRRtmA2Thcpw", "types": ["beauty_salon", "point_of_interest", "establishment"]}, "ChIJXTisghAQdkgRtT5HU_b1fTQ": {"geometry": {"location": {"lat": 51.52534000000001, "lng": -0.203603}, "viewport": {"northeast": {"lat": 51.5266557302915, "lng": -0.202293619708498}, "southwest": {"lat": 51.52395776970851, "lng": -0.204991580291502}}}, "name": "Top Look Food & Wine London", "place_id": "ChIJXTisghAQdkgRtT5HU_b1fTQ", "types": ["convenience_store", "food", "point_of_interest", "store", "establishment"], "rating": 5, "user_ratings_total": 2}, "ChIJc51BdhoQdkgRXPX8Bwdixxs": {"geometry": {"location": {"lat": 51.5252452, "lng": -0.2038457}, "viewport": {"northeast": {"lat": 51.52662438029149, "lng": -0.202451519708498}, "southwest": {"lat": 51.5239264197085, "lng": -0.205149480291502}}}, "name": "Four O Five", "place_id": "ChIJc51BdhoQdkgRXPX8Bwdixxs", "types": ["cafe", "food", "point_of_interest", "establishment"], "rating": 3.6, "user_ratings_total": 8}, "ChIJCUdOdRoQdkgR6rFAY1eIIv0": {"geometry": {"location": {"lat": 51.5252317, "lng": -0.2041593}, "viewport": {"northeast": {"lat": 51.5266129802915, "lng": -0.202872969708498}, "southwest": {"lat": 51.5239150197085, "lng": -0.205570930291502}}}, "name": "ABSOLUTE ENGLISH UK", "place_id": "ChIJCUdOdRoQdkgR6rFAY1eIIv0", "types": ["point_of_interest", "establishment"]}, "ChIJ6Tl22O4RdkgRcvfFkcuFDcc": {"geometry": {"location": {"lat": 51.5258297, "lng": -0.2043956}, "viewport": {"northeast": {"lat": 51.5271383802915, "lng": -0.2031056697084979}, "southwest": {"lat": 51.5244404197085, "lng": -0.205803630291502}}}, "name": "Bella Moore Studio", "place_id": "ChIJ6Tl22O4RdkgRcvfFkcuFDcc", "types": ["beauty_salon", "hair_care", "point_of_interest", "store", "establishment"], "rating": 5, "user_ratings_total": 69}, "ChIJE5f2ohAQdkgRk7eBupTu86w": {"geometry": {"location": {"lat": 51.5258512, "lng": -0.20444}, "viewport": {"northeast": {"lat": 51.5271608802915, "lng": -0.203148569708498}, "southwest": {"lat": 51.5244629197085, "lng": -0.205846530291502}}}, "name": "Al Fayad", "place_id": "ChIJE5f2ohAQdkgRk7eBupTu86w", "types": ["electronics_store", "point_of_interest", "store", "establishment"], "rating": 2, "user_ratings_total": 8}, "ChIJBfLPBnARdkgRuTHgvgcADnw": {"geometry": {"location": {"lat": 51.5258675, "lng": -0.2044253}, "viewport": {"northeast": {"lat": 51.52716778029149, "lng": -0.203138619708498}, "southwest": {"lat": 51.52446981970849, "lng": -0.205836580291502}}}, "name": "alfayad refridgration world", "place_id": "ChIJBfLPBnARdkgRuTHgvgcADnw", "types": ["home_goods_store", "point_of_interest", "store", "establishment"], "rating": 1, "user_ratings_total": 1}, "ChIJ___yohAQdkgRZ8SFjBGjxGk": {"geometry": {"location": {"lat": 51.5258675, "lng": -0.2044253}, "viewport": {"northeast": {"lat": 51.5271704802915, "lng": -0.203143719708498}, "southwest": {"lat": 51.5244725197085, "lng": -0.205841680291502}}}, "name": "www.london-appliances.com", "place_id": "ChIJ___yohAQdkgRZ8SFjBGjxGk", "types": ["home_goods_store", "point_of_interest", "store", "establishment"]}, "ChIJs-LKcIIRdkgRmbd2qYvBe5w": {"geometry": {"location": {"lat": 51.5258858, "lng": -0.2044482}, "viewport": {"northeast": {"lat": 51.52718743029151, "lng": -0.203168619708498}, "southwest": {"lat": 51.52448946970851, "lng": -0.205866580291502}}}, "name": "Concrete Fence Panels", "place_id": "ChIJs-LKcIIRdkgRmbd2qYvBe5w", "types": ["point_of_interest", "establishment"]}, "ChIJ15rI0CARdkgRMm3_VYh97uM": {"geometry": {"location": {"lat": 51.5258858, "lng": -0.2044482}, "viewport": {"northeast": {"lat": 51.52718743029151, "lng": -0.203168619708498}, "southwest": {"lat": 51.52448946970851, "lng": -0.205866580291502}}}, "name": "Lawarde", "place_id": "ChIJ15rI0CARdkgRMm3_VYh97uM", "types": ["clothing_store", "point_of_interest", "store", "establishment"]}, "ChIJwVLuohAQdkgRcrVtjyHaKtQ": {"geometry": {"location": {"lat": 51.5258858, "lng": -0.2044482}, "viewport": {"northeast": {"lat": 51.52718743029151, "lng": -0.203168619708498}, "southwest": {"lat": 51.52448946970851, "lng": -0.205866580291502}}}, "name": "Ishtar & Al-Hareth Exchange", "place_id": "ChIJwVLuohAQdkgRcrVtjyHaKtQ", "types": ["store", "point_of_interest", "establishment"], "rating": 4.5, "user_ratings_total": 4}, "ChIJdRRqeBoQdkgROj7PKliJJ7M": {"geometry": {"location": {"lat": 51.5252807, "lng": -0.2034511}, "viewport": {"northeast": {"lat": 51.5265914802915, "lng": -0.202151619708498}, "southwest": {"lat": 51.5238935197085, "lng": -0.204849580291502}}}, "name": "Hr Coffee Hub", "place_id": "ChIJdRRqeBoQdkgROj7PKliJJ7M", "types": ["cafe", "food", "point_of_interest", "establishment"]}, "ChIJ38oCdxoQdkgRgfnRVR40-3E": {"geometry": {"location": {"lat": 51.5251399, "lng": -0.2037576}, "viewport": {"northeast": {"lat": 51.5265399302915, "lng": -0.202342469708498}, "southwest": {"lat": 51.5238419697085, "lng": -0.205040430291502}}}, "name": "The Pound Superstore", "place_id": "ChIJ38oCdxoQdkgRgfnRVR40-3E", "types": ["store", "point_of_interest", "establishment"]}, "ChIJ8wpydxoQdkgRdg93jyUnC4Q": {"geometry": {"location": {"lat": 51.52514009999999, "lng": -0.2036542}, "viewport": {"northeast": {"lat": 51.52652473029148, "lng": -0.2022602197084979}, "southwest": {"lat": 51.52382676970849, "lng": -0.204958180291502}}}, "name": "X Plus Gadget & Accessories", "place_id": "ChIJ8wpydxoQdkgRdg93jyUnC4Q", "types": ["point_of_interest", "store", "establishment"], "rating": 5, "user_ratings_total": 1}, "ChIJB2MDhBAQdkgR17fi3J6dlyA": {"geometry": {"location": {"lat": 51.52570850000001, "lng": -0.2032395}, "viewport": {"northeast": {"lat": 51.5270535302915, "lng": -0.201797769708498}, "southwest": {"lat": 51.5243555697085, "lng": -0.204495730291502}}}, "name": "Hive Property Development", "place_id": "ChIJB2MDhBAQdkgR17fi3J6dlyA", "types": ["point_of_interest", "establishment"]}, "ChIJX6BRzBsRdkgRR_hPW3qUYy8": {"geometry": {"location": {"lat": 51.525099, "lng": -0.2036883}, "viewport": {"northeast": {"lat": 51.5265009302915, "lng": -0.2022707697084979}, "southwest": {"lat": 51.5238029697085, "lng": -0.204968730291502}}}, "name": "The Web Masterminds", "place_id": "ChIJX6BRzBsRdkgRR_hPW3qUYy8", "types": ["point_of_interest", "establishment"]}, "ChIJbyc7aRwRdkgRZCP8lqsdN3I": {"geometry": {"location": {"lat": 51.525099, "lng": -0.2036883}, "viewport": {"northeast": {"lat": 51.5265009302915, "lng": -0.2022707697084979}, "southwest": {"lat": 51.5238029697085, "lng": -0.204968730291502}}}, "name": "Sam Removals Maida Vale - Van Removals - Man With A Van Near Me, Man And Van London", "place_id": "ChIJbyc7aRwRdkgRZCP8lqsdN3I", "types": ["moving_company", "storage", "point_of_interest", "establishment"]}, "ChIJP3o9oxAQdkgRRFhQOcIl0rc": {"geometry": {"location": {"lat": 51.52592079999999, "lng": -0.2045621}, "viewport": {"northeast": {"lat": 51.52723038029149, "lng": -0.203270819708498}, "southwest": {"lat": 51.5245324197085, "lng": -0.205968780291502}}}, "name": "A-Z Household", "place_id": "ChIJP3o9oxAQdkgRRFhQOcIl0rc", "types": ["point_of_interest", "establishment"]}, "ChIJXTisghAQdkgR67-HdjySreA": {"geometry": {"location": {"lat": 51.52524299999999, "lng": -0.2033275}, "viewport": {"northeast": {"lat": 51.5265464302915, "lng": -0.202037519708498}, "southwest": {"lat": 51.5238484697085, "lng": -0.204735480291502}}}, "name": "Age UK Westminster Shop", "place_id": "ChIJXTisghAQdkgR67-HdjySreA", "types": ["point_of_interest", "store", "establishment"], "rating": 4.3, "user_ratings_total": 16}, "ChIJl5KeoaoadkgRj3ygqPiaofk": {"geometry": {"location": {"lat": 51.52598, "lng": -0.2044834}, "viewport": {"northeast": {"lat": 51.52726138029149, "lng": -0.203233519708498}, "southwest": {"lat": 51.52456341970849, "lng": -0.205931480291502}}}, "name": "Alexander Shaw Solicitors", "place_id": "ChIJl5KeoaoadkgRj3ygqPiaofk", "types": ["point_of_interest", "establishment"], "rating": 5, "user_ratings_total": 168}, "ChIJB9GEdxoQdkgRGvXqlDws0KI": {"geometry": {"location": {"lat": 51.52510179999999, "lng": -0.2036021}, "viewport": {"northeast": {"lat": 51.5264897802915, "lng": -0.202202669708498}, "southwest": {"lat": 51.5237918197085, "lng": -0.204900630291502}}}, "name": "Lane's Jewellers", "place_id": "ChIJB9GEdxoQdkgRGvXqlDws0KI", "types": ["jewelry_store", "point_of_interest", "store", "establishment"], "rating": 4.3, "user_ratings_total": 12}, "ChIJv0aoCxoQdkgRjQV0YuFSVfQ": {"geometry": {"location": {"lat": 51.52514499999999, "lng": -0.2045075}, "viewport": {"northeast": {"lat": 51.5265047802915, "lng": -0.203178969708498}, "southwest": {"lat": 51.5238068197085, "lng": -0.205876930291502}}}, "name": "Zipcar", "place_id": "ChIJv0aoCxoQdkgRjQV0YuFSVfQ", "types": ["car_rental", "point_of_interest", "establishment"], "rating": 3.5, "user_ratings_total": 4}, "ChIJDzZc0hAQdkgRIqkHQ4kzZRU": {"geometry": {"location": {"lat": 51.52737492163524, "lng": -0.2055794333271092}, "viewport": {"northeast": {"lat": 51.52872388029149, "lng": -0.2042302697084979}, "southwest": {"lat": 51.5260259197085, "lng": -0.206928230291502}}}, "name": "3-65 First Ave", "place_id": "ChIJDzZc0hAQdkgRIqkHQ4kzZRU", "types": ["route"]}, "ChIJ-cni1RAQdkgRt8H1ITFUmXc": {"geometry": {"location": {"lat": 51.5280934, "lng": -0.205318}, "viewport": {"northeast": {"lat": 51.5293914302915, "lng": -0.204036019708498}, "southwest": {"lat": 51.5266934697085, "lng": -0.206733980291502}}}, "name": "Yarrow Housing Ltd", "place_id": "ChIJ-cni1RAQdkgRt8H1ITFUmXc", "types": ["point_of_interest", "establishment"]}, "ChIJp6NK1BAQdkgRaKTR8-sizB8": {"geometry": {"location": {"lat": 51.5278041, "lng": -0.2055291}, "viewport": {"northeast": {"lat": 51.5291491302915, "lng": -0.204168169708498}, "southwest": {"lat": 51.5264511697085, "lng": -0.206866130291502}}}, "name": "ubitricity Charging Station", "place_id": "ChIJp6NK1BAQdkgRaKTR8-sizB8", "types": ["point_of_interest", "establishment"]}, "ChIJ2QH_0xAQdkgRkBgT3NTozKU": {"geometry": {"location": {"lat": 51.5276319, "lng": -0.205452}, "viewport": {"northeast": {"lat": 51.5289816302915, "lng": -0.204110069708498}, "southwest": {"lat": 51.5262836697085, "lng": -0.206808030291502}}}, "name": "ubitricity Charging Station", "place_id": "ChIJ2QH_0xAQdkgRkBgT3NTozKU", "types": ["point_of_interest", "establishment"]}, "ChIJCeaDKhEQdkgRw12rwlAzy-E": {"geometry": {"location": {"lat": 51.527987, "lng": -0.205652}, "viewport": {"northeast": {"lat": 51.52935233029149, "lng": -0.204299269708498}, "southwest": {"lat": 51.5266543697085, "lng": -0.206997230291502}}}, "name": "ubitricity Charging Station", "place_id": "ChIJCeaDKhEQdkgRw12rwlAzy-E", "types": ["point_of_interest", "establishment"]}, "ChIJZ69GLhcQdkgRk9Fk_OFAVqQ": {"geometry": {"location": {"lat": 51.5273898, "lng": -0.206168}, "viewport": {"northeast": {"lat": 51.52874518029149, "lng": -0.204881419708498}, "southwest": {"lat": 51.5260472197085, "lng": -0.207579380291502}}}, "name": "Franca By Londra", "place_id": "ChIJZ69GLhcQdkgRk9Fk_OFAVqQ", "types": ["lodging", "point_of_interest", "establishment"]}, "ChIJEWJSe2UQdkgRHmNgngZkPqo": {"geometry": {"location": {"lat": 51.5277062, "lng": -0.2064769}, "viewport": {"northeast": {"lat": 51.52904193029149, "lng": -0.2049991197084979}, "southwest": {"lat": 51.5263439697085, "lng": -0.207697080291502}}}, "name": "Newsigns", "place_id": "ChIJEWJSe2UQdkgRHmNgngZkPqo", "types": ["transit_station", "point_of_interest", "establishment"]}, "ChIJnXULsxAQdkgRcgkwYr8woE0": {"geometry": {"location": {"lat": 51.52624613931951, "lng": -0.2056219034704474}, "viewport": {"northeast": {"lat": 51.52758378029149, "lng": -0.204278969708498}, "southwest": {"lat": 51.52488581970849, "lng": -0.206976930291502}}}, "name": "423-425 Harrow Rd", "place_id": "ChIJnXULsxAQdkgRcgkwYr8woE0", "types": ["route"]}, "ChIJuYEjRxcQdkgR3Vv22NWQZs0": {"geometry": {"location": {"lat": 51.5263851, "lng": -0.2056201}, "viewport": {"northeast": {"lat": 51.5276658302915, "lng": -0.204263269708498}, "southwest": {"lat": 51.5249678697085, "lng": -0.206961230291502}}}, "name": "All Stars Boxing Gym", "place_id": "ChIJuYEjRxcQdkgR3Vv22NWQZs0", "types": ["gym", "health", "point_of_interest", "establishment"], "rating": 4.4, "user_ratings_total": 95}, "ChIJm6my1MsRdkgRTJVAnRrRByY": {"geometry": {"location": {"lat": 51.52641619999999, "lng": -0.20608}, "viewport": {"northeast": {"lat": 51.52771378029149, "lng": -0.2047469197084979}, "southwest": {"lat": 51.5250158197085, "lng": -0.207444880291502}}}, "name": "IZABEL HAIR & BEAUTY", "place_id": "ChIJm6my1MsRdkgRTJVAnRrRByY", "types": ["beauty_salon", "hair_care", "point_of_interest", "establishment"], "rating": 4.6, "user_ratings_total": 34}, "ChIJo9GQsBAQdkgRYTlODh34d6U": {"geometry": {"location": {"lat": 51.5262306, "lng": -0.2051233}, "viewport": {"northeast": {"lat": 51.52757958029149, "lng": -0.2037743197084979}, "southwest": {"lat": 51.5248816197085, "lng": -0.206472280291502}}}, "name": "Fudges Cyclestore", "place_id": "ChIJo9GQsBAQdkgRYTlODh34d6U", "types": ["bicycle_store", "point_of_interest", "store", "establishment"], "rating": 4, "user_ratings_total": 243}, "ChIJUyrvSBcQdkgR63jpn90Yepc": {"geometry": {"location": {"lat": 51.5264663, "lng": -0.206347}, "viewport": {"northeast": {"lat": 51.5277534802915, "lng": -0.205013819708498}, "southwest": {"lat": 51.5250555197085, "lng": -0.207711780291502}}}, "name": "Warrior", "place_id": "ChIJUyrvSBcQdkgR63jpn90Yepc", "types": ["point_of_interest", "store", "establishment"]}, "ChIJ0aOzThcQdkgRx3yGrU0sU6Y": {"geometry": {"location": {"lat": 51.5262602, "lng": -0.2062512}, "viewport": {"northeast": {"lat": 51.52764258029149, "lng": -0.204892869708498}, "southwest": {"lat": 51.52494461970849, "lng": -0.207590830291502}}}, "name": "Dr N Frazer - Half Penny Steps Health Centre", "place_id": "ChIJ0aOzThcQdkgRx3yGrU0sU6Y", "types": ["doctor", "health", "point_of_interest", "establishment"]}, "ChIJWY2fSxcQdkgRUKpPkvlNIMw": {"geometry": {"location": {"lat": 51.5264046, "lng": -0.2059407}, "viewport": {"northeast": {"lat": 51.52769973029149, "lng": -0.204608369708498}, "southwest": {"lat": 51.5250017697085, "lng": -0.207306330291502}}}, "name": "Furniture Mart", "place_id": "ChIJWY2fSxcQdkgRUKpPkvlNIMw", "types": ["furniture_store", "home_goods_store", "point_of_interest", "store", "establishment"], "rating": 4, "user_ratings_total": 4}, "ChIJc33NvRcQdkgRi4pQJHa7yew": {"geometry": {"location": {"lat": 51.5262129, "lng": -0.2059528}, "viewport": {"northeast": {"lat": 51.52760118029151, "lng": -0.204591669708498}, "southwest": {"lat": 51.52490321970851, "lng": -0.207289630291502}}}, "name": "Half Penny Steps Health Centre", "place_id": "ChIJc33NvRcQdkgRi4pQJHa7yew", "types": ["doctor", "health", "point_of_interest", "establishment"], "rating": 3.8, "user_ratings_total": 189}, "ChIJAQDwtBAQdkgRQmcTYuXZJEM": {"geometry": {"location": {"lat": 51.52645060000001, "lng": -0.205661}, "viewport": {"northeast": {"lat": 51.52770628029151, "lng": -0.204313119708498}, "southwest": {"lat": 51.52500831970851, "lng": -0.207011080291502}}}, "name": "All Stars Youth Club", "place_id": "ChIJAQDwtBAQdkgRQmcTYuXZJEM", "types": ["point_of_interest", "establishment"]}, "ChIJtXt0SxcQdkgR9xiUTZEeMkA": {"geometry": {"location": {"lat": 51.5264712, "lng": -0.2059246}, "viewport": {"northeast": {"lat": 51.5278148802915, "lng": -0.204525569708498}, "southwest": {"lat": 51.52511691970851, "lng": -0.2072235302915021}}}, "name": "Home Fashion", "place_id": "ChIJtXt0SxcQdkgR9xiUTZEeMkA", "types": ["clothing_store", "point_of_interest", "store", "establishment"], "rating": 5, "user_ratings_total": 1}, "ChIJWY2fSxcQdkgReF8Zq_h01N4": {"geometry": {"location": {"lat": 51.52642160000001, "lng": -0.2059465}, "viewport": {"northeast": {"lat": 51.52770888029151, "lng": -0.204616619708498}, "southwest": {"lat": 51.52501091970851, "lng": -0.207314580291502}}}, "name": "Tony Auto Care", "place_id": "ChIJWY2fSxcQdkgReF8Zq_h01N4", "types": ["car_repair", "point_of_interest", "establishment"]}, "ChIJe7JVsRAQdkgRXLcAKcM1a2M": {"geometry": {"location": {"lat": 51.5263934, "lng": -0.2054888}, "viewport": {"northeast": {"lat": 51.5276639302915, "lng": -0.204184669708498}, "southwest": {"lat": 51.5249659697085, "lng": -0.206882630291502}}}, "name": "Ahmed's Halal Bazaar", "place_id": "ChIJe7JVsRAQdkgRXLcAKcM1a2M", "types": ["grocery_or_supermarket", "food", "point_of_interest", "store", "establishment"], "rating": 4.7, "user_ratings_total": 14}, "ChIJo9GQsBAQdkgRQauaDeAEWv8": {"geometry": {"location": {"lat": 51.5262767, "lng": -0.2053153}, "viewport": {"northeast": {"lat": 51.52757973029149, "lng": -0.204000369708498}, "southwest": {"lat": 51.52488176970849, "lng": -0.206698330291502}}}, "name": "Medicare Ltd", "place_id": "ChIJo9GQsBAQdkgRQauaDeAEWv8", "types": ["pharmacy", "health", "point_of_interest", "store", "establishment"], "rating": 4.8, "user_ratings_total": 12}, "ChIJjdNRTRcQdkgRGhm8Q_eUj6k": {"geometry": {"location": {"lat": 51.52633740000001, "lng": -0.2055721}, "viewport": {"northeast": {"lat": 51.52764098029152, "lng": -0.204249069708498}, "southwest": {"lat": 51.52494301970852, "lng": -0.206947030291502}}}, "name": "W10 4RE", "place_id": "ChIJjdNRTRcQdkgRGhm8Q_eUj6k", "types": ["art_gallery", "point_of_interest", "establishment"]}, "ChIJrxQUB0QRdkgR4UDz45yiy4A": {"geometry": {"location": {"lat": 51.526899, "lng": -0.205939}, "viewport": {"northeast": {"lat": 51.5282102802915, "lng": -0.204599869708498}, "southwest": {"lat": 51.5255123197085, "lng": -0.2072978302915021}}}, "name": "LMD technology", "place_id": "ChIJrxQUB0QRdkgR4UDz45yiy4A", "types": ["point_of_interest", "establishment"]}, "ChIJSw_kw7ARdkgRlHlZCB4wTyw": {"geometry": {"location": {"lat": 51.5264081, "lng": -0.206045}, "viewport": {"northeast": {"lat": 51.5277075802915, "lng": -0.204711319708498}, "southwest": {"lat": 51.5250096197085, "lng": -0.207409280291502}}}, "name": "Brazilian Hairdresser - Extensions, Stylists & Colourists", "place_id": "ChIJSw_kw7ARdkgRlHlZCB4wTyw", "types": ["beauty_salon", "hair_care", "point_of_interest", "establishment"]}, "ChIJt-LGthAQdkgRxNH5sSoq6bU": {"geometry": {"location": {"lat": 51.526382, "lng": -0.2053265}, "viewport": {"northeast": {"lat": 51.5277502302915, "lng": -0.203901369708498}, "southwest": {"lat": 51.5250522697085, "lng": -0.206599330291502}}}, "name": "Hairstory London", "place_id": "ChIJt-LGthAQdkgRxNH5sSoq6bU", "types": ["hair_care", "point_of_interest", "establishment"]}, "ChIJAfi9ndMRdkgRgIlxYuaRzCE": {"geometry": {"location": {"lat": 51.5264672, "lng": -0.2062447}, "viewport": {"northeast": {"lat": 51.52774868029151, "lng": -0.204914519708498}, "southwest": {"lat": 51.52505071970851, "lng": -0.207612480291502}}}, "name": "Rowan food", "place_id": "ChIJAfi9ndMRdkgRgIlxYuaRzCE", "types": ["store", "point_of_interest", "establishment"]}, "ChIJra47SRcQdkgR6N7UPBuYbEU": {"geometry": {"location": {"lat": 51.52641079999999, "lng": -0.2062039}, "viewport": {"northeast": {"lat": 51.5277151302915, "lng": -0.204833719708498}, "southwest": {"lat": 51.5250171697085, "lng": -0.207531680291502}}}, "name": "Al Manzil Furniture & Carpet", "place_id": "ChIJra47SRcQdkgR6N7UPBuYbEU", "types": ["furniture_store", "home_goods_store", "point_of_interest", "store", "establishment"], "rating": 3.8, "user_ratings_total": 17}, "ChIJmdGQsBAQdkgRyV6lbrecV8U": {"geometry": {"location": {"lat": 51.5262957, "lng": -0.2052962}, "viewport": {"northeast": {"lat": 51.5275894302915, "lng": -0.203991469708498}, "southwest": {"lat": 51.52489146970851, "lng": -0.206689430291502}}}, "name": "Absolute Rubbish Waste Management", "place_id": "ChIJmdGQsBAQdkgRyV6lbrecV8U", "types": ["point_of_interest", "establishment"]}, "ChIJ9eY4sRAQdkgRRE5pmX7flo8": {"geometry": {"location": {"lat": 51.5262724, "lng": -0.2053281}, "viewport": {"northeast": {"lat": 51.5275784802915, "lng": -0.204010019708498}, "southwest": {"lat": 51.5248805197085, "lng": -0.206707980291502}}}, "name": "Nhs", "place_id": "ChIJ9eY4sRAQdkgRRE5pmX7flo8", "types": ["point_of_interest", "establishment"]}, "ChIJ1Rc8sRAQdkgR0TXYly0q6_A": {"geometry": {"location": {"lat": 51.52626129999999, "lng": -0.2053108}, "viewport": {"northeast": {"lat": 51.5275764302915, "lng": -0.204005969708498}, "southwest": {"lat": 51.5248784697085, "lng": -0.206703930291502}}}, "name": "Nhs Pharmacy", "place_id": "ChIJ1Rc8sRAQdkgR0TXYly0q6_A", "types": ["pharmacy", "health", "point_of_interest", "store", "establishment"], "rating": 5, "user_ratings_total": 1}, "ChIJTS8eSRcQdkgR7EiS2VYiiNY": {"geometry": {"location": {"lat": 51.5264209, "lng": -0.2063499}, "viewport": {"northeast": {"lat": 51.5277303802915, "lng": -0.205011919708498}, "southwest": {"lat": 51.5250324197085, "lng": -0.207709880291502}}}, "name": "Bismillah Halal Bazar", "place_id": "ChIJTS8eSRcQdkgR7EiS2VYiiNY", "types": ["point_of_interest", "establishment"]}, "ChIJc5nQxRAQdkgR6-FShN_3fkI": {"geometry": {"location": {"lat": 51.5266536, "lng": -0.2049129}, "viewport": {"northeast": {"lat": 51.5279963302915, "lng": -0.203467019708498}, "southwest": {"lat": 51.5252983697085, "lng": -0.206164980291502}}}, "name": "Queens Park CyberSecurity Solutions Ltd.", "place_id": "ChIJc5nQxRAQdkgR6-FShN_3fkI", "types": ["point_of_interest", "establishment"]}, "ChIJdWHgsBAQdkgRslx5HrlTBuA": {"geometry": {"location": {"lat": 51.52624199999999, "lng": -0.205234}, "viewport": {"northeast": {"lat": 51.5275555802915, "lng": -0.203937519708498}, "southwest": {"lat": 51.5248576197085, "lng": -0.206635480291502}}}, "name": "Realeyes Opticians - Maida Hill/Maida Vale", "place_id": "ChIJdWHgsBAQdkgRslx5HrlTBuA", "types": ["health", "point_of_interest", "store", "establishment"], "rating": 5, "user_ratings_total": 209}, "ChIJg10Ehe8RdkgR-Eun4KX1RdU": {"geometry": {"location": {"lat": 51.52646240000001, "lng": -0.2064111}, "viewport": {"northeast": {"lat": 51.5277549802915, "lng": -0.205077819708498}, "southwest": {"lat": 51.52505701970851, "lng": -0.207775780291502}}}, "name": "GEPPO & TANTOU Hair & Beauty", "place_id": "ChIJg10Ehe8RdkgR-Eun4KX1RdU", "types": ["hair_care", "point_of_interest", "establishment"], "rating": 5, "user_ratings_total": 25}, "ChIJgTqYuRAQdkgR6tOG2WCxQLI": {"geometry": {"location": {"lat": 51.526441, "lng": -0.2049608}, "viewport": {"northeast": {"lat": 51.5277420802915, "lng": -0.203583369708498}, "southwest": {"lat": 51.5250441197085, "lng": -0.206281330291502}}}, "name": "Bubble Dry Clean & Laundrette", "place_id": "ChIJgTqYuRAQdkgR6tOG2WCxQLI", "types": ["laundry", "point_of_interest", "establishment"], "rating": 2.7, "user_ratings_total": 10}, "ChIJNfZSzBAQdkgRFkL_y5TA6rc": {"geometry": {"location": {"lat": 51.52713900000001, "lng": -0.2055819}, "viewport": {"northeast": {"lat": 51.5284888802915, "lng": -0.2042418197084979}, "southwest": {"lat": 51.5257909197085, "lng": -0.206939780291502}}}, "name": "ubitricity Charging Station", "place_id": "ChIJNfZSzBAQdkgRFkL_y5TA6rc", "types": ["point_of_interest", "establishment"]}, "ChIJP6cerSERdkgRLDxTUOIevRo": {"geometry": {"location": {"lat": 51.5261873, "lng": -0.2052772}, "viewport": {"northeast": {"lat": 51.5275340302915, "lng": -0.203930369708498}, "southwest": {"lat": 51.5248360697085, "lng": -0.206628330291502}}}, "name": "Rebel Studio", "place_id": "ChIJP6cerSERdkgRLDxTUOIevRo", "types": ["point_of_interest", "establishment"]}, "ChIJG-3wshAQdkgRNQXqFJ8-Pbg": {"geometry": {"location": {"lat": 51.5261165, "lng": -0.2056436}, "viewport": {"northeast": {"lat": 51.5273994802915, "lng": -0.2042609697084979}, "southwest": {"lat": 51.5247015197085, "lng": -0.206958930291502}}}, "name": "Gallery Shop", "place_id": "ChIJG-3wshAQdkgRNQXqFJ8-Pbg", "types": ["clothing_store", "point_of_interest", "store", "establishment"]}, "ChIJIawTNxcQdkgRO00B-u2JYiQ": {"geometry": {"location": {"lat": 51.52687150000001, "lng": -0.2064334}, "viewport": {"northeast": {"lat": 51.52822048029151, "lng": -0.205084419708498}, "southwest": {"lat": 51.52552251970851, "lng": -0.207782380291502}}}, "name": "Aliza Solutions", "place_id": "ChIJIawTNxcQdkgRO00B-u2JYiQ", "types": ["point_of_interest", "establishment"], "rating": 5, "user_ratings_total": 1}, "ChIJB9Up9GgRdkgRwg9UVAfIyvw": {"geometry": {"location": {"lat": 51.52624409999999, "lng": -0.2062632}, "viewport": {"northeast": {"lat": 51.52763488029149, "lng": -0.204902569708498}, "southwest": {"lat": 51.52493691970849, "lng": -0.207600530291502}}}, "name": "Half Penny Steps", "place_id": "ChIJB9Up9GgRdkgRwg9UVAfIyvw", "types": ["point_of_interest", "establishment"], "rating": 5, "user_ratings_total": 1}, "ChIJJYZo-RkQdkgRcJr4g0WYU-A": {"geometry": {"location": {"lat": 51.52530274634101, "lng": -0.2062383925998102}, "viewport": {"northeast": {"lat": 51.52659248029151, "lng": -0.204984969708498}, "southwest": {"lat": 51.52389451970851, "lng": -0.207682930291502}}}, "name": "178-154 Kensal Rd", "place_id": "ChIJJYZo-RkQdkgRcJr4g0WYU-A", "types": ["route"]}, "ChIJRVRSgxcQdkgRm6NUeBCStk0": {"geometry": {"location": {"lat": 51.5254684, "lng": -0.2059139}, "viewport": {"northeast": {"lat": 51.52672088029151, "lng": -0.204702419708498}, "southwest": {"lat": 51.52402291970851, "lng": -0.207400380291502}}}, "name": "Metronomes Steel Orchestra", "place_id": "ChIJRVRSgxcQdkgRm6NUeBCStk0", "types": ["point_of_interest", "establishment"]}, "ChIJEYWxqBAQdkgRF4C8RJBgVTs": {"geometry": {"location": {"lat": 51.52564849999999, "lng": -0.2051118}, "viewport": {"northeast": {"lat": 51.52705053029149, "lng": -0.203798019708498}, "southwest": {"lat": 51.5243525697085, "lng": -0.206495980291502}}}, "name": "Andy Jordan Productions Ltd", "place_id": "ChIJEYWxqBAQdkgRF4C8RJBgVTs", "types": ["point_of_interest", "establishment"]}, "ChIJXWlQLYERdkgRy0YQvtPIqUM": {"geometry": {"location": {"lat": 51.5255258, "lng": -0.2056648}, "viewport": {"northeast": {"lat": 51.5270059802915, "lng": -0.204160669708498}, "southwest": {"lat": 51.5243080197085, "lng": -0.206858630291502}}}, "name": "Unidays", "place_id": "ChIJXWlQLYERdkgRy0YQvtPIqUM", "types": ["point_of_interest", "store", "establishment"]}, "ChIJrS7lM2wRdkgRPrUIyO-wydA": {"geometry": {"location": {"lat": 51.525451, "lng": -0.2059205}, "viewport": {"northeast": {"lat": 51.52679998029149, "lng": -0.204571519708498}, "southwest": {"lat": 51.5241020197085, "lng": -0.207269480291502}}}, "name": "Meanwhile Gardens Factory Building", "place_id": "ChIJrS7lM2wRdkgRPrUIyO-wydA", "types": ["cafe", "food", "point_of_interest", "establishment"]}, "ChIJVVXprBAQdkgRQK_-_9B20Ik": {"geometry": {"location": {"lat": 51.5257729, "lng": -0.2056791}, "viewport": {"northeast": {"lat": 51.5271703802915, "lng": -0.204237469708498}, "southwest": {"lat": 51.5244724197085, "lng": -0.206935430291502}}}, "name": "Blackstocke", "place_id": "ChIJVVXprBAQdkgRQK_-_9B20Ik", "types": ["finance", "point_of_interest", "establishment"]}, "ChIJDw4orRAQdkgR7M6RwKrHKzc": {"geometry": {"location": {"lat": 51.5258381, "lng": -0.2057512}, "viewport": {"northeast": {"lat": 51.5272331302915, "lng": -0.204314269708498}, "southwest": {"lat": 51.5245351697085, "lng": -0.207012230291502}}}, "name": "Hazel Bryer", "place_id": "ChIJDw4orRAQdkgR7M6RwKrHKzc", "types": ["painter", "point_of_interest", "establishment"]}, "ChIJBQ5b-qoRdkgR4MjB0-duoAQ": {"geometry": {"location": {"lat": 51.52600770000001, "lng": -0.2053286}, "viewport": {"northeast": {"lat": 51.52741348029151, "lng": -0.203920069708498}, "southwest": {"lat": 51.52471551970851, "lng": -0.206618030291502}}}, "name": "russells wharf", "place_id": "ChIJBQ5b-qoRdkgR4MjB0-duoAQ", "types": ["point_of_interest", "establishment"], "rating": 4, "user_ratings_total": 1}, "ChIJq6pushAQdkgRgJEcat961K0": {"geometry": {"location": {"lat": 51.5260606, "lng": -0.2055431}, "viewport": {"northeast": {"lat": 51.5273715302915, "lng": -0.204246919708498}, "southwest": {"lat": 51.5246735697085, "lng": -0.206944880291502}}}, "name": "Cromwell Plumbing Ltd", "place_id": "ChIJq6pushAQdkgRgJEcat961K0", "types": ["point_of_interest", "store", "establishment"]}, "ChIJ7yqT_2gRdkgRGkMJoIS6ty4": {"geometry": {"location": {"lat": 51.52603910000001, "lng": -0.205311}, "viewport": {"northeast": {"lat": 51.5274313302915, "lng": -0.203916669708498}, "southwest": {"lat": 51.52473336970851, "lng": -0.2066146302915021}}}, "name": "Cashpoint", "place_id": "ChIJ7yqT_2gRdkgRGkMJoIS6ty4", "types": ["atm", "finance", "point_of_interest", "establishment"], "rating": 3, "user_ratings_total": 2}, "ChIJZ_tirhAQdkgRZSMySjeTc5U": {"geometry": {"location": {"lat": 51.52581439999999, "lng": -0.2054032}, "viewport": {"northeast": {"lat": 51.52719291284051, "lng": -0.2040223518670655}, "southwest": {"lat": 51.52449495225751, "lng": -0.2067203124500695}}}, "name": "Parking lot", "place_id": "ChIJZ_tirhAQdkgRZSMySjeTc5U", "types": ["parking", "premise", "point_of_interest", "establishment"]}, "ChIJRSYZHhcQdkgRZy8cPXQTgYc": {"geometry": {"location": {"lat": 51.52773045000101, "lng": -0.207625600020751}, "viewport": {"northeast": {"lat": 51.5290794302915, "lng": -0.206276619708498}, "southwest": {"lat": 51.5263814697085, "lng": -0.208974580291502}}}, "name": "48-42 Third Ave", "place_id": "ChIJRSYZHhcQdkgRZy8cPXQTgYc", "types": ["route"]}, "ChIJRdqTHRcQdkgRtfY3iKkrwog": {"geometry": {"location": {"lat": 51.5278947, "lng": -0.2077779}, "viewport": {"northeast": {"lat": 51.5292344802915, "lng": -0.2063344197084979}, "southwest": {"lat": 51.5265365197085, "lng": -0.209032380291502}}}, "name": "La Jolie Ronde Languages For Children", "place_id": "ChIJRdqTHRcQdkgRtfY3iKkrwog", "types": ["point_of_interest", "establishment"]}, "ChIJtdAr4hYQdkgR1qRcYTTA1AI": {"geometry": {"location": {"lat": 51.5281461, "lng": -0.2077272}, "viewport": {"northeast": {"lat": 51.5294849802915, "lng": -0.206278019708498}, "southwest": {"lat": 51.52678701970851, "lng": -0.2089759802915021}}}, "name": "St Marylebone CE Bridge School", "place_id": "ChIJtdAr4hYQdkgR1qRcYTTA1AI", "types": ["secondary_school", "school", "point_of_interest", "establishment"]}, "ChIJZ5794RYQdkgRRe6ak10zLf0": {"geometry": {"location": {"lat": 51.527971, "lng": -0.207618}, "viewport": {"northeast": {"lat": 51.5293198802915, "lng": -0.206268169708498}, "southwest": {"lat": 51.5266219197085, "lng": -0.208966130291502}}}, "name": "ubitricity Charging Station", "place_id": "ChIJZ5794RYQdkgRRe6ak10zLf0", "types": ["point_of_interest", "establishment"]}, "ChIJbUC1IBcQdkgRMDll-c0vkFE": {"geometry": {"location": {"lat": 51.5278909, "lng": -0.20692}, "viewport": {"northeast": {"lat": 51.52923663029149, "lng": -0.205548019708498}, "southwest": {"lat": 51.5265386697085, "lng": -0.208245980291502}}}, "name": "ubitricity Charging Station", "place_id": "ChIJbUC1IBcQdkgRMDll-c0vkFE", "types": ["point_of_interest", "establishment"]}, "ChIJgXSAIxcQdkgR1WUtpv2DLww": {"geometry": {"location": {"lat": 51.52748099999999, "lng": -0.206913}, "viewport": {"northeast": {"lat": 51.52883338029149, "lng": -0.205597019708498}, "southwest": {"lat": 51.5261354197085, "lng": -0.208294980291502}}}, "name": "ubitricity Charging Station", "place_id": "ChIJgXSAIxcQdkgR1WUtpv2DLww", "types": ["point_of_interest", "establishment"]}, "ChIJDxnRH1wRdkgRF0zuzEeOXPg": {"geometry": {"location": {"lat": 51.5274446, "lng": -0.2068308}, "viewport": {"northeast": {"lat": 51.5288015302915, "lng": -0.205559569708498}, "southwest": {"lat": 51.5261035697085, "lng": -0.208257530291502}}}, "name": "Best Indian Astrologer in Uk, Get Ex Back, Black Magic Removal, Vashikaran Specialist, Husband & Wife Problem, Negative Energy Removal, Remove Jealousy, Health Problem, Divorce Problem, Lost Love Spells, Ex husband & Ex Wife back, Depression", "place_id": "ChIJDxnRH1wRdkgRF0zuzEeOXPg", "types": ["point_of_interest", "establishment"], "rating": 5, "user_ratings_total": 1}, "ChIJM48f3xYQdkgR68Tnm7KQPpU": {"geometry": {"location": {"lat": 51.528125, "lng": -0.20701}, "viewport": {"northeast": {"lat": 51.5294936302915, "lng": -0.205650769708498}, "southwest": {"lat": 51.5267956697085, "lng": -0.208348730291502}}}, "name": "ubitricity Charging Station", "place_id": "ChIJM48f3xYQdkgR68Tnm7KQPpU", "types": ["point_of_interest", "establishment"]}, "ChIJ6QM12DURdkgRk9tEkVEdVMw": {"geometry": {"location": {"lat": 51.5272319, "lng": -0.2071557}, "viewport": {"northeast": {"lat": 51.5285754302915, "lng": -0.205753719708498}, "southwest": {"lat": 51.5258774697085, "lng": -0.208451680291502}}}, "name": "Visage 2 Aesthetics", "place_id": "ChIJ6QM12DURdkgRk9tEkVEdVMw", "types": ["point_of_interest", "store", "establishment"]}, "ChIJKTRRahcQdkgR14lSRpjR_rU": {"geometry": {"location": {"lat": 51.52646680012334, "lng": -0.2074269499139494}, "viewport": {"northeast": {"lat": 51.5278157802915, "lng": -0.206077969708498}, "southwest": {"lat": 51.5251178197085, "lng": -0.208775930291502}}}, "name": "431-433 Harrow Rd", "place_id": "ChIJKTRRahcQdkgR14lSRpjR_rU", "types": ["route"]}, "ChIJySsLtBAQdkgRlOSpkWd-E8E": {"geometry": {"location": {"lat": 51.5265103, "lng": -0.2067433}, "viewport": {"northeast": {"lat": 51.52779698029149, "lng": -0.205411669708498}, "southwest": {"lat": 51.5250990197085, "lng": -0.208109630291502}}}, "name": "Health Centre", "place_id": "ChIJySsLtBAQdkgRlOSpkWd-E8E", "types": ["doctor", "health", "point_of_interest", "establishment"]}, "ChIJBQ4orRAQdkgR6pe38NuPRp0": {"geometry": {"location": {"lat": 51.526424, "lng": -0.2076966}, "viewport": {"northeast": {"lat": 51.5277729802915, "lng": -0.206347619708498}, "southwest": {"lat": 51.5250750197085, "lng": -0.209045580291502}}}, "name": "New Level Cuts", "place_id": "ChIJBQ4orRAQdkgR6pe38NuPRp0", "types": ["hair_care", "health", "point_of_interest", "store", "establishment"], "rating": 4.6, "user_ratings_total": 21}, "ChIJBQ4orRAQdkgR8tqnZxRI25w": {"geometry": {"location": {"lat": 51.5263856, "lng": -0.2075711}, "viewport": {"northeast": {"lat": 51.5277345802915, "lng": -0.206222119708498}, "southwest": {"lat": 51.5250366197085, "lng": -0.208920080291502}}}, "name": "Pizza 2 Night", "place_id": "ChIJBQ4orRAQdkgR8tqnZxRI25w", "types": ["meal_delivery", "meal_takeaway", "restaurant", "food", "point_of_interest", "establishment"], "rating": 3.3, "user_ratings_total": 38}, "ChIJBQ4orRAQdkgRPnNn-etRmDE": {"geometry": {"location": {"lat": 51.52643860000001, "lng": -0.2077969}, "viewport": {"northeast": {"lat": 51.5277875802915, "lng": -0.206447919708498}, "southwest": {"lat": 51.52508961970851, "lng": -0.2091458802915021}}}, "name": "Human Relief Foundation", "place_id": "ChIJBQ4orRAQdkgRPnNn-etRmDE", "types": ["point_of_interest", "establishment"], "rating": 3.7, "user_ratings_total": 11}, "ChIJwdsERxcQdkgRs9YN6LTlEBI": {"geometry": {"location": {"lat": 51.52653250000001, "lng": -0.2067206}, "viewport": {"northeast": {"lat": 51.52780723029151, "lng": -0.205392319708498}, "southwest": {"lat": 51.52510926970851, "lng": -0.208090280291502}}}, "name": "Srikrishnamurthy K Dr", "place_id": "ChIJwdsERxcQdkgRs9YN6LTlEBI", "types": ["doctor", "health", "point_of_interest", "establishment"], "rating": 3.8, "user_ratings_total": 13}, "ChIJS4Y1GxcQdkgRyUbki-KiRx4": {"geometry": {"location": {"lat": 51.5270216, "lng": -0.2079671}, "viewport": {"northeast": {"lat": 51.52845878029149, "lng": -0.206597769708498}, "southwest": {"lat": 51.52576081970849, "lng": -0.209295730291502}}}, "name": "Avenues Radio", "place_id": "ChIJS4Y1GxcQdkgRyUbki-KiRx4", "types": ["point_of_interest", "establishment"]}, "ChIJS4Y1GxcQdkgRy5ewR-8Gg0E": {"geometry": {"location": {"lat": 51.5270216, "lng": -0.2079671}, "viewport": {"northeast": {"lat": 51.52845878029149, "lng": -0.206597769708498}, "southwest": {"lat": 51.52576081970849, "lng": -0.209295730291502}}}, "name": "Newtek Digital", "place_id": "ChIJS4Y1GxcQdkgRy5ewR-8Gg0E", "types": ["point_of_interest", "establishment"]}, "ChIJCwlEaxcQdkgRScyNeJuOU5E": {"geometry": {"location": {"lat": 51.5265917, "lng": -0.2075765}, "viewport": {"northeast": {"lat": 51.5279406802915, "lng": -0.206227519708498}, "southwest": {"lat": 51.52524271970851, "lng": -0.208925480291502}}}, "name": "Ek Sai", "place_id": "ChIJCwlEaxcQdkgRScyNeJuOU5E", "types": ["convenience_store", "food", "point_of_interest", "store", "establishment"], "rating": 3, "user_ratings_total": 2}, "ChIJ1dxVQBcQdkgRX6zEiynhR3w": {"geometry": {"location": {"lat": 51.52654789999999, "lng": -0.2073298}, "viewport": {"northeast": {"lat": 51.5278518802915, "lng": -0.2059965197084979}, "southwest": {"lat": 51.5251539197085, "lng": -0.208694480291502}}}, "name": "Atlas Halal Meat", "place_id": "ChIJ1dxVQBcQdkgRX6zEiynhR3w", "types": ["grocery_or_supermarket", "food", "point_of_interest", "store", "establishment"], "rating": 4.4, "user_ratings_total": 11}, "ChIJ8_n5QBcQdkgR0grpAwxKmpU": {"geometry": {"location": {"lat": 51.5265478, "lng": -0.2073224}, "viewport": {"northeast": {"lat": 51.52785138029149, "lng": -0.205989269708498}, "southwest": {"lat": 51.5251534197085, "lng": -0.208687230291502}}}, "name": "A R Stores", "place_id": "ChIJ8_n5QBcQdkgR0grpAwxKmpU", "types": ["convenience_store", "food", "point_of_interest", "store", "establishment"], "rating": 3, "user_ratings_total": 1}, "ChIJIcRiaqIRdkgRC9MQXJGOjyM": {"geometry": {"location": {"lat": 51.52661, "lng": -0.20761}, "viewport": {"northeast": {"lat": 51.5279025802915, "lng": -0.206281319708498}, "southwest": {"lat": 51.5252046197085, "lng": -0.208979280291502}}}, "name": "UPS Access Point", "place_id": "ChIJIcRiaqIRdkgRC9MQXJGOjyM", "types": ["point_of_interest", "establishment"]}, "ChIJp_lXaxcQdkgRtP4GwcDQAh8": {"geometry": {"location": {"lat": 51.5265771, "lng": -0.2076008}, "viewport": {"northeast": {"lat": 51.5279260802915, "lng": -0.206251819708498}, "southwest": {"lat": 51.5252281197085, "lng": -0.208949780291502}}}, "name": "P N N News", "place_id": "ChIJp_lXaxcQdkgRtP4GwcDQAh8", "types": ["point_of_interest", "store", "establishment"], "rating": 5, "user_ratings_total": 2}, "ChIJUQ_I_fURdkgRotumyJuC8ok": {"geometry": {"location": {"lat": 51.5266099, "lng": -0.2076479}, "viewport": {"northeast": {"lat": 51.52790503029149, "lng": -0.206318269708498}, "southwest": {"lat": 51.52520706970849, "lng": -0.209016230291502}}}, "name": "cola cola eark shop", "place_id": "ChIJUQ_I_fURdkgRotumyJuC8ok", "types": ["shopping_mall", "point_of_interest", "establishment"], "rating": 5, "user_ratings_total": 1}, "ChIJZfiubBcQdkgRYBGNfttNfI8": {"geometry": {"location": {"lat": 51.5266159, "lng": -0.2076536999999999}, "viewport": {"northeast": {"lat": 51.5279107302915, "lng": -0.2063406197084979}, "southwest": {"lat": 51.5252127697085, "lng": -0.209038580291502}}}, "name": "DJ's Caribbean Cuisine", "place_id": "ChIJZfiubBcQdkgRYBGNfttNfI8", "types": ["restaurant", "food", "point_of_interest", "establishment"], "rating": 4.2, "user_ratings_total": 84}, "ChIJAQDUbBcQdkgRxWxZgbv-muQ": {"geometry": {"location": {"lat": 51.5266317, "lng": -0.2078031}, "viewport": {"northeast": {"lat": 51.52792678029149, "lng": -0.206473519708498}, "southwest": {"lat": 51.5252288197085, "lng": -0.209171480291502}}}, "name": "In House Property Services Limited", "place_id": "ChIJAQDUbBcQdkgRxWxZgbv-muQ", "types": ["point_of_interest", "establishment"]}, "ChIJL24KQRcQdkgRQHDISvbMWzQ": {"geometry": {"location": {"lat": 51.5265539, "lng": -0.2070384}, "viewport": {"northeast": {"lat": 51.52783623029149, "lng": -0.205712669708498}, "southwest": {"lat": 51.52513826970849, "lng": -0.208410630291502}}}, "name": "Deluxe Off Licence", "place_id": "ChIJL24KQRcQdkgRQHDISvbMWzQ", "types": ["point_of_interest", "establishment"]}, "ChIJq6ruaxcQdkgRtdlfeGaWlMs": {"geometry": {"location": {"lat": 51.5263856, "lng": -0.2075711}, "viewport": {"northeast": {"lat": 51.5277345802915, "lng": -0.206222119708498}, "southwest": {"lat": 51.5250366197085, "lng": -0.208920080291502}}}, "name": "China Palace North Kensington", "place_id": "ChIJq6ruaxcQdkgRtdlfeGaWlMs", "types": ["restaurant", "meal_takeaway", "food", "point_of_interest", "establishment"], "rating": 2.4, "user_ratings_total": 39}, "ChIJNUMxahcQdkgRpGSgFPUbv5s": {"geometry": {"location": {"lat": 51.5263755, "lng": -0.2075134}, "viewport": {"northeast": {"lat": 51.5277736302915, "lng": -0.2061472697084979}, "southwest": {"lat": 51.5250756697085, "lng": -0.208845230291502}}}, "name": "Massaya", "place_id": "ChIJNUMxahcQdkgRpGSgFPUbv5s", "types": ["cafe", "food", "point_of_interest", "establishment"]}, "ChIJuSzgQBcQdkgRYiimpvFiMg4": {"geometry": {"location": {"lat": 51.5265509, "lng": -0.2070198}, "viewport": {"northeast": {"lat": 51.52787663029152, "lng": -0.205779769708498}, "southwest": {"lat": 51.52517866970852, "lng": -0.208477730291502}}}, "name": "Big Mama's Kitchen", "place_id": "ChIJuSzgQBcQdkgRYiimpvFiMg4", "types": ["restaurant", "food", "point_of_interest", "establishment"], "rating": 5, "user_ratings_total": 12}, "ChIJx-zfQBcQdkgR5bxLb0CpfsY": {"geometry": {"location": {"lat": 51.5264929, "lng": -0.2069908999999999}, "viewport": {"northeast": {"lat": 51.5278009802915, "lng": -0.205653319708498}, "southwest": {"lat": 51.5251030197085, "lng": -0.208351280291502}}}, "name": "Pearl Of The Sea", "place_id": "ChIJx-zfQBcQdkgR5bxLb0CpfsY", "types": ["cafe", "food", "point_of_interest", "store", "establishment"], "rating": 5, "user_ratings_total": 1}, "ChIJe2WbbRcQdkgRSI8tff-Bnns": {"geometry": {"location": {"lat": 51.52646469999999, "lng": -0.2079548999999999}, "viewport": {"northeast": {"lat": 51.5278493302915, "lng": -0.2065930697084979}, "southwest": {"lat": 51.5251513697085, "lng": -0.209291030291502}}}, "name": "Family Action", "place_id": "ChIJe2WbbRcQdkgRSI8tff-Bnns", "types": ["point_of_interest", "establishment"]}, "ChIJUWdqgDkRdkgRdYgdXB6KDUM": {"geometry": {"location": {"lat": 51.5265098, "lng": -0.2068061}, "viewport": {"northeast": {"lat": 51.52780003029149, "lng": -0.2054734697084979}, "southwest": {"lat": 51.5251020697085, "lng": -0.208171430291502}}}, "name": "Lorry Mounted Crane Hire Kensal Town", "place_id": "ChIJUWdqgDkRdkgRdYgdXB6KDUM", "types": ["point_of_interest", "establishment"]}, "ChIJPyAX8qARdkgRyk0t_wtzakU": {"geometry": {"location": {"lat": 51.5265098, "lng": -0.2068061}, "viewport": {"northeast": {"lat": 51.52780003029149, "lng": -0.2054734697084979}, "southwest": {"lat": 51.5251020697085, "lng": -0.208171430291502}}}, "name": "Star", "place_id": "ChIJPyAX8qARdkgRyk0t_wtzakU", "types": ["restaurant", "food", "point_of_interest", "establishment"]}, "ChIJp8pdpuERdkgRwz8QEun11Bw": {"geometry": {"location": {"lat": 51.5267239, "lng": -0.2081039}, "viewport": {"northeast": {"lat": 51.52806208029151, "lng": -0.206652969708498}, "southwest": {"lat": 51.52536411970851, "lng": -0.209350930291502}}}, "name": "Kingdom Hall of Jehovah's Witnesses", "place_id": "ChIJp8pdpuERdkgRwz8QEun11Bw", "types": ["place_of_worship", "point_of_interest", "establishment"], "rating": 5, "user_ratings_total": 5}, "ChIJizB4dTARdkgRK4EQ0gWamfY": {"geometry": {"location": {"lat": 51.526217, "lng": -0.2071517}, "viewport": {"northeast": {"lat": 51.5276675302915, "lng": -0.205767269708498}, "southwest": {"lat": 51.5249695697085, "lng": -0.208465230291502}}}, "name": "Footbridge", "place_id": "ChIJizB4dTARdkgRK4EQ0gWamfY", "types": ["point_of_interest", "establishment"]}, "ChIJBwS6bhgRdkgRakYRXsVcyxM": {"geometry": {"location": {"lat": 51.52648899999999, "lng": -0.206744}, "viewport": {"northeast": {"lat": 51.5277860802915, "lng": -0.205409469708498}, "southwest": {"lat": 51.5250881197085, "lng": -0.208107430291502}}}, "name": "Westfield Estates City Ltd", "place_id": "ChIJBwS6bhgRdkgRakYRXsVcyxM", "types": ["real_estate_agency", "point_of_interest", "establishment"]}, "ChIJbWVULcsRdkgR_301pBGLt4A": {"geometry": {"location": {"lat": 51.52648899999999, "lng": -0.206744}, "viewport": {"northeast": {"lat": 51.5277860802915, "lng": -0.205409469708498}, "southwest": {"lat": 51.5250881197085, "lng": -0.208107430291502}}}, "name": "LBC Estates", "place_id": "ChIJbWVULcsRdkgR_301pBGLt4A", "types": ["real_estate_agency", "point_of_interest", "establishment"]}, "ChIJSQ35RhcQdkgRnlrECxuSrnA": {"geometry": {"location": {"lat": 51.5264613, "lng": -0.206737}, "viewport": {"northeast": {"lat": 51.52777143029149, "lng": -0.205398819708498}, "southwest": {"lat": 51.5250734697085, "lng": -0.208096780291502}}}, "name": "Lbc Estates", "place_id": "ChIJSQ35RhcQdkgRnlrECxuSrnA", "types": ["real_estate_agency", "point_of_interest", "establishment"]}, "ChIJuYEjRxcQdkgRXmxY1o2XL6U": {"geometry": {"location": {"lat": 51.5265208, "lng": -0.2066398}, "viewport": {"northeast": {"lat": 51.5277952302915, "lng": -0.205288969708498}, "southwest": {"lat": 51.5250972697085, "lng": -0.207986930291502}}}, "name": "Calders Building Supplies", "place_id": "ChIJuYEjRxcQdkgRXmxY1o2XL6U", "types": ["home_goods_store", "point_of_interest", "store", "establishment"], "rating": 4.4, "user_ratings_total": 37}, "ChIJRcusRhcQdkgRyOqOL0pnI9U": {"geometry": {"location": {"lat": 51.52637900000001, "lng": -0.206772}, "viewport": {"northeast": {"lat": 51.5277028302915, "lng": -0.205430069708498}, "southwest": {"lat": 51.5250048697085, "lng": -0.208128030291502}}}, "name": "Second Avenue (Stop T)", "place_id": "ChIJRcusRhcQdkgRyOqOL0pnI9U", "types": ["transit_station", "point_of_interest", "establishment"], "rating": 5, "user_ratings_total": 1}, "ChIJ51joBC0bdkgR_6UJRUya9vs": {"geometry": {"location": {"lat": 51.52643799999999, "lng": -0.2066986}, "viewport": {"northeast": {"lat": 51.5277589302915, "lng": -0.205357469708498}, "southwest": {"lat": 51.5250609697085, "lng": -0.208055430291502}}}, "name": "DJ NORE", "place_id": "ChIJ51joBC0bdkgR_6UJRUya9vs", "types": ["point_of_interest", "establishment"], "rating": 4.8, "user_ratings_total": 5}, "ChIJlaUMXhcQdkgRNxJL_4fQyQU": {"geometry": {"location": {"lat": 51.52564613546864, "lng": -0.2071699403492337}, "viewport": {"northeast": {"lat": 51.52699018029151, "lng": -0.205823569708498}, "southwest": {"lat": 51.52429221970851, "lng": -0.208521530291502}}}, "name": "111-175 Kensal Rd", "place_id": "ChIJlaUMXhcQdkgRNxJL_4fQyQU", "types": ["route"]}, "ChIJ31yS9BkQdkgRWnDbdiy_iJI": {"geometry": {"location": {"lat": 51.5255648, "lng": -0.2071967}, "viewport": {"northeast": {"lat": 51.5269534302915, "lng": -0.205840469708498}, "southwest": {"lat": 51.5242554697085, "lng": -0.208538430291502}}}, "name": "Join Avon London", "place_id": "ChIJ31yS9BkQdkgRWnDbdiy_iJI", "types": ["cafe", "bar", "restaurant", "food", "point_of_interest", "establishment"], "rating": 5, "user_ratings_total": 1}, "ChIJW9OIYxcQdkgRNj4-hOgQaLc": {"geometry": {"location": {"lat": 51.5256462, "lng": -0.2077628}, "viewport": {"northeast": {"lat": 51.5270446802915, "lng": -0.206391119708498}, "southwest": {"lat": 51.5243467197085, "lng": -0.209089080291502}}}, "name": "Discreet 24hr Investigations", "place_id": "ChIJW9OIYxcQdkgRNj4-hOgQaLc", "types": ["point_of_interest", "establishment"]}, "ChIJ0b1BYxcQdkgRMNMKfrZ2tgU": {"geometry": {"location": {"lat": 51.52559900000001, "lng": -0.2079178}, "viewport": {"northeast": {"lat": 51.5270319802915, "lng": -0.206529019708498}, "southwest": {"lat": 51.5243340197085, "lng": -0.2092269802915021}}}, "name": "British Association of Chevaliers of Saint Stanislas", "place_id": "ChIJ0b1BYxcQdkgRMNMKfrZ2tgU", "types": ["point_of_interest", "establishment"]}, "ChIJ0VmDax8QdkgRvweRkq2Rezk": {"geometry": {"location": {"lat": 51.525599, "lng": -0.2079179}, "viewport": {"northeast": {"lat": 51.5269479802915, "lng": -0.206568919708498}, "southwest": {"lat": 51.5242500197085, "lng": -0.209266880291502}}}, "name": "SPID Theatre", "place_id": "ChIJ0VmDax8QdkgRvweRkq2Rezk", "types": ["point_of_interest", "establishment"], "rating": 4.3, "user_ratings_total": 14}, "ChIJc48xYxcQdkgRE9pqoMbxEnY": {"geometry": {"location": {"lat": 51.52555040000001, "lng": -0.2079771}, "viewport": {"northeast": {"lat": 51.52701073029149, "lng": -0.206575319708498}, "southwest": {"lat": 51.52431276970849, "lng": -0.209273280291502}}}, "name": "Knowledge School", "place_id": "ChIJc48xYxcQdkgRE9pqoMbxEnY", "types": ["school", "point_of_interest", "establishment"]}, "ChIJf1QuehcQdkgRC4bimA_SZiA": {"geometry": {"location": {"lat": 51.5259202, "lng": -0.2079919}, "viewport": {"northeast": {"lat": 51.5272086802915, "lng": -0.206641369708498}, "southwest": {"lat": 51.52451071970851, "lng": -0.209339330291502}}}, "name": "James Hill House", "place_id": "ChIJf1QuehcQdkgRC4bimA_SZiA", "types": ["point_of_interest", "establishment"], "rating": 4.3, "user_ratings_total": 6}, "ChIJWXwJXhcQdkgRiUPtuDJeFpE": {"geometry": {"location": {"lat": 51.5258606, "lng": -0.2078273}, "viewport": {"northeast": {"lat": 51.5271655802915, "lng": -0.206499169708498}, "southwest": {"lat": 51.5244676197085, "lng": -0.209197130291502}}}, "name": "Homes for Students Portobello Garrow House", "place_id": "ChIJWXwJXhcQdkgRiUPtuDJeFpE", "types": ["point_of_interest", "establishment"], "rating": 3.8, "user_ratings_total": 64}, "ChIJkedg2BkQdkgRxS-mBcFBE_I": {"geometry": {"location": {"lat": 51.5253785, "lng": -0.2080469}, "viewport": {"northeast": {"lat": 51.52676838029149, "lng": -0.206858519708498}, "southwest": {"lat": 51.52407041970849, "lng": -0.209556480291502}}}, "name": "Our Lady of the Holy Souls Church", "place_id": "ChIJkedg2BkQdkgRxS-mBcFBE_I", "types": ["tourist_attraction", "church", "place_of_worship", "point_of_interest", "establishment"], "rating": 4.6, "user_ratings_total": 40}, "ChIJP1Zq8xkQdkgRieEg_WsVF8w": {"geometry": {"location": {"lat": 51.5255648, "lng": -0.2071967}, "viewport": {"northeast": {"lat": 51.5269534302915, "lng": -0.205840469708498}, "southwest": {"lat": 51.5242554697085, "lng": -0.208538430291502}}}, "name": "\u53e4\u8463\u5e97", "place_id": "ChIJP1Zq8xkQdkgRieEg_WsVF8w", "types": ["store", "point_of_interest", "establishment"]}, "ChIJgxcCZBcQdkgRFICAnyu3OVA": {"geometry": {"location": {"lat": 51.525681, "lng": -0.207622}, "viewport": {"northeast": {"lat": 51.52704338029151, "lng": -0.206266919708498}, "southwest": {"lat": 51.52434541970851, "lng": -0.208964880291502}}}, "name": "Bosworth Road (Stop G)", "place_id": "ChIJgxcCZBcQdkgRFICAnyu3OVA", "types": ["transit_station", "point_of_interest", "establishment"]}, "ChIJq5C4nBcQdkgR3X7Af3VdW70": {"geometry": {"location": {"lat": 51.5255597, "lng": -0.2070771}, "viewport": {"northeast": {"lat": 51.5269377802915, "lng": -0.205782419708498}, "southwest": {"lat": 51.5242398197085, "lng": -0.208480380291502}}}, "name": "Maxim Fashion Agents", "place_id": "ChIJq5C4nBcQdkgR3X7Af3VdW70", "types": ["point_of_interest", "establishment"]}, "ChIJWXwJXhcQdkgRuvP7Nd1NrMk": {"geometry": {"location": {"lat": 51.525819, "lng": -0.2074804}, "viewport": {"northeast": {"lat": 51.52711438029149, "lng": -0.2061559697084979}, "southwest": {"lat": 51.52441641970849, "lng": -0.208853930291502}}}, "name": "W10 Detectives", "place_id": "ChIJWXwJXhcQdkgRuvP7Nd1NrMk", "types": ["point_of_interest", "establishment"]}, "ChIJgWhrexcQdkgRZPIn_QlYXtY": {"geometry": {"location": {"lat": 51.5255841, "lng": -0.2079104}, "viewport": {"northeast": {"lat": 51.5270232802915, "lng": -0.2065186697084979}, "southwest": {"lat": 51.5243253197085, "lng": -0.209216630291502}}}, "name": "Kensal Community Centre", "place_id": "ChIJgWhrexcQdkgRZPIn_QlYXtY", "types": ["point_of_interest", "establishment"], "rating": 4.3, "user_ratings_total": 4}, "ChIJhevlZBcQdkgRoT5L6xD4MxE": {"geometry": {"location": {"lat": 51.52579350000001, "lng": -0.207884}, "viewport": {"northeast": {"lat": 51.5271559802915, "lng": -0.206528619708498}, "southwest": {"lat": 51.5244580197085, "lng": -0.2092265802915021}}}, "name": "Bosworth Road", "place_id": "ChIJhevlZBcQdkgRoT5L6xD4MxE", "types": ["transit_station", "point_of_interest", "establishment"]}, "ChIJJYqqjLsRdkgRim69WBYpbp8": {"geometry": {"location": {"lat": 51.52586, "lng": -0.20783}, "viewport": {"northeast": {"lat": 51.5271654802915, "lng": -0.206501619708498}, "southwest": {"lat": 51.52446751970851, "lng": -0.209199580291502}}}, "name": "Queen Mary University of London", "place_id": "ChIJJYqqjLsRdkgRim69WBYpbp8", "types": ["university", "point_of_interest", "establishment"]}, "ChIJwSGhYBcQdkgRhShIrkPT5D4": {"geometry": {"location": {"lat": 51.52517169999999, "lng": -0.2074599}, "viewport": {"northeast": {"lat": 51.5267601302915, "lng": -0.205978069708498}, "southwest": {"lat": 51.5240621697085, "lng": -0.2086760302915021}}}, "name": "Holmefield House", "place_id": "ChIJwSGhYBcQdkgRhShIrkPT5D4", "types": ["point_of_interest", "establishment"], "rating": 4.2, "user_ratings_total": 17}, "ChIJAZOP2BkQdkgRBfCG7I898eg": {"geometry": {"location": {"lat": 51.5253785, "lng": -0.2080469}, "viewport": {"northeast": {"lat": 51.5267602802915, "lng": -0.206863519708498}, "southwest": {"lat": 51.5240623197085, "lng": -0.209561480291502}}}, "name": "Little Rosie's Nursery School", "place_id": "ChIJAZOP2BkQdkgRBfCG7I898eg", "types": ["school", "point_of_interest", "establishment"], "rating": 4.7, "user_ratings_total": 13}, "ChIJlUBsexcQdkgRXYKTj9chcxQ": {"geometry": {"location": {"lat": 51.5257269, "lng": -0.2081188}, "viewport": {"northeast": {"lat": 51.52711798029149, "lng": -0.2067498697084979}, "southwest": {"lat": 51.52442001970849, "lng": -0.209447830291502}}}, "name": "Oglon Day Nursery", "place_id": "ChIJlUBsexcQdkgRXYKTj9chcxQ", "types": ["school", "point_of_interest", "establishment"], "rating": 4.7, "user_ratings_total": 3}, "ChIJvaecZhcQdkgRXqFf6Ia2s40": {"geometry": {"location": {"lat": 51.5260545, "lng": -0.2076278}, "viewport": {"northeast": {"lat": 51.5272530802915, "lng": -0.206347769708498}, "southwest": {"lat": 51.52455511970851, "lng": -0.209045730291502}}}, "name": "Rooms and Studios London Ltd.", "place_id": "ChIJvaecZhcQdkgRXqFf6Ia2s40", "types": ["real_estate_agency", "point_of_interest", "establishment"]}, "ChIJWXwJXhcQdkgR3zzi49fGMWg": {"geometry": {"location": {"lat": 51.5260545, "lng": -0.2076278}, "viewport": {"northeast": {"lat": 51.5272530802915, "lng": -0.206347769708498}, "southwest": {"lat": 51.52455511970851, "lng": -0.209045730291502}}}, "name": "2 Work Ltd", "place_id": "ChIJWXwJXhcQdkgR3zzi49fGMWg", "types": ["general_contractor", "point_of_interest", "establishment"]}, "ChIJv7rAmxcQdkgRuSCiQPvElYo": {"geometry": {"location": {"lat": 51.5260545, "lng": -0.2076278}, "viewport": {"northeast": {"lat": 51.5272530802915, "lng": -0.206347769708498}, "southwest": {"lat": 51.52455511970851, "lng": -0.209045730291502}}}, "name": "Ladbrook Grove Tracing Services", "place_id": "ChIJv7rAmxcQdkgRuSCiQPvElYo", "types": ["point_of_interest", "establishment"]}, "ChIJWXwJXhcQdkgR1j1azwxiU2k": {"geometry": {"location": {"lat": 51.5260545, "lng": -0.2076278}, "viewport": {"northeast": {"lat": 51.5272530802915, "lng": -0.206347769708498}, "southwest": {"lat": 51.52455511970851, "lng": -0.209045730291502}}}, "name": "W10 Flowers", "place_id": "ChIJWXwJXhcQdkgR1j1azwxiU2k", "types": ["florist", "point_of_interest", "store", "establishment"], "rating": 4, "user_ratings_total": 4}, "ChIJEVzAfd8RdkgRmCwO0utK0oo": {"geometry": {"location": {"lat": 51.5260848, "lng": -0.2072835}, "viewport": {"northeast": {"lat": 51.5273742802915, "lng": -0.205929519708498}, "southwest": {"lat": 51.5246763197085, "lng": -0.208627480291502}}}, "name": "Halfpenny Steps", "place_id": "ChIJEVzAfd8RdkgRmCwO0utK0oo", "types": ["point_of_interest", "establishment"], "rating": 5, "user_ratings_total": 1}, "ChIJVVXB3RkQdkgRj5Yn0kT7Gok": {"geometry": {"location": {"lat": 51.52494840000001, "lng": -0.2073762}, "viewport": {"northeast": {"lat": 51.5263540802915, "lng": -0.2059896697084979}, "southwest": {"lat": 51.5236561197085, "lng": -0.208687630291502}}}, "name": "J & P Rubbish", "place_id": "ChIJVVXB3RkQdkgRj5Yn0kT7Gok", "types": ["point_of_interest", "establishment"]}, "ChIJkVWDrxcQdkgRopxcFWBBXe0": {"geometry": {"location": {"lat": 51.52734601772965, "lng": -0.2093277621522193}, "viewport": {"northeast": {"lat": 51.52869593029149, "lng": -0.2074145}, "southwest": {"lat": 51.5259979697085, "lng": -0.2112405}}}, "name": "28-5 Droop St", "place_id": "ChIJkVWDrxcQdkgRopxcFWBBXe0", "types": ["route"]}, "ChIJCxQffD0QdkgRhybsV1F6Tr8": {"geometry": {"location": {"lat": 51.527412, "lng": -0.2091727}, "viewport": {"northeast": {"lat": 51.5287208802915, "lng": -0.207834819708498}, "southwest": {"lat": 51.5260229197085, "lng": -0.210532780291502}}}, "name": "Voices of Spirit", "place_id": "ChIJCxQffD0QdkgRhybsV1F6Tr8", "types": ["health", "point_of_interest", "establishment"], "rating": 5, "user_ratings_total": 3}, "ChIJkWaYrBcQdkgRDMqTzGxSdjo": {"geometry": {"location": {"lat": 51.527878, "lng": -0.209161}, "viewport": {"northeast": {"lat": 51.5292102302915, "lng": -0.207816619708498}, "southwest": {"lat": 51.5265122697085, "lng": -0.210514580291502}}}, "name": "ubitricity Charging Station", "place_id": "ChIJkWaYrBcQdkgRDMqTzGxSdjo", "types": ["point_of_interest", "establishment"]}, "ChIJNwF0rRcQdkgR8nhgNJ-Q6oM": {"geometry": {"location": {"lat": 51.527819, "lng": -0.209422}, "viewport": {"northeast": {"lat": 51.5291736802915, "lng": -0.2080714697084979}, "southwest": {"lat": 51.5264757197085, "lng": -0.210769430291502}}}, "name": "ubitricity Charging Station", "place_id": "ChIJNwF0rRcQdkgR8nhgNJ-Q6oM", "types": ["point_of_interest", "establishment"]}, "ChIJaYJU858adkgR6sjIucbX-P0": {"geometry": {"location": {"lat": 51.52735970000001, "lng": -0.2088057}, "viewport": {"northeast": {"lat": 51.52867438029151, "lng": -0.2074664697084979}, "southwest": {"lat": 51.52597641970851, "lng": -0.210164430291502}}}, "name": "Robert Macdonald", "place_id": "ChIJaYJU858adkgR6sjIucbX-P0", "types": ["health", "point_of_interest", "establishment"], "rating": 5, "user_ratings_total": 1}, "ChIJ-5NWABcQdkgRsRcEBtUy10w": {"geometry": {"location": {"lat": 51.5278149, "lng": -0.208599}, "viewport": {"northeast": {"lat": 51.5291499302915, "lng": -0.207253919708498}, "southwest": {"lat": 51.5264519697085, "lng": -0.209951880291502}}}, "name": "ubitricity Charging Station", "place_id": "ChIJ-5NWABcQdkgRsRcEBtUy10w", "types": ["point_of_interest", "establishment"]}, "ChIJS4KKohcQdkgR_6awvOOprHI": {"geometry": {"location": {"lat": 51.52678912723549, "lng": -0.209453832044661}, "viewport": {"northeast": {"lat": 51.52809898029149, "lng": -0.2070882}, "southwest": {"lat": 51.5254010197085, "lng": -0.2118457999999999}}}, "name": "449-487 Harrow Rd", "place_id": "ChIJS4KKohcQdkgR_6awvOOprHI", "types": ["route"]}, "ChIJKxH4nRcQdkgROL8P2CUa0hk": {"geometry": {"location": {"lat": 51.5262566, "lng": -0.2089281}, "viewport": {"northeast": {"lat": 51.5274705802915, "lng": -0.207641769708498}, "southwest": {"lat": 51.5247726197085, "lng": -0.210339730291502}}}, "name": "Screenhits", "place_id": "ChIJKxH4nRcQdkgROL8P2CUa0hk", "types": ["point_of_interest", "establishment"]}, "ChIJfYG4vRcQdkgRrZU2QdhIA0s": {"geometry": {"location": {"lat": 51.5267604, "lng": -0.2097599}, "viewport": {"northeast": {"lat": 51.5281093802915, "lng": -0.208410919708498}, "southwest": {"lat": 51.5254114197085, "lng": -0.211108880291502}}}, "name": "Jamal Satellites", "place_id": "ChIJfYG4vRcQdkgRrZU2QdhIA0s", "types": ["point_of_interest", "establishment"], "rating": 4, "user_ratings_total": 4}, "ChIJKxH4nRcQdkgRJdHX7I2yrlE": {"geometry": {"location": {"lat": 51.52625320000001, "lng": -0.2087598}, "viewport": {"northeast": {"lat": 51.52745478029151, "lng": -0.207479219708498}, "southwest": {"lat": 51.52475681970851, "lng": -0.210177180291502}}}, "name": "Clarion Communication Management | IT Support & Telecoms", "place_id": "ChIJKxH4nRcQdkgRJdHX7I2yrlE", "types": ["point_of_interest", "establishment"], "rating": 4, "user_ratings_total": 8}, "ChIJKxH4nRcQdkgRKwbTFab_bZE": {"geometry": {"location": {"lat": 51.5262533, "lng": -0.2087593}, "viewport": {"northeast": {"lat": 51.52745478029149, "lng": -0.207478719708498}, "southwest": {"lat": 51.52475681970849, "lng": -0.210176680291502}}}, "name": "Flavr", "place_id": "ChIJKxH4nRcQdkgRKwbTFab_bZE", "types": ["point_of_interest", "establishment"], "rating": 4.3, "user_ratings_total": 6}, "ChIJKxH4nRcQdkgRcbxTG13FfFk": {"geometry": {"location": {"lat": 51.5262533, "lng": -0.2087593}, "viewport": {"northeast": {"lat": 51.52745478029149, "lng": -0.207478719708498}, "southwest": {"lat": 51.52475681970849, "lng": -0.210176680291502}}}, "name": "Northrop McNaughtan Deller", "place_id": "ChIJKxH4nRcQdkgRcbxTG13FfFk", "types": ["lawyer", "point_of_interest", "establishment"]}, "ChIJKxH4nRcQdkgRZU3XrawMIjI": {"geometry": {"location": {"lat": 51.5262533, "lng": -0.2087593}, "viewport": {"northeast": {"lat": 51.52745478029149, "lng": -0.207478719708498}, "southwest": {"lat": 51.52475681970849, "lng": -0.210176680291502}}}, "name": "The Good Web Guide", "place_id": "ChIJKxH4nRcQdkgRZU3XrawMIjI", "types": ["point_of_interest", "establishment"]}, "ChIJKxH4nRcQdkgRyaqm5DWXK_I": {"geometry": {"location": {"lat": 51.5262533, "lng": -0.2087593}, "viewport": {"northeast": {"lat": 51.52745478029149, "lng": -0.207478719708498}, "southwest": {"lat": 51.52475681970849, "lng": -0.210176680291502}}}, "name": "Kuka-me ltd", "place_id": "ChIJKxH4nRcQdkgRyaqm5DWXK_I", "types": ["jewelry_store", "point_of_interest", "store", "establishment"], "rating": 5, "user_ratings_total": 1}, "ChIJKRH4nRcQdkgRyEUenllpjXA": {"geometry": {"location": {"lat": 51.5262533, "lng": -0.2087592}, "viewport": {"northeast": {"lat": 51.52745478029149, "lng": -0.207478619708498}, "southwest": {"lat": 51.52475681970849, "lng": -0.210176580291502}}}, "name": "Everything But The Cow", "place_id": "ChIJKRH4nRcQdkgRyEUenllpjXA", "types": ["food", "point_of_interest", "establishment"]}, "ChIJKRH4nRcQdkgRGg-yuifDTUQ": {"geometry": {"location": {"lat": 51.5262533, "lng": -0.2087592}, "viewport": {"northeast": {"lat": 51.52745478029149, "lng": -0.207478619708498}, "southwest": {"lat": 51.52475681970849, "lng": -0.210176580291502}}}, "name": "ROLAND DE VILLIERS", "place_id": "ChIJKRH4nRcQdkgRGg-yuifDTUQ", "types": ["point_of_interest", "establishment"]}, "ChIJKRH4nRcQdkgRXzyh2p4k0zw": {"geometry": {"location": {"lat": 51.5262533, "lng": -0.2087592}, "viewport": {"northeast": {"lat": 51.52745478029149, "lng": -0.207478619708498}, "southwest": {"lat": 51.52475681970849, "lng": -0.210176580291502}}}, "name": "Christmas Party Bands", "place_id": "ChIJKRH4nRcQdkgRXzyh2p4k0zw", "types": ["point_of_interest", "establishment"]}, "ChIJKRH4nRcQdkgROAnH4gOiWR4": {"geometry": {"location": {"lat": 51.5262533, "lng": -0.2087592}, "viewport": {"northeast": {"lat": 51.52745478029149, "lng": -0.207478619708498}, "southwest": {"lat": 51.52475681970849, "lng": -0.210176580291502}}}, "name": "Ecotomy", "place_id": "ChIJKRH4nRcQdkgROAnH4gOiWR4", "types": ["point_of_interest", "establishment"]}, "ChIJKRH4nRcQdkgRaUKCr3KHVl0": {"geometry": {"location": {"lat": 51.5262533, "lng": -0.2087592}, "viewport": {"northeast": {"lat": 51.52745478029149, "lng": -0.207478619708498}, "southwest": {"lat": 51.52475681970849, "lng": -0.210176580291502}}}, "name": "Jonathan Sanders & Co", "place_id": "ChIJKRH4nRcQdkgRaUKCr3KHVl0", "types": ["point_of_interest", "establishment"]}, "ChIJKRH4nRcQdkgRmNmDsHL_Fkk": {"geometry": {"location": {"lat": 51.5262533, "lng": -0.2087592}, "viewport": {"northeast": {"lat": 51.52745478029149, "lng": -0.207478619708498}, "southwest": {"lat": 51.52475681970849, "lng": -0.210176580291502}}}, "name": "Keystone Accountability", "place_id": "ChIJKRH4nRcQdkgRmNmDsHL_Fkk", "types": ["point_of_interest", "establishment"]}, "ChIJKRH4nRcQdkgRm3WOUH0Wn1A": {"geometry": {"location": {"lat": 51.5262532, "lng": -0.2087588}, "viewport": {"northeast": {"lat": 51.5274547302915, "lng": -0.207478219708498}, "southwest": {"lat": 51.5247567697085, "lng": -0.210176180291502}}}, "name": "MINAKO TANAKA Architecture + Design", "place_id": "ChIJKRH4nRcQdkgRm3WOUH0Wn1A", "types": ["general_contractor", "point_of_interest", "establishment"]}, "ChIJgUMo9-YadkgRV5hjIsh8y58": {"geometry": {"location": {"lat": 51.5261663, "lng": -0.2089322}, "viewport": {"northeast": {"lat": 51.5274222802915, "lng": -0.207626369708498}, "southwest": {"lat": 51.52472431970851, "lng": -0.210324330291502}}}, "name": "PMA Digital", "place_id": "ChIJgUMo9-YadkgRV5hjIsh8y58", "types": ["point_of_interest", "establishment"]}, "ChIJlbrAmxcQdkgRrVLc4SBDcMI": {"geometry": {"location": {"lat": 51.5261676, "lng": -0.209466}, "viewport": {"northeast": {"lat": 51.52762038029149, "lng": -0.208385269708498}, "southwest": {"lat": 51.5249224197085, "lng": -0.211083230291502}}}, "name": "247 Investigations", "place_id": "ChIJlbrAmxcQdkgRrVLc4SBDcMI", "types": ["point_of_interest", "establishment"]}, "ChIJz64dN90RdkgRHKE7Dj88xNo": {"geometry": {"location": {"lat": 51.5261444, "lng": -0.2088595}, "viewport": {"northeast": {"lat": 51.52740448029149, "lng": -0.207551769708498}, "southwest": {"lat": 51.5247065197085, "lng": -0.210249730291502}}}, "name": "100% STUDIOS WEST", "place_id": "ChIJz64dN90RdkgRHKE7Dj88xNo", "types": ["point_of_interest", "establishment"], "rating": 5, "user_ratings_total": 41}, "ChIJu8a74hwQdkgRz0WsH31ipm4": {"geometry": {"location": {"lat": 51.5261503, "lng": -0.2088477}, "viewport": {"northeast": {"lat": 51.5274992802915, "lng": -0.207498719708498}, "southwest": {"lat": 51.5248013197085, "lng": -0.210196680291502}}}, "name": "Foodery Halal Meals", "place_id": "ChIJu8a74hwQdkgRz0WsH31ipm4", "types": ["food", "point_of_interest", "establishment"]}, "ChIJKxH4nRcQdkgRLADark0mFC4": {"geometry": {"location": {"lat": 51.5261503, "lng": -0.2088477}, "viewport": {"northeast": {"lat": 51.5274066802915, "lng": -0.207541669708498}, "southwest": {"lat": 51.5247087197085, "lng": -0.210239630291502}}}, "name": "Amanda Nimmo Fashion Agency", "place_id": "ChIJKxH4nRcQdkgRLADark0mFC4", "types": ["clothing_store", "point_of_interest", "store", "establishment"], "rating": 5, "user_ratings_total": 1}, "ChIJKxH4nRcQdkgR2ppdhufME_M": {"geometry": {"location": {"lat": 51.5261503, "lng": -0.2088477}, "viewport": {"northeast": {"lat": 51.5274066802915, "lng": -0.207541669708498}, "southwest": {"lat": 51.5247087197085, "lng": -0.210239630291502}}}, "name": "Nice & Clean Kensington", "place_id": "ChIJKxH4nRcQdkgR2ppdhufME_M", "types": ["point_of_interest", "establishment"]}, "ChIJr1kKnRcQdkgRp_Qf_u6I4pA": {"geometry": {"location": {"lat": 51.5261503, "lng": -0.2088477}, "viewport": {"northeast": {"lat": 51.5274066802915, "lng": -0.207541669708498}, "southwest": {"lat": 51.5247087197085, "lng": -0.210239630291502}}}, "name": "Freewaters UK", "place_id": "ChIJr1kKnRcQdkgRp_Qf_u6I4pA", "types": ["point_of_interest", "establishment"], "rating": 5, "user_ratings_total": 1}, "ChIJ7_L7ccsRdkgRFX20cp6Q2jU": {"geometry": {"location": {"lat": 51.526149, "lng": -0.20885}, "viewport": {"northeast": {"lat": 51.52740618029149, "lng": -0.2075436197084979}, "southwest": {"lat": 51.5247082197085, "lng": -0.210241580291502}}}, "name": "breathingjuice", "place_id": "ChIJ7_L7ccsRdkgRFX20cp6Q2jU", "types": ["point_of_interest", "establishment"]}, "ChIJ1VEKnRcQdkgRLCYjGciEMQg": {"geometry": {"location": {"lat": 51.5261491, "lng": -0.2088497}, "viewport": {"northeast": {"lat": 51.52740618029149, "lng": -0.207543369708498}, "southwest": {"lat": 51.5247082197085, "lng": -0.210241330291502}}}, "name": "Belgriffin Construction", "place_id": "ChIJ1VEKnRcQdkgRLCYjGciEMQg", "types": ["general_contractor", "point_of_interest", "establishment"]}, "ChIJ1VEKnRcQdkgR_31Ps4_c_cU": {"geometry": {"location": {"lat": 51.5261491, "lng": -0.2088497}, "viewport": {"northeast": {"lat": 51.52740618029149, "lng": -0.207543369708498}, "southwest": {"lat": 51.5247082197085, "lng": -0.210241330291502}}}, "name": "District J Ltd", "place_id": "ChIJ1VEKnRcQdkgR_31Ps4_c_cU", "types": ["point_of_interest", "store", "establishment"]}, "ChIJ01EKnRcQdkgRsDx1LjSeju8": {"geometry": {"location": {"lat": 51.52614909999999, "lng": -0.2088496}, "viewport": {"northeast": {"lat": 51.52740618029149, "lng": -0.207543269708498}, "southwest": {"lat": 51.5247082197085, "lng": -0.210241230291502}}}, "name": "Peninsula Films", "place_id": "ChIJ01EKnRcQdkgRsDx1LjSeju8", "types": ["point_of_interest", "establishment"]}, "ChIJv9Fw4xcQdkgRGloMWpSN3DE": {"geometry": {"location": {"lat": 51.52615219999999, "lng": -0.2095387}, "viewport": {"northeast": {"lat": 51.52761268029149, "lng": -0.208424869708498}, "southwest": {"lat": 51.52491471970849, "lng": -0.211122830291502}}}, "name": "Eastcote Studios Ltd", "place_id": "ChIJv9Fw4xcQdkgRGloMWpSN3DE", "types": ["electronics_store", "home_goods_store", "point_of_interest", "store", "establishment"], "rating": 4.8, "user_ratings_total": 12}, "ChIJv7rAmxcQdkgRLXsE0WPbev8": {"geometry": {"location": {"lat": 51.5261164, "lng": -0.2088811}, "viewport": {"northeast": {"lat": 51.5273911802915, "lng": -0.207566519708498}, "southwest": {"lat": 51.5246932197085, "lng": -0.210264480291502}}}, "name": "Databasics/KnowledgeBase Ltd", "place_id": "ChIJv7rAmxcQdkgRLXsE0WPbev8", "types": ["point_of_interest", "establishment"]}, "ChIJXa_AlRcQdkgRtKILOAqUjr4": {"geometry": {"location": {"lat": 51.5264376, "lng": -0.2099419}, "viewport": {"northeast": {"lat": 51.5277553802915, "lng": -0.208553769708498}, "southwest": {"lat": 51.5250574197085, "lng": -0.211251730291502}}}, "name": "Chapter Portobello", "place_id": "ChIJXa_AlRcQdkgRtKILOAqUjr4", "types": ["point_of_interest", "establishment"], "rating": 4.1, "user_ratings_total": 64}, "ChIJv7rAmxcQdkgRaFAev5UMUyI": {"geometry": {"location": {"lat": 51.5261164, "lng": -0.2088811}, "viewport": {"northeast": {"lat": 51.5273911802915, "lng": -0.207566519708498}, "southwest": {"lat": 51.5246932197085, "lng": -0.210264480291502}}}, "name": "Green Row", "place_id": "ChIJv7rAmxcQdkgRaFAev5UMUyI", "types": ["point_of_interest", "establishment"]}, "ChIJZ77qmxcQdkgRyedwwjY0vmE": {"geometry": {"location": {"lat": 51.5261164, "lng": -0.2088811}, "viewport": {"northeast": {"lat": 51.5273911802915, "lng": -0.207566519708498}, "southwest": {"lat": 51.5246932197085, "lng": -0.210264480291502}}}, "name": "Fogelman P J & Co", "place_id": "ChIJZ77qmxcQdkgRyedwwjY0vmE", "types": ["accounting", "finance", "point_of_interest", "establishment"]}, "ChIJv7rAmxcQdkgR2iNTrKoIbDo": {"geometry": {"location": {"lat": 51.5261164, "lng": -0.2088811}, "viewport": {"northeast": {"lat": 51.5273911802915, "lng": -0.207566519708498}, "southwest": {"lat": 51.5246932197085, "lng": -0.210264480291502}}}, "name": "Creative Fibre", "place_id": "ChIJv7rAmxcQdkgR2iNTrKoIbDo", "types": ["point_of_interest", "establishment"]}, "ChIJKxH4nRcQdkgRG3cG6GooQSs": {"geometry": {"location": {"lat": 51.52611640000001, "lng": -0.2088805}, "viewport": {"northeast": {"lat": 51.52739113029151, "lng": -0.207565969708498}, "southwest": {"lat": 51.52469316970851, "lng": -0.210263930291502}}}, "name": "Showroom One", "place_id": "ChIJKxH4nRcQdkgRG3cG6GooQSs", "types": ["point_of_interest", "store", "establishment"]}, "ChIJwwo2irscdkgRXUKcFpnGb88": {"geometry": {"location": {"lat": 51.52611640000001, "lng": -0.2088805}, "viewport": {"northeast": {"lat": 51.52739113029151, "lng": -0.207565969708498}, "southwest": {"lat": 51.52469316970851, "lng": -0.210263930291502}}}, "name": "Aula Education", "place_id": "ChIJwwo2irscdkgRXUKcFpnGb88", "types": ["point_of_interest", "establishment"]}, "ChIJddNGmwAQdkgR0jJ65nbZS7M": {"geometry": {"location": {"lat": 51.5261203, "lng": -0.2088525}, "viewport": {"northeast": {"lat": 51.5273909302915, "lng": -0.207539869708498}, "southwest": {"lat": 51.5246929697085, "lng": -0.210237830291502}}}, "name": "ny-lon design ltd", "place_id": "ChIJddNGmwAQdkgR0jJ65nbZS7M", "types": ["point_of_interest", "establishment"]}, "ChIJKefinxcQdkgRdBI5v0BmZn4": {"geometry": {"location": {"lat": 51.52654990000001, "lng": -0.2084905}, "viewport": {"northeast": {"lat": 51.5278988802915, "lng": -0.207141519708498}, "southwest": {"lat": 51.52520091970851, "lng": -0.209839480291502}}}, "name": "Gillian Radford & Co", "place_id": "ChIJKefinxcQdkgRdBI5v0BmZn4", "types": ["lawyer", "point_of_interest", "establishment"], "rating": 3.3, "user_ratings_total": 20}, "ChIJfZaioRcQdkgRlcLkAJtVPyY": {"geometry": {"location": {"lat": 51.526779, "lng": -0.20902}, "viewport": {"northeast": {"lat": 51.5281043302915, "lng": -0.207681269708498}, "southwest": {"lat": 51.5254063697085, "lng": -0.210379230291502}}}, "name": "Third Avenue (Stop P)", "place_id": "ChIJfZaioRcQdkgRlcLkAJtVPyY", "types": ["transit_station", "point_of_interest", "establishment"], "rating": 5, "user_ratings_total": 2}, "ChIJ_dcLvRcQdkgRIuxYy6tiBAs": {"geometry": {"location": {"lat": 51.5267515, "lng": -0.2096543}, "viewport": {"northeast": {"lat": 51.5281004802915, "lng": -0.208305319708498}, "southwest": {"lat": 51.5254025197085, "lng": -0.211003280291502}}}, "name": "Styel@481 Hair & Beauty Salon", "place_id": "ChIJ_dcLvRcQdkgRIuxYy6tiBAs", "types": ["beauty_salon", "point_of_interest", "establishment"]}, "ChIJO8BDnBcQdkgR4fHOYECLAuk": {"geometry": {"location": {"lat": 51.5262141, "lng": -0.2090029}, "viewport": {"northeast": {"lat": 51.5274538802915, "lng": -0.207704569708498}, "southwest": {"lat": 51.5247559197085, "lng": -0.210402530291502}}}, "name": "London Wine Whisperer", "place_id": "ChIJO8BDnBcQdkgR4fHOYECLAuk", "types": ["food", "point_of_interest", "establishment"]}, "ChIJKRH4nRcQdkgR6qCNKRyX3MQ": {"geometry": {"location": {"lat": 51.5262533, "lng": -0.2087592}, "viewport": {"northeast": {"lat": 51.5276022802915, "lng": -0.207410219708498}, "southwest": {"lat": 51.5249043197085, "lng": -0.210108180291502}}}, "name": "Paradym Ltd", "place_id": "ChIJKRH4nRcQdkgR6qCNKRyX3MQ", "types": ["point_of_interest", "establishment"]}, "ChIJKRH4nRcQdkgRgPiye4GmKy4": {"geometry": {"location": {"lat": 51.5262533, "lng": -0.2087592}, "viewport": {"northeast": {"lat": 51.52745478029149, "lng": -0.207478619708498}, "southwest": {"lat": 51.52475681970849, "lng": -0.210176580291502}}}, "name": "TRIAS CONSULT LTD", "place_id": "ChIJKRH4nRcQdkgRgPiye4GmKy4", "types": ["point_of_interest", "establishment"]}, "ChIJKRH4nRcQdkgRvGGYvFHjBXQ": {"geometry": {"location": {"lat": 51.5262533, "lng": -0.2087592}, "viewport": {"northeast": {"lat": 51.52745478029149, "lng": -0.207478619708498}, "southwest": {"lat": 51.52475681970849, "lng": -0.210176580291502}}}, "name": "Freedom Management", "place_id": "ChIJKRH4nRcQdkgRvGGYvFHjBXQ", "types": ["point_of_interest", "establishment"]}, "ChIJKRH4nRcQdkgRMQgwXCD7lWs": {"geometry": {"location": {"lat": 51.5262533, "lng": -0.2087592}, "viewport": {"northeast": {"lat": 51.52745478029149, "lng": -0.207478619708498}, "southwest": {"lat": 51.52475681970849, "lng": -0.210176580291502}}}, "name": "Sosius", "place_id": "ChIJKRH4nRcQdkgRMQgwXCD7lWs", "types": ["point_of_interest", "establishment"]}, "ChIJdSqKnxcQdkgR6RpKkqaLNgc": {"geometry": {"location": {"lat": 51.5264887, "lng": -0.2084361}, "viewport": {"northeast": {"lat": 51.5278376802915, "lng": -0.207087119708498}, "southwest": {"lat": 51.52513971970851, "lng": -0.209785080291502}}}, "name": "Co-op Funeralcare, North Kensington", "place_id": "ChIJdSqKnxcQdkgR6RpKkqaLNgc", "types": ["funeral_home", "point_of_interest", "establishment"], "rating": 5, "user_ratings_total": 5}, "ChIJSegFTCkRdkgR2Glav_2l7H4": {"geometry": {"location": {"lat": 51.52617559999999, "lng": -0.2090163}, "viewport": {"northeast": {"lat": 51.52743428029149, "lng": -0.207709219708498}, "southwest": {"lat": 51.5247363197085, "lng": -0.210407180291502}}}, "name": "Buckingham & Lloyds", "place_id": "ChIJSegFTCkRdkgR2Glav_2l7H4", "types": ["real_estate_agency", "point_of_interest", "establishment"]}, "ChIJWVK8pGARdkgRP3Bijc7KYCo": {"geometry": {"location": {"lat": 51.5269729, "lng": -0.2086287}, "viewport": {"northeast": {"lat": 51.5282879802915, "lng": -0.207282169708498}, "southwest": {"lat": 51.5255900197085, "lng": -0.209980130291502}}}, "name": "Ash house", "place_id": "ChIJWVK8pGARdkgRP3Bijc7KYCo", "types": ["point_of_interest", "establishment"]}, "ChIJn524nBcQdkgRJD5l8h5mWiA": {"geometry": {"location": {"lat": 51.5261164, "lng": -0.2088811}, "viewport": {"northeast": {"lat": 51.5273911802915, "lng": -0.207566519708498}, "southwest": {"lat": 51.5246932197085, "lng": -0.210264480291502}}}, "name": "Personal Presentation", "place_id": "ChIJn524nBcQdkgRJD5l8h5mWiA", "types": ["point_of_interest", "establishment"], "rating": 5, "user_ratings_total": 5}, "ChIJr1kKnRcQdkgRFxcybVuTc2U": {"geometry": {"location": {"lat": 51.5261503, "lng": -0.2088477}, "viewport": {"northeast": {"lat": 51.5274066802915, "lng": -0.207541669708498}, "southwest": {"lat": 51.5247087197085, "lng": -0.210239630291502}}}, "name": "Pan-n-Ice Events", "place_id": "ChIJr1kKnRcQdkgRFxcybVuTc2U", "types": ["food", "point_of_interest", "store", "establishment"], "rating": 4.8, "user_ratings_total": 21}, "ChIJb8HUg8YddkgRuV72Hyc2tJY": {"geometry": {"location": {"lat": 51.52614999999999, "lng": -0.208848}, "viewport": {"northeast": {"lat": 51.5274065302915, "lng": -0.207541919708498}, "southwest": {"lat": 51.5247085697085, "lng": -0.210239880291502}}}, "name": "Lapidary Construction", "place_id": "ChIJb8HUg8YddkgRuV72Hyc2tJY", "types": ["general_contractor", "point_of_interest", "establishment"], "rating": 5, "user_ratings_total": 4}, "ChIJN04KnRcQdkgRZPHksRS7-sw": {"geometry": {"location": {"lat": 51.526149, "lng": -0.20885}, "viewport": {"northeast": {"lat": 51.52740618029149, "lng": -0.2075436197084979}, "southwest": {"lat": 51.5247082197085, "lng": -0.210241580291502}}}, "name": "UKNY Music Ltd", "place_id": "ChIJN04KnRcQdkgRZPHksRS7-sw", "types": ["point_of_interest", "establishment"]}, "ChIJ1VEKnRcQdkgR1sy7mX-mi88": {"geometry": {"location": {"lat": 51.5261491, "lng": -0.2088497}, "viewport": {"northeast": {"lat": 51.52740618029149, "lng": -0.207543369708498}, "southwest": {"lat": 51.5247082197085, "lng": -0.210241330291502}}}, "name": "We Know You", "place_id": "ChIJ1VEKnRcQdkgR1sy7mX-mi88", "types": ["point_of_interest", "establishment"]}, "ChIJ01EKnRcQdkgRsI1Wk5W5Zyo": {"geometry": {"location": {"lat": 51.52614909999999, "lng": -0.2088496}, "viewport": {"northeast": {"lat": 51.52740618029149, "lng": -0.207543269708498}, "southwest": {"lat": 51.5247082197085, "lng": -0.210241230291502}}}, "name": "Humanitarian Outcomes", "place_id": "ChIJ01EKnRcQdkgRsI1Wk5W5Zyo", "types": ["point_of_interest", "establishment"]}, "ChIJ01EKnRcQdkgRoBFW_AxtHmk": {"geometry": {"location": {"lat": 51.52614909999999, "lng": -0.2088496}, "viewport": {"northeast": {"lat": 51.52740618029149, "lng": -0.207543269708498}, "southwest": {"lat": 51.5247082197085, "lng": -0.210241230291502}}}, "name": "Apt Ltd", "place_id": "ChIJ01EKnRcQdkgRoBFW_AxtHmk", "types": ["point_of_interest", "establishment"]}, "ChIJ01EKnRcQdkgReubvPAzCtiw": {"geometry": {"location": {"lat": 51.52614909999999, "lng": -0.2088496}, "viewport": {"northeast": {"lat": 51.52740618029149, "lng": -0.207543269708498}, "southwest": {"lat": 51.5247082197085, "lng": -0.210241230291502}}}, "name": "Albos Capital", "place_id": "ChIJ01EKnRcQdkgReubvPAzCtiw", "types": ["finance", "point_of_interest", "establishment"]}, "ChIJKxH4nRcQdkgRERIhperWDv0": {"geometry": {"location": {"lat": 51.52614919999999, "lng": -0.2088491}, "viewport": {"northeast": {"lat": 51.52740618029149, "lng": -0.2075427697084979}, "southwest": {"lat": 51.5247082197085, "lng": -0.210240730291502}}}, "name": "Petra Nemcova", "place_id": "ChIJKxH4nRcQdkgRERIhperWDv0", "types": ["point_of_interest", "establishment"]}, "ChIJKxH4nRcQdkgRag4-m_eS-QA": {"geometry": {"location": {"lat": 51.52614919999999, "lng": -0.2088491}, "viewport": {"northeast": {"lat": 51.52740618029149, "lng": -0.2075427697084979}, "southwest": {"lat": 51.5247082197085, "lng": -0.210240730291502}}}, "name": "North v South", "place_id": "ChIJKxH4nRcQdkgRag4-m_eS-QA", "types": ["point_of_interest", "establishment"]}, "ChIJPVc8E08QdkgRqFPTf4Hgt4g": {"geometry": {"location": {"lat": 51.52614919999999, "lng": -0.2088491}, "viewport": {"northeast": {"lat": 51.52740618029149, "lng": -0.2075427697084979}, "southwest": {"lat": 51.5247082197085, "lng": -0.210240730291502}}}, "name": "numberoneson brand & marketing consultancy", "place_id": "ChIJPVc8E08QdkgRqFPTf4Hgt4g", "types": ["point_of_interest", "establishment"]}, "ChIJn524nBcQdkgRvma6diWhYcw": {"geometry": {"location": {"lat": 51.5261164, "lng": -0.2088811}, "viewport": {"northeast": {"lat": 51.5273911802915, "lng": -0.207566519708498}, "southwest": {"lat": 51.5246932197085, "lng": -0.210264480291502}}}, "name": "I C D Studios", "place_id": "ChIJn524nBcQdkgRvma6diWhYcw", "types": ["electronics_store", "home_goods_store", "point_of_interest", "store", "establishment"]}, "ChIJv7rAmxcQdkgRJa6yn1v5sWs": {"geometry": {"location": {"lat": 51.5261164, "lng": -0.2088811}, "viewport": {"northeast": {"lat": 51.5273911802915, "lng": -0.207566519708498}, "southwest": {"lat": 51.5246932197085, "lng": -0.210264480291502}}}, "name": "LONDON AUDIO LABS - Audio Post Production & Sound Design and VFX", "place_id": "ChIJv7rAmxcQdkgRJa6yn1v5sWs", "types": ["electronics_store", "home_goods_store", "point_of_interest", "store", "establishment"]}, "ChIJk5EMeBcQdkgRPGRlhKDpwj4": {"geometry": {"location": {"lat": 51.52592165106181, "lng": -0.2086917990148413}, "viewport": {"northeast": {"lat": 51.5272706302915, "lng": -0.207342819708498}, "southwest": {"lat": 51.5245726697085, "lng": -0.210040780291502}}}, "name": "222-204 Kensal Rd", "place_id": "ChIJk5EMeBcQdkgRPGRlhKDpwj4", "types": ["route"]}, "ChIJyQ_SjxcQdkgR_kJSkeRp8JI": {"geometry": {"location": {"lat": 51.5259302, "lng": -0.2096393}, "viewport": {"northeast": {"lat": 51.5272289302915, "lng": -0.208310769708498}, "southwest": {"lat": 51.5245309697085, "lng": -0.211008730291502}}}, "name": "St. Thomas Kensal Town", "place_id": "ChIJyQ_SjxcQdkgR_kJSkeRp8JI", "types": ["church", "place_of_worship", "point_of_interest", "establishment"], "rating": 4.4, "user_ratings_total": 10}, "ChIJk2SdpR4QdkgRAvoPGQs_fzg": {"geometry": {"location": {"lat": 51.526016, "lng": -0.2088399}, "viewport": {"northeast": {"lat": 51.5273337302915, "lng": -0.207505419708498}, "southwest": {"lat": 51.5246357697085, "lng": -0.210203380291502}}}, "name": "By Caprice", "place_id": "ChIJk2SdpR4QdkgRAvoPGQs_fzg", "types": ["home_goods_store", "point_of_interest", "store", "establishment"], "rating": 5, "user_ratings_total": 2}, "ChIJn524nBcQdkgRSUL96llW9ew": {"geometry": {"location": {"lat": 51.5260475, "lng": -0.209019}, "viewport": {"northeast": {"lat": 51.5273655302915, "lng": -0.207684369708498}, "southwest": {"lat": 51.52466756970851, "lng": -0.2103823302915021}}},