{"E00024008": {"ChIJ_0MNf94EdkgRFrcpmsoinTo": {"geometry": {"location": {"lat": 51.49633222864124, "lng": -0.1350918114688094}, "viewport": {"northeast": {"lat": 51.4976826302915, "lng": -0.133741869708498}, "southwest": {"lat": 51.4949846697085, "lng": -0.1364398302915021}}}, "name": "6-1 B323", "place_id": "ChIJ_0MNf94EdkgRFrcpmsoinTo", "types": ["route"]}, "ChIJE9Ty290EdkgRIS-i6FVWp54": {"geometry": {"location": {"lat": 51.496437, "lng": -0.1347392}, "viewport": {"northeast": {"lat": 51.4976998802915, "lng": -0.133334269708498}, "southwest": {"lat": 51.4950019197085, "lng": -0.136032230291502}}}, "name": "Anglo-Chinese Translations Ltd", "place_id": "ChIJE9Ty290EdkgRIS-i6FVWp54", "types": ["point_of_interest", "establishment"], "rating": 5, "user_ratings_total": 1}, "ChIJlTT41N0EdkgRbAcEV_2Suow": {"geometry": {"location": {"lat": 51.4963881, "lng": -0.1347678}, "viewport": {"northeast": {"lat": 51.4976688802915, "lng": -0.133374519708498}, "southwest": {"lat": 51.4949709197085, "lng": -0.136072480291502}}}, "name": "Catalysts Ltd", "place_id": "ChIJlTT41N0EdkgRbAcEV_2Suow", "types": ["point_of_interest", "establishment"]}, "ChIJr0tTSd0EdkgRj69mC3TRU6o": {"geometry": {"location": {"lat": 51.49612759999999, "lng": -0.1344469}, "viewport": {"northeast": {"lat": 51.4975548802915, "lng": -0.133150019708498}, "southwest": {"lat": 51.4948569197085, "lng": -0.135847980291502}}}, "name": "The Grey Coat Hospital", "place_id": "ChIJr0tTSd0EdkgRj69mC3TRU6o", "types": ["secondary_school", "school", "point_of_interest", "establishment"], "rating": 2.9, "user_ratings_total": 48}, "ChIJGza7eMekcEgRakNwkuBGA6c": {"geometry": {"location": {"lat": 51.4964343, "lng": -0.1347808}, "viewport": {"northeast": {"lat": 51.4977199302915, "lng": -0.133532619708498}, "southwest": {"lat": 51.4950219697085, "lng": -0.136230580291502}}}, "name": "Dump De Fridge", "place_id": "ChIJGza7eMekcEgRakNwkuBGA6c", "types": ["point_of_interest", "establishment"], "rating": 2.3, "user_ratings_total": 3}, "ChIJ83_XKtwEdkgRXeMUyC-otds": {"geometry": {"location": {"lat": 51.4964343, "lng": -0.1347808}, "viewport": {"northeast": {"lat": 51.4977199302915, "lng": -0.133532619708498}, "southwest": {"lat": 51.4950219697085, "lng": -0.136230580291502}}}, "name": "Mwana Africa Plc", "place_id": "ChIJ83_XKtwEdkgRXeMUyC-otds", "types": ["point_of_interest", "establishment"]}, "ChIJg6Uu1d0EdkgRVS3DQG8FZL0": {"geometry": {"location": {"lat": 51.4964026, "lng": -0.1345381}, "viewport": {"northeast": {"lat": 51.4977029302915, "lng": -0.133155519708498}, "southwest": {"lat": 51.4950049697085, "lng": -0.135853480291502}}}, "name": "R3Location", "place_id": "ChIJg6Uu1d0EdkgRVS3DQG8FZL0", "types": ["moving_company", "point_of_interest", "establishment"]}, "ChIJnaUu1d0EdkgRbevluLhjRLE": {"geometry": {"location": {"lat": 51.4964026, "lng": -0.1345306}, "viewport": {"northeast": {"lat": 51.4977037802915, "lng": -0.133148619708498}, "southwest": {"lat": 51.4950058197085, "lng": -0.135846580291502}}}, "name": "ParkBee Victoria - Greycoat Place", "place_id": "ChIJnaUu1d0EdkgRbevluLhjRLE", "types": ["parking", "point_of_interest", "establishment"], "rating": 3, "user_ratings_total": 8}, "ChIJi-RhYeAEdkgR-Ox2MxNm_kA": {"geometry": {"location": {"lat": 51.49649429999999, "lng": -0.1348577}, "viewport": {"northeast": {"lat": 51.4977583302915, "lng": -0.133521619708498}, "southwest": {"lat": 51.4950603697085, "lng": -0.136219580291502}}}, "name": "Scanlans Consultant Surveyors", "place_id": "ChIJi-RhYeAEdkgR-Ox2MxNm_kA", "types": ["point_of_interest", "establishment"], "rating": 5, "user_ratings_total": 1}, "ChIJlTT41N0EdkgRe9GTC7aoh6w": {"geometry": {"location": {"lat": 51.49649429999999, "lng": -0.1348577}, "viewport": {"northeast": {"lat": 51.49774993029149, "lng": -0.133571069708498}, "southwest": {"lat": 51.49505196970849, "lng": -0.136269030291502}}}, "name": "Axford Stanley Ltd.", "place_id": "ChIJlTT41N0EdkgRe9GTC7aoh6w", "types": ["accounting", "finance", "point_of_interest", "establishment"]}, "ChIJ2R8l1d0EdkgRU4oLgtk-o3s": {"geometry": {"location": {"lat": 51.4964841, "lng": -0.1348514}, "viewport": {"northeast": {"lat": 51.4977448302915, "lng": -0.133567919708498}, "southwest": {"lat": 51.4950468697085, "lng": -0.136265880291502}}}, "name": "- Gulf Petrochem Ltd", "place_id": "ChIJ2R8l1d0EdkgRU4oLgtk-o3s", "types": ["point_of_interest", "establishment"]}, "ChIJlTT41N0EdkgRMY_sZmUEAzc": {"geometry": {"location": {"lat": 51.49649429999999, "lng": -0.1348577}, "viewport": {"northeast": {"lat": 51.49774993029149, "lng": -0.133571069708498}, "southwest": {"lat": 51.49505196970849, "lng": -0.136269030291502}}}, "name": "Orteq Ltd", "place_id": "ChIJlTT41N0EdkgRMY_sZmUEAzc", "types": ["health", "point_of_interest", "establishment"]}, "ChIJ5x85DMTQdUgRhQfgCNS2-F0": {"geometry": {"location": {"lat": 51.496513, "lng": -0.1348379}, "viewport": {"northeast": {"lat": 51.49775928029149, "lng": -0.133561169708498}, "southwest": {"lat": 51.49506131970849, "lng": -0.136259130291502}}}, "name": "Agile Talent Management Ltd", "place_id": "ChIJ5x85DMTQdUgRhQfgCNS2-F0", "types": ["point_of_interest", "establishment"]}, "ChIJlTT41N0EdkgRInOSkBkvAy0": {"geometry": {"location": {"lat": 51.49649429999999, "lng": -0.1348577}, "viewport": {"northeast": {"lat": 51.49774993029149, "lng": -0.133571069708498}, "southwest": {"lat": 51.49505196970849, "lng": -0.136269030291502}}}, "name": "TrafikAds (UK) Ltd.", "place_id": "ChIJlTT41N0EdkgRInOSkBkvAy0", "types": ["point_of_interest", "establishment"]}, "ChIJlTT41N0EdkgRMQmka4VYgOw": {"geometry": {"location": {"lat": 51.49649429999999, "lng": -0.1348577}, "viewport": {"northeast": {"lat": 51.49774993029149, "lng": -0.133571069708498}, "southwest": {"lat": 51.49505196970849, "lng": -0.136269030291502}}}, "name": "Inspire 2 Independence", "place_id": "ChIJlTT41N0EdkgRMQmka4VYgOw", "types": ["point_of_interest", "establishment"]}, "ChIJlTT41N0EdkgRF2sDLvE9vE4": {"geometry": {"location": {"lat": 51.49649429999999, "lng": -0.1348577}, "viewport": {"northeast": {"lat": 51.49774993029149, "lng": -0.133571069708498}, "southwest": {"lat": 51.49505196970849, "lng": -0.136269030291502}}}, "name": "Leask Rodgers", "place_id": "ChIJlTT41N0EdkgRF2sDLvE9vE4", "types": ["point_of_interest", "establishment"]}, "ChIJp4fcZ94EdkgRbGDcjA7fQJM": {"geometry": {"location": {"lat": 51.49651299999999, "lng": -0.134838}, "viewport": {"northeast": {"lat": 51.49775928029149, "lng": -0.133561219708498}, "southwest": {"lat": 51.49506131970849, "lng": -0.136259180291502}}}, "name": "NewBase International Ltd", "place_id": "ChIJp4fcZ94EdkgRbGDcjA7fQJM", "types": ["point_of_interest", "establishment"], "rating": 3, "user_ratings_total": 2}, "ChIJlTT41N0EdkgRh71yPjLOSSc": {"geometry": {"location": {"lat": 51.49649429999999, "lng": -0.1348577}, "viewport": {"northeast": {"lat": 51.49774993029149, "lng": -0.133571069708498}, "southwest": {"lat": 51.49505196970849, "lng": -0.136269030291502}}}, "name": "CUBOT GUINEE", "place_id": "ChIJlTT41N0EdkgRh71yPjLOSSc", "types": ["point_of_interest", "establishment"]}, "ChIJlTT41N0EdkgRrMm_VUq1UWs": {"geometry": {"location": {"lat": 51.496513, "lng": -0.1348379}, "viewport": {"northeast": {"lat": 51.49775928029149, "lng": -0.133561169708498}, "southwest": {"lat": 51.49506131970849, "lng": -0.136259130291502}}}, "name": "Aplin Translation Services", "place_id": "ChIJlTT41N0EdkgRrMm_VUq1UWs", "types": ["point_of_interest", "establishment"]}, "ChIJlTT41N0EdkgRffY3DK2tPdI": {"geometry": {"location": {"lat": 51.496513, "lng": -0.1348379}, "viewport": {"northeast": {"lat": 51.49775928029149, "lng": -0.133561169708498}, "southwest": {"lat": 51.49506131970849, "lng": -0.136259130291502}}}, "name": "Worldwide Company Corporate Finance Brokers", "place_id": "ChIJlTT41N0EdkgRffY3DK2tPdI", "types": ["finance", "point_of_interest", "establishment"]}, "ChIJkUSQyqD9dUgRrr9Mo8QOI-o": {"geometry": {"location": {"lat": 51.496513, "lng": -0.1348379}, "viewport": {"northeast": {"lat": 51.49775928029149, "lng": -0.133561169708498}, "southwest": {"lat": 51.49506131970849, "lng": -0.136259130291502}}}, "name": "Alba Psychology", "place_id": "ChIJkUSQyqD9dUgRrr9Mo8QOI-o", "types": ["health", "point_of_interest", "establishment"]}, "ChIJlTT41N0EdkgRmU6U0KFzHzg": {"geometry": {"location": {"lat": 51.4965116, "lng": -0.1348605}, "viewport": {"northeast": {"lat": 51.4977585802915, "lng": -0.133572469708498}, "southwest": {"lat": 51.4950606197085, "lng": -0.136270430291502}}}, "name": "CBoxx Ltd", "place_id": "ChIJlTT41N0EdkgRmU6U0KFzHzg", "types": ["point_of_interest", "establishment"]}, "ChIJg6Uu1d0EdkgRGyRB-sCqWQM": {"geometry": {"location": {"lat": 51.496513, "lng": -0.1348378}, "viewport": {"northeast": {"lat": 51.49775928029149, "lng": -0.133561119708498}, "southwest": {"lat": 51.49506131970849, "lng": -0.136259080291502}}}, "name": "AWA Limited", "place_id": "ChIJg6Uu1d0EdkgRGyRB-sCqWQM", "types": ["point_of_interest", "establishment"]}, "ChIJg6Uu1d0EdkgRHXYnjdnP0YM": {"geometry": {"location": {"lat": 51.496513, "lng": -0.1348378}, "viewport": {"northeast": {"lat": 51.49775928029149, "lng": -0.133561119708498}, "southwest": {"lat": 51.49506131970849, "lng": -0.136259080291502}}}, "name": "Undet", "place_id": "ChIJg6Uu1d0EdkgRHXYnjdnP0YM", "types": ["point_of_interest", "establishment"]}, "ChIJg6Uu1d0EdkgRJhZD1OCW2H4": {"geometry": {"location": {"lat": 51.496513, "lng": -0.1348378}, "viewport": {"northeast": {"lat": 51.49775928029149, "lng": -0.133561119708498}, "southwest": {"lat": 51.49506131970849, "lng": -0.136259080291502}}}, "name": "The Pipe Jacking Association", "place_id": "ChIJg6Uu1d0EdkgRJhZD1OCW2H4", "types": ["point_of_interest", "establishment"]}, "ChIJnaUu1d0EdkgRuwOqLO8ucPg": {"geometry": {"location": {"lat": 51.496513, "lng": -0.1348379}, "viewport": {"northeast": {"lat": 51.49775928029149, "lng": -0.133561169708498}, "southwest": {"lat": 51.49506131970849, "lng": -0.136259130291502}}}, "name": "Parallel Mind", "place_id": "ChIJnaUu1d0EdkgRuwOqLO8ucPg", "types": ["point_of_interest", "establishment"]}, "ChIJnaUu1d0EdkgRFcDw5optohc": {"geometry": {"location": {"lat": 51.496513, "lng": -0.1348379}, "viewport": {"northeast": {"lat": 51.49775928029149, "lng": -0.133561169708498}, "southwest": {"lat": 51.49506131970849, "lng": -0.136259130291502}}}, "name": "Etun Education \u4e00\u987f\u6559\u80b2", "place_id": "ChIJnaUu1d0EdkgRFcDw5optohc", "types": ["point_of_interest", "establishment"]}, "ChIJnaUu1d0EdkgRIKXbL-wswiY": {"geometry": {"location": {"lat": 51.496513, "lng": -0.1348379}, "viewport": {"northeast": {"lat": 51.49775928029149, "lng": -0.133561169708498}, "southwest": {"lat": 51.49506131970849, "lng": -0.136259130291502}}}, "name": "WQ Associates", "place_id": "ChIJnaUu1d0EdkgRIKXbL-wswiY", "types": ["travel_agency", "point_of_interest", "establishment"]}, "ChIJnaUu1d0EdkgRKhl4qWkgyrc": {"geometry": {"location": {"lat": 51.496513, "lng": -0.1348379}, "viewport": {"northeast": {"lat": 51.49775928029149, "lng": -0.133561169708498}, "southwest": {"lat": 51.49506131970849, "lng": -0.136259130291502}}}, "name": "Create Guarantee", "place_id": "ChIJnaUu1d0EdkgRKhl4qWkgyrc", "types": ["point_of_interest", "establishment"]}, "ChIJnaUu1d0EdkgRf2OCyx5vyEE": {"geometry": {"location": {"lat": 51.496513, "lng": -0.1348379}, "viewport": {"northeast": {"lat": 51.49775928029149, "lng": -0.133561169708498}, "southwest": {"lat": 51.49506131970849, "lng": -0.136259130291502}}}, "name": "Manderstam International Group", "place_id": "ChIJnaUu1d0EdkgRf2OCyx5vyEE", "types": ["point_of_interest", "establishment"]}, "ChIJ83_XKtwEdkgR09xEr_QS_f0": {"geometry": {"location": {"lat": 51.496513, "lng": -0.1348379}, "viewport": {"northeast": {"lat": 51.49775928029149, "lng": -0.133561169708498}, "southwest": {"lat": 51.49506131970849, "lng": -0.136259130291502}}}, "name": "Urban Life Magazine", "place_id": "ChIJ83_XKtwEdkgR09xEr_QS_f0", "types": ["point_of_interest", "establishment"], "rating": 2.3, "user_ratings_total": 3}, "ChIJ83_XKtwEdkgRr85aRVSmv7U": {"geometry": {"location": {"lat": 51.496513, "lng": -0.1348379}, "viewport": {"northeast": {"lat": 51.49775928029149, "lng": -0.133561169708498}, "southwest": {"lat": 51.49506131970849, "lng": -0.136259130291502}}}, "name": "O C P", "place_id": "ChIJ83_XKtwEdkgRr85aRVSmv7U", "types": ["point_of_interest", "establishment"]}, "ChIJ83_XKtwEdkgR8jG52UiZqqQ": {"geometry": {"location": {"lat": 51.496513, "lng": -0.1348379}, "viewport": {"northeast": {"lat": 51.49775928029149, "lng": -0.133561169708498}, "southwest": {"lat": 51.49506131970849, "lng": -0.136259130291502}}}, "name": "T-class Security Ltd", "place_id": "ChIJ83_XKtwEdkgR8jG52UiZqqQ", "types": ["point_of_interest", "establishment"]}, "ChIJ83_XKtwEdkgRfv7frrwwppw": {"geometry": {"location": {"lat": 51.496513, "lng": -0.1348379}, "viewport": {"northeast": {"lat": 51.49775928029149, "lng": -0.133561169708498}, "southwest": {"lat": 51.49506131970849, "lng": -0.136259130291502}}}, "name": "M w B Ltd", "place_id": "ChIJ83_XKtwEdkgRfv7frrwwppw", "types": ["point_of_interest", "establishment"]}, "ChIJSRQ2hrgLdkgRzt_G9wz7t28": {"geometry": {"location": {"lat": 51.49651299999999, "lng": -0.134838}, "viewport": {"northeast": {"lat": 51.49775928029149, "lng": -0.133561219708498}, "southwest": {"lat": 51.49506131970849, "lng": -0.136259180291502}}}, "name": "Dr. Syed Kamall MEP", "place_id": "ChIJSRQ2hrgLdkgRzt_G9wz7t28", "types": ["point_of_interest", "establishment"]}, "ChIJnaUu1d0EdkgRQbcaR7qK1Ck": {"geometry": {"location": {"lat": 51.496513, "lng": -0.1348379}, "viewport": {"northeast": {"lat": 51.49775928029149, "lng": -0.133561169708498}, "southwest": {"lat": 51.49506131970849, "lng": -0.136259130291502}}}, "name": "Niche Concepts", "place_id": "ChIJnaUu1d0EdkgRQbcaR7qK1Ck", "types": ["point_of_interest", "establishment"]}, "ChIJcUdVd94EdkgRKSyeYjKnP2M": {"geometry": {"location": {"lat": 51.496027, "lng": -0.1355884}, "viewport": {"northeast": {"lat": 51.4973483802915, "lng": -0.134069369708498}, "southwest": {"lat": 51.4946504197085, "lng": -0.136767330291502}}}, "name": "Coffee Republic", "place_id": "ChIJcUdVd94EdkgRKSyeYjKnP2M", "types": ["cafe", "food", "point_of_interest", "store", "establishment"], "rating": 4.2, "user_ratings_total": 92}, "ChIJ83_XKtwEdkgRcb-su6F_BNg": {"geometry": {"location": {"lat": 51.4965762, "lng": -0.1348238}, "viewport": {"northeast": {"lat": 51.4977908802915, "lng": -0.133554119708498}, "southwest": {"lat": 51.4950929197085, "lng": -0.136252080291502}}}, "name": "At Corinium Global Intelligence", "place_id": "ChIJ83_XKtwEdkgRcb-su6F_BNg", "types": ["point_of_interest", "establishment"]}, "ChIJezSI0CQFdkgRbNqPYITDwe0": {"geometry": {"location": {"lat": 51.4964533, "lng": -0.134665}, "viewport": {"northeast": {"lat": 51.4977175802915, "lng": -0.133259669708498}, "southwest": {"lat": 51.4950196197085, "lng": -0.135957630291502}}}, "name": "LSM Education", "place_id": "ChIJezSI0CQFdkgRbNqPYITDwe0", "types": ["university", "point_of_interest", "establishment"], "rating": 3.4, "user_ratings_total": 11}, "ChIJkzT41N0EdkgRBfMUc-YpKoQ": {"geometry": {"location": {"lat": 51.496513, "lng": -0.1348379}, "viewport": {"northeast": {"lat": 51.49775928029149, "lng": -0.133561169708498}, "southwest": {"lat": 51.49506131970849, "lng": -0.136259130291502}}}, "name": "Perfect Nanny Ltd", "place_id": "ChIJkzT41N0EdkgRBfMUc-YpKoQ", "types": ["point_of_interest", "establishment"]}, "ChIJlTT41N0EdkgRQMx9Rof_GAg": {"geometry": {"location": {"lat": 51.49639829999999, "lng": -0.1348159}, "viewport": {"northeast": {"lat": 51.49774728029149, "lng": -0.1334669197084979}, "southwest": {"lat": 51.49504931970849, "lng": -0.136164880291502}}}, "name": "Cafe Fresco", "place_id": "ChIJlTT41N0EdkgRQMx9Rof_GAg", "types": ["cafe", "food", "point_of_interest", "store", "establishment"], "rating": 4.2, "user_ratings_total": 116}, "ChIJEemmj9sEdkgRJ4Uum1XDiYw": {"geometry": {"location": {"lat": 51.4965067, "lng": -0.1348748}, "viewport": {"northeast": {"lat": 51.4977569302915, "lng": -0.133583169708498}, "southwest": {"lat": 51.49505896970851, "lng": -0.136281130291502}}}, "name": "Entry Clearance Services", "place_id": "ChIJEemmj9sEdkgRJ4Uum1XDiYw", "types": ["lawyer", "point_of_interest", "establishment"]}, "ChIJlTT41N0EdkgRgwgQijku1Q8": {"geometry": {"location": {"lat": 51.49649429999999, "lng": -0.1348577}, "viewport": {"northeast": {"lat": 51.49774993029149, "lng": -0.133571069708498}, "southwest": {"lat": 51.49505196970849, "lng": -0.136269030291502}}}, "name": "Westminster Studio Neil Stewart Associates Policy Review", "place_id": "ChIJlTT41N0EdkgRgwgQijku1Q8", "types": ["point_of_interest", "establishment"]}, "ChIJKUzid94EdkgRc55VUZ_FRvw": {"geometry": {"location": {"lat": 51.4959117, "lng": -0.1351776}, "viewport": {"northeast": {"lat": 51.4971959802915, "lng": -0.133725169708498}, "southwest": {"lat": 51.4944980197085, "lng": -0.136423130291502}}}, "name": "33 Greycoat Street", "place_id": "ChIJKUzid94EdkgRc55VUZ_FRvw", "types": ["general_contractor", "point_of_interest", "establishment"], "rating": 5, "user_ratings_total": 3}, "ChIJZ_2W2d0EdkgRB4t-ZdpmriM": {"geometry": {"location": {"lat": 51.49576589999999, "lng": -0.1347025}, "viewport": {"northeast": {"lat": 51.49708598029149, "lng": -0.133446619708498}, "southwest": {"lat": 51.4943880197085, "lng": -0.136144580291502}}}, "name": "Esperia Capital (UK) LTD", "place_id": "ChIJZ_2W2d0EdkgRB4t-ZdpmriM", "types": ["point_of_interest", "establishment"]}, "ChIJWWUIaBgFdkgRpmzy5NgfPsE": {"geometry": {"location": {"lat": 51.4962545, "lng": -0.1352311}, "viewport": {"northeast": {"lat": 51.4976497302915, "lng": -0.133845119708498}, "southwest": {"lat": 51.4949517697085, "lng": -0.136543080291502}}}, "name": "City Locksmith of Westminster", "place_id": "ChIJWWUIaBgFdkgRpmzy5NgfPsE", "types": ["locksmith", "point_of_interest", "establishment"], "rating": 4.5, "user_ratings_total": 33}, "ChIJrcHJQWwFdkgRBTyAwCah2Rw": {"geometry": {"location": {"lat": 51.4957319, "lng": -0.1349078}, "viewport": {"northeast": {"lat": 51.4970949302915, "lng": -0.133513569708498}, "southwest": {"lat": 51.4943969697085, "lng": -0.136211530291502}}}, "name": "Dietitian's corner", "place_id": "ChIJrcHJQWwFdkgRBTyAwCah2Rw", "types": ["health", "point_of_interest", "establishment"], "rating": 5, "user_ratings_total": 3}, "ChIJ58OkWeoLdkgRnzz6EWzZADI": {"geometry": {"location": {"lat": 51.49649429999999, "lng": -0.1348577}, "viewport": {"northeast": {"lat": 51.49774993029149, "lng": -0.133571069708498}, "southwest": {"lat": 51.49505196970849, "lng": -0.136269030291502}}}, "name": "Niche Will Writers", "place_id": "ChIJ58OkWeoLdkgRnzz6EWzZADI", "types": ["lawyer", "finance", "point_of_interest", "establishment"]}, "ChIJNddw090EdkgRMQpA3L0jV4w": {"geometry": {"location": {"lat": 51.4963942, "lng": -0.1345716}, "viewport": {"northeast": {"lat": 51.4977436802915, "lng": -0.133162669708498}, "southwest": {"lat": 51.4950457197085, "lng": -0.135860630291502}}}, "name": "Rowtree Corporate Group", "place_id": "ChIJNddw090EdkgRMQpA3L0jV4w", "types": ["point_of_interest", "establishment"], "rating": 5, "user_ratings_total": 1}, "ChIJm5vm1N0EdkgRqEOndXNh26w": {"geometry": {"location": {"lat": 51.4964343, "lng": -0.1347808}, "viewport": {"northeast": {"lat": 51.4977199302915, "lng": -0.133532619708498}, "southwest": {"lat": 51.4950219697085, "lng": -0.136230580291502}}}, "name": "Baffi National Marketing, Inc.", "place_id": "ChIJm5vm1N0EdkgRqEOndXNh26w", "types": ["point_of_interest", "establishment"]}, "ChIJm5vm1N0EdkgRHHaERUdTKpo": {"geometry": {"location": {"lat": 51.4964343, "lng": -0.1347808}, "viewport": {"northeast": {"lat": 51.4977199302915, "lng": -0.133532619708498}, "southwest": {"lat": 51.4950219697085, "lng": -0.136230580291502}}}, "name": "Handyman Pimlico", "place_id": "ChIJm5vm1N0EdkgRHHaERUdTKpo", "types": ["general_contractor", "point_of_interest", "establishment"]}, "ChIJm5vm1N0EdkgR_IiCO1y9LvA": {"geometry": {"location": {"lat": 51.4964343, "lng": -0.1347808}, "viewport": {"northeast": {"lat": 51.4977199302915, "lng": -0.133532619708498}, "southwest": {"lat": 51.4950219697085, "lng": -0.136230580291502}}}, "name": "GEA CORP", "place_id": "ChIJm5vm1N0EdkgR_IiCO1y9LvA", "types": ["finance", "point_of_interest", "establishment"]}, "ChIJm5vm1N0EdkgROvsmF3oS3rA": {"geometry": {"location": {"lat": 51.4964343, "lng": -0.1347808}, "viewport": {"northeast": {"lat": 51.4977199302915, "lng": -0.133532619708498}, "southwest": {"lat": 51.4950219697085, "lng": -0.136230580291502}}}, "name": "QED Resourcing Limited", "place_id": "ChIJm5vm1N0EdkgROvsmF3oS3rA", "types": ["point_of_interest", "establishment"]}, "ChIJm5vm1N0EdkgR3TDdpVZKbxU": {"geometry": {"location": {"lat": 51.4964343, "lng": -0.1347808}, "viewport": {"northeast": {"lat": 51.4977199302915, "lng": -0.133532619708498}, "southwest": {"lat": 51.4950219697085, "lng": -0.136230580291502}}}, "name": "iRobot Corporation", "place_id": "ChIJm5vm1N0EdkgR3TDdpVZKbxU", "types": ["point_of_interest", "establishment"]}, "ChIJm5vm1N0EdkgRb1dqoIAurkM": {"geometry": {"location": {"lat": 51.4964343, "lng": -0.1347808}, "viewport": {"northeast": {"lat": 51.4977199302915, "lng": -0.133532619708498}, "southwest": {"lat": 51.4950219697085, "lng": -0.136230580291502}}}, "name": "Brentwood Communications Ltd", "place_id": "ChIJm5vm1N0EdkgRb1dqoIAurkM", "types": ["point_of_interest", "establishment"]}, "ChIJm5vm1N0EdkgRRa1_TQacvyg": {"geometry": {"location": {"lat": 51.4964343, "lng": -0.1347808}, "viewport": {"northeast": {"lat": 51.4977199302915, "lng": -0.133532619708498}, "southwest": {"lat": 51.4950219697085, "lng": -0.136230580291502}}}, "name": "HexSites", "place_id": "ChIJm5vm1N0EdkgRRa1_TQacvyg", "types": ["point_of_interest", "establishment"]}, "ChIJyyhXWscFdkgRNHqewZBkkN0": {"geometry": {"location": {"lat": 51.4964343, "lng": -0.1347808}, "viewport": {"northeast": {"lat": 51.4977199302915, "lng": -0.133532619708498}, "southwest": {"lat": 51.4950219697085, "lng": -0.136230580291502}}}, "name": "Master Sports", "place_id": "ChIJyyhXWscFdkgRNHqewZBkkN0", "types": ["point_of_interest", "establishment"]}, "ChIJm5vm1N0EdkgRdL0iMkvVtgk": {"geometry": {"location": {"lat": 51.4964343, "lng": -0.1347808}, "viewport": {"northeast": {"lat": 51.4977199302915, "lng": -0.133532619708498}, "southwest": {"lat": 51.4950219697085, "lng": -0.136230580291502}}}, "name": "Great Master", "place_id": "ChIJm5vm1N0EdkgRdL0iMkvVtgk", "types": ["point_of_interest", "establishment"]}, "ChIJ6UWl1d0EdkgR9LisuRxhiLs": {"geometry": {"location": {"lat": 51.496513, "lng": -0.1348379}, "viewport": {"northeast": {"lat": 51.49775928029149, "lng": -0.133561169708498}, "southwest": {"lat": 51.49506131970849, "lng": -0.136259130291502}}}, "name": "Adobe & Apple Training Centres", "place_id": "ChIJ6UWl1d0EdkgR9LisuRxhiLs", "types": ["point_of_interest", "establishment"]}, "ChIJvcquB94EdkgR5d8zASnvY40": {"geometry": {"location": {"lat": 51.49442410145254, "lng": -0.1351042969546757}, "viewport": {"northeast": {"lat": 51.49577308029151, "lng": -0.133755319708498}, "southwest": {"lat": 51.49307511970851, "lng": -0.136453280291502}}}, "name": "76-77 Vincent Square", "place_id": "ChIJvcquB94EdkgR5d8zASnvY40", "types": ["route"]}, "ChIJOU8H8cwAdkgRB_2J9184FLM": {"geometry": {"location": {"lat": 51.4946876, "lng": -0.1352163}, "viewport": {"northeast": {"lat": 51.49596013029149, "lng": -0.133947469708498}, "southwest": {"lat": 51.49326216970849, "lng": -0.136645430291502}}}, "name": "Open Opps", "place_id": "ChIJOU8H8cwAdkgRB_2J9184FLM", "types": ["point_of_interest", "establishment"]}, "ChIJge4ap4sPdkgR0hBaboRZu40": {"geometry": {"location": {"lat": 51.4946876, "lng": -0.1352163}, "viewport": {"northeast": {"lat": 51.49596013029149, "lng": -0.133947469708498}, "southwest": {"lat": 51.49326216970849, "lng": -0.136645430291502}}}, "name": "DragonGate Market Intelligence", "place_id": "ChIJge4ap4sPdkgR0hBaboRZu40", "types": ["point_of_interest", "establishment"]}, "ChIJK-A5Dt4EdkgRF3lUIPZ4K7I": {"geometry": {"location": {"lat": 51.4946876, "lng": -0.1352163}, "viewport": {"northeast": {"lat": 51.49596013029149, "lng": -0.133947469708498}, "southwest": {"lat": 51.49326216970849, "lng": -0.136645430291502}}}, "name": "CyNation", "place_id": "ChIJK-A5Dt4EdkgRF3lUIPZ4K7I", "types": ["point_of_interest", "establishment"], "rating": 5, "user_ratings_total": 3}, "ChIJcyiFo9EEdkgRTfpOZWIp0eE": {"geometry": {"location": {"lat": 51.4946876, "lng": -0.1352163}, "viewport": {"northeast": {"lat": 51.49596013029149, "lng": -0.133947469708498}, "southwest": {"lat": 51.49326216970849, "lng": -0.136645430291502}}}, "name": "The Social Innovation Partnership (TSIP)", "place_id": "ChIJcyiFo9EEdkgRTfpOZWIp0eE", "types": ["point_of_interest", "establishment"]}, "ChIJc1zBCN4EdkgRjkXFnXrLeLw": {"geometry": {"location": {"lat": 51.4946442, "lng": -0.1353062}, "viewport": {"northeast": {"lat": 51.49594483029149, "lng": -0.134008169708498}, "southwest": {"lat": 51.49324686970849, "lng": -0.136706130291502}}}, "name": "Westminster Kingsway College - Victoria Centre", "place_id": "ChIJc1zBCN4EdkgRjkXFnXrLeLw", "types": ["university", "point_of_interest", "establishment"], "rating": 4.1, "user_ratings_total": 55}, "ChIJT7WzCN4EdkgRWyuelfd25WY": {"geometry": {"location": {"lat": 51.4946498, "lng": -0.1352695}, "viewport": {"northeast": {"lat": 51.4959431802915, "lng": -0.133978819708498}, "southwest": {"lat": 51.49324521970851, "lng": -0.136676780291502}}}, "name": "The Rain Gods Ltd", "place_id": "ChIJT7WzCN4EdkgRWyuelfd25WY", "types": ["point_of_interest", "establishment"], "rating": 5, "user_ratings_total": 1}, "ChIJU88MCN4EdkgRBpbwjF0e_Fk": {"geometry": {"location": {"lat": 51.4947177, "lng": -0.1354247}, "viewport": {"northeast": {"lat": 51.4960093802915, "lng": -0.134135769708498}, "southwest": {"lat": 51.4933114197085, "lng": -0.136833730291502}}}, "name": "Collab Group", "place_id": "ChIJU88MCN4EdkgRBpbwjF0e_Fk", "types": ["point_of_interest", "establishment"]}, "ChIJTbWzCN4EdkgRqNZCphp_tnI": {"geometry": {"location": {"lat": 51.4946156, "lng": -0.1353367}, "viewport": {"northeast": {"lat": 51.4959305302915, "lng": -0.134023419708498}, "southwest": {"lat": 51.4932325697085, "lng": -0.136721380291502}}}, "name": "RADIX GROUP LTD", "place_id": "ChIJTbWzCN4EdkgRqNZCphp_tnI", "types": ["point_of_interest", "establishment"]}, "ChIJUz1l_N0EdkgR3-QY_UF2piM": {"geometry": {"location": {"lat": 51.49447739999999, "lng": -0.1347394}, "viewport": {"northeast": {"lat": 51.49575488029149, "lng": -0.1331964197084979}, "southwest": {"lat": 51.4930569197085, "lng": -0.135894380291502}}}, "name": "RHS Lindley Library", "place_id": "ChIJUz1l_N0EdkgR3-QY_UF2piM", "types": ["library", "point_of_interest", "establishment"], "rating": 4.3, "user_ratings_total": 9}, "ChIJZWD_5d0EdkgRTO8zNjNwP6g": {"geometry": {"location": {"lat": 51.49446920000001, "lng": -0.1344998}, "viewport": {"northeast": {"lat": 51.49580208029149, "lng": -0.133035519708498}, "southwest": {"lat": 51.4931041197085, "lng": -0.135733480291502}}}, "name": "The Royal Horticultural Halls, Lindley Hall and Lawrence Hall", "place_id": "ChIJZWD_5d0EdkgRTO8zNjNwP6g", "types": ["point_of_interest", "establishment"], "rating": 4.3, "user_ratings_total": 488}, "ChIJRxFk4N0EdkgRysuyEyMtL-U": {"geometry": {"location": {"lat": 51.4951598, "lng": -0.1350579}, "viewport": {"northeast": {"lat": 51.4965419302915, "lng": -0.133675069708498}, "southwest": {"lat": 51.4938439697085, "lng": -0.136373030291502}}}, "name": "Burdett Coutts & Townshend Foundation C of E Primary School", "place_id": "ChIJRxFk4N0EdkgRysuyEyMtL-U", "types": ["primary_school", "school", "point_of_interest", "establishment"], "rating": 3.5, "user_ratings_total": 6}, "ChIJyxyPcd4EdkgRdzAZ4izS9EI": {"geometry": {"location": {"lat": 51.4954401, "lng": -0.1352015}, "viewport": {"northeast": {"lat": 51.4968585302915, "lng": -0.134060219708498}, "southwest": {"lat": 51.4941605697085, "lng": -0.136758180291502}}}, "name": "Regional Enterprise", "place_id": "ChIJyxyPcd4EdkgRdzAZ4izS9EI", "types": ["point_of_interest", "establishment"]}, "ChIJz5NOdN4EdkgReXHYafNIlA0": {"geometry": {"location": {"lat": 51.4954401, "lng": -0.1352015}, "viewport": {"northeast": {"lat": 51.4968585302915, "lng": -0.134060219708498}, "southwest": {"lat": 51.4941605697085, "lng": -0.136758180291502}}}, "name": "Capita Consulting", "place_id": "ChIJz5NOdN4EdkgReXHYafNIlA0", "types": ["finance", "point_of_interest", "establishment"], "rating": 2.6, "user_ratings_total": 5}, "ChIJz5NOdN4EdkgR3EB9e1o9l6c": {"geometry": {"location": {"lat": 51.4954401, "lng": -0.1352015}, "viewport": {"northeast": {"lat": 51.4968585302915, "lng": -0.134060219708498}, "southwest": {"lat": 51.4941605697085, "lng": -0.136758180291502}}}, "name": "BSI Meetings & Events", "place_id": "ChIJz5NOdN4EdkgR3EB9e1o9l6c", "types": ["point_of_interest", "establishment"]}, "ChIJue11iHm22EcRGvIN5kN6pK4": {"geometry": {"location": {"lat": 51.4954401, "lng": -0.1352015}, "viewport": {"northeast": {"lat": 51.4968585302915, "lng": -0.134060219708498}, "southwest": {"lat": 51.4941605697085, "lng": -0.136758180291502}}}, "name": "Tascor Services Ltd", "place_id": "ChIJue11iHm22EcRGvIN5kN6pK4", "types": ["point_of_interest", "establishment"]}, "ChIJ25NOdN4EdkgRvL8ySKXABrY": {"geometry": {"location": {"lat": 51.49544019999999, "lng": -0.1352014}, "viewport": {"northeast": {"lat": 51.49685863029149, "lng": -0.134060169708498}, "southwest": {"lat": 51.49416066970849, "lng": -0.136758130291502}}}, "name": "Momentum Security Recruitment", "place_id": "ChIJ25NOdN4EdkgRvL8ySKXABrY", "types": ["point_of_interest", "establishment"], "rating": 2.7, "user_ratings_total": 15}, "ChIJF37b5t0EdkgRWUTAgFzi9f8": {"geometry": {"location": {"lat": 51.49509800000001, "lng": -0.1348193}, "viewport": {"northeast": {"lat": 51.4964636802915, "lng": -0.133453369708498}, "southwest": {"lat": 51.4937657197085, "lng": -0.136151330291502}}}, "name": "Burdett-Coutts & Townshend JMI & NC", "place_id": "ChIJF37b5t0EdkgRWUTAgFzi9f8", "types": ["school", "point_of_interest", "establishment"]}, "ChIJ0ZP4390EdkgRXfLXVwM1RnQ": {"geometry": {"location": {"lat": 51.495249, "lng": -0.134985}, "viewport": {"northeast": {"lat": 51.4966067802915, "lng": -0.1336270697084979}, "southwest": {"lat": 51.4939088197085, "lng": -0.136325030291502}}}, "name": "ubitricity Charging Station", "place_id": "ChIJ0ZP4390EdkgRXfLXVwM1RnQ", "types": ["point_of_interest", "establishment"]}, "ChIJQX8CANsFdkgRqGqq6hzoyaQ": {"geometry": {"location": {"lat": 51.49520589999999, "lng": -0.1344893}, "viewport": {"northeast": {"lat": 51.4965684302915, "lng": -0.133094669708498}, "southwest": {"lat": 51.4938704697085, "lng": -0.135792630291502}}}, "name": "Johns Place", "place_id": "ChIJQX8CANsFdkgRqGqq6hzoyaQ", "types": ["point_of_interest", "establishment"]}, "ChIJr0Fj590EdkgRcwwiSjFoea0": {"geometry": {"location": {"lat": 51.49520589999999, "lng": -0.1344893}, "viewport": {"northeast": {"lat": 51.4965684302915, "lng": -0.133094669708498}, "southwest": {"lat": 51.4938704697085, "lng": -0.135792630291502}}}, "name": "Wannadoo Construction Ltd", "place_id": "ChIJr0Fj590EdkgRcwwiSjFoea0", "types": ["general_contractor", "point_of_interest", "establishment"]}, "ChIJ42YR3t0EdkgR7b3nVrY7By4": {"geometry": {"location": {"lat": 51.4952817, "lng": -0.1346846}, "viewport": {"northeast": {"lat": 51.4966477802915, "lng": -0.133280519708498}, "southwest": {"lat": 51.4939498197085, "lng": -0.135978480291502}}}, "name": "B3 Capital Ltd", "place_id": "ChIJ42YR3t0EdkgR7b3nVrY7By4", "types": ["finance", "point_of_interest", "establishment"]}, "ChIJq6r6CN4EdkgRcatmYFB7WSM": {"geometry": {"location": {"lat": 51.4946876, "lng": -0.1352163}, "viewport": {"northeast": {"lat": 51.49596013029149, "lng": -0.133947469708498}, "southwest": {"lat": 51.49326216970849, "lng": -0.136645430291502}}}, "name": "10 Today", "place_id": "ChIJq6r6CN4EdkgRcatmYFB7WSM", "types": ["health", "point_of_interest", "establishment"]}, "ChIJS3zIqngFdkgR33KfFZAMuRs": {"geometry": {"location": {"lat": 51.4946876, "lng": -0.1352163}, "viewport": {"northeast": {"lat": 51.49596013029149, "lng": -0.133947469708498}, "southwest": {"lat": 51.49326216970849, "lng": -0.136645430291502}}}, "name": "Breaking Barriers Innovations", "place_id": "ChIJS3zIqngFdkgR33KfFZAMuRs", "types": ["point_of_interest", "establishment"]}, "ChIJq6r6CN4EdkgROOfltNnTd9c": {"geometry": {"location": {"lat": 51.4946876, "lng": -0.1352163}, "viewport": {"northeast": {"lat": 51.49596013029149, "lng": -0.133947469708498}, "southwest": {"lat": 51.49326216970849, "lng": -0.136645430291502}}}, "name": "Sentisum", "place_id": "ChIJq6r6CN4EdkgROOfltNnTd9c", "types": ["point_of_interest", "establishment"]}, "ChIJOU8H8cwAdkgRDF3u22VHWJw": {"geometry": {"location": {"lat": 51.4946876, "lng": -0.1352163}, "viewport": {"northeast": {"lat": 51.49596013029149, "lng": -0.133947469708498}, "southwest": {"lat": 51.49326216970849, "lng": -0.136645430291502}}}, "name": "Spend Network", "place_id": "ChIJOU8H8cwAdkgRDF3u22VHWJw", "types": ["point_of_interest", "establishment"], "rating": 1, "user_ratings_total": 1}, "ChIJa0jCayIFdkgR3XXOD5odN78": {"geometry": {"location": {"lat": 51.4946876, "lng": -0.1352163}, "viewport": {"northeast": {"lat": 51.49596013029149, "lng": -0.133947469708498}, "southwest": {"lat": 51.49326216970849, "lng": -0.136645430291502}}}, "name": "Association for Citizenship Teaching", "place_id": "ChIJa0jCayIFdkgR3XXOD5odN78", "types": ["point_of_interest", "establishment"]}, "ChIJbw1J5t0EdkgRuO8RYjKXKI0": {"geometry": {"location": {"lat": 51.4949555, "lng": -0.1342209}, "viewport": {"northeast": {"lat": 51.49635543029149, "lng": -0.132941319708498}, "southwest": {"lat": 51.4936574697085, "lng": -0.135639280291502}}}, "name": "Westminster School, Lawrence Hall", "place_id": "ChIJbw1J5t0EdkgRuO8RYjKXKI0", "types": ["school", "point_of_interest", "establishment"]}, "ChIJTbWzCN4EdkgRkVPj17na8Vo": {"geometry": {"location": {"lat": 51.4946442, "lng": -0.1353062}, "viewport": {"northeast": {"lat": 51.49594483029149, "lng": -0.134008169708498}, "southwest": {"lat": 51.49324686970849, "lng": -0.136706130291502}}}, "name": "Represent", "place_id": "ChIJTbWzCN4EdkgRkVPj17na8Vo", "types": ["point_of_interest", "establishment"]}, "ChIJo5lXqJEFdkgR7ZHDEjuZz8A": {"geometry": {"location": {"lat": 51.4945023, "lng": -0.1346343}, "viewport": {"northeast": {"lat": 51.4957909802915, "lng": -0.133130269708498}, "southwest": {"lat": 51.4930930197085, "lng": -0.135828230291502}}}, "name": "RHS Enterprise Ltd", "place_id": "ChIJo5lXqJEFdkgR7ZHDEjuZz8A", "types": ["general_contractor", "point_of_interest", "establishment"]}, "ChIJTUXXJYUFdkgRkodvDyKXewE": {"geometry": {"location": {"lat": 51.4945023, "lng": -0.1346343}, "viewport": {"northeast": {"lat": 51.49575688029149, "lng": -0.133384269708498}, "southwest": {"lat": 51.4930589197085, "lng": -0.136082230291502}}}, "name": "Adams Antiques Fairs", "place_id": "ChIJTUXXJYUFdkgRkodvDyKXewE", "types": ["point_of_interest", "establishment"]}, "ChIJe52f1t0EdkgRL4sb6IyiiO4": {"geometry": {"location": {"lat": 51.49483590000001, "lng": -0.1340609}, "viewport": {"northeast": {"lat": 51.49629563029151, "lng": -0.132861319708498}, "southwest": {"lat": 51.49359766970851, "lng": -0.135559280291502}}}, "name": "Flexi", "place_id": "ChIJe52f1t0EdkgRL4sb6IyiiO4", "types": ["point_of_interest", "establishment"]}, "ChIJkSaT790EdkgRW80qYEgzIN0": {"geometry": {"location": {"lat": 51.494591, "lng": -0.134234}, "viewport": {"northeast": {"lat": 51.4959232302915, "lng": -0.132841919708498}, "southwest": {"lat": 51.4932252697085, "lng": -0.135539880291502}}}, "name": "Santander Cycles", "place_id": "ChIJkSaT790EdkgRW80qYEgzIN0", "types": ["point_of_interest", "establishment"], "rating": 4, "user_ratings_total": 1}, "ChIJz5NOdN4EdkgRWtf-_nPVRyM": {"geometry": {"location": {"lat": 51.4954401, "lng": -0.1352015}, "viewport": {"northeast": {"lat": 51.4968585302915, "lng": -0.134060219708498}, "southwest": {"lat": 51.4941605697085, "lng": -0.136758180291502}}}, "name": "Acutest", "place_id": "ChIJz5NOdN4EdkgRWtf-_nPVRyM", "types": ["point_of_interest", "establishment"]}, "ChIJu5NOdN4EdkgR5iRCcep4HOM": {"geometry": {"location": {"lat": 51.4954402, "lng": -0.1352018}, "viewport": {"northeast": {"lat": 51.49685858029149, "lng": -0.134060369708498}, "southwest": {"lat": 51.4941606197085, "lng": -0.1367583302915021}}}, "name": "SAP UK employee benefits", "place_id": "ChIJu5NOdN4EdkgR5iRCcep4HOM", "types": ["point_of_interest", "establishment"]}, "ChIJ3TVo-d0EdkgRR-A_8P6yges": {"geometry": {"location": {"lat": 51.49418660000001, "lng": -0.1345198}, "viewport": {"northeast": {"lat": 51.49553558029151, "lng": -0.133170819708498}, "southwest": {"lat": 51.49283761970851, "lng": -0.135868780291502}}}, "name": "Advaniq Research Report Insights", "place_id": "ChIJ3TVo-d0EdkgRR-A_8P6yges", "types": ["point_of_interest", "establishment"]}, "ChIJsxHZI_cFdkgR9-rR4Ca4w_c": {"geometry": {"location": {"lat": 51.49418660000001, "lng": -0.1345198}, "viewport": {"northeast": {"lat": 51.49553558029151, "lng": -0.133170819708498}, "southwest": {"lat": 51.49283761970851, "lng": -0.135868780291502}}}, "name": "Chaplin & Churchill's Ltd", "place_id": "ChIJsxHZI_cFdkgR9-rR4Ca4w_c", "types": ["gym", "health", "point_of_interest", "establishment"]}, "ChIJ3zVo-d0EdkgRmoGaMOHAKKM": {"geometry": {"location": {"lat": 51.4941867, "lng": -0.1345198}, "viewport": {"northeast": {"lat": 51.4955092302915, "lng": -0.133198519708498}, "southwest": {"lat": 51.4928112697085, "lng": -0.135896480291502}}}, "name": "Octagon", "place_id": "ChIJ3zVo-d0EdkgRmoGaMOHAKKM", "types": ["point_of_interest", "establishment"]}, "ChIJ6cQwOvEFdkgRJsp23OFXscc": {"geometry": {"location": {"lat": 51.4934382, "lng": -0.13506}, "viewport": {"northeast": {"lat": 51.4951363302915, "lng": -0.133374019708498}, "southwest": {"lat": 51.4924383697085, "lng": -0.136071980291502}}}, "name": "Chong Gallery", "place_id": "ChIJ6cQwOvEFdkgRJsp23OFXscc", "types": ["store", "point_of_interest", "establishment"], "rating": 5, "user_ratings_total": 4}, "ChIJk1tSZ9QFdkgRf0kZI7EZ1ic": {"geometry": {"location": {"lat": 51.4942836, "lng": -0.1342849}, "viewport": {"northeast": {"lat": 51.49564363029149, "lng": -0.1329854697084979}, "southwest": {"lat": 51.49294566970849, "lng": -0.135683430291502}}}, "name": "Babylon Westminster", "place_id": "ChIJk1tSZ9QFdkgRf0kZI7EZ1ic", "types": ["health", "point_of_interest", "establishment"]}, "ChIJvYhUKbIFdkgRzUDh67Qxpxc": {"geometry": {"location": {"lat": 51.4940419, "lng": -0.1356229}, "viewport": {"northeast": {"lat": 51.4954690802915, "lng": -0.134507169708498}, "southwest": {"lat": 51.4927711197085, "lng": -0.137205130291502}}}, "name": "London dom", "place_id": "ChIJvYhUKbIFdkgRzUDh67Qxpxc", "types": ["lodging", "point_of_interest", "establishment"]}, "ChIJGY9EOI8FdkgRbSIi25pNlA4": {"geometry": {"location": {"lat": 51.49323320000001, "lng": -0.1351706}, "viewport": {"northeast": {"lat": 51.4942674302915, "lng": -0.134242019708498}, "southwest": {"lat": 51.4915694697085, "lng": -0.136939980291502}}}, "name": "Sarthak Ramsane's cricket ground,London ,uk", "place_id": "ChIJGY9EOI8FdkgRbSIi25pNlA4", "types": ["point_of_interest", "establishment"], "rating": 5, "user_ratings_total": 1}, "ChIJ6yj5Wd4EdkgRdXcyED7HrfA": {"geometry": {"location": {"lat": 51.49620049070187, "lng": -0.1369611826406487}, "viewport": {"northeast": {"lat": 51.4975770302915, "lng": -0.135803769708498}, "southwest": {"lat": 51.4948790697085, "lng": -0.138501730291502}}}, "name": "15-1 Francis St", "place_id": "ChIJ6yj5Wd4EdkgRdXcyED7HrfA", "types": ["route"]}, "ChIJKSu9Y94EdkgR6Ls7_j8UAHA": {"geometry": {"location": {"lat": 51.49628609999999, "lng": -0.1358194}, "viewport": {"northeast": {"lat": 51.49762278029149, "lng": -0.134461319708498}, "southwest": {"lat": 51.49492481970849, "lng": -0.137159280291502}}}, "name": "Greencoat Boy", "place_id": "ChIJKSu9Y94EdkgR6Ls7_j8UAHA", "types": ["bar", "point_of_interest", "establishment"], "rating": 4, "user_ratings_total": 674}, "ChIJz9WeXN4EdkgRyPBpTQ74Hig": {"geometry": {"location": {"lat": 51.4959704, "lng": -0.136783}, "viewport": {"northeast": {"lat": 51.49718213029151, "lng": -0.135604819708498}, "southwest": {"lat": 51.49448416970851, "lng": -0.138302780291502}}}, "name": "VCCP Partnership", "place_id": "ChIJz9WeXN4EdkgRyPBpTQ74Hig", "types": ["point_of_interest", "establishment"], "rating": 4.4, "user_ratings_total": 48}, "ChIJ05WwjYtxdkgRQZmTfEr3afE": {"geometry": {"location": {"lat": 51.49591640000001, "lng": -0.1366864}, "viewport": {"northeast": {"lat": 51.4971324302915, "lng": -0.135556519708498}, "southwest": {"lat": 51.49443446970851, "lng": -0.138254480291502}}}, "name": "Harvard", "place_id": "ChIJ05WwjYtxdkgRQZmTfEr3afE", "types": ["point_of_interest", "establishment"], "rating": 4.3, "user_ratings_total": 6}, "ChIJ5ReMhEsbdkgRthAW_mZ0POM": {"geometry": {"location": {"lat": 51.49591640000001, "lng": -0.1366864}, "viewport": {"northeast": {"lat": 51.4971324302915, "lng": -0.135556519708498}, "southwest": {"lat": 51.49443446970851, "lng": -0.138254480291502}}}, "name": "Good Relations Property", "place_id": "ChIJ5ReMhEsbdkgRthAW_mZ0POM", "types": ["real_estate_agency", "point_of_interest", "establishment"]}, "ChIJLT-xd7MadkgRRP1t5Klts2A": {"geometry": {"location": {"lat": 51.4959175, "lng": -0.1366917}, "viewport": {"northeast": {"lat": 51.4971338802915, "lng": -0.135559169708498}, "southwest": {"lat": 51.4944359197085, "lng": -0.138257130291502}}}, "name": "White Wolf Fitness", "place_id": "ChIJLT-xd7MadkgRRP1t5Klts2A", "types": ["gym", "health", "point_of_interest", "establishment"], "rating": 5, "user_ratings_total": 14}, "ChIJKaohXN4EdkgRAT1ZTM4rnRs": {"geometry": {"location": {"lat": 51.49619329999999, "lng": -0.136728}, "viewport": {"northeast": {"lat": 51.4975525802915, "lng": -0.135494069708498}, "southwest": {"lat": 51.4948546197085, "lng": -0.138192030291502}}}, "name": "Poles Apart Building Services", "place_id": "ChIJKaohXN4EdkgRAT1ZTM4rnRs", "types": ["point_of_interest", "establishment"]}, "ChIJH8vNXN4EdkgRoWfelHYRLJo": {"geometry": {"location": {"lat": 51.4958925, "lng": -0.1367026}, "viewport": {"northeast": {"lat": 51.4971195802915, "lng": -0.135564619708498}, "southwest": {"lat": 51.4944216197085, "lng": -0.138262580291502}}}, "name": "Catapult", "place_id": "ChIJH8vNXN4EdkgRoWfelHYRLJo", "types": ["point_of_interest", "establishment"]}, "ChIJTXyXXN4EdkgRtcrY83jOZxE": {"geometry": {"location": {"lat": 51.49589150000001, "lng": -0.1367497}, "viewport": {"northeast": {"lat": 51.4971253802915, "lng": -0.135588169708498}, "southwest": {"lat": 51.4944274197085, "lng": -0.138286130291502}}}, "name": "Sopex London Ltd", "place_id": "ChIJTXyXXN4EdkgRtcrY83jOZxE", "types": ["point_of_interest", "establishment"], "rating": 5, "user_ratings_total": 1}, "ChIJLUOL7tQEdkgRidjlZlS-9u0": {"geometry": {"location": {"lat": 51.49611020000001, "lng": -0.1362347}, "viewport": {"northeast": {"lat": 51.49741913029151, "lng": -0.134723919708498}, "southwest": {"lat": 51.49472116970851, "lng": -0.137421880291502}}}, "name": "Jaeger Head Office", "place_id": "ChIJLUOL7tQEdkgRidjlZlS-9u0", "types": ["point_of_interest", "establishment"], "rating": 5, "user_ratings_total": 2}, "ChIJqQx7Wd4EdkgRZSE9pmw7Zjc": {"geometry": {"location": {"lat": 51.49623620000001, "lng": -0.1368332}, "viewport": {"northeast": {"lat": 51.4975856302915, "lng": -0.135546269708498}, "southwest": {"lat": 51.4948876697085, "lng": -0.138244230291502}}}, "name": "The Box Plus Network", "place_id": "ChIJqQx7Wd4EdkgRZSE9pmw7Zjc", "types": ["point_of_interest", "establishment"], "rating": 4.7, "user_ratings_total": 3}, "ChIJX63sXt4EdkgRP3FE4tuBhWo": {"geometry": {"location": {"lat": 51.49628719999999, "lng": -0.1367136}, "viewport": {"northeast": {"lat": 51.49763093029149, "lng": -0.135487869708498}, "southwest": {"lat": 51.49493296970849, "lng": -0.138185830291502}}}, "name": "All Shades Covered Ltd", "place_id": "ChIJX63sXt4EdkgRP3FE4tuBhWo", "types": ["point_of_interest", "establishment"], "rating": 3.3, "user_ratings_total": 11}, "ChIJvyWLC1cbdkgRgT-VlPtL5d0": {"geometry": {"location": {"lat": 51.49632690000001, "lng": -0.1366884}, "viewport": {"northeast": {"lat": 51.49766238029151, "lng": -0.135478019708498}, "southwest": {"lat": 51.49496441970851, "lng": -0.138175980291502}}}, "name": "Bibblio", "place_id": "ChIJvyWLC1cbdkgRgT-VlPtL5d0", "types": ["point_of_interest", "establishment"]}, "ChIJs9qfwToQdkgRMwKVOpBFLSg": {"geometry": {"location": {"lat": 51.496327, "lng": -0.1366884}, "viewport": {"northeast": {"lat": 51.4976624802915, "lng": -0.135478069708498}, "southwest": {"lat": 51.4949645197085, "lng": -0.138176030291502}}}, "name": "PureComm", "place_id": "ChIJs9qfwToQdkgRMwKVOpBFLSg", "types": ["point_of_interest", "establishment"], "rating": 5, "user_ratings_total": 1}, "ChIJWb1kWd4EdkgRwuYxHo8QnAU": {"geometry": {"location": {"lat": 51.496328, "lng": -0.1366937}, "viewport": {"northeast": {"lat": 51.4976637302915, "lng": -0.135480869708498}, "southwest": {"lat": 51.4949657697085, "lng": -0.138178830291502}}}, "name": "True.", "place_id": "ChIJWb1kWd4EdkgRwuYxHo8QnAU", "types": ["finance", "point_of_interest", "establishment"], "rating": 5, "user_ratings_total": 4}, "ChIJJ8mrFagEdkgRIfAwNhsXp8E": {"geometry": {"location": {"lat": 51.496328, "lng": -0.136694}, "viewport": {"northeast": {"lat": 51.4976637302915, "lng": -0.135481019708498}, "southwest": {"lat": 51.4949657697085, "lng": -0.138178980291502}}}, "name": "ALG Tide UK Ltd", "place_id": "ChIJJ8mrFagEdkgRIfAwNhsXp8E", "types": ["point_of_interest", "establishment"]}, "ChIJqTeI994EdkgRDzINnWbU3H0": {"geometry": {"location": {"lat": 51.4958567, "lng": -0.1362218}, "viewport": {"northeast": {"lat": 51.4971843302915, "lng": -0.134786469708498}, "southwest": {"lat": 51.4944863697085, "lng": -0.137484430291502}}}, "name": "W AR L", "place_id": "ChIJqTeI994EdkgRDzINnWbU3H0", "types": ["point_of_interest", "establishment"], "rating": 5, "user_ratings_total": 1}, "ChIJ-03vrtgEdkgRKywRFtctKZE": {"geometry": {"location": {"lat": 51.4959275, "lng": -0.1361227}, "viewport": {"northeast": {"lat": 51.4972608802915, "lng": -0.134710619708498}, "southwest": {"lat": 51.4945629197085, "lng": -0.137408580291502}}}, "name": "GoToDigital", "place_id": "ChIJ-03vrtgEdkgRKywRFtctKZE", "types": ["point_of_interest", "establishment"], "rating": 4.4, "user_ratings_total": 11}, "ChIJy99eb94EdkgRnatqhsvTVOo": {"geometry": {"location": {"lat": 51.4959275, "lng": -0.1361227}, "viewport": {"northeast": {"lat": 51.4972608802915, "lng": -0.134710619708498}, "southwest": {"lat": 51.4945629197085, "lng": -0.137408580291502}}}, "name": "InMyBag", "place_id": "ChIJy99eb94EdkgRnatqhsvTVOo", "types": ["insurance_agency", "point_of_interest", "establishment"]}, "ChIJb3rDWt4EdkgRcC8VFy395Os": {"geometry": {"location": {"lat": 51.49594090000001, "lng": -0.1370725}, "viewport": {"northeast": {"lat": 51.4972010802915, "lng": -0.135805869708498}, "southwest": {"lat": 51.4945031197085, "lng": -0.138503830291502}}}, "name": "Interel Consulting", "place_id": "ChIJb3rDWt4EdkgRcC8VFy395Os", "types": ["point_of_interest", "establishment"], "rating": 5, "user_ratings_total": 1}, "ChIJS-TDWt4EdkgRSLc70r91o1g": {"geometry": {"location": {"lat": 51.49594099999999, "lng": -0.13708}, "viewport": {"northeast": {"lat": 51.4972021802915, "lng": -0.135812469708498}, "southwest": {"lat": 51.4945042197085, "lng": -0.138510430291502}}}, "name": "Martin Kemp Design", "place_id": "ChIJS-TDWt4EdkgRSLc70r91o1g", "types": ["general_contractor", "point_of_interest", "establishment"], "rating": 5, "user_ratings_total": 2}, "ChIJA8zaWIcPdkgRGJJe99YWLrg": {"geometry": {"location": {"lat": 51.496138, "lng": -0.13715}, "viewport": {"northeast": {"lat": 51.4977328802915, "lng": -0.136043569708498}, "southwest": {"lat": 51.4950349197085, "lng": -0.138741530291502}}}, "name": "Officine Gullo", "place_id": "ChIJA8zaWIcPdkgRGJJe99YWLrg", "types": ["furniture_store", "home_goods_store", "point_of_interest", "store", "establishment"], "rating": 5, "user_ratings_total": 3}, "ChIJSRb2T94EdkgRVL8UwCbQ6QI": {"geometry": {"location": {"lat": 51.4958159, "lng": -0.1370752}, "viewport": {"northeast": {"lat": 51.4971254302915, "lng": -0.135771469708498}, "southwest": {"lat": 51.4944274697085, "lng": -0.138469430291502}}}, "name": "Darling Associates Architects", "place_id": "ChIJSRb2T94EdkgRVL8UwCbQ6QI", "types": ["point_of_interest", "establishment"], "rating": 4.6, "user_ratings_total": 9}, "ChIJz9WeXN4EdkgRzbt9rYxqqCI": {"geometry": {"location": {"lat": 51.4958567, "lng": -0.1362218}, "viewport": {"northeast": {"lat": 51.4971843302915, "lng": -0.134786469708498}, "southwest": {"lat": 51.4944863697085, "lng": -0.137484430291502}}}, "name": "Modus Workspace LTD", "place_id": "ChIJz9WeXN4EdkgRzbt9rYxqqCI", "types": ["general_contractor", "point_of_interest", "establishment"], "rating": 4, "user_ratings_total": 16}, "ChIJ5ReMhEsbdkgRh1SpFA29qJM": {"geometry": {"location": {"lat": 51.4959755, "lng": -0.137018}, "viewport": {"northeast": {"lat": 51.4972153802915, "lng": -0.135770219708498}, "southwest": {"lat": 51.4945174197085, "lng": -0.138468180291502}}}, "name": "Good Relations", "place_id": "ChIJ5ReMhEsbdkgRh1SpFA29qJM", "types": ["point_of_interest", "establishment"], "rating": 3, "user_ratings_total": 9}, "ChIJCYfcZ94EdkgRR-U572RV_-U": {"geometry": {"location": {"lat": 51.4958033, "lng": -0.1361977}, "viewport": {"northeast": {"lat": 51.4971377302915, "lng": -0.134787069708498}, "southwest": {"lat": 51.4944397697085, "lng": -0.1374850302915021}}}, "name": "Darwin Technologies Ltd", "place_id": "ChIJCYfcZ94EdkgRR-U572RV_-U", "types": ["point_of_interest", "establishment"], "rating": 4.4, "user_ratings_total": 19}, "ChIJd_MuP1UFdkgRcK_IQvycGPY": {"geometry": {"location": {"lat": 51.49591640000001, "lng": -0.1366864}, "viewport": {"northeast": {"lat": 51.4971324302915, "lng": -0.135556519708498}, "southwest": {"lat": 51.49443446970851, "lng": -0.138254480291502}}}, "name": "Ukgobal exress", "place_id": "ChIJd_MuP1UFdkgRcK_IQvycGPY", "types": ["point_of_interest", "establishment"]}, "ChIJgQm-sREFdkgRa7BwhDaZFU0": {"geometry": {"location": {"lat": 51.49591640000001, "lng": -0.1366864}, "viewport": {"northeast": {"lat": 51.4971324302915, "lng": -0.135556519708498}, "southwest": {"lat": 51.49443446970851, "lng": -0.138254480291502}}}, "name": "Simo Strength Personal Trainer", "place_id": "ChIJgQm-sREFdkgRa7BwhDaZFU0", "types": ["health", "point_of_interest", "establishment"], "rating": 5, "user_ratings_total": 5}, "ChIJz9WeXN4EdkgRFZ3AXXrcifg": {"geometry": {"location": {"lat": 51.4959175, "lng": -0.1366917}, "viewport": {"northeast": {"lat": 51.4971338802915, "lng": -0.135559169708498}, "southwest": {"lat": 51.4944359197085, "lng": -0.138257130291502}}}, "name": "Carbon Energy Management Limited", "place_id": "ChIJz9WeXN4EdkgRFZ3AXXrcifg", "types": ["point_of_interest", "establishment"]}, "ChIJic2NgksbdkgRDy5fjVYXFU4": {"geometry": {"location": {"lat": 51.4959375, "lng": -0.1367453}, "viewport": {"northeast": {"lat": 51.4971537802915, "lng": -0.135585969708498}, "southwest": {"lat": 51.4944558197085, "lng": -0.138283930291502}}}, "name": "Watermelon Research", "place_id": "ChIJic2NgksbdkgRDy5fjVYXFU4", "types": ["point_of_interest", "establishment"], "rating": 2.3, "user_ratings_total": 9}, "ChIJp4fcZ94EdkgRIlllZXsHiKU": {"geometry": {"location": {"lat": 51.495908, "lng": -0.1363494}, "viewport": {"northeast": {"lat": 51.4972184802915, "lng": -0.134844819708498}, "southwest": {"lat": 51.4945205197085, "lng": -0.137542780291502}}}, "name": "Platfform Ltd", "place_id": "ChIJp4fcZ94EdkgRIlllZXsHiKU", "types": ["point_of_interest", "establishment"]}, "ChIJq6r6Zt4EdkgRDafFzLBulb4": {"geometry": {"location": {"lat": 51.49608219999999, "lng": -0.1362333}, "viewport": {"northeast": {"lat": 51.49739318029149, "lng": -0.134730819708498}, "southwest": {"lat": 51.49469521970849, "lng": -0.137428780291502}}}, "name": "Odondo", "place_id": "ChIJq6r6Zt4EdkgRDafFzLBulb4", "types": ["point_of_interest", "establishment"]}, "ChIJq6r6Zt4EdkgRzisN1Dgaqqs": {"geometry": {"location": {"lat": 51.49608219999999, "lng": -0.1362333}, "viewport": {"northeast": {"lat": 51.49739318029149, "lng": -0.134730819708498}, "southwest": {"lat": 51.49469521970849, "lng": -0.137428780291502}}}, "name": "Mettrr Technologies Limited", "place_id": "ChIJq6r6Zt4EdkgRzisN1Dgaqqs", "types": ["point_of_interest", "establishment"]}, "ChIJq6r6Zt4EdkgRtBhxhMNeG0I": {"geometry": {"location": {"lat": 51.49608219999999, "lng": -0.1362333}, "viewport": {"northeast": {"lat": 51.49739318029149, "lng": -0.134730819708498}, "southwest": {"lat": 51.49469521970849, "lng": -0.137428780291502}}}, "name": "Hp Insurtech Gateway Ltd", "place_id": "ChIJq6r6Zt4EdkgRtBhxhMNeG0I", "types": ["point_of_interest", "establishment"]}, "ChIJq6r6Zt4EdkgR3vX6vsZFlUE": {"geometry": {"location": {"lat": 51.49608219999999, "lng": -0.1362333}, "viewport": {"northeast": {"lat": 51.49739318029149, "lng": -0.134730819708498}, "southwest": {"lat": 51.49469521970849, "lng": -0.137428780291502}}}, "name": "The Website Experts", "place_id": "ChIJq6r6Zt4EdkgR3vX6vsZFlUE", "types": ["point_of_interest", "establishment"]}, "ChIJ95M3spYFdkgRWQSLL_QVJfw": {"geometry": {"location": {"lat": 51.4960811, "lng": -0.136228}, "viewport": {"northeast": {"lat": 51.49739273029151, "lng": -0.1347281197084979}, "southwest": {"lat": 51.49469476970851, "lng": -0.137426080291502}}}, "name": "Sophie's Cupcake Factory", "place_id": "ChIJ95M3spYFdkgRWQSLL_QVJfw", "types": ["bakery", "food", "point_of_interest", "store", "establishment"]}, "ChIJ30qTW94EdkgRBBs4Xd1TD44": {"geometry": {"location": {"lat": 51.4958877, "lng": -0.1368367}, "viewport": {"northeast": {"lat": 51.4978653302915, "lng": -0.136075269708498}, "southwest": {"lat": 51.4951673697085, "lng": -0.138773230291502}}}, "name": "Gymbox Victoria", "place_id": "ChIJ30qTW94EdkgRBBs4Xd1TD44", "types": ["gym", "health", "point_of_interest", "establishment"], "rating": 4, "user_ratings_total": 108}, "ChIJk8TqXt4EdkgR6WlquHvohgc": {"geometry": {"location": {"lat": 51.496287, "lng": -0.136714}, "viewport": {"northeast": {"lat": 51.4976307302915, "lng": -0.135488069708498}, "southwest": {"lat": 51.49493276970851, "lng": -0.138186030291502}}}, "name": "Vitl", "place_id": "ChIJk8TqXt4EdkgR6WlquHvohgc", "types": ["point_of_interest", "establishment"], "rating": 4, "user_ratings_total": 49}, "ChIJa5YoZt4EdkgRRcb7QPVCM4c": {"geometry": {"location": {"lat": 51.495892, "lng": -0.1362363}, "viewport": {"northeast": {"lat": 51.4972156302915, "lng": -0.134784969708498}, "southwest": {"lat": 51.4945176697085, "lng": -0.137482930291502}}}, "name": "VEGAN LIFE WEAR", "place_id": "ChIJa5YoZt4EdkgRRcb7QPVCM4c", "types": ["clothing_store", "point_of_interest", "store", "establishment"]}, "ChIJA_RiV94EdkgRejUyWg5nPaU": {"geometry": {"location": {"lat": 51.49632880000001, "lng": -0.1366687}, "viewport": {"northeast": {"lat": 51.49766333029151, "lng": -0.135468169708498}, "southwest": {"lat": 51.49496536970851, "lng": -0.138166130291502}}}, "name": "Lumicity Ltd", "place_id": "ChIJA_RiV94EdkgRejUyWg5nPaU", "types": ["point_of_interest", "establishment"]}, "ChIJbwvwXt4EdkgRrTQLwek0dcg": {"geometry": {"location": {"lat": 51.49632690000001, "lng": -0.1366884}, "viewport": {"northeast": {"lat": 51.49766238029151, "lng": -0.135478019708498}, "southwest": {"lat": 51.49496441970851, "lng": -0.138175980291502}}}, "name": "4music", "place_id": "ChIJbwvwXt4EdkgRrTQLwek0dcg", "types": ["point_of_interest", "establishment"]}, "ChIJbwvwXt4EdkgRkIYC96Qu_QU": {"geometry": {"location": {"lat": 51.49632690000001, "lng": -0.1366884}, "viewport": {"northeast": {"lat": 51.49766238029151, "lng": -0.135478019708498}, "southwest": {"lat": 51.49496441970851, "lng": -0.138175980291502}}}, "name": "Allshadescovered Limited", "place_id": "ChIJbwvwXt4EdkgRkIYC96Qu_QU", "types": ["point_of_interest", "establishment"]}, "ChIJQWoe_K4cdkgRO7jBzM37Sko": {"geometry": {"location": {"lat": 51.49632690000001, "lng": -0.1366884}, "viewport": {"northeast": {"lat": 51.49766238029151, "lng": -0.135478019708498}, "southwest": {"lat": 51.49496441970851, "lng": -0.138175980291502}}}, "name": "Mercanto", "place_id": "ChIJQWoe_K4cdkgRO7jBzM37Sko", "types": ["point_of_interest", "establishment"]}, "ChIJbwvwXt4EdkgR6BHC7O3dq7Q": {"geometry": {"location": {"lat": 51.49632690000001, "lng": -0.1366884}, "viewport": {"northeast": {"lat": 51.49766238029151, "lng": -0.135478019708498}, "southwest": {"lat": 51.49496441970851, "lng": -0.138175980291502}}}, "name": "Kerrang! Tv", "place_id": "ChIJbwvwXt4EdkgR6BHC7O3dq7Q", "types": ["point_of_interest", "establishment"]}, "ChIJVVXlXt4EdkgRLN37KjjEMog": {"geometry": {"location": {"lat": 51.496328, "lng": -0.1366937}, "viewport": {"northeast": {"lat": 51.4976637302915, "lng": -0.135480869708498}, "southwest": {"lat": 51.4949657697085, "lng": -0.138178830291502}}}, "name": "SH-Linux", "place_id": "ChIJVVXlXt4EdkgRLN37KjjEMog", "types": ["point_of_interest", "establishment"]}, "ChIJh3RIt6gcdkgRWKPDY2dXyvk": {"geometry": {"location": {"lat": 51.496328, "lng": -0.136694}, "viewport": {"northeast": {"lat": 51.4976637302915, "lng": -0.135481019708498}, "southwest": {"lat": 51.4949657697085, "lng": -0.138178980291502}}}, "name": "Jump", "place_id": "ChIJh3RIt6gcdkgRWKPDY2dXyvk", "types": ["point_of_interest", "establishment"], "rating": 4.3, "user_ratings_total": 26}, "ChIJ64GcaN4EdkgRMkzWU_6Lv3A": {"geometry": {"location": {"lat": 51.4958567, "lng": -0.1362218}, "viewport": {"northeast": {"lat": 51.4971843302915, "lng": -0.134786469708498}, "southwest": {"lat": 51.4944863697085, "lng": -0.137484430291502}}}, "name": "Inco Europe Ltd", "place_id": "ChIJ64GcaN4EdkgRMkzWU_6Lv3A", "types": ["point_of_interest", "establishment"]}, "ChIJ64GcaN4EdkgR8zt2rLaxbnI": {"geometry": {"location": {"lat": 51.4958567, "lng": -0.1362218}, "viewport": {"northeast": {"lat": 51.4971843302915, "lng": -0.134786469708498}, "southwest": {"lat": 51.4944863697085, "lng": -0.137484430291502}}}, "name": "Mcap Global Finance Limited", "place_id": "ChIJ64GcaN4EdkgR8zt2rLaxbnI", "types": ["point_of_interest", "establishment"]}, "ChIJpSNrWt4EdkgRkj4lev0QHKg": {"geometry": {"location": {"lat": 51.4961179, "lng": -0.1371194}, "viewport": {"northeast": {"lat": 51.4977228302915, "lng": -0.136043569708498}, "southwest": {"lat": 51.4950248697085, "lng": -0.138741530291502}}}, "name": "FBC London", "place_id": "ChIJpSNrWt4EdkgRkj4lev0QHKg", "types": ["point_of_interest", "establishment"]}, "ChIJaX3LWt4EdkgRQ4bwevcoxlg": {"geometry": {"location": {"lat": 51.495884, "lng": -0.137082}, "viewport": {"northeast": {"lat": 51.4971668302915, "lng": -0.135794369708498}, "southwest": {"lat": 51.49446886970851, "lng": -0.138492330291502}}}, "name": "Girardot", "place_id": "ChIJaX3LWt4EdkgRQ4bwevcoxlg", "types": ["point_of_interest", "establishment"]}, "ChIJTZdlnZ8FdkgRQ1d4_GzA44E": {"geometry": {"location": {"lat": 51.496138, "lng": -0.13715}, "viewport": {"northeast": {"lat": 51.4977328802915, "lng": -0.136043569708498}, "southwest": {"lat": 51.4950349197085, "lng": -0.138741530291502}}}, "name": "arshara angels", "place_id": "ChIJTZdlnZ8FdkgRQ1d4_GzA44E", "types": ["point_of_interest", "establishment"]}, "ChIJY8lkQt4EdkgRpISoAif3_pQ": {"geometry": {"location": {"lat": 51.4956859, "lng": -0.1365083}, "viewport": {"northeast": {"lat": 51.4970705302915, "lng": -0.134990369708498}, "southwest": {"lat": 51.4943725697085, "lng": -0.137688330291502}}}, "name": "Expat Mag", "place_id": "ChIJY8lkQt4EdkgRpISoAif3_pQ", "types": ["point_of_interest", "establishment"]}, "ChIJayl_Wt4EdkgRnswl4G5li8E": {"geometry": {"location": {"lat": 51.496059, "lng": -0.137187}, "viewport": {"northeast": {"lat": 51.4973913302915, "lng": -0.135806819708498}, "southwest": {"lat": 51.4946933697085, "lng": -0.138504780291502}}}, "name": "Chargemaster Charging Station", "place_id": "ChIJayl_Wt4EdkgRnswl4G5li8E", "types": ["point_of_interest", "establishment"]}, "ChIJs0ZzWt4EdkgRZll82mOFQ8w": {"geometry": {"location": {"lat": 51.4963004, "lng": -0.1370794}, "viewport": {"northeast": {"lat": 51.4978140802915, "lng": -0.136043569708498}, "southwest": {"lat": 51.4951161197085, "lng": -0.138741530291502}}}, "name": "The Studio, Victoria", "place_id": "ChIJs0ZzWt4EdkgRZll82mOFQ8w", "types": ["point_of_interest", "establishment"], "rating": 5, "user_ratings_total": 1}, "ChIJ-6yLQ94EdkgRuF_PFile9a4": {"geometry": {"location": {"lat": 51.4956539, "lng": -0.136804}, "viewport": {"northeast": {"lat": 51.49699193029149, "lng": -0.135466419708498}, "southwest": {"lat": 51.49429396970849, "lng": -0.138164380291502}}}, "name": "Cycling4all", "place_id": "ChIJ-6yLQ94EdkgRuF_PFile9a4", "types": ["point_of_interest", "establishment"]}, "ChIJddVoUN4EdkgRcDtTgNZiHY0": {"geometry": {"location": {"lat": 51.4959889, "lng": -0.1372667}, "viewport": {"northeast": {"lat": 51.4973282802915, "lng": -0.135898319708498}, "southwest": {"lat": 51.4946303197085, "lng": -0.138596280291502}}}, "name": "Zipcar", "place_id": "ChIJddVoUN4EdkgRcDtTgNZiHY0", "types": ["car_rental", "point_of_interest", "establishment"]}, "ChIJr-RrUN4EdkgR2803VUibPr4": {"geometry": {"location": {"lat": 51.495977, "lng": -0.137269}, "viewport": {"northeast": {"lat": 51.49731353029151, "lng": -0.135894219708498}, "southwest": {"lat": 51.49461556970851, "lng": -0.138592180291502}}}, "name": "Source London Charging Station", "place_id": "ChIJr-RrUN4EdkgR2803VUibPr4", "types": ["point_of_interest", "establishment"]}, "ChIJLdSRmWgFdkgR1peLIIpEJJQ": {"geometry": {"location": {"lat": 51.49641279999999, "lng": -0.1361518}, "viewport": {"northeast": {"lat": 51.4977945302915, "lng": -0.134717669708498}, "southwest": {"lat": 51.4950965697085, "lng": -0.137415630291502}}}, "name": "Matrimonial Services Al Khair UK", "place_id": "ChIJLdSRmWgFdkgR1peLIIpEJJQ", "types": ["local_government_office", "point_of_interest", "establishment"]}, "ChIJgW73K34FdkgRq3qlh_bXJJ0": {"geometry": {"location": {"lat": 51.49648020000001, "lng": -0.1370532}, "viewport": {"northeast": {"lat": 51.49782793029149, "lng": -0.135714469708498}, "southwest": {"lat": 51.49512996970849, "lng": -0.138412430291502}}}, "name": "Solo Motorcycles Only", "place_id": "ChIJgW73K34FdkgRq3qlh_bXJJ0", "types": ["parking", "point_of_interest", "establishment"]}, "ChIJBxEiEd4EdkgRuzM-DrT-D4Q": {"geometry": {"location": {"lat": 51.49476572623253, "lng": -0.135964688372749}, "viewport": {"northeast": {"lat": 51.4961154802915, "lng": -0.134614919708498}, "southwest": {"lat": 51.4934175197085, "lng": -0.137312880291502}}}, "name": "76 Vincent Square", "place_id": "ChIJBxEiEd4EdkgRuzM-DrT-D4Q", "types": ["route"]}, "ChIJR2FeGN4EdkgRNAVqpe55oEo": {"geometry": {"location": {"lat": 51.4945199, "lng": -0.1362991}, "viewport": {"northeast": {"lat": 51.4958131802915, "lng": -0.134754369708498}, "southwest": {"lat": 51.4931152197085, "lng": -0.137452330291502}}}, "name": "Wellington Hotel by Blue Orchid", "place_id": "ChIJR2FeGN4EdkgRNAVqpe55oEo", "types": ["lodging", "point_of_interest", "establishment"], "rating": 4.3, "user_ratings_total": 635}, "ChIJ9fyEPd4EdkgRYCS207IIrd4": {"geometry": {"location": {"lat": 51.4947384, "lng": -0.136501}, "viewport": {"northeast": {"lat": 51.49608738029149, "lng": -0.135152019708498}, "southwest": {"lat": 51.4933894197085, "lng": -0.137849980291502}}}, "name": "2 Amici", "place_id": "ChIJ9fyEPd4EdkgRYCS207IIrd4", "types": ["restaurant", "food", "point_of_interest", "establishment"], "rating": 4, "user_ratings_total": 131}, "ChIJI936O94EdkgRN9a0BWdSkWI": {"geometry": {"location": {"lat": 51.4948429, "lng": -0.1368525}, "viewport": {"northeast": {"lat": 51.4961943802915, "lng": -0.135517819708498}, "southwest": {"lat": 51.4934964197085, "lng": -0.138215780291502}}}, "name": "Redwood Consulting Ltd", "place_id": "ChIJI936O94EdkgRN9a0BWdSkWI", "types": ["point_of_interest", "establishment"], "rating": 5, "user_ratings_total": 1}, "ChIJL8aYct4EdkgRjYJhMPEY_6Y": {"geometry": {"location": {"lat": 51.49527639999999, "lng": -0.1363038}, "viewport": {"northeast": {"lat": 51.4966014802915, "lng": -0.134913419708498}, "southwest": {"lat": 51.4939035197085, "lng": -0.137611380291502}}}, "name": "United Westminster Almshouses", "place_id": "ChIJL8aYct4EdkgRjYJhMPEY_6Y", "types": ["point_of_interest", "establishment"], "rating": 5, "user_ratings_total": 4}, "ChIJqbevat4EdkgRGl5fazRZJws": {"geometry": {"location": {"lat": 51.4952815, "lng": -0.1363442}, "viewport": {"northeast": {"lat": 51.4966032802915, "lng": -0.134934719708498}, "southwest": {"lat": 51.4939053197085, "lng": -0.137632680291502}}}, "name": "Audio & Acoustics", "place_id": "ChIJqbevat4EdkgRGl5fazRZJws", "types": ["point_of_interest", "establishment"]}, "ChIJIW2drA0bdkgRencE6uPfoY8": {"geometry": {"location": {"lat": 51.4952815, "lng": -0.1363442}, "viewport": {"northeast": {"lat": 51.4966032802915, "lng": -0.134934719708498}, "southwest": {"lat": 51.4939053197085, "lng": -0.137632680291502}}}, "name": "Max Publishing", "place_id": "ChIJIW2drA0bdkgRencE6uPfoY8", "types": ["point_of_interest", "establishment"]}, "ChIJIW2drA0bdkgROPxXdZrSpoE": {"geometry": {"location": {"lat": 51.4952815, "lng": -0.1363442}, "viewport": {"northeast": {"lat": 51.4966032802915, "lng": -0.134934719708498}, "southwest": {"lat": 51.4939053197085, "lng": -0.137632680291502}}}, "name": "Solutions Strategy Research Facilitation Ltd", "place_id": "ChIJIW2drA0bdkgROPxXdZrSpoE", "types": ["point_of_interest", "establishment"]}, "ChIJL-cp3kgadkgRZQ-J9PQu_aQ": {"geometry": {"location": {"lat": 51.4952815, "lng": -0.1363442}, "viewport": {"northeast": {"lat": 51.4966032802915, "lng": -0.134934719708498}, "southwest": {"lat": 51.4939053197085, "lng": -0.137632680291502}}}, "name": "Limelight", "place_id": "ChIJL-cp3kgadkgRZQ-J9PQu_aQ", "types": ["point_of_interest", "establishment"], "rating": 5, "user_ratings_total": 1}, "ChIJOYUVMZ4EdkgR3q-qtTTnFwE": {"geometry": {"location": {"lat": 51.495105, "lng": -0.1372216}, "viewport": {"northeast": {"lat": 51.49648003029149, "lng": -0.135827019708498}, "southwest": {"lat": 51.4937820697085, "lng": -0.1385249802915021}}}, "name": "RAINMAKRR | Blockchain Recruitment Agencies Network | B2B Marketing Agency | IT Recruitment Agencies Network | Crypto Recruitment Agency | B2B Marketing Agencies Network | Tech Executive Search Firms London Headhunters London", "place_id": "ChIJOYUVMZ4EdkgR3q-qtTTnFwE", "types": ["point_of_interest", "establishment"], "rating": 5, "user_ratings_total": 2}, "ChIJ0_giJd4EdkgR9cVdL6z_gPM": {"geometry": {"location": {"lat": 51.4945916, "lng": -0.1366085}, "viewport": {"northeast": {"lat": 51.4959405802915, "lng": -0.135259519708498}, "southwest": {"lat": 51.4932426197085, "lng": -0.137957480291502}}}, "name": "The Indian Diner", "place_id": "ChIJ0_giJd4EdkgR9cVdL6z_gPM", "types": ["meal_takeaway", "restaurant", "food", "point_of_interest", "establishment"], "rating": 3.4, "user_ratings_total": 234}, "ChIJW5EIRN4EdkgR3MkDP-T3HIs": {"geometry": {"location": {"lat": 51.4954044, "lng": -0.1366203}, "viewport": {"northeast": {"lat": 51.4968440802915, "lng": -0.135252319708498}, "southwest": {"lat": 51.4941461197085, "lng": -0.137950280291502}}}, "name": "CTC London", "place_id": "ChIJW5EIRN4EdkgR3MkDP-T3HIs", "types": ["point_of_interest", "establishment"], "rating": 5, "user_ratings_total": 1}, "ChIJmSxVD94EdkgRguTV1onXo6U": {"geometry": {"location": {"lat": 51.4948942, "lng": -0.1357286}, "viewport": {"northeast": {"lat": 51.4960678802915, "lng": -0.134183319708498}, "southwest": {"lat": 51.4933699197085, "lng": -0.136881280291502}}}, "name": "Vincent Rooms", "place_id": "ChIJmSxVD94EdkgRguTV1onXo6U", "types": ["restaurant", "food", "point_of_interest", "establishment"], "rating": 4.4, "user_ratings_total": 125}, "ChIJabs_Pd4EdkgRsJvXHFokoac": {"geometry": {"location": {"lat": 51.4946738, "lng": -0.1365433}, "viewport": {"northeast": {"lat": 51.4960227802915, "lng": -0.135194319708498}, "southwest": {"lat": 51.4933248197085, "lng": -0.1378922802915021}}}, "name": "Hunter Estates", "place_id": "ChIJabs_Pd4EdkgRsJvXHFokoac", "types": ["real_estate_agency", "point_of_interest", "establishment"], "rating": 4.4, "user_ratings_total": 7}, "ChIJawQY6xkqdkgRvORHLNlFREI": {"geometry": {"location": {"lat": 51.49470160000001, "lng": -0.1373005}, "viewport": {"northeast": {"lat": 51.4960166302915, "lng": -0.135847919708498}, "southwest": {"lat": 51.4933186697085, "lng": -0.138545880291502}}}, "name": "The Society Of Environmental Engineers", "place_id": "ChIJawQY6xkqdkgRvORHLNlFREI", "types": ["point_of_interest", "establishment"]}, "ChIJY6kGMN4EdkgRIY5M0DxsWL8": {"geometry": {"location": {"lat": 51.49470160000001, "lng": -0.1373005}, "viewport": {"northeast": {"lat": 51.4960166302915, "lng": -0.135847919708498}, "southwest": {"lat": 51.4933186697085, "lng": -0.138545880291502}}}, "name": "The Society Of Operations Engineers", "place_id": "ChIJY6kGMN4EdkgRIY5M0DxsWL8", "types": ["point_of_interest", "establishment"], "rating": 5, "user_ratings_total": 4}, "ChIJY0HTF94EdkgRGXQbZx5Z0pc": {"geometry": {"location": {"lat": 51.4947811, "lng": -0.1365256}, "viewport": {"northeast": {"lat": 51.4961300802915, "lng": -0.135176619708498}, "southwest": {"lat": 51.4934321197085, "lng": -0.137874580291502}}}, "name": "Capital Interiors Ltd", "place_id": "ChIJY0HTF94EdkgRGXQbZx5Z0pc", "types": ["general_contractor", "point_of_interest", "establishment"], "rating": 5, "user_ratings_total": 3}, "ChIJIW2drA0bdkgRm2qbAY-zPnM": {"geometry": {"location": {"lat": 51.4952815, "lng": -0.1363442}, "viewport": {"northeast": {"lat": 51.4966032802915, "lng": -0.134934719708498}, "southwest": {"lat": 51.4939053197085, "lng": -0.137632680291502}}}, "name": "Andrews David", "place_id": "ChIJIW2drA0bdkgRm2qbAY-zPnM", "types": ["point_of_interest", "establishment"]}, "ChIJn0yVO94EdkgR3RGGNkyYWQc": {"geometry": {"location": {"lat": 51.4947969, "lng": -0.1369129}, "viewport": {"northeast": {"lat": 51.4961438802915, "lng": -0.135557319708498}, "southwest": {"lat": 51.49344591970851, "lng": -0.138255280291502}}}, "name": "Japan Animal Welfare Society", "place_id": "ChIJn0yVO94EdkgR3RGGNkyYWQc", "types": ["point_of_interest", "establishment"], "rating": 3.6, "user_ratings_total": 7}, "ChIJ3XvCPd4EdkgRQtSGnqyAiq0": {"geometry": {"location": {"lat": 51.4948383, "lng": -0.1365502}, "viewport": {"northeast": {"lat": 51.4961858802915, "lng": -0.135202419708498}, "southwest": {"lat": 51.49348791970851, "lng": -0.137900380291502}}}, "name": "Zipcar", "place_id": "ChIJ3XvCPd4EdkgRQtSGnqyAiq0", "types": ["car_rental", "point_of_interest", "establishment"]}, "ChIJL-cp3kgadkgRHDnZ-cIAMJE": {"geometry": {"location": {"lat": 51.4952527, "lng": -0.1364193}, "viewport": {"northeast": {"lat": 51.4966236302915, "lng": -0.135137669708498}, "southwest": {"lat": 51.4939256697085, "lng": -0.137835630291502}}}, "name": "Association of Community Based Business Advice", "place_id": "ChIJL-cp3kgadkgRHDnZ-cIAMJE", "types": ["point_of_interest", "establishment"]}, "ChIJ3cwkNDoFdkgRu7dDB5GFopk": {"geometry": {"location": {"lat": 51.4950784, "lng": -0.1370146}, "viewport": {"northeast": {"lat": 51.49640608029149, "lng": -0.135702919708498}, "southwest": {"lat": 51.4937081197085, "lng": -0.138400880291502}}}, "name": "JL Sports Investment LTD", "place_id": "ChIJ3cwkNDoFdkgRu7dDB5GFopk", "types": ["point_of_interest", "establishment"]}, "ChIJ-4JzPd4EdkgRN65Jz-T2Rv4": {"geometry": {"location": {"lat": 51.4947045, "lng": -0.1365359}, "viewport": {"northeast": {"lat": 51.4960338802915, "lng": -0.135126519708498}, "southwest": {"lat": 51.4933359197085, "lng": -0.137824480291502}}}, "name": "LangeLand Capital", "place_id": "ChIJ-4JzPd4EdkgRN65Jz-T2Rv4", "types": ["finance", "point_of_interest", "establishment"]}, "ChIJIW2drA0bdkgRe08h5CPcm2U": {"geometry": {"location": {"lat": 51.4952815, "lng": -0.1363442}, "viewport": {"northeast": {"lat": 51.4966032802915, "lng": -0.134934719708498}, "southwest": {"lat": 51.4939053197085, "lng": -0.137632680291502}}}, "name": "Strategic Design Partners Ltd", "place_id": "ChIJIW2drA0bdkgRe08h5CPcm2U", "types": ["general_contractor", "point_of_interest", "establishment"]}, "ChIJH3LCIt4EdkgR4Wln7kepnio": {"geometry": {"location": {"lat": 51.49461400000001, "lng": -0.1366508}, "viewport": {"northeast": {"lat": 51.4959629802915, "lng": -0.1353018197084979}, "southwest": {"lat": 51.4932650197085, "lng": -0.137999780291502}}}, "name": "Rochester Indian Cuisine", "place_id": "ChIJH3LCIt4EdkgR4Wln7kepnio", "types": ["meal_takeaway", "restaurant", "food", "point_of_interest", "establishment"]}, "ChIJXyEtWY8FdkgR16yb2oiPDSk": {"geometry": {"location": {"lat": 51.4945916, "lng": -0.1366085}, "viewport": {"northeast": {"lat": 51.4959237802915, "lng": -0.135207819708498}, "southwest": {"lat": 51.4932258197085, "lng": -0.1379057802915021}}}, "name": "AppoloFX Investment Company", "place_id": "ChIJXyEtWY8FdkgR16yb2oiPDSk", "types": ["finance", "point_of_interest", "establishment"], "rating": 5, "user_ratings_total": 2}, "ChIJu91KOd4EdkgRxj9vGX2_lWw": {"geometry": {"location": {"lat": 51.49541199999999, "lng": -0.1365886}, "viewport": {"northeast": {"lat": 51.4967441302915, "lng": -0.135187969708498}, "southwest": {"lat": 51.4940461697085, "lng": -0.137885930291502}}}, "name": "Greencoat Mansions, Westminster SW1 1PG", "place_id": "ChIJu91KOd4EdkgRxj9vGX2_lWw", "types": ["point_of_interest", "establishment"], "rating": 4, "user_ratings_total": 2}, "ChIJmdTfT9AEdkgRwvhCC3xD_iI": {"geometry": {"location": {"lat": 51.49470160000001, "lng": -0.1373005}, "viewport": {"northeast": {"lat": 51.4960166302915, "lng": -0.135847919708498}, "southwest": {"lat": 51.4933186697085, "lng": -0.138545880291502}}}, "name": "Foundation For Science & Technology", "place_id": "ChIJmdTfT9AEdkgRwvhCC3xD_iI", "types": ["point_of_interest", "establishment"], "rating": 4, "user_ratings_total": 1}, "ChIJ__82I94EdkgRGfZ_Mogw0js": {"geometry": {"location": {"lat": 51.4945319, "lng": -0.1367193}, "viewport": {"northeast": {"lat": 51.4958563302915, "lng": -0.135294719708498}, "southwest": {"lat": 51.4931583697085, "lng": -0.137992680291502}}}, "name": "Richmond & Hampshire Limited", "place_id": "ChIJ__82I94EdkgRGfZ_Mogw0js", "types": ["point_of_interest", "establishment"]}, "ChIJy1OSbN4EdkgR81o4y7kZVv4": {"geometry": {"location": {"lat": 51.49533419999999, "lng": -0.1360136}, "viewport": {"northeast": {"lat": 51.4966588802915, "lng": -0.134590719708498}, "southwest": {"lat": 51.4939609197085, "lng": -0.137288680291502}}}, "name": "Westminster Kingsway College", "place_id": "ChIJy1OSbN4EdkgR81o4y7kZVv4", "types": ["transit_station", "point_of_interest", "establishment"]}, "ChIJzeYbdUsbdkgR3mxPpZEwsp8": {"geometry": {"location": {"lat": 51.49470160000001, "lng": -0.1373005}, "viewport": {"northeast": {"lat": 51.4960505802915, "lng": -0.135951519708498}, "southwest": {"lat": 51.4933526197085, "lng": -0.138649480291502}}}, "name": "Confederation of Passenger Transport UK", "place_id": "ChIJzeYbdUsbdkgR3mxPpZEwsp8", "types": ["point_of_interest", "establishment"], "rating": 5, "user_ratings_total": 4}, "ChIJG0AWmeAEdkgRgkun5ug6gdU": {"geometry": {"location": {"lat": 51.49348980154202, "lng": -0.1366964344048315}, "viewport": {"northeast": {"lat": 51.49483893029149, "lng": -0.135347869708498}, "southwest": {"lat": 51.49214096970849, "lng": -0.138045830291502}}}, "name": "64-68 Vincent Square", "place_id": "ChIJG0AWmeAEdkgRgkun5ug6gdU", "types": ["route"]}, "ChIJUQQpWCsFdkgRASwj-u_aa5Q": {"geometry": {"location": {"lat": 51.4942654, "lng": -0.1366026}, "viewport": {"northeast": {"lat": 51.4955405802915, "lng": -0.135191169708498}, "southwest": {"lat": 51.4928426197085, "lng": -0.137889130291502}}}, "name": "The Rochester by Blue Orchid Hotels", "place_id": "ChIJUQQpWCsFdkgRASwj-u_aa5Q", "types": ["lodging", "point_of_interest", "establishment"], "rating": 3.9, "user_ratings_total": 514}, "ChIJR2FeGN4EdkgRGszOTuTZX6U": {"geometry": {"location": {"lat": 51.4942149, "lng": -0.136632}, "viewport": {"northeast": {"lat": 51.4955353302915, "lng": -0.135236219708498}, "southwest": {"lat": 51.4928373697085, "lng": -0.137934180291502}}}, "name": "Global Grange", "place_id": "ChIJR2FeGN4EdkgRGszOTuTZX6U", "types": ["lodging", "point_of_interest", "establishment"], "rating": 4.3, "user_ratings_total": 18}, "ChIJvYsQJN4EdkgR9WBaD-g8UVc": {"geometry": {"location": {"lat": 51.4943029, "lng": -0.136855}, "viewport": {"northeast": {"lat": 51.49561698029149, "lng": -0.135475569708498}, "southwest": {"lat": 51.49291901970849, "lng": -0.138173530291502}}}, "name": "Colourstat Print Shop", "place_id": "ChIJvYsQJN4EdkgR9WBaD-g8UVc", "types": ["point_of_interest", "store", "establishment"], "rating": 4.5, "user_ratings_total": 24}, "ChIJlen1nuAEdkgROz2NftbEUag": {"geometry": {"location": {"lat": 51.4937368, "lng": -0.1367079}, "viewport": {"northeast": {"lat": 51.4950598302915, "lng": -0.135268319708498}, "southwest": {"lat": 51.4923618697085, "lng": -0.137966280291502}}}, "name": "Pro Rubbish Removals", "place_id": "ChIJlen1nuAEdkgROz2NftbEUag", "types": ["point_of_interest", "establishment"]}, "ChIJK7ueJt4EdkgRDKxpgNyhI-g": {"geometry": {"location": {"lat": 51.4942052, "lng": -0.1369396}, "viewport": {"northeast": {"lat": 51.49553633029151, "lng": -0.1355363697084979}, "southwest": {"lat": 51.49283836970851, "lng": -0.138234330291502}}}, "name": "Chartered Physiotherapy Clinic", "place_id": "ChIJK7ueJt4EdkgRDKxpgNyhI-g", "types": ["physiotherapist", "health", "point_of_interest", "establishment"], "rating": 5, "user_ratings_total": 1}, "ChIJk_aGI94EdkgRgQreSDi3WlE": {"geometry": {"location": {"lat": 51.4939737, "lng": -0.1371288}, "viewport": {"northeast": {"lat": 51.4953057802915, "lng": -0.135728369708498}, "southwest": {"lat": 51.4926078197085, "lng": -0.138426330291502}}}, "name": "Shepherds Bookbinders - Bindery", "place_id": "ChIJk_aGI94EdkgRgQreSDi3WlE", "types": ["point_of_interest", "establishment"], "rating": 4.6, "user_ratings_total": 7}, "ChIJh3HDJN4EdkgRRbFbT4ELQe4": {"geometry": {"location": {"lat": 51.4942545, "lng": -0.1369361}, "viewport": {"northeast": {"lat": 51.4955855802915, "lng": -0.135517669708498}, "southwest": {"lat": 51.4928876197085, "lng": -0.1382156302915021}}}, "name": "Moretons", "place_id": "ChIJh3HDJN4EdkgRRbFbT4ELQe4", "types": ["real_estate_agency", "point_of_interest", "establishment"], "rating": 3.6, "user_ratings_total": 17}, "ChIJIVnQneAEdkgRTkHIOVEOOyE": {"geometry": {"location": {"lat": 51.4933944, "lng": -0.1369158}, "viewport": {"northeast": {"lat": 51.4947433802915, "lng": -0.135566819708498}, "southwest": {"lat": 51.4920454197085, "lng": -0.138264780291502}}}, "name": "Fleetcor Europe Ltd", "place_id": "ChIJIVnQneAEdkgRTkHIOVEOOyE", "types": ["point_of_interest", "establishment"], "rating": 3.4, "user_ratings_total": 5}, "ChIJkxXX_gIFdkgRdLYxXjpbqsw": {"geometry": {"location": {"lat": 51.4939988, "lng": -0.1366276}, "viewport": {"northeast": {"lat": 51.49540743029149, "lng": -0.135227769708498}, "southwest": {"lat": 51.49270946970849, "lng": -0.137925730291502}}}, "name": "London Student Hotel", "place_id": "ChIJkxXX_gIFdkgRdLYxXjpbqsw", "types": ["point_of_interest", "establishment"], "rating": 4.5, "user_ratings_total": 4}, "ChIJlen1nuAEdkgR8IZPTnU2Dkk": {"geometry": {"location": {"lat": 51.4937368, "lng": -0.1367079}, "viewport": {"northeast": {"lat": 51.4950562302915, "lng": -0.135271519708498}, "southwest": {"lat": 51.4923582697085, "lng": -0.137969480291502}}}, "name": "ArteLia", "place_id": "ChIJlen1nuAEdkgR8IZPTnU2Dkk", "types": ["point_of_interest", "establishment"]}, "ChIJ3TlrJ94EdkgRE4QSYHVxCVU": {"geometry": {"location": {"lat": 51.493985, "lng": -0.136928}, "viewport": {"northeast": {"lat": 51.49533458029151, "lng": -0.135580869708498}, "southwest": {"lat": 51.49263661970851, "lng": -0.138278830291502}}}, "name": "Santander Cycles", "place_id": "ChIJ3TlrJ94EdkgRE4QSYHVxCVU", "types": ["point_of_interest", "establishment"]}, "ChIJV8PsJt4EdkgRMukCEKiutRk": {"geometry": {"location": {"lat": 51.4941506, "lng": -0.1369218}, "viewport": {"northeast": {"lat": 51.49549078029149, "lng": -0.1355429697084979}, "southwest": {"lat": 51.49279281970849, "lng": -0.138240930291502}}}, "name": "Rochester Row Vane Street (Stop X)", "place_id": "ChIJV8PsJt4EdkgRMukCEKiutRk", "types": ["transit_station", "point_of_interest", "establishment"], "rating": 2, "user_ratings_total": 1}, "ChIJDTUoo1oFdkgRk_9EWAlQi9c": {"geometry": {"location": {"lat": 51.49420809999999, "lng": -0.1367983}, "viewport": {"northeast": {"lat": 51.49555708029149, "lng": -0.135449319708498}, "southwest": {"lat": 51.49285911970849, "lng": -0.138147280291502}}}, "name": "The Vegan Brasserie", "place_id": "ChIJDTUoo1oFdkgRk_9EWAlQi9c", "types": ["restaurant", "food", "point_of_interest", "establishment"], "rating": 4.5, "user_ratings_total": 2}, "ChIJG8-bJt4EdkgRu1vILqpnDCQ": {"geometry": {"location": {"lat": 51.4942052, "lng": -0.1369396}, "viewport": {"northeast": {"lat": 51.49553633029151, "lng": -0.1355363697084979}, "southwest": {"lat": 51.49283836970851, "lng": -0.138234330291502}}}, "name": "Arromite Holdings Limited", "place_id": "ChIJG8-bJt4EdkgRu1vILqpnDCQ", "types": ["point_of_interest", "establishment"]}, "ChIJ0_giJd4EdkgRK-vVUpHdd1k": {"geometry": {"location": {"lat": 51.4941968, "lng": -0.1369973}, "viewport": {"northeast": {"lat": 51.49555493029149, "lng": -0.135574269708498}, "southwest": {"lat": 51.4928569697085, "lng": -0.138272230291502}}}, "name": "J H Kenyon Funeral Directors", "place_id": "ChIJ0_giJd4EdkgRK-vVUpHdd1k", "types": ["funeral_home", "point_of_interest", "establishment"], "rating": 4.9, "user_ratings_total": 17}, "ChIJZWvqs-4FdkgRlUNVbclDSuM": {"geometry": {"location": {"lat": 51.49398110000001, "lng": -0.1372235}, "viewport": {"northeast": {"lat": 51.49530018029151, "lng": -0.135783619708498}, "southwest": {"lat": 51.49260221970851, "lng": -0.138481580291502}}}, "name": "A (London Scottish) Company, London Regiment", "place_id": "ChIJZWvqs-4FdkgRlUNVbclDSuM", "types": ["point_of_interest", "establishment"]}, "ChIJBdjrm-AEdkgRdPmHY2B9-kQ": {"geometry": {"location": {"lat": 51.49350800000001, "lng": -0.1368866}, "viewport": {"northeast": {"lat": 51.4948304802915, "lng": -0.135457369708498}, "southwest": {"lat": 51.49213251970851, "lng": -0.138155330291502}}}, "name": "Westminster Property Ventures Limited", "place_id": "ChIJBdjrm-AEdkgRdPmHY2B9-kQ", "types": ["point_of_interest", "establishment"]}, "ChIJLf8iJd4EdkgR9s_Om3UJIMA": {"geometry": {"location": {"lat": 51.49395370000001, "lng": -0.1373762}, "viewport": {"northeast": {"lat": 51.49526718029151, "lng": -0.135876869708498}, "southwest": {"lat": 51.49256921970851, "lng": -0.138574830291502}}}, "name": "Army Careers Information Office", "place_id": "ChIJLf8iJd4EdkgR9s_Om3UJIMA", "types": ["point_of_interest", "establishment"], "rating": 4.2, "user_ratings_total": 5}, "ChIJS4q8luAEdkgRWuTHpMfDWBU": {"geometry": {"location": {"lat": 51.49296925036725, "lng": -0.1367272990519584}, "viewport": {"northeast": {"lat": 51.4943182302915, "lng": -0.135378319708498}, "southwest": {"lat": 51.49162026970851, "lng": -0.138076280291502}}}, "name": "56 Vincent Square", "place_id": "ChIJS4q8luAEdkgRWuTHpMfDWBU", "types": ["route"]}, "ChIJsSLWjeAEdkgRo5g6144_7TA": {"geometry": {"location": {"lat": 51.49290750000001, "lng": -0.1373704}, "viewport": {"northeast": {"lat": 51.4942347802915, "lng": -0.135957819708498}, "southwest": {"lat": 51.4915368197085, "lng": -0.138655780291502}}}, "name": "The Seafarers\u2019 Charity", "place_id": "ChIJsSLWjeAEdkgRo5g6144_7TA", "types": ["point_of_interest", "establishment"], "rating": 4.5, "user_ratings_total": 4}, "ChIJl1JXCPgFdkgRII5eEMyY9TI": {"geometry": {"location": {"lat": 51.49313159999999, "lng": -0.1363568}, "viewport": {"northeast": {"lat": 51.49437493029149, "lng": -0.135144169708498}, "southwest": {"lat": 51.49167696970849, "lng": -0.137842130291502}}}, "name": "Tennis Ground", "place_id": "ChIJl1JXCPgFdkgRII5eEMyY9TI", "types": ["point_of_interest", "establishment"], "rating": 3, "user_ratings_total": 1}, "ChIJ1f97juAEdkgRr0KzqX3Xj8Y": {"geometry": {"location": {"lat": 51.49294039999999, "lng": -0.1373422}, "viewport": {"northeast": {"lat": 51.49426758029149, "lng": -0.1359293197084979}, "southwest": {"lat": 51.4915696197085, "lng": -0.138627280291502}}}, "name": "Armed Forces Covenant Fund", "place_id": "ChIJ1f97juAEdkgRr0KzqX3Xj8Y", "types": ["point_of_interest", "establishment"]}, "ChIJX8nqrt8EdkgRbqPwHrrVJ5Y": {"geometry": {"location": {"lat": 51.49593563287339, "lng": -0.1381001433739242}, "viewport": {"northeast": {"lat": 51.4972691302915, "lng": -0.136771969708498}, "southwest": {"lat": 51.4945711697085, "lng": -0.139469930291502}}}, "name": "133 Thirleby Rd", "place_id": "ChIJX8nqrt8EdkgRbqPwHrrVJ5Y", "types": ["route"]}, "ChIJYxSipd8EdkgRqSWk1yhAslc": {"geometry": {"location": {"lat": 51.4960792, "lng": -0.1388048}, "viewport": {"northeast": {"lat": 51.49737803029149, "lng": -0.137582969708498}, "southwest": {"lat": 51.49468006970849, "lng": -0.140280930291502}}}, "name": "Maggie Pearlstine Associates", "place_id": "ChIJYxSipd8EdkgRqSWk1yhAslc", "types": ["point_of_interest", "establishment"]}, "ChIJzx9MUt4EdkgR0cBGy2CmRYU": {"geometry": {"location": {"lat": 51.4960191, "lng": -0.1376846}, "viewport": {"northeast": {"lat": 51.4972979302915, "lng": -0.136514619708498}, "southwest": {"lat": 51.4945999697085, "lng": -0.139212580291502}}}, "name": "Edward Lloyd", "place_id": "ChIJzx9MUt4EdkgR0cBGy2CmRYU", "types": ["point_of_interest", "establishment"]}, "ChIJ52Arst8EdkgRp9TmhWvhiBI": {"geometry": {"location": {"lat": 51.4956454, "lng": -0.1383965}, "viewport": {"northeast": {"lat": 51.4969071302915, "lng": -0.136682619708498}, "southwest": {"lat": 51.4942091697085, "lng": -0.139380580291502}}}, "name": "Kirtwood Developments Ltd", "place_id": "ChIJ52Arst8EdkgRp9TmhWvhiBI", "types": ["point_of_interest", "establishment"]}, "ChIJbUZyqd8EdkgRCtqX6ZIJX9k": {"geometry": {"location": {"lat": 51.4961016, "lng": -0.1378969}, "viewport": {"northeast": {"lat": 51.4974505802915, "lng": -0.1365479197084979}, "southwest": {"lat": 51.4947526197085, "lng": -0.139245880291502}}}, "name": "Wigram House", "place_id": "ChIJbUZyqd8EdkgRCtqX6ZIJX9k", "types": ["point_of_interest", "establishment"], "rating": 4.3, "user_ratings_total": 32}, "ChIJqWyuTN4EdkgRUf-5D-VYnuI": {"geometry": {"location": {"lat": 51.4955824, "lng": -0.1379027}, "viewport": {"northeast": {"lat": 51.4969599302915, "lng": -0.136501019708498}, "southwest": {"lat": 51.4942619697085, "lng": -0.139198980291502}}}, "name": "Ashley Gardens", "place_id": "ChIJqWyuTN4EdkgRUf-5D-VYnuI", "types": ["lodging", "point_of_interest", "establishment"], "rating": 4.6, "user_ratings_total": 26}, "ChIJUznNrt8EdkgR_ec2nfjQ1cc": {"geometry": {"location": {"lat": 51.496199, "lng": -0.138431}, "viewport": {"northeast": {"lat": 51.4975492802915, "lng": -0.137078619708498}, "southwest": {"lat": 51.4948513197085, "lng": -0.139776580291502}}}, "name": "ubitricity Charging Station", "place_id": "ChIJUznNrt8EdkgR_ec2nfjQ1cc", "types": ["point_of_interest", "establishment"]}, "ChIJcYsiqd8EdkgRb6f8U3q7uyQ": {"geometry": {"location": {"lat": 51.4962803, "lng": -0.1384487}, "viewport": {"northeast": {"lat": 51.4976120802915, "lng": -0.137141719708498}, "southwest": {"lat": 51.4949141197085, "lng": -0.139839680291502}}}, "name": "NourishMinds", "place_id": "ChIJcYsiqd8EdkgRb6f8U3q7uyQ", "types": ["point_of_interest", "establishment"]}, "ChIJXY38XS0FdkgRa92zDv6XmcU": {"geometry": {"location": {"lat": 51.49644939999999, "lng": -0.1382097}, "viewport": {"northeast": {"lat": 51.4977179802915, "lng": -0.136986469708498}, "southwest": {"lat": 51.49502001970851, "lng": -0.139684430291502}}}, "name": "URBANEST VICTORIA", "place_id": "ChIJXY38XS0FdkgRa92zDv6XmcU", "types": ["point_of_interest", "establishment"], "rating": 4.8, "user_ratings_total": 39}, "ChIJxyTZjdSxcEgRRsqoRzAPWYE": {"geometry": {"location": {"lat": 51.4958665, "lng": -0.1375908}, "viewport": {"northeast": {"lat": 51.4971538302915, "lng": -0.136399169708498}, "southwest": {"lat": 51.4944558697085, "lng": -0.139097130291502}}}, "name": "RGS EXECUTIVE SERVICES", "place_id": "ChIJxyTZjdSxcEgRRsqoRzAPWYE", "types": ["point_of_interest", "establishment"]}, "ChIJcdAeVN4EdkgRVEAzjf9m2Go": {"geometry": {"location": {"lat": 51.49627350000001, "lng": -0.1375861}, "viewport": {"northeast": {"lat": 51.49782898029149, "lng": -0.136222669708498}, "southwest": {"lat": 51.4951310197085, "lng": -0.138920630291502}}}, "name": "Synergy Startups", "place_id": "ChIJcdAeVN4EdkgRVEAzjf9m2Go", "types": ["point_of_interest", "establishment"]}, "ChIJo9_OROYcdkgRWmq1qQbrXnc": {"geometry": {"location": {"lat": 51.49627399999999, "lng": -0.137586}, "viewport": {"northeast": {"lat": 51.49782923029149, "lng": -0.136222619708498}, "southwest": {"lat": 51.4951312697085, "lng": -0.138920580291502}}}, "name": "elenacorchero.com @elenacorchero - Innovation Strategist", "place_id": "ChIJo9_OROYcdkgRWmq1qQbrXnc", "types": ["general_contractor", "point_of_interest", "store", "establishment"]}, "ChIJy0Rgo98EdkgRttqmDL2zu-c": {"geometry": {"location": {"lat": 51.4959625, "lng": -0.1390424}, "viewport": {"northeast": {"lat": 51.4973283302915, "lng": -0.137650669708498}, "southwest": {"lat": 51.4946303697085, "lng": -0.140348630291502}}}, "name": "Freddie", "place_id": "ChIJy0Rgo98EdkgRttqmDL2zu-c", "types": ["school", "point_of_interest", "establishment"]}, "ChIJy0Rgo98EdkgRrrYuSCQ8_2I": {"geometry": {"location": {"lat": 51.4959625, "lng": -0.1390424}, "viewport": {"northeast": {"lat": 51.4973283302915, "lng": -0.137650669708498}, "southwest": {"lat": 51.4946303697085, "lng": -0.140348630291502}}}, "name": "Law Office of Louis Mbanefo", "place_id": "ChIJy0Rgo98EdkgRrrYuSCQ8_2I", "types": ["point_of_interest", "establishment"]}, "ChIJb3nRu98EdkgR-B-XdS0IXKs": {"geometry": {"location": {"lat": 51.4955864, "lng": -0.1388942}, "viewport": {"northeast": {"lat": 51.49692407613825, "lng": -0.1375113475968305}, "southwest": {"lat": 51.49422611555525, "lng": -0.1402093081798346}}}, "name": "Parking lot", "place_id": "ChIJb3nRu98EdkgR-B-XdS0IXKs", "types": ["parking", "premise", "point_of_interest", "establishment"]}, "ChIJgePjl98EdkgRmIC3-_eTD1Q": {"geometry": {"location": {"lat": 51.4957864, "lng": -0.1394884}, "viewport": {"northeast": {"lat": 51.4972224802915, "lng": -0.137915469708498}, "southwest": {"lat": 51.4945245197085, "lng": -0.140613430291502}}}, "name": "Westminster Cathedral", "place_id": "ChIJgePjl98EdkgRmIC3-_eTD1Q", "types": ["premise", "church", "place_of_worship", "point_of_interest", "establishment"]}, "ChIJfZ4Syd8EdkgR32iBtT5epYU": {"geometry": {"location": {"lat": 51.49502810010979, "lng": -0.1383646003994299}, "viewport": {"northeast": {"lat": 51.49637708029149, "lng": -0.137015619708498}, "southwest": {"lat": 51.49367911970849, "lng": -0.139713580291502}}}, "name": "40-36 Francis St", "place_id": "ChIJfZ4Syd8EdkgR32iBtT5epYU", "types": ["route"]}, "ChIJNyBqtN8EdkgRCn-8sajeqxE": {"geometry": {"location": {"lat": 51.4950937, "lng": -0.1389836}, "viewport": {"northeast": {"lat": 51.4965590802915, "lng": -0.137342019708498}, "southwest": {"lat": 51.4938611197085, "lng": -0.140039980291502}}}, "name": "Westminster Cathedral Choir School", "place_id": "ChIJNyBqtN8EdkgRCn-8sajeqxE", "types": ["school", "point_of_interest", "establishment"], "rating": 4.3, "user_ratings_total": 3}, "ChIJnfbzy98EdkgRYUkK0NpJzJk": {"geometry": {"location": {"lat": 51.49491070000001, "lng": -0.1382207}, "viewport": {"northeast": {"lat": 51.4963076302915, "lng": -0.136958919708498}, "southwest": {"lat": 51.4936096697085, "lng": -0.1396568802915021}}}, "name": "Homeless Health Co-ordination Project", "place_id": "ChIJnfbzy98EdkgRYUkK0NpJzJk", "types": ["point_of_interest", "establishment"], "rating": 4, "user_ratings_total": 1}, "ChIJ3c9fzJ0FdkgRqmzeU5-NvvQ": {"geometry": {"location": {"lat": 51.4953024, "lng": -0.1386095}, "viewport": {"northeast": {"lat": 51.49668493029149, "lng": -0.137177069708498}, "southwest": {"lat": 51.49398696970849, "lng": -0.139875030291502}}}, "name": "Quantlogic | Europe", "place_id": "ChIJ3c9fzJ0FdkgRqmzeU5-NvvQ", "types": ["finance", "point_of_interest", "establishment"], "rating": 5, "user_ratings_total": 1}, "ChIJr9VXtd8EdkgRINnSvsIZLhc": {"geometry": {"location": {"lat": 51.495206, "lng": -0.137894}, "viewport": {"northeast": {"lat": 51.4965549802915, "lng": -0.136545019708498}, "southwest": {"lat": 51.4938570197085, "lng": -0.139242980291502}}}, "name": "The Windsor Castle", "place_id": "ChIJr9VXtd8EdkgRINnSvsIZLhc", "types": ["bar", "point_of_interest", "establishment"], "rating": 4.1, "user_ratings_total": 1004}, "ChIJBwCax98EdkgRNJ3SAPO90cI": {"geometry": {"location": {"lat": 51.4950937, "lng": -0.1389836}, "viewport": {"northeast": {"lat": 51.4965590802915, "lng": -0.137342019708498}, "southwest": {"lat": 51.4938611197085, "lng": -0.140039980291502}}}, "name": "Roman Catholic Archdiocese", "place_id": "ChIJBwCax98EdkgRNJ3SAPO90cI", "types": ["church", "place_of_worship", "point_of_interest", "establishment"]}, "ChIJ__wG0d8EdkgRSxAFFZZ1cTU": {"geometry": {"location": {"lat": 51.4949097, "lng": -0.1383168}, "viewport": {"northeast": {"lat": 51.4962393802915, "lng": -0.137055169708498}, "southwest": {"lat": 51.4935414197085, "lng": -0.139753130291502}}}, "name": "Darner's Tuk Shop", "place_id": "ChIJ__wG0d8EdkgRSxAFFZZ1cTU", "types": ["cafe", "food", "point_of_interest", "establishment"]}, "ChIJaRpxzN8EdkgR3ITEqz8wems": {"geometry": {"location": {"lat": 51.494862, "lng": -0.1381699}, "viewport": {"northeast": {"lat": 51.49627743029149, "lng": -0.136941819708498}, "southwest": {"lat": 51.49357946970849, "lng": -0.139639780291502}}}, "name": "Chargemaster Charging Station", "place_id": "ChIJaRpxzN8EdkgR3ITEqz8wems", "types": ["point_of_interest", "establishment"]}, "ChIJYyY5HkUFdkgRVJe3srb2ZTI": {"geometry": {"location": {"lat": 51.4948461, "lng": -0.1384524}, "viewport": {"northeast": {"lat": 51.4961997302915, "lng": -0.137078419708498}, "southwest": {"lat": 51.49350176970851, "lng": -0.139776380291502}}}, "name": "Julie's Massage", "place_id": "ChIJYyY5HkUFdkgRVJe3srb2ZTI", "types": ["spa", "point_of_interest", "establishment"], "rating": 5, "user_ratings_total": 1}, "ChIJz6XHNN4EdkgRFMzK0GKTUVw": {"geometry": {"location": {"lat": 51.4950437, "lng": -0.1378656}, "viewport": {"northeast": {"lat": 51.4962818302915, "lng": -0.136571419708498}, "southwest": {"lat": 51.4935838697085, "lng": -0.139269380291502}}}, "name": "SW1 Home & Garden", "place_id": "ChIJz6XHNN4EdkgRFMzK0GKTUVw", "types": ["point_of_interest", "establishment"], "rating": 5, "user_ratings_total": 4}, "ChIJA2Kut98EdkgR19c3jwNGg7g": {"geometry": {"location": {"lat": 51.4951898, "lng": -0.1386243}, "viewport": {"northeast": {"lat": 51.4965904802915, "lng": -0.137145319708498}, "southwest": {"lat": 51.4938925197085, "lng": -0.139843280291502}}}, "name": "Archbishop's House", "place_id": "ChIJA2Kut98EdkgR19c3jwNGg7g", "types": ["place_of_worship", "point_of_interest", "establishment"], "rating": 3.7, "user_ratings_total": 3}, "ChIJ23uyzg0FdkgR1LXkMthRzss": {"geometry": {"location": {"lat": 51.49492069999999, "lng": -0.1387582}, "viewport": {"northeast": {"lat": 51.49623198029149, "lng": -0.137347919708498}, "southwest": {"lat": 51.49353401970849, "lng": -0.140045880291502}}}, "name": "Clergy House", "place_id": "ChIJ23uyzg0FdkgR1LXkMthRzss", "types": ["point_of_interest", "establishment"], "rating": 4, "user_ratings_total": 1}, "ChIJc4h6z98EdkgR-iPVY-Oc2aM": {"geometry": {"location": {"lat": 51.4947558, "lng": -0.1386176}, "viewport": {"northeast": {"lat": 51.4961327802915, "lng": -0.137190619708498}, "southwest": {"lat": 51.4934348197085, "lng": -0.139888580291502}}}, "name": "Queen Mary Buildings", "place_id": "ChIJc4h6z98EdkgR-iPVY-Oc2aM", "types": ["point_of_interest", "establishment"], "rating": 4.1, "user_ratings_total": 9}, "ChIJVVVZNd4EdkgROT2thpqKoqo": {"geometry": {"location": {"lat": 51.49519769999999, "lng": -0.1378591}, "viewport": {"northeast": {"lat": 51.49658588029149, "lng": -0.136581919708498}, "southwest": {"lat": 51.4938879197085, "lng": -0.139279880291502}}}, "name": "Argonauts Dive Club", "place_id": "ChIJVVVZNd4EdkgROT2thpqKoqo", "types": ["point_of_interest", "establishment"], "rating": 5, "user_ratings_total": 6}, "ChIJb8Ou6n0FdkgRLEIRjosaYLs": {"geometry": {"location": {"lat": 51.4944937, "lng": -0.1381586}, "viewport": {"northeast": {"lat": 51.4958294802915, "lng": -0.136854869708498}, "southwest": {"lat": 51.49313151970851, "lng": -0.139552830291502}}}, "name": "Himalayan Pashmina", "place_id": "ChIJb8Ou6n0FdkgRLEIRjosaYLs", "types": ["clothing_store", "point_of_interest", "store", "establishment"]}, "ChIJi7L5obIFdkgRwyHdjOp-Xuo": {"geometry": {"location": {"lat": 51.4944716, "lng": -0.1381722}, "viewport": {"northeast": {"lat": 51.4958141802915, "lng": -0.136843219708498}, "southwest": {"lat": 51.4931162197085, "lng": -0.139541180291502}}}, "name": "Hazel Whittall Photography", "place_id": "ChIJi7L5obIFdkgRwyHdjOp-Xuo", "types": ["point_of_interest", "establishment"]}, "ChIJ-XQvTQ8FdkgR0XV1g1WD5W4": {"geometry": {"location": {"lat": 51.49478389999999, "lng": -0.1374757}, "viewport": {"northeast": {"lat": 51.49607088029149, "lng": -0.136200269708498}, "southwest": {"lat": 51.49337291970849, "lng": -0.138898230291502}}}, "name": "Foix Health", "place_id": "ChIJ-XQvTQ8FdkgR0XV1g1WD5W4", "types": ["point_of_interest", "establishment"]}, "ChIJqzIcf-AEdkgRAio6kjBBjGc": {"geometry": {"location": {"lat": 51.49373467436727, "lng": -0.1381499507598866}, "viewport": {"northeast": {"lat": 51.4950991802915, "lng": -0.136821469708498}, "southwest": {"lat": 51.4924012197085, "lng": -0.139519430291502}}}, "name": "Greencoat Place", "place_id": "ChIJqzIcf-AEdkgRAio6kjBBjGc", "types": ["route"]}, "ChIJu-DgLd4EdkgR_JwLE0vtKM0": {"geometry": {"location": {"lat": 51.4940897, "lng": -0.1376314}, "viewport": {"northeast": {"lat": 51.4954374302915, "lng": -0.136278869708498}, "southwest": {"lat": 51.4927394697085, "lng": -0.138976830291502}}}, "name": "Queen Mary Hostel", "place_id": "ChIJu-DgLd4EdkgR_JwLE0vtKM0", "types": ["lodging", "point_of_interest", "establishment"], "rating": 3.6, "user_ratings_total": 21}, "ChIJMZd2e-AEdkgRxXotrfO7pgs": {"geometry": {"location": {"lat": 51.4934119, "lng": -0.1383967}, "viewport": {"northeast": {"lat": 51.49476088029149, "lng": -0.137047719708498}, "southwest": {"lat": 51.4920629197085, "lng": -0.139745680291502}}}, "name": "The Sick Children'sTrust", "place_id": "ChIJMZd2e-AEdkgRxXotrfO7pgs", "types": ["point_of_interest", "establishment"]}, "ChIJBQN9eeAEdkgR2H3UXjw7xhA": {"geometry": {"location": {"lat": 51.49370829999999, "lng": -0.1386694}, "viewport": {"northeast": {"lat": 51.4950572802915, "lng": -0.137320419708498}, "southwest": {"lat": 51.4923593197085, "lng": -0.140018380291502}}}, "name": "Gustoso Ristorante Enoteca", "place_id": "ChIJBQN9eeAEdkgR2H3UXjw7xhA", "types": ["restaurant", "food", "point_of_interest", "establishment"], "rating": 4.3, "user_ratings_total": 223}, "ChIJRecmeOAEdkgRww9WjSXNkkY": {"geometry": {"location": {"lat": 51.4937988, "lng": -0.1382174}, "viewport": {"northeast": {"lat": 51.4951477802915, "lng": -0.1368684197084979}, "southwest": {"lat": 51.4924498197085, "lng": -0.139566380291502}}}, "name": "Victoria Telephone Exchange", "place_id": "ChIJRecmeOAEdkgRww9WjSXNkkY", "types": ["point_of_interest", "establishment"]}, "ChIJjRh3gOAEdkgR_TiqBJ2kOQQ": {"geometry": {"location": {"lat": 51.49378979999999, "lng": -0.1379041}, "viewport": {"northeast": {"lat": 51.4951636802915, "lng": -0.136596269708498}, "southwest": {"lat": 51.49246571970851, "lng": -0.139294230291502}}},