{"E00023648": {"ChIJo1cfdMoadkgRKQmGE3i6ZZk": {"geometry": {"location": {"lat": 51.51856631300851, "lng": -0.1643049445251332}, "viewport": {"northeast": {"lat": 51.51991573029149, "lng": -0.162954569708498}, "southwest": {"lat": 51.51721776970849, "lng": -0.165652530291502}}}, "name": "16-3 Shouldham St", "place_id": "ChIJo1cfdMoadkgRKQmGE3i6ZZk", "types": ["route"]}, "ChIJ-9-PjLUadkgRGBhW2fraf9Y": {"geometry": {"location": {"lat": 51.518754, "lng": -0.164995}, "viewport": {"northeast": {"lat": 51.5201221302915, "lng": -0.163668419708498}, "southwest": {"lat": 51.51742416970851, "lng": -0.166366380291502}}}, "name": "The Larrik", "place_id": "ChIJ-9-PjLUadkgRGBhW2fraf9Y", "types": ["bar", "restaurant", "food", "point_of_interest", "establishment"], "rating": 4.4, "user_ratings_total": 677}, "ChIJz-rZfMoadkgRNfaHLJxzm1c": {"geometry": {"location": {"lat": 51.51814669999999, "lng": -0.1648994}, "viewport": {"northeast": {"lat": 51.5195350802915, "lng": -0.163477669708498}, "southwest": {"lat": 51.5168371197085, "lng": -0.166175630291502}}}, "name": "AIMS Accountants For Business - Nick Feeny", "place_id": "ChIJz-rZfMoadkgRNfaHLJxzm1c", "types": ["accounting", "finance", "point_of_interest", "establishment"]}, "ChIJuZ_yE9UTdkgRdGgXeApSn2w": {"geometry": {"location": {"lat": 51.5183793, "lng": -0.1642488}, "viewport": {"northeast": {"lat": 51.5197597802915, "lng": -0.162841469708498}, "southwest": {"lat": 51.5170618197085, "lng": -0.165539430291502}}}, "name": "Dominvs Group", "place_id": "ChIJuZ_yE9UTdkgRdGgXeApSn2w", "types": ["finance", "real_estate_agency", "general_contractor", "point_of_interest", "establishment"], "rating": 4.3, "user_ratings_total": 4}, "ChIJkVdaeMoadkgRBHV-q378NVE": {"geometry": {"location": {"lat": 51.5180653, "lng": -0.1643241}, "viewport": {"northeast": {"lat": 51.51938258029151, "lng": -0.163033619708498}, "southwest": {"lat": 51.51668461970851, "lng": -0.165731580291502}}}, "name": "High Commission of Tonga, London", "place_id": "ChIJkVdaeMoadkgRBHV-q378NVE", "types": ["embassy", "point_of_interest", "establishment"], "rating": 5, "user_ratings_total": 1}, "ChIJ73-XjyobdkgR9oV227a_saM": {"geometry": {"location": {"lat": 51.518696, "lng": -0.1647144}, "viewport": {"northeast": {"lat": 51.52008448029149, "lng": -0.163309269708498}, "southwest": {"lat": 51.5173865197085, "lng": -0.1660072302915021}}}, "name": "The 10 Group", "place_id": "ChIJ73-XjyobdkgR9oV227a_saM", "types": ["point_of_interest", "establishment"], "rating": 5, "user_ratings_total": 1}, "ChIJezwgh7UadkgRxiDMta_DYtU": {"geometry": {"location": {"lat": 51.5178423, "lng": -0.1647653}, "viewport": {"northeast": {"lat": 51.5191877802915, "lng": -0.163422719708498}, "southwest": {"lat": 51.5164898197085, "lng": -0.166120680291502}}}, "name": "MusicTech Tuition", "place_id": "ChIJezwgh7UadkgRxiDMta_DYtU", "types": ["school", "point_of_interest", "establishment"]}, "ChIJB8-xkLUadkgRhyST6jmLwZI": {"geometry": {"location": {"lat": 51.5183017, "lng": -0.1655923}, "viewport": {"northeast": {"lat": 51.5196614302915, "lng": -0.164226319708498}, "southwest": {"lat": 51.51696346970851, "lng": -0.166924280291502}}}, "name": "Hyman Estates Ltd", "place_id": "ChIJB8-xkLUadkgRhyST6jmLwZI", "types": ["real_estate_agency", "point_of_interest", "establishment"]}, "ChIJwYfNkLUadkgRNaSkEC1901U": {"geometry": {"location": {"lat": 51.51828189999999, "lng": -0.165659}, "viewport": {"northeast": {"lat": 51.51963088029149, "lng": -0.164310019708498}, "southwest": {"lat": 51.51693291970849, "lng": -0.167007980291502}}}, "name": "Imperial Travel", "place_id": "ChIJwYfNkLUadkgRNaSkEC1901U", "types": ["travel_agency", "point_of_interest", "establishment"], "rating": 5, "user_ratings_total": 4}, "ChIJccYPiLUadkgRKDch6_nBfJY": {"geometry": {"location": {"lat": 51.5182151, "lng": -0.1645746}, "viewport": {"northeast": {"lat": 51.5195386802915, "lng": -0.163272469708498}, "southwest": {"lat": 51.5168407197085, "lng": -0.165970430291502}}}, "name": "Barham House", "place_id": "ChIJccYPiLUadkgRKDch6_nBfJY", "types": ["point_of_interest", "establishment"]}, "ChIJZV7bh7UadkgRJPtfjVbQZ6s": {"geometry": {"location": {"lat": 51.5180886, "lng": -0.1647362}, "viewport": {"northeast": {"lat": 51.5194643802915, "lng": -0.163337769708498}, "southwest": {"lat": 51.5167664197085, "lng": -0.166035730291502}}}, "name": "Ro\u2019ya Petro Services Ltd.", "place_id": "ChIJZV7bh7UadkgRJPtfjVbQZ6s", "types": ["point_of_interest", "establishment"]}, "ChIJ64OzhbUadkgRyh3gqa23MJI": {"geometry": {"location": {"lat": 51.51802429999999, "lng": -0.1650039}, "viewport": {"northeast": {"lat": 51.51936548029151, "lng": -0.163669519708498}, "southwest": {"lat": 51.51666751970851, "lng": -0.166367480291502}}}, "name": "The Westminister Society", "place_id": "ChIJ64OzhbUadkgRyh3gqa23MJI", "types": ["point_of_interest", "establishment"]}, "ChIJHcRbC7MbdkgRGf0rUJax2cg": {"geometry": {"location": {"lat": 51.51846210000001, "lng": -0.1653196}, "viewport": {"northeast": {"lat": 51.5198472302915, "lng": -0.163903869708498}, "southwest": {"lat": 51.5171492697085, "lng": -0.1666018302915021}}}, "name": "Lentrax Translation", "place_id": "ChIJHcRbC7MbdkgRGf0rUJax2cg", "types": ["point_of_interest", "establishment"], "rating": 5, "user_ratings_total": 2}, "ChIJPUxNt84bdkgRJHoCQWbPD5M": {"geometry": {"location": {"lat": 51.5183793, "lng": -0.1642488}, "viewport": {"northeast": {"lat": 51.5197603302915, "lng": -0.162842169708498}, "southwest": {"lat": 51.5170623697085, "lng": -0.165540130291502}}}, "name": "Dominvs Aviation", "place_id": "ChIJPUxNt84bdkgRJHoCQWbPD5M", "types": ["point_of_interest", "establishment"]}, "ChIJ-f9Ld8oadkgRO5PfL4NN35Y": {"geometry": {"location": {"lat": 51.5183793, "lng": -0.1642488}, "viewport": {"northeast": {"lat": 51.5197603302915, "lng": -0.162842169708498}, "southwest": {"lat": 51.5170623697085, "lng": -0.165540130291502}}}, "name": "CHRISTOPHER SCHOLEY", "place_id": "ChIJ-f9Ld8oadkgRO5PfL4NN35Y", "types": ["point_of_interest", "establishment"]}, "ChIJcwch2_kbdkgRfQ57wDOfJ_E": {"geometry": {"location": {"lat": 51.51862320000001, "lng": -0.1651494}, "viewport": {"northeast": {"lat": 51.51994738029151, "lng": -0.163846169708498}, "southwest": {"lat": 51.51724941970851, "lng": -0.166544130291502}}}, "name": "Club Living Marylebone Apartments", "place_id": "ChIJcwch2_kbdkgRfQ57wDOfJ_E", "types": ["lodging", "point_of_interest", "establishment"]}, "ChIJyU2FvnIbdkgRAQWIrdNlR00": {"geometry": {"location": {"lat": 51.51868520000001, "lng": -0.1650902}, "viewport": {"northeast": {"lat": 51.5200560802915, "lng": -0.163781619708498}, "southwest": {"lat": 51.51735811970851, "lng": -0.166479580291502}}}, "name": "Arab Taxi London \u062a\u0627\u0643\u0633\u064a \u0644\u0646\u062f\u0646 | \u0633\u064a\u0627\u0631\u0629 \u0627\u062c\u0631\u0629 \u0641\u064a \u0644\u0646\u062f\u0646", "place_id": "ChIJyU2FvnIbdkgRAQWIrdNlR00", "types": ["point_of_interest", "establishment"], "rating": 5, "user_ratings_total": 12}, "ChIJX-2TjLUadkgRxAkGebAg7SY": {"geometry": {"location": {"lat": 51.51872919999999, "lng": -0.1649657}, "viewport": {"northeast": {"lat": 51.5201129302915, "lng": -0.163657369708498}, "southwest": {"lat": 51.5174149697085, "lng": -0.166355330291502}}}, "name": "EXTREMECRYPTO LTD", "place_id": "ChIJX-2TjLUadkgRxAkGebAg7SY", "types": ["finance", "point_of_interest", "establishment"]}, "ChIJ1wyMjLUadkgRTI28UfJib70": {"geometry": {"location": {"lat": 51.5187322, "lng": -0.1649721}, "viewport": {"northeast": {"lat": 51.5201140302915, "lng": -0.163661519708498}, "southwest": {"lat": 51.5174160697085, "lng": -0.166359480291502}}}, "name": "Al Shamel International Cargo", "place_id": "ChIJ1wyMjLUadkgRTI28UfJib70", "types": ["point_of_interest", "establishment"], "rating": 3.7, "user_ratings_total": 9}, "ChIJm73jjLUadkgRk0HYqB9dvDU": {"geometry": {"location": {"lat": 51.5187248, "lng": -0.1650582}, "viewport": {"northeast": {"lat": 51.5200897302915, "lng": -0.163733169708498}, "southwest": {"lat": 51.5173917697085, "lng": -0.166431130291502}}}, "name": "Khosla Jani", "place_id": "ChIJm73jjLUadkgRk0HYqB9dvDU", "types": ["point_of_interest", "establishment"]}, "ChIJB8-xkLUadkgR4h5zyMkEPzU": {"geometry": {"location": {"lat": 51.5181613, "lng": -0.1654688}, "viewport": {"northeast": {"lat": 51.51953833029149, "lng": -0.164067669708498}, "southwest": {"lat": 51.51684036970849, "lng": -0.166765630291502}}}, "name": "HYMAN ENERGY", "place_id": "ChIJB8-xkLUadkgR4h5zyMkEPzU", "types": ["point_of_interest", "establishment"]}, "ChIJr3BZh7UadkgRsuB8_M3FI1c": {"geometry": {"location": {"lat": 51.5179022, "lng": -0.1645386}, "viewport": {"northeast": {"lat": 51.51928768029151, "lng": -0.1631222197084979}, "southwest": {"lat": 51.51658971970851, "lng": -0.165820180291502}}}, "name": "DAVID PEACE", "place_id": "ChIJr3BZh7UadkgRsuB8_M3FI1c", "types": ["point_of_interest", "establishment"]}, "ChIJqQ1x0r4bdkgRTBs-pFpp6gY": {"geometry": {"location": {"lat": 51.5182403, "lng": -0.1640322}, "viewport": {"northeast": {"lat": 51.5196177802915, "lng": -0.162632019708498}, "southwest": {"lat": 51.51691981970851, "lng": -0.1653299802915021}}}, "name": "Marbel arch inn", "place_id": "ChIJqQ1x0r4bdkgRTBs-pFpp6gY", "types": ["lodging", "point_of_interest", "establishment"]}, "ChIJMdpUozIbdkgRZLJIDmtJ19I": {"geometry": {"location": {"lat": 51.5187978, "lng": -0.1651061}, "viewport": {"northeast": {"lat": 51.5201544302915, "lng": -0.163767469708498}, "southwest": {"lat": 51.5174564697085, "lng": -0.166465430291502}}}, "name": "London home", "place_id": "ChIJMdpUozIbdkgRZLJIDmtJ19I", "types": ["lodging", "point_of_interest", "establishment"]}, "ChIJhR2XT3cbdkgRzMwZx_p_6qI": {"geometry": {"location": {"lat": 51.51826879999999, "lng": -0.1656358}, "viewport": {"northeast": {"lat": 51.5196434802915, "lng": -0.164333919708498}, "southwest": {"lat": 51.5169455197085, "lng": -0.167031880291502}}}, "name": "MiSS SiRNey RiCCeLLy", "place_id": "ChIJhR2XT3cbdkgRzMwZx_p_6qI", "types": ["hair_care", "point_of_interest", "establishment"]}, "ChIJVdKkk7UadkgRdXpJYvySGwk": {"geometry": {"location": {"lat": 51.5186485, "lng": -0.1654523}, "viewport": {"northeast": {"lat": 51.5199710802915, "lng": -0.164053169708498}, "southwest": {"lat": 51.51727311970851, "lng": -0.166751130291502}}}, "name": "Blue Nile Travel & Services Ltd", "place_id": "ChIJVdKkk7UadkgRdXpJYvySGwk", "types": ["travel_agency", "point_of_interest", "establishment"], "rating": 5, "user_ratings_total": 5}, "ChIJR3ezMasbdkgRUL8rnUmOshs": {"geometry": {"location": {"lat": 51.5182857, "lng": -0.1656533}, "viewport": {"northeast": {"lat": 51.5196520802915, "lng": -0.164336669708498}, "southwest": {"lat": 51.5169541197085, "lng": -0.167034630291502}}}, "name": "California Design Limited", "place_id": "ChIJR3ezMasbdkgRUL8rnUmOshs", "types": ["point_of_interest", "establishment"], "rating": 5, "user_ratings_total": 1}, "ChIJf4VWjbUadkgRahXC4IzvBbE": {"geometry": {"location": {"lat": 51.518832, "lng": -0.165053}, "viewport": {"northeast": {"lat": 51.52018278029151, "lng": -0.163706019708498}, "southwest": {"lat": 51.51748481970851, "lng": -0.166403980291502}}}, "name": "International Forum for Islamic Dialogue | IFID", "place_id": "ChIJf4VWjbUadkgRahXC4IzvBbE", "types": ["point_of_interest", "establishment"], "rating": 5, "user_ratings_total": 1}, "ChIJJSrNb7UadkgRfKjDayx-Loc": {"geometry": {"location": {"lat": 51.51682260003003, "lng": -0.1654221498878045}, "viewport": {"northeast": {"lat": 51.5181715802915, "lng": -0.164073169708498}, "southwest": {"lat": 51.5154736197085, "lng": -0.166771130291502}}}, "name": "Edgware Road", "place_id": "ChIJJSrNb7UadkgRfKjDayx-Loc", "types": ["route"]}, "ChIJz2-DdrUadkgRngTEQpKGfi0": {"geometry": {"location": {"lat": 51.517189, "lng": -0.1655724}, "viewport": {"northeast": {"lat": 51.5184806802915, "lng": -0.163935319708498}, "southwest": {"lat": 51.5157827197085, "lng": -0.166633280291502}}}, "name": "Grosvenor Casino, The Victoria", "place_id": "ChIJz2-DdrUadkgRngTEQpKGfi0", "types": ["casino", "point_of_interest", "establishment"], "rating": 4.1, "user_ratings_total": 994}, "ChIJO5D5f7UadkgRWDXcRVpNjJk": {"geometry": {"location": {"lat": 51.5174675, "lng": -0.1646263}, "viewport": {"northeast": {"lat": 51.5188855802915, "lng": -0.163221619708498}, "southwest": {"lat": 51.5161876197085, "lng": -0.165919580291502}}}, "name": "Rosenthal", "place_id": "ChIJO5D5f7UadkgRWDXcRVpNjJk", "types": ["accounting", "finance", "point_of_interest", "establishment"]}, "ChIJW6SCWMoadkgROfslQls0uj8": {"geometry": {"location": {"lat": 51.5172326, "lng": -0.1651124}, "viewport": {"northeast": {"lat": 51.5185078302915, "lng": -0.163691269708498}, "southwest": {"lat": 51.5158098697085, "lng": -0.166389230291502}}}, "name": "A A P M Investigations", "place_id": "ChIJW6SCWMoadkgROfslQls0uj8", "types": ["point_of_interest", "establishment"]}, "ChIJN5D5f7UadkgRTzbjmmituM0": {"geometry": {"location": {"lat": 51.5175032, "lng": -0.1645542}, "viewport": {"northeast": {"lat": 51.51890343029151, "lng": -0.163204219708498}, "southwest": {"lat": 51.51620546970851, "lng": -0.165902180291502}}}, "name": "Base Associates Ltd", "place_id": "ChIJN5D5f7UadkgRTzbjmmituM0", "types": ["point_of_interest", "establishment"]}, "ChIJ_YJToLUadkgR1gaHT-FX_9g": {"geometry": {"location": {"lat": 51.5171487, "lng": -0.1653824}, "viewport": {"northeast": {"lat": 51.51841728029149, "lng": -0.1638917197084979}, "southwest": {"lat": 51.5157193197085, "lng": -0.166589680291502}}}, "name": "The Poker Room", "place_id": "ChIJ_YJToLUadkgR1gaHT-FX_9g", "types": ["casino", "bar", "restaurant", "food", "point_of_interest", "establishment"], "rating": 4.4, "user_ratings_total": 101}, "ChIJibp0kzQFdkgR3QPQ6HxzIRs": {"geometry": {"location": {"lat": 51.5170704, "lng": -0.1654464}, "viewport": {"northeast": {"lat": 51.5183613302915, "lng": -0.164145219708498}, "southwest": {"lat": 51.5156633697085, "lng": -0.166843180291502}}}, "name": "Argos Marble Arch", "place_id": "ChIJibp0kzQFdkgR3QPQ6HxzIRs", "types": ["department_store", "jewelry_store", "electronics_store", "furniture_store", "home_goods_store", "point_of_interest", "clothing_store", "store", "establishment"], "rating": 3.8, "user_ratings_total": 340}, "ChIJXfidgMoadkgRZ7c5B6-0Mss": {"geometry": {"location": {"lat": 51.5174906, "lng": -0.1642058}, "viewport": {"northeast": {"lat": 51.5187972302915, "lng": -0.162816469708498}, "southwest": {"lat": 51.5160992697085, "lng": -0.1655144302915021}}}, "name": "Hai Gallery", "place_id": "ChIJXfidgMoadkgRZ7c5B6-0Mss", "types": ["art_gallery", "point_of_interest", "establishment"]}, "ChIJtfzKV9MEdkgRUTKN1xqS7wY": {"geometry": {"location": {"lat": 51.51748509999999, "lng": -0.1642072}, "viewport": {"northeast": {"lat": 51.51879353029149, "lng": -0.162819619708498}, "southwest": {"lat": 51.51609556970849, "lng": -0.165517580291502}}}, "name": "Orped Studio", "place_id": "ChIJtfzKV9MEdkgRUTKN1xqS7wY", "types": ["point_of_interest", "establishment"]}, "ChIJtRMjqz8bdkgRT1jW8Z9GZ40": {"geometry": {"location": {"lat": 51.5174906, "lng": -0.1642058}, "viewport": {"northeast": {"lat": 51.51883958029149, "lng": -0.162856819708498}, "southwest": {"lat": 51.51614161970849, "lng": -0.1655547802915021}}}, "name": "VovoKa Cleaning Services", "place_id": "ChIJtRMjqz8bdkgRT1jW8Z9GZ40", "types": ["point_of_interest", "establishment"]}, "ChIJz9GyvOMQdkgRpM4g_qc8rbY": {"geometry": {"location": {"lat": 51.5168289, "lng": -0.1652376}, "viewport": {"northeast": {"lat": 51.51816343029149, "lng": -0.163944169708498}, "southwest": {"lat": 51.5154654697085, "lng": -0.166642130291502}}}, "name": "Finesse Glamour Extensions", "place_id": "ChIJz9GyvOMQdkgRpM4g_qc8rbY", "types": ["beauty_salon", "point_of_interest", "establishment"]}, "ChIJ0Uhqb7UadkgRS__HXxLqxv8": {"geometry": {"location": {"lat": 51.51675119999999, "lng": -0.1649113}, "viewport": {"northeast": {"lat": 51.5180910802915, "lng": -0.1637579697084979}, "southwest": {"lat": 51.5153931197085, "lng": -0.166455930291502}}}, "name": "DHL Express Service Point (Ryman Edgware Road)", "place_id": "ChIJ0Uhqb7UadkgRS__HXxLqxv8", "types": ["point_of_interest", "establishment"], "rating": 4.3, "user_ratings_total": 7}, "ChIJ2X0AfsoadkgR8bxMB719MOw": {"geometry": {"location": {"lat": 51.5174993, "lng": -0.1642456}, "viewport": {"northeast": {"lat": 51.5187969802915, "lng": -0.162847369708498}, "southwest": {"lat": 51.5160990197085, "lng": -0.165545330291502}}}, "name": "Park Estates London Limited", "place_id": "ChIJ2X0AfsoadkgR8bxMB719MOw", "types": ["real_estate_agency", "finance", "point_of_interest", "establishment"], "rating": 4.7, "user_ratings_total": 14}, "ChIJiUYeosoadkgRcrPLGpFKbSk": {"geometry": {"location": {"lat": 51.5168675, "lng": -0.1650121}, "viewport": {"northeast": {"lat": 51.51818623029151, "lng": -0.163857369708498}, "southwest": {"lat": 51.51548826970851, "lng": -0.166555330291502}}}, "name": "Ryman Stationery", "place_id": "ChIJiUYeosoadkgRcrPLGpFKbSk", "types": ["point_of_interest", "store", "establishment"], "rating": 4.5, "user_ratings_total": 33}, "ChIJ50mPXZUbdkgRhl9sSvRP25E": {"geometry": {"location": {"lat": 51.5173178, "lng": -0.1648966}, "viewport": {"northeast": {"lat": 51.5186743302915, "lng": -0.163533569708498}, "southwest": {"lat": 51.5159763697085, "lng": -0.166231530291502}}}, "name": "London home", "place_id": "ChIJ50mPXZUbdkgRhl9sSvRP25E", "types": ["point_of_interest", "establishment"]}, "ChIJN8T7TGMbdkgRv0xOeLPoMJM": {"geometry": {"location": {"lat": 51.517298, "lng": -0.1646509}, "viewport": {"northeast": {"lat": 51.5186124802915, "lng": -0.163270869708498}, "southwest": {"lat": 51.5159145197085, "lng": -0.165968830291502}}}, "name": "Victoria Salon \u0635\u0627\u0644\u0648\u0646 \u0641\u064a\u0643\u062a\u0648\u0631\u064a\u0627", "place_id": "ChIJN8T7TGMbdkgRv0xOeLPoMJM", "types": ["hair_care", "health", "point_of_interest", "establishment"], "rating": 4.6, "user_ratings_total": 11}, "ChIJ76V1e7UadkgROkC2XT5WpAI": {"geometry": {"location": {"lat": 51.5174062, "lng": -0.1648956}, "viewport": {"northeast": {"lat": 51.5187658302915, "lng": -0.163526969708498}, "southwest": {"lat": 51.5160678697085, "lng": -0.166224930291502}}}, "name": "London Queen's - Hyde Park", "place_id": "ChIJ76V1e7UadkgROkC2XT5WpAI", "types": ["lodging", "point_of_interest", "establishment"], "rating": 1, "user_ratings_total": 1}, "ChIJ0euOGOIbdkgRwzcZ4LVp9sw": {"geometry": {"location": {"lat": 51.5172326, "lng": -0.1651124}, "viewport": {"northeast": {"lat": 51.5185078302915, "lng": -0.163691269708498}, "southwest": {"lat": 51.5158098697085, "lng": -0.166389230291502}}}, "name": "Access Marble Arch Apartments", "place_id": "ChIJ0euOGOIbdkgRwzcZ4LVp9sw", "types": ["lodging", "point_of_interest", "establishment"]}, "ChIJj1Kpf7UadkgRl7K4CptzHSo": {"geometry": {"location": {"lat": 51.51737929999999, "lng": -0.164677}, "viewport": {"northeast": {"lat": 51.5186615802915, "lng": -0.163261919708498}, "southwest": {"lat": 51.5159636197085, "lng": -0.1659598802915021}}}, "name": "Cctv Supply & Sales", "place_id": "ChIJj1Kpf7UadkgRl7K4CptzHSo", "types": ["point_of_interest", "establishment"]}, "ChIJkYvrfrUadkgRMWvG9v7vFdY": {"geometry": {"location": {"lat": 51.517396, "lng": -0.1646923}, "viewport": {"northeast": {"lat": 51.5187108302915, "lng": -0.163406569708498}, "southwest": {"lat": 51.5160128697085, "lng": -0.166104530291502}}}, "name": "Apartamento Final", "place_id": "ChIJkYvrfrUadkgRMWvG9v7vFdY", "types": ["lodging", "point_of_interest", "establishment"], "rating": 5, "user_ratings_total": 2}, "ChIJiQtZFSUbdkgRtyRmAcw8ww0": {"geometry": {"location": {"lat": 51.5173702, "lng": -0.1645942}, "viewport": {"northeast": {"lat": 51.5186672802915, "lng": -0.163193819708498}, "southwest": {"lat": 51.5159693197085, "lng": -0.165891780291502}}}, "name": "Richmond Global Link Ltd", "place_id": "ChIJiQtZFSUbdkgRtyRmAcw8ww0", "types": ["point_of_interest", "establishment"]}, "ChIJ-3vGdrUadkgRCRriOaG_2tY": {"geometry": {"location": {"lat": 51.5171675, "lng": -0.1651878}, "viewport": {"northeast": {"lat": 51.51845593029149, "lng": -0.163780319708498}, "southwest": {"lat": 51.5157579697085, "lng": -0.166478280291502}}}, "name": "Grosvenor Casino, The Little Vic", "place_id": "ChIJ-3vGdrUadkgRCRriOaG_2tY", "types": ["casino", "point_of_interest", "establishment"], "rating": 5, "user_ratings_total": 1}, "ChIJE3VifLUadkgRViA6QBJEtH4": {"geometry": {"location": {"lat": 51.517028, "lng": -0.1648185}, "viewport": {"northeast": {"lat": 51.51841848029149, "lng": -0.163510119708498}, "southwest": {"lat": 51.5157205197085, "lng": -0.166208080291502}}}, "name": "Richbourne Court", "place_id": "ChIJE3VifLUadkgRViA6QBJEtH4", "types": ["lodging", "point_of_interest", "establishment"], "rating": 4.9, "user_ratings_total": 13}, "ChIJO5D5f7UadkgRsYzXfjWXWfg": {"geometry": {"location": {"lat": 51.5175032, "lng": -0.1645542}, "viewport": {"northeast": {"lat": 51.51890343029151, "lng": -0.163204219708498}, "southwest": {"lat": 51.51620546970851, "lng": -0.165902180291502}}}, "name": "Angus Dundee Distillers PLC", "place_id": "ChIJO5D5f7UadkgRsYzXfjWXWfg", "types": ["point_of_interest", "establishment"], "rating": 3, "user_ratings_total": 2}, "ChIJ74VoQwAbdkgRft4KwIwVKx8": {"geometry": {"location": {"lat": 51.5174353, "lng": -0.1643851}, "viewport": {"northeast": {"lat": 51.51873783029151, "lng": -0.162990119708498}, "southwest": {"lat": 51.51603986970851, "lng": -0.165688080291502}}}, "name": "RefriTech LTD", "place_id": "ChIJ74VoQwAbdkgRft4KwIwVKx8", "types": ["point_of_interest", "establishment"], "rating": 5, "user_ratings_total": 5}, "ChIJBXZVYcoadkgRM1GHKJvxc_g": {"geometry": {"location": {"lat": 51.5173466, "lng": -0.1642822}, "viewport": {"northeast": {"lat": 51.5187208302915, "lng": -0.1629594197084979}, "southwest": {"lat": 51.5160228697085, "lng": -0.165657380291502}}}, "name": "Hacker Own Brand Ltd", "place_id": "ChIJBXZVYcoadkgRM1GHKJvxc_g", "types": ["point_of_interest", "establishment"], "rating": 4.3, "user_ratings_total": 10}, "ChIJA-A8ZbUadkgRkTgJwMlSnIg": {"geometry": {"location": {"lat": 51.5167811, "lng": -0.1649718}, "viewport": {"northeast": {"lat": 51.5181086802915, "lng": -0.163788219708498}, "southwest": {"lat": 51.51541071970851, "lng": -0.166486180291502}}}, "name": "Saxophone and Clarinet Lessons", "place_id": "ChIJA-A8ZbUadkgRkTgJwMlSnIg", "types": ["school", "point_of_interest", "establishment"]}, "ChIJZyr5I0QbdkgRD15y35eCpq8": {"geometry": {"location": {"lat": 51.5168781, "lng": -0.1650333}, "viewport": {"northeast": {"lat": 51.5181524302915, "lng": -0.1638189697084979}, "southwest": {"lat": 51.5154544697085, "lng": -0.166516930291502}}}, "name": "Printt Click & Collect (Ryman)", "place_id": "ChIJZyr5I0QbdkgRD15y35eCpq8", "types": ["point_of_interest", "store", "establishment"]}, "ChIJSeN6xsIbdkgRmBKrgbVEe24": {"geometry": {"location": {"lat": 51.5172268, "lng": -0.1654862}, "viewport": {"northeast": {"lat": 51.5185361302915, "lng": -0.164349569708498}, "southwest": {"lat": 51.5158381697085, "lng": -0.167047530291502}}}, "name": "Prince Pharmacy (Edgware Road)", "place_id": "ChIJSeN6xsIbdkgRmBKrgbVEe24", "types": ["pharmacy", "health", "point_of_interest", "store", "establishment"], "rating": 4, "user_ratings_total": 20}, "ChIJZXNx_H4bdkgRwcRYee4lHNI": {"geometry": {"location": {"lat": 51.5174624, "lng": -0.1643167}, "viewport": {"northeast": {"lat": 51.5187650802915, "lng": -0.162919519708498}, "southwest": {"lat": 51.5160671197085, "lng": -0.165617480291502}}}, "name": "Samer dry cleaners \u0645\u063a\u0633\u0644\u0629 \u0633\u0627\u0645\u0631", "place_id": "ChIJZXNx_H4bdkgRwcRYee4lHNI", "types": ["laundry", "point_of_interest", "establishment"], "rating": 4.3, "user_ratings_total": 7}, "ChIJ_YJToLUadkgRiliENIyezLs": {"geometry": {"location": {"lat": 51.5172409, "lng": -0.1655049}, "viewport": {"northeast": {"lat": 51.5185049802915, "lng": -0.164301219708498}, "southwest": {"lat": 51.5158070197085, "lng": -0.166999180291502}}}, "name": "ATM", "place_id": "ChIJ_YJToLUadkgRiliENIyezLs", "types": ["atm", "finance", "point_of_interest", "establishment"]}, "ChIJ8QzZgMoadkgRJpNa1516v4I": {"geometry": {"location": {"lat": 51.51737199999999, "lng": -0.164207}, "viewport": {"northeast": {"lat": 51.5187490302915, "lng": -0.162885819708498}, "southwest": {"lat": 51.5160510697085, "lng": -0.165583780291502}}}, "name": "Santander Cycles", "place_id": "ChIJ8QzZgMoadkgRJpNa1516v4I", "types": ["point_of_interest", "establishment"], "rating": 5, "user_ratings_total": 1}, "ChIJAb6WgMoadkgRO_pQEyA2H-o": {"geometry": {"location": {"lat": 51.5174993, "lng": -0.1642456}, "viewport": {"northeast": {"lat": 51.5187969802915, "lng": -0.162847369708498}, "southwest": {"lat": 51.5160990197085, "lng": -0.165545330291502}}}, "name": "\u0635\u0627\u0644\u0648\u0646 \u0633\u0627\u0645\u0631 Samer Salon", "place_id": "ChIJAb6WgMoadkgRO_pQEyA2H-o", "types": ["hair_care", "health", "point_of_interest", "establishment"], "rating": 4.1, "user_ratings_total": 89}, "ChIJex30xugbdkgRW6b0_twMkDY": {"geometry": {"location": {"lat": 51.5174848, "lng": -0.1642112}, "viewport": {"northeast": {"lat": 51.5187925302915, "lng": -0.162822619708498}, "southwest": {"lat": 51.5160945697085, "lng": -0.165520580291502}}}, "name": "Akura Furnishings Ltd", "place_id": "ChIJex30xugbdkgRW6b0_twMkDY", "types": ["general_contractor", "point_of_interest", "establishment"]}, "ChIJSYqncbUadkgRSAL1sQLvRq4": {"geometry": {"location": {"lat": 51.5170451, "lng": -0.165549}, "viewport": {"northeast": {"lat": 51.5183613302915, "lng": -0.164254069708498}, "southwest": {"lat": 51.51566336970851, "lng": -0.166952030291502}}}, "name": "EE in Argos", "place_id": "ChIJSYqncbUadkgRSAL1sQLvRq4", "types": ["point_of_interest", "store", "establishment"], "rating": 3.8, "user_ratings_total": 9}, "ChIJAQDAZLUadkgR6GjmHkq9U80": {"geometry": {"location": {"lat": 51.5167811, "lng": -0.1649718}, "viewport": {"northeast": {"lat": 51.5181086802915, "lng": -0.163788219708498}, "southwest": {"lat": 51.51541071970851, "lng": -0.166486180291502}}}, "name": "sharonmari", "place_id": "ChIJAQDAZLUadkgR6GjmHkq9U80", "types": ["school", "point_of_interest", "establishment"]}, "ChIJAQDAZLUadkgRgxayOvBkS3U": {"geometry": {"location": {"lat": 51.5167811, "lng": -0.1649718}, "viewport": {"northeast": {"lat": 51.5181086802915, "lng": -0.163788219708498}, "southwest": {"lat": 51.51541071970851, "lng": -0.166486180291502}}}, "name": "Vocal Rehabilitation - Dane Chalfin", "place_id": "ChIJAQDAZLUadkgRgxayOvBkS3U", "types": ["school", "point_of_interest", "establishment"]}, "ChIJJdoFc20bdkgR7LFIVVoig5U": {"geometry": {"location": {"lat": 51.5167811, "lng": -0.1649718}, "viewport": {"northeast": {"lat": 51.5181086802915, "lng": -0.163788219708498}, "southwest": {"lat": 51.51541071970851, "lng": -0.166486180291502}}}, "name": "Piano Lessons with Eddie Giffney - Jacques Samuel Piano Studio", "place_id": "ChIJJdoFc20bdkgR7LFIVVoig5U", "types": ["school", "point_of_interest", "establishment"], "rating": 5, "user_ratings_total": 2}, "ChIJrfOmgMoadkgR31EAf2iIG-0": {"geometry": {"location": {"lat": 51.5175067, "lng": -0.164208}, "viewport": {"northeast": {"lat": 51.51880703029151, "lng": -0.162812719708498}, "southwest": {"lat": 51.51610906970851, "lng": -0.165510680291502}}}, "name": "Resilience Training and Coaching", "place_id": "ChIJrfOmgMoadkgR31EAf2iIG-0", "types": ["point_of_interest", "establishment"]}, "ChIJA-A8ZbUadkgR5sdnSpFvj0g": {"geometry": {"location": {"lat": 51.5168147, "lng": -0.1651999}, "viewport": {"northeast": {"lat": 51.5181522802915, "lng": -0.163908419708498}, "southwest": {"lat": 51.5154543197085, "lng": -0.166606380291502}}}, "name": "Altay Firat", "place_id": "ChIJA-A8ZbUadkgR5sdnSpFvj0g", "types": ["point_of_interest", "establishment"]}, "ChIJP4fZcrUadkgRYycNJk5r5hM": {"geometry": {"location": {"lat": 51.5170894, "lng": -0.1656054}, "viewport": {"northeast": {"lat": 51.5184045802915, "lng": -0.164314269708498}, "southwest": {"lat": 51.5157066197085, "lng": -0.167012230291502}}}, "name": "Edgware", "place_id": "ChIJP4fZcrUadkgRYycNJk5r5hM", "types": ["school", "point_of_interest", "establishment"]}, "ChIJ4V6QGngFdkgR1cfrkbRsTFI": {"geometry": {"location": {"lat": 51.5167512, "lng": -0.1649114}, "viewport": {"northeast": {"lat": 51.5180911302915, "lng": -0.163758019708498}, "southwest": {"lat": 51.5153931697085, "lng": -0.166455980291502}}}, "name": "Lentrax translation Services Edgware Road", "place_id": "ChIJ4V6QGngFdkgR1cfrkbRsTFI", "types": ["point_of_interest", "establishment"], "rating": 5, "user_ratings_total": 4}, "ChIJwzBsZbUadkgRn9z-ShOgTts": {"geometry": {"location": {"lat": 51.5167461, "lng": -0.1651017}, "viewport": {"northeast": {"lat": 51.51811918029149, "lng": -0.163853169708498}, "southwest": {"lat": 51.51542121970849, "lng": -0.166551130291502}}}, "name": "Jack Samuel Pianos", "place_id": "ChIJwzBsZbUadkgRn9z-ShOgTts", "types": ["point_of_interest", "store", "establishment"], "rating": 5, "user_ratings_total": 1}, "ChIJZ6nLX7UadkgRiXzlAwAcA50": {"geometry": {"location": {"lat": 51.51620695056292, "lng": -0.1646764980150691}, "viewport": {"northeast": {"lat": 51.5175559302915, "lng": -0.163327519708498}, "southwest": {"lat": 51.51485796970851, "lng": -0.166025480291502}}}, "name": "81-105 A5", "place_id": "ChIJZ6nLX7UadkgRiXzlAwAcA50", "types": ["route"]}, "ChIJY4fpXrUadkgRTd7qMn6H2WY": {"geometry": {"location": {"lat": 51.51635040000001, "lng": -0.1651239}, "viewport": {"northeast": {"lat": 51.5177361302915, "lng": -0.163710119708498}, "southwest": {"lat": 51.5150381697085, "lng": -0.166408080291502}}}, "name": "Sterling", "place_id": "ChIJY4fpXrUadkgRTd7qMn6H2WY", "types": ["finance", "point_of_interest", "establishment"], "rating": 5, "user_ratings_total": 1}, "ChIJvf4PSlIDdkgR9v-qtHbZD7I": {"geometry": {"location": {"lat": 51.5164413, "lng": -0.1645557}, "viewport": {"northeast": {"lat": 51.5178329302915, "lng": -0.163231519708498}, "southwest": {"lat": 51.5151349697085, "lng": -0.165929480291502}}}, "name": "The Real Asset Company", "place_id": "ChIJvf4PSlIDdkgR9v-qtHbZD7I", "types": ["finance", "point_of_interest", "store", "establishment"], "rating": 4.5, "user_ratings_total": 2}, "ChIJX3Q1WbUadkgRIqVR58Jhvfo": {"geometry": {"location": {"lat": 51.5158685, "lng": -0.1647775}, "viewport": {"northeast": {"lat": 51.5172231302915, "lng": -0.163418569708498}, "southwest": {"lat": 51.5145251697085, "lng": -0.166116530291502}}}, "name": "Urban Chic Serviced Apartments - Hyde Park", "place_id": "ChIJX3Q1WbUadkgRIqVR58Jhvfo", "types": ["lodging", "point_of_interest", "establishment"], "rating": 4, "user_ratings_total": 9}, "ChIJ9XA_Z7UadkgRq4x714hZ6Y8": {"geometry": {"location": {"lat": 51.5165558, "lng": -0.1648312}, "viewport": {"northeast": {"lat": 51.51794753029149, "lng": -0.1636068697084979}, "southwest": {"lat": 51.51524956970849, "lng": -0.166304830291502}}}, "name": "Al Arez Express Lebanese Restaurant and Shisha", "place_id": "ChIJ9XA_Z7UadkgRq4x714hZ6Y8", "types": ["restaurant", "food", "point_of_interest", "establishment"], "rating": 3.8, "user_ratings_total": 1978}, "ChIJY4fpXrUadkgRO6j3J5x7K8E": {"geometry": {"location": {"lat": 51.51593, "lng": -0.164501}, "viewport": {"northeast": {"lat": 51.51727898029149, "lng": -0.1631520197084979}, "southwest": {"lat": 51.51458101970849, "lng": -0.165849980291502}}}, "name": "Wonder Travel Ltd", "place_id": "ChIJY4fpXrUadkgRO6j3J5x7K8E", "types": ["travel_agency", "point_of_interest", "establishment"], "rating": 5, "user_ratings_total": 6}, "ChIJm62YX7UadkgRX3DdOJCX3Jc": {"geometry": {"location": {"lat": 51.5160206, "lng": -0.1646451}, "viewport": {"northeast": {"lat": 51.51754958029149, "lng": -0.163456269708498}, "southwest": {"lat": 51.51485161970849, "lng": -0.166154230291502}}}, "name": "Mobinet Ltd", "place_id": "ChIJm62YX7UadkgRX3DdOJCX3Jc", "types": ["electronics_store", "point_of_interest", "store", "establishment"]}, "ChIJ9Vp9X7UadkgRMeVZWeLInIE": {"geometry": {"location": {"lat": 51.515987, "lng": -0.1645433}, "viewport": {"northeast": {"lat": 51.51736433029151, "lng": -0.163143319708498}, "southwest": {"lat": 51.51466636970851, "lng": -0.165841280291502}}}, "name": "Creative Pixel", "place_id": "ChIJ9Vp9X7UadkgRMeVZWeLInIE", "types": ["point_of_interest", "establishment"]}, "ChIJQw0ZosoadkgR6bCuH3Uh00Q": {"geometry": {"location": {"lat": 51.5163119, "lng": -0.1644759}, "viewport": {"northeast": {"lat": 51.5176293802915, "lng": -0.163182919708498}, "southwest": {"lat": 51.5149314197085, "lng": -0.165880880291502}}}, "name": "Singing Lessons With Kristy Swift", "place_id": "ChIJQw0ZosoadkgR6bCuH3Uh00Q", "types": ["school", "point_of_interest", "establishment"]}, "ChIJAzUsnsoadkgRgEretnGmRew": {"geometry": {"location": {"lat": 51.5164328, "lng": -0.164441}, "viewport": {"northeast": {"lat": 51.51783958029149, "lng": -0.163125619708498}, "southwest": {"lat": 51.51514161970849, "lng": -0.165823580291502}}}, "name": "Probate/Employment Law Firms London", "place_id": "ChIJAzUsnsoadkgRgEretnGmRew", "types": ["lawyer", "point_of_interest", "establishment"]}, "ChIJX4fpXrUadkgRGfsneEaFpB4": {"geometry": {"location": {"lat": 51.5159639, "lng": -0.1647035}, "viewport": {"northeast": {"lat": 51.5175212302915, "lng": -0.1634468197084979}, "southwest": {"lat": 51.5148232697085, "lng": -0.166144780291502}}}, "name": "Western Union", "place_id": "ChIJX4fpXrUadkgRGfsneEaFpB4", "types": ["finance", "point_of_interest", "establishment"], "rating": 4.5, "user_ratings_total": 13}, "ChIJ8wceYLUadkgRIG2A_C-c63M": {"geometry": {"location": {"lat": 51.5162685, "lng": -0.1645115}, "viewport": {"northeast": {"lat": 51.51760763029149, "lng": -0.163179719708498}, "southwest": {"lat": 51.51490966970849, "lng": -0.165877680291502}}}, "name": "Empyrean Ltd", "place_id": "ChIJ8wceYLUadkgRIG2A_C-c63M", "types": ["point_of_interest", "establishment"]}, "ChIJp8Vtn8oadkgRUPa3ohp0JL8": {"geometry": {"location": {"lat": 51.516272, "lng": -0.164271}, "viewport": {"northeast": {"lat": 51.5175684802915, "lng": -0.163019819708498}, "southwest": {"lat": 51.5148705197085, "lng": -0.165717780291502}}}, "name": "London Travel Market", "place_id": "ChIJp8Vtn8oadkgRUPa3ohp0JL8", "types": ["travel_agency", "point_of_interest", "establishment"], "rating": 5, "user_ratings_total": 1}, "ChIJ9a_TncoadkgRy8RliU1IcMU": {"geometry": {"location": {"lat": 51.5162723, "lng": -0.1642706}, "viewport": {"northeast": {"lat": 51.5177566302915, "lng": -0.162896319708498}, "southwest": {"lat": 51.5150586697085, "lng": -0.165594280291502}}}, "name": "Aito Helix Ltd", "place_id": "ChIJ9a_TncoadkgRy8RliU1IcMU", "types": ["health", "point_of_interest", "establishment"]}, "ChIJ88Vtn8oadkgR3gOSfsR_KcU": {"geometry": {"location": {"lat": 51.5162723, "lng": -0.1642706}, "viewport": {"northeast": {"lat": 51.5177566302915, "lng": -0.162896319708498}, "southwest": {"lat": 51.5150586697085, "lng": -0.165594280291502}}}, "name": "Angelus Foundation", "place_id": "ChIJ88Vtn8oadkgR3gOSfsR_KcU", "types": ["point_of_interest", "establishment"]}, "ChIJz7aZoMoadkgRJzhS85cjpYE": {"geometry": {"location": {"lat": 51.5164263, "lng": -0.1652985}, "viewport": {"northeast": {"lat": 51.5177992302915, "lng": -0.163848919708498}, "southwest": {"lat": 51.5151012697085, "lng": -0.166546880291502}}}, "name": "QTEL", "place_id": "ChIJz7aZoMoadkgRJzhS85cjpYE", "types": ["electronics_store", "point_of_interest", "store", "establishment"], "rating": 5, "user_ratings_total": 63}, "ChIJ9fawW7UadkgRmtNRjHT059A": {"geometry": {"location": {"lat": 51.5157476, "lng": -0.1649995}, "viewport": {"northeast": {"lat": 51.5171507302915, "lng": -0.163555369708498}, "southwest": {"lat": 51.5144527697085, "lng": -0.166253330291502}}}, "name": "Alpha Positioning", "place_id": "ChIJ9fawW7UadkgRmtNRjHT059A", "types": ["point_of_interest", "establishment"]}, "ChIJX_awW7UadkgRiDvzxnKDwC0": {"geometry": {"location": {"lat": 51.5157476, "lng": -0.1649995}, "viewport": {"northeast": {"lat": 51.5171507302915, "lng": -0.163555369708498}, "southwest": {"lat": 51.5144527697085, "lng": -0.166253330291502}}}, "name": "Shuttleworth Roy", "place_id": "ChIJX_awW7UadkgRiDvzxnKDwC0", "types": ["health", "point_of_interest", "establishment"]}, "ChIJX_awW7UadkgRx5egN-tZ8FQ": {"geometry": {"location": {"lat": 51.5157476, "lng": -0.1649995}, "viewport": {"northeast": {"lat": 51.5171507302915, "lng": -0.163555369708498}, "southwest": {"lat": 51.5144527697085, "lng": -0.166253330291502}}}, "name": "Robert Taylor Photography", "place_id": "ChIJX_awW7UadkgRx5egN-tZ8FQ", "types": ["point_of_interest", "establishment"]}, "ChIJmaTACL-RcUgRienFgYeO5R0": {"geometry": {"location": {"lat": 51.516462, "lng": -0.164354}, "viewport": {"northeast": {"lat": 51.5178410802915, "lng": -0.162952319708498}, "southwest": {"lat": 51.5151431197085, "lng": -0.165650280291502}}}, "name": "Research Autism", "place_id": "ChIJmaTACL-RcUgRienFgYeO5R0", "types": ["point_of_interest", "establishment"]}, "ChIJl7UNQrUadkgRG7H4lQ9E4Mk": {"geometry": {"location": {"lat": 51.5161737, "lng": -0.1655369}, "viewport": {"northeast": {"lat": 51.5175630802915, "lng": -0.1641169697084979}, "southwest": {"lat": 51.5148651197085, "lng": -0.166814930291502}}}, "name": "Eddison Wells", "place_id": "ChIJl7UNQrUadkgRG7H4lQ9E4Mk", "types": ["finance", "point_of_interest", "establishment"]}, "ChIJl7UNQrUadkgRRCxSYrGiqag": {"geometry": {"location": {"lat": 51.5161737, "lng": -0.1655369}, "viewport": {"northeast": {"lat": 51.5175630802915, "lng": -0.1641169697084979}, "southwest": {"lat": 51.5148651197085, "lng": -0.166814930291502}}}, "name": "ABJ International", "place_id": "ChIJl7UNQrUadkgRRCxSYrGiqag", "types": ["point_of_interest", "establishment"]}, "ChIJmbUNQrUadkgRk2S60hbRHYE": {"geometry": {"location": {"lat": 51.5161738, "lng": -0.1655369}, "viewport": {"northeast": {"lat": 51.51756313029149, "lng": -0.164117019708498}, "southwest": {"lat": 51.5148651697085, "lng": -0.166814980291502}}}, "name": "Griffcon Ltd.", "place_id": "ChIJmbUNQrUadkgRk2S60hbRHYE", "types": ["general_contractor", "point_of_interest", "establishment"]}, "ChIJDdzQncoadkgR-CtDChZZRAQ": {"geometry": {"location": {"lat": 51.5164848, "lng": -0.1643127}, "viewport": {"northeast": {"lat": 51.5178664302915, "lng": -0.162941869708498}, "southwest": {"lat": 51.5151684697085, "lng": -0.165639830291502}}}, "name": "westminster plastering and drylining ltd", "place_id": "ChIJDdzQncoadkgR-CtDChZZRAQ", "types": ["point_of_interest", "establishment"]}, "ChIJ9a_TncoadkgR35tk4lncqO0": {"geometry": {"location": {"lat": 51.5165068, "lng": -0.1643086}, "viewport": {"northeast": {"lat": 51.51786763029151, "lng": -0.162911919708498}, "southwest": {"lat": 51.51516966970851, "lng": -0.1656098802915021}}}, "name": "Roelens Solicitors", "place_id": "ChIJ9a_TncoadkgR35tk4lncqO0", "types": ["point_of_interest", "establishment"], "rating": 5, "user_ratings_total": 1}, "ChIJI5RrZLUadkgRkoRmT0sLtHE": {"geometry": {"location": {"lat": 51.51664950000001, "lng": -0.1649603}, "viewport": {"northeast": {"lat": 51.5180707802915, "lng": -0.163782469708498}, "southwest": {"lat": 51.5153728197085, "lng": -0.166480430291502}}}, "name": "Mindels", "place_id": "ChIJI5RrZLUadkgRkoRmT0sLtHE", "types": ["point_of_interest", "store", "establishment"], "rating": 4.6, "user_ratings_total": 10}, "ChIJCeU0ZbUadkgRPaU9MePrfso": {"geometry": {"location": {"lat": 51.51662839999999, "lng": -0.1645736}, "viewport": {"northeast": {"lat": 51.51800513029149, "lng": -0.163589119708498}, "southwest": {"lat": 51.51530716970849, "lng": -0.166287080291502}}}, "name": "Safa Restaurant", "place_id": "ChIJCeU0ZbUadkgRPaU9MePrfso", "types": ["restaurant", "food", "point_of_interest", "establishment"], "rating": 3.7, "user_ratings_total": 67}, "ChIJy8awW7UadkgR4m2a_5gyeok": {"geometry": {"location": {"lat": 51.5156995, "lng": -0.1648386}, "viewport": {"northeast": {"lat": 51.5175078802915, "lng": -0.1641471197084979}, "southwest": {"lat": 51.5148099197085, "lng": -0.166845080291502}}}, "name": "NCP Park West Garage Car Park", "place_id": "ChIJy8awW7UadkgR4m2a_5gyeok", "types": ["parking", "point_of_interest", "establishment"], "rating": 3, "user_ratings_total": 3}, "ChIJY4fpXrUadkgR679-0xPYiQ4": {"geometry": {"location": {"lat": 51.516063, "lng": -0.164707}, "viewport": {"northeast": {"lat": 51.5175965802915, "lng": -0.163553169708498}, "southwest": {"lat": 51.5148986197085, "lng": -0.166251130291502}}}, "name": "Cafe Helen", "place_id": "ChIJY4fpXrUadkgR679-0xPYiQ4", "types": ["cafe", "food", "point_of_interest", "establishment"], "rating": 4.2, "user_ratings_total": 1045}, "ChIJTffIgt0RdkgRUDtDkynmA20": {"geometry": {"location": {"lat": 51.5157476, "lng": -0.1649995}, "viewport": {"northeast": {"lat": 51.5171507302915, "lng": -0.163555369708498}, "southwest": {"lat": 51.5144527697085, "lng": -0.166253330291502}}}, "name": "London Car Store LTD", "place_id": "ChIJTffIgt0RdkgRUDtDkynmA20", "types": ["car_dealer", "car_repair", "storage", "point_of_interest", "store", "establishment"], "rating": 4.3, "user_ratings_total": 12}, "ChIJJXNqYbUadkgR7Q2dOC4zJ5E": {"geometry": {"location": {"lat": 51.5164328, "lng": -0.164441}, "viewport": {"northeast": {"lat": 51.51783958029149, "lng": -0.163125619708498}, "southwest": {"lat": 51.51514161970849, "lng": -0.165823580291502}}}, "name": "Asian Travel & Trade London - UK", "place_id": "ChIJJXNqYbUadkgR7Q2dOC4zJ5E", "types": ["travel_agency", "point_of_interest", "establishment"]}, "ChIJ3WjWYLUadkgRNJShOiud4hg": {"geometry": {"location": {"lat": 51.51636339999999, "lng": -0.1648497}, "viewport": {"northeast": {"lat": 51.5177161802915, "lng": -0.163493969708498}, "southwest": {"lat": 51.5150182197085, "lng": -0.166191930291502}}}, "name": "George Street", "place_id": "ChIJ3WjWYLUadkgRNJShOiud4hg", "types": ["transit_station", "point_of_interest", "establishment"]}, "ChIJuyFBXrUadkgRtABzqAPrYgw": {"geometry": {"location": {"lat": 51.5161132, "lng": -0.1647662}, "viewport": {"northeast": {"lat": 51.5175958802915, "lng": -0.163520769708498}, "southwest": {"lat": 51.5148979197085, "lng": -0.166218730291502}}}, "name": "The Food Centre", "place_id": "ChIJuyFBXrUadkgRtABzqAPrYgw", "types": ["grocery_or_supermarket", "food", "point_of_interest", "store", "establishment"], "rating": 3.1, "user_ratings_total": 9}, "ChIJDS44XrUadkgRnDDrMVAdEAU": {"geometry": {"location": {"lat": 51.5161332, "lng": -0.1647406}, "viewport": {"northeast": {"lat": 51.5176058802915, "lng": -0.163522969708498}, "southwest": {"lat": 51.5149079197085, "lng": -0.166220930291502}}}, "name": "Salm Ltd", "place_id": "ChIJDS44XrUadkgRnDDrMVAdEAU", "types": ["point_of_interest", "establishment"]}, "ChIJa5zyTpMbdkgRo4RhxWMM0BA": {"geometry": {"location": {"lat": 51.5161332, "lng": -0.1647406}, "viewport": {"northeast": {"lat": 51.5176058802915, "lng": -0.163522969708498}, "southwest": {"lat": 51.5149079197085, "lng": -0.166220930291502}}}, "name": "Bitcoin ATM Edgware Road by BCB ATM", "place_id": "ChIJa5zyTpMbdkgRo4RhxWMM0BA", "types": ["atm", "finance", "point_of_interest", "establishment"]}, "ChIJKRHStsoadkgRRFoTfjLQf14": {"geometry": {"location": {"lat": 51.51608710000001, "lng": -0.1647073}, "viewport": {"northeast": {"lat": 51.5175828302915, "lng": -0.163496969708498}, "southwest": {"lat": 51.5148848697085, "lng": -0.166194930291502}}}, "name": "Al Ahmedia Sweets", "place_id": "ChIJKRHStsoadkgRRFoTfjLQf14", "types": ["food", "point_of_interest", "store", "establishment"], "rating": 5, "user_ratings_total": 1}, "ChIJ6Sn7DWcbdkgRXmQr9ecK0Sk": {"geometry": {"location": {"lat": 51.51609659999999, "lng": -0.1646839}, "viewport": {"northeast": {"lat": 51.51758758029149, "lng": -0.163495469708498}, "southwest": {"lat": 51.51488961970849, "lng": -0.166193430291502}}}, "name": "\u0645\u0637\u0639\u0645 \u0645\u0648\u0644\u0627\u0646\u0627", "place_id": "ChIJ6Sn7DWcbdkgRXmQr9ecK0Sk", "types": ["restaurant", "food", "point_of_interest", "establishment"], "rating": 3.5, "user_ratings_total": 6}, "ChIJY4fpXrUadkgROitCtPDCt8o": {"geometry": {"location": {"lat": 51.5160521, "lng": -0.1646829}, "viewport": {"northeast": {"lat": 51.5175653302915, "lng": -0.163477419708498}, "southwest": {"lat": 51.5148673697085, "lng": -0.166175380291502}}}, "name": "Root", "place_id": "ChIJY4fpXrUadkgROitCtPDCt8o", "types": ["hair_care", "finance", "real_estate_agency", "point_of_interest", "store", "establishment"], "rating": 3.7, "user_ratings_total": 3}, "ChIJ_R9qk5wbdkgR2AvpulidduI": {"geometry": {"location": {"lat": 51.51629980000001, "lng": -0.164996}, "viewport": {"northeast": {"lat": 51.5176891802915, "lng": -0.163647569708498}, "southwest": {"lat": 51.5149912197085, "lng": -0.166345530291502}}}, "name": "Al Arez 1 Lebanese Restaurant and Shisha", "place_id": "ChIJ_R9qk5wbdkgR2AvpulidduI", "types": ["restaurant", "food", "point_of_interest", "establishment"], "rating": 5, "user_ratings_total": 10}, "ChIJTc1ygJYbdkgRVWLnB6S_hpc": {"geometry": {"location": {"lat": 51.5159964, "lng": -0.1646846}, "viewport": {"northeast": {"lat": 51.5175374802915, "lng": -0.163455519708498}, "southwest": {"lat": 51.5148395197085, "lng": -0.166153480291502}}}, "name": "VIP Sweets", "place_id": "ChIJTc1ygJYbdkgRVWLnB6S_hpc", "types": ["food", "point_of_interest", "store", "establishment"]}, "ChIJk1hNgrEbdkgR_F-76P2_00Y": {"geometry": {"location": {"lat": 51.51596999999999, "lng": -0.16476}, "viewport": {"northeast": {"lat": 51.51752428029149, "lng": -0.163462069708498}, "southwest": {"lat": 51.51482631970849, "lng": -0.166160030291502}}}, "name": "Ladbrokes", "place_id": "ChIJk1hNgrEbdkgR_F-76P2_00Y", "types": ["point_of_interest", "establishment"], "rating": 3.3, "user_ratings_total": 7}, "ChIJX4fpXrUadkgRRQivP0oKykQ": {"geometry": {"location": {"lat": 51.51601789999999, "lng": -0.164632}, "viewport": {"northeast": {"lat": 51.5175482302915, "lng": -0.163452219708498}, "southwest": {"lat": 51.5148502697085, "lng": -0.166150180291502}}}, "name": "Elite Forex", "place_id": "ChIJX4fpXrUadkgRRQivP0oKykQ", "types": ["finance", "point_of_interest", "establishment"], "rating": 4.3, "user_ratings_total": 6}, "ChIJmaCNXrUadkgRzDXoTzG6ej8": {"geometry": {"location": {"lat": 51.51601789999999, "lng": -0.1646319}, "viewport": {"northeast": {"lat": 51.5175482302915, "lng": -0.163452169708498}, "southwest": {"lat": 51.5148502697085, "lng": -0.166150130291502}}}, "name": "British Parcels", "place_id": "ChIJmaCNXrUadkgRzDXoTzG6ej8", "types": ["point_of_interest", "establishment"], "rating": 4.2, "user_ratings_total": 6}, "ChIJbSnwlDQFdkgRlgjBSlGM8-A": {"geometry": {"location": {"lat": 51.51642580000001, "lng": -0.1651816}, "viewport": {"northeast": {"lat": 51.5177809802915, "lng": -0.163782919708498}, "southwest": {"lat": 51.5150830197085, "lng": -0.166480880291502}}}, "name": "Sterling FX", "place_id": "ChIJbSnwlDQFdkgRlgjBSlGM8-A", "types": ["finance", "point_of_interest", "establishment"], "rating": 4.9, "user_ratings_total": 1299}, "ChIJ5fVVZLUadkgRVeSgqFCClmg": {"geometry": {"location": {"lat": 51.5159846, "lng": -0.1645574}, "viewport": {"northeast": {"lat": 51.5173646802915, "lng": -0.163152569708498}, "southwest": {"lat": 51.5146667197085, "lng": -0.165850530291502}}}, "name": "Park West News Ltd", "place_id": "ChIJ5fVVZLUadkgRVeSgqFCClmg", "types": ["point_of_interest", "establishment"]}, "ChIJo7pGYLUadkgRjpMDAfX8f1M": {"geometry": {"location": {"lat": 51.5162646, "lng": -0.1644948}, "viewport": {"northeast": {"lat": 51.51760033029149, "lng": -0.163168919708498}, "southwest": {"lat": 51.5149023697085, "lng": -0.165866880291502}}}, "name": "George Street (Stop EH)", "place_id": "ChIJo7pGYLUadkgRjpMDAfX8f1M", "types": ["bus_station", "transit_station", "point_of_interest", "establishment"], "rating": 3.5, "user_ratings_total": 2}, "ChIJJSJCX7UadkgRUvEE032YPss": {"geometry": {"location": {"lat": 51.51595469999999, "lng": -0.1645745}, "viewport": {"northeast": {"lat": 51.5173440302915, "lng": -0.163152969708498}, "southwest": {"lat": 51.5146460697085, "lng": -0.165850930291502}}}, "name": "Amb Bureau De Change", "place_id": "ChIJJSJCX7UadkgRUvEE032YPss", "types": ["finance", "point_of_interest", "establishment"]}, "ChIJMdPjpNUbdkgRf_69dV_38oE": {"geometry": {"location": {"lat": 51.51618130000001, "lng": -0.1652875}, "viewport": {"northeast": {"lat": 51.5175097302915, "lng": -0.163976369708498}, "southwest": {"lat": 51.5148117697085, "lng": -0.1666743302915021}}}, "name": "Hyde Park, Marble Arch Apartments (SIAC)", "place_id": "ChIJMdPjpNUbdkgRf_69dV_38oE", "types": ["lodging", "point_of_interest", "establishment"], "rating": 4.3, "user_ratings_total": 3}, "ChIJK1evlAQbdkgRv_HSU3VdQEw": {"geometry": {"location": {"lat": 51.51628940000001, "lng": -0.1644341}, "viewport": {"northeast": {"lat": 51.5176060302915, "lng": -0.163141669708498}, "southwest": {"lat": 51.5149080697085, "lng": -0.165839630291502}}}, "name": "Lordz Telecom", "place_id": "ChIJK1evlAQbdkgRv_HSU3VdQEw", "types": ["electronics_store", "point_of_interest", "store", "establishment"]}, "ChIJYWjUn8oadkgRgdiNnhfG6hA": {"geometry": {"location": {"lat": 51.516358, "lng": -0.1644916}, "viewport": {"northeast": {"lat": 51.5176677302915, "lng": -0.163211069708498}, "southwest": {"lat": 51.5149697697085, "lng": -0.165909030291502}}}, "name": "Resta Damascene Cuisine", "place_id": "ChIJYWjUn8oadkgRgdiNnhfG6hA", "types": ["restaurant", "food", "point_of_interest", "establishment"]}, "ChIJrweCn8oadkgRV-kwQRlDx_4": {"geometry": {"location": {"lat": 51.5162297, "lng": -0.1643254}, "viewport": {"northeast": {"lat": 51.51754358029149, "lng": -0.163041819708498}, "southwest": {"lat": 51.5148456197085, "lng": -0.165739780291502}}}, "name": "H.Al-Equari Ltd", "place_id": "ChIJrweCn8oadkgRV-kwQRlDx_4", "types": ["point_of_interest", "establishment"]}, "ChIJJXlKdDkbdkgRBSHoE_pAqnY": {"geometry": {"location": {"lat": 51.5162814, "lng": -0.1653602}, "viewport": {"northeast": {"lat": 51.5176285302915, "lng": -0.164014369708498}, "southwest": {"lat": 51.5149305697085, "lng": -0.166712330291502}}}, "name": "Appart LONDRES", "place_id": "ChIJJXlKdDkbdkgRBSHoE_pAqnY", "types": ["lodging", "point_of_interest", "establishment"]}, "ChIJl09QSv8bdkgRF-OD1Dw-lAk": {"geometry": {"location": {"lat": 51.51625099999999, "lng": -0.1653899}, "viewport": {"northeast": {"lat": 51.51762123029149, "lng": -0.1640035697084979}, "southwest": {"lat": 51.51492326970849, "lng": -0.166701530291502}}}, "name": "amazing studio apartment", "place_id": "ChIJl09QSv8bdkgRF-OD1Dw-lAk", "types": ["lodging", "point_of_interest", "establishment"]}, "ChIJ__-rWLUadkgRL6cF0vkA-Jk": {"geometry": {"location": {"lat": 51.5158577, "lng": -0.1645295}, "viewport": {"northeast": {"lat": 51.5172616302915, "lng": -0.163081769708498}, "southwest": {"lat": 51.5145636697085, "lng": -0.165779730291502}}}, "name": "Texmoore Limited", "place_id": "ChIJ__-rWLUadkgRL6cF0vkA-Jk", "types": ["finance", "point_of_interest", "establishment"], "rating": 1.8, "user_ratings_total": 5}, "ChIJZfd9n8oadkgR14Aqoj9tjhM": {"geometry": {"location": {"lat": 51.5162079, "lng": -0.1642987}, "viewport": {"northeast": {"lat": 51.5175223302915, "lng": -0.163014119708498}, "southwest": {"lat": 51.5148243697085, "lng": -0.165712080291502}}}, "name": "Doha Communications", "place_id": "ChIJZfd9n8oadkgR14Aqoj9tjhM", "types": ["point_of_interest", "store", "establishment"], "rating": 5, "user_ratings_total": 1}, "ChIJiUYeosoadkgRW9gtFlklmkc": {"geometry": {"location": {"lat": 51.5163302, "lng": -0.1643714}, "viewport": {"northeast": {"lat": 51.51778558029149, "lng": -0.162943319708498}, "southwest": {"lat": 51.5150876197085, "lng": -0.165641280291502}}}, "name": "Ergen&Sharif Immigration Specialists", "place_id": "ChIJiUYeosoadkgRW9gtFlklmkc", "types": ["lawyer", "point_of_interest", "establishment"]}, "ChIJiUYeosoadkgRHS-0ivmC0DE": {"geometry": {"location": {"lat": 51.5163302, "lng": -0.1643714}, "viewport": {"northeast": {"lat": 51.51778558029149, "lng": -0.162943319708498}, "southwest": {"lat": 51.5150876197085, "lng": -0.165641280291502}}}, "name": "Curtain Village", "place_id": "ChIJiUYeosoadkgRHS-0ivmC0DE", "types": ["home_goods_store", "point_of_interest", "store", "establishment"]}, "ChIJ3XXk8wsbdkgRKdufGommrvY": {"geometry": {"location": {"lat": 51.5158898, "lng": -0.165282}, "viewport": {"northeast": {"lat": 51.5174841802915, "lng": -0.163817869708498}, "southwest": {"lat": 51.5147862197085, "lng": -0.166515830291502}}}, "name": "Konsultex UK Limited", "place_id": "ChIJ3XXk8wsbdkgRKdufGommrvY", "types": ["point_of_interest", "establishment"]}, "ChIJtVlCZrUadkgRGpAgyncjeSE": {"geometry": {"location": {"lat": 51.5164726, "lng": -0.1651619}, "viewport": {"northeast": {"lat": 51.5178340302915, "lng": -0.1637836697084979}, "southwest": {"lat": 51.5151360697085, "lng": -0.166481630291502}}}, "name": "George Street (Stop EJ)", "place_id": "ChIJtVlCZrUadkgRGpAgyncjeSE", "types": ["bus_station", "transit_station", "point_of_interest", "establishment"], "rating": 5, "user_ratings_total": 2}, "ChIJTwMPV7UadkgRio6xNzx4-yE": {"geometry": {"location": {"lat": 51.51542479999999, "lng": -0.1644979}, "viewport": {"northeast": {"lat": 51.51670998029149, "lng": -0.162955319708498}, "southwest": {"lat": 51.5140120197085, "lng": -0.165653280291502}}}, "name": "Portsea Sauna", "place_id": "ChIJTwMPV7UadkgRio6xNzx4-yE", "types": ["spa", "health", "point_of_interest", "establishment"], "rating": 3.5, "user_ratings_total": 47}, "ChIJ19FTqgwbdkgRxrgJ74z5Ufg": {"geometry": {"location": {"lat": 51.5153377, "lng": -0.1647767}, "viewport": {"northeast": {"lat": 51.5167398302915, "lng": -0.163505219708498}, "southwest": {"lat": 51.5140418697085, "lng": -0.166203180291502}}}, "name": "Purple Sheep Marketing", "place_id": "ChIJ19FTqgwbdkgRxrgJ74z5Ufg", "types": ["point_of_interest", "establishment"], "rating": 5, "user_ratings_total": 1}, "ChIJU82YfjQbdkgR-HjNtJpEgtU": {"geometry": {"location": {"lat": 51.5153377, "lng": -0.1647767}, "viewport": {"northeast": {"lat": 51.5167398302915, "lng": -0.163505219708498}, "southwest": {"lat": 51.5140418697085, "lng": -0.166203180291502}}}, "name": "DHL Express Service Point (Amoun Travel & Tours Ltd)", "place_id": "ChIJU82YfjQbdkgR-HjNtJpEgtU", "types": ["point_of_interest", "establishment"]}, "ChIJ7ZgsUbUadkgRWCVdFdAWiNg": {"geometry": {"location": {"lat": 51.51534780000001, "lng": -0.1647492}, "viewport": {"northeast": {"lat": 51.5167514302915, "lng": -0.163479919708498}, "southwest": {"lat": 51.5140534697085, "lng": -0.166177880291502}}}, "name": "Amoun Travel & Tours", "place_id": "ChIJ7ZgsUbUadkgRWCVdFdAWiNg", "types": ["travel_agency", "point_of_interest", "establishment"], "rating": 3.7, "user_ratings_total": 21}, "ChIJCSwsUbUadkgR6e4i0GY_rdw": {"geometry": {"location": {"lat": 51.51535519999999, "lng": -0.1648929}, "viewport": {"northeast": {"lat": 51.51673458029149, "lng": -0.163588219708498}, "southwest": {"lat": 51.51403661970849, "lng": -0.166286180291502}}}, "name": "Waste Disposal Bayswater", "place_id": "ChIJCSwsUbUadkgR6e4i0GY_rdw", "types": ["point_of_interest", "establishment"]}, "ChIJPXMoqMoadkgRwtZLbbTwxaI": {"geometry": {"location": {"lat": 51.51542479999999, "lng": -0.1644979}, "viewport": {"northeast": {"lat": 51.51670998029149, "lng": -0.162955319708498}, "southwest": {"lat": 51.5140120197085, "lng": -0.165653280291502}}}, "name": "Al Rayan Bank", "place_id": "ChIJPXMoqMoadkgRwtZLbbTwxaI", "types": ["bank", "finance", "point_of_interest", "establishment"]}, "ChIJ_URPqMoadkgRBo-rII5HqY8": {"geometry": {"location": {"lat": 51.51542359999999, "lng": -0.1643854}, "viewport": {"northeast": {"lat": 51.51671558029149, "lng": -0.162999419708498}, "southwest": {"lat": 51.51401761970849, "lng": -0.165697380291502}}}, "name": "Portsea Appartements", "place_id": "ChIJ_URPqMoadkgRBo-rII5HqY8", "types": ["point_of_interest", "establishment"]}, "ChIJJZP1bLoFdkgRcsS14vtWkkY": {"geometry": {"location": {"lat": 51.5155366, "lng": -0.1645536}, "viewport": {"northeast": {"lat": 51.5168988302915, "lng": -0.163273819708498}, "southwest": {"lat": 51.5142008697085, "lng": -0.1659717802915021}}}, "name": "Marble Arch Car Wash", "place_id": "ChIJJZP1bLoFdkgRcsS14vtWkkY", "types": ["car_wash", "point_of_interest", "establishment"], "rating": 3, "user_ratings_total": 3}, "ChIJG7Xu4ZQbdkgRq15PQXF5_Ys": {"geometry": {"location": {"lat": 51.5155975, "lng": -0.1648154}, "viewport": {"northeast": {"lat": 51.51703928029151, "lng": -0.163409869708498}, "southwest": {"lat": 51.51434131970851, "lng": -0.166107830291502}}}, "name": "Richard Tauber Blue Plaque", "place_id": "ChIJG7Xu4ZQbdkgRq15PQXF5_Ys", "types": ["point_of_interest", "establishment"]}, "ChIJz_gMrbUadkgR6PzHdGJdGZM": {"geometry": {"location": {"lat": 51.51807195006342, "lng": -0.1672653497488376}, "viewport": {"northeast": {"lat": 51.5194209302915, "lng": -0.165916369708498}, "southwest": {"lat": 51.5167229697085, "lng": -0.168614330291502}}}, "name": "Edgware Road", "place_id": "ChIJz_gMrbUadkgR6PzHdGJdGZM", "types": ["route"]}, "ChIJmQ0RsLUadkgRFLDvyAU0SIM": {"geometry": {"location": {"lat": 51.51813360000001, "lng": -0.1668651}, "viewport": {"northeast": {"lat": 51.5194093802915, "lng": -0.165661019708498}, "southwest": {"lat": 51.5167114197085, "lng": -0.168358980291502}}}, "name": "InnerCity Apartments", "place_id": "ChIJmQ0RsLUadkgRFLDvyAU0SIM", "types": ["real_estate_agency", "point_of_interest", "establishment"]}, "ChIJJ3D7uLUadkgRndWVK_Oy_80": {"geometry": {"location": {"lat": 51.518467, "lng": -0.1661886}, "viewport": {"northeast": {"lat": 51.5199309802915, "lng": -0.165090919708498}, "southwest": {"lat": 51.5172330197085, "lng": -0.167788880291502}}}, "name": "Omnicom Europe Ltd", "place_id": "ChIJJ3D7uLUadkgRndWVK_Oy_80", "types": ["finance", "point_of_interest", "establishment"]}, "ChIJZzN3mLUadkgRTq6FgBWgrKc": {"geometry": {"location": {"lat": 51.51811499999999, "lng": -0.1657759}, "viewport": {"northeast": {"lat": 51.5194404802915, "lng": -0.164468019708498}, "southwest": {"lat": 51.5167425197085, "lng": -0.167165980291502}}}, "name": "Lord Wargrave", "place_id": "ChIJZzN3mLUadkgRTq6FgBWgrKc", "types": ["bar", "point_of_interest", "establishment"], "rating": 4.5, "user_ratings_total": 890}, "ChIJFetNpLUadkgRL3UIRSaJtB8": {"geometry": {"location": {"lat": 51.5185637, "lng": -0.166337}, "viewport": {"northeast": {"lat": 51.5199886302915, "lng": -0.1651540697084979}, "southwest": {"lat": 51.5172906697085, "lng": -0.167852030291502}}}, "name": "Dorchester Estates", "place_id": "ChIJFetNpLUadkgRL3UIRSaJtB8", "types": ["real_estate_agency", "point_of_interest", "establishment"], "rating": 2.3, "user_ratings_total": 3}, "ChIJmQ0RsLUadkgRxhmxgBegOmg": {"geometry": {"location": {"lat": 51.51813360000001, "lng": -0.1668651}, "viewport": {"northeast": {"lat": 51.5194093802915, "lng": -0.165661019708498}, "southwest": {"lat": 51.5167114197085, "lng": -0.168358980291502}}}, "name": "Office Maternity Cover", "place_id": "ChIJmQ0RsLUadkgRxhmxgBegOmg", "types": ["point_of_interest", "establishment"]}, "ChIJmQ0RsLUadkgRGkmumPK2qcA": {"geometry": {"location": {"lat": 51.5182514, "lng": -0.1668223}, "viewport": {"northeast": {"lat": 51.5196561302915, "lng": -0.1656001697084979}, "southwest": {"lat": 51.5169581697085, "lng": -0.168298130291502}}}, "name": "City Executive Centres", "place_id": "ChIJmQ0RsLUadkgRGkmumPK2qcA", "types": ["point_of_interest", "establishment"]}, "ChIJNeuGPuFsdkgRVoJjE9gZMW0": {"geometry": {"location": {"lat": 51.51824709999999, "lng": -0.1668012}, "viewport": {"northeast": {"lat": 51.51965708029149, "lng": -0.165588419708498}, "southwest": {"lat": 51.5169591197085, "lng": -0.1682863802915021}}}, "name": "Taylor Rose Solicitors & Barristers", "place_id": "ChIJNeuGPuFsdkgRVoJjE9gZMW0", "types": ["point_of_interest", "establishment"], "rating": 1, "user_ratings_total": 1}, "ChIJVVXFr7UadkgRjlckMB-sDCU": {"geometry": {"location": {"lat": 51.51827300000001, "lng": -0.166713}, "viewport": {"northeast": {"lat": 51.5196784302915, "lng": -0.165517419708498}, "southwest": {"lat": 51.5169804697085, "lng": -0.168215380291502}}}, "name": "K\u00f6nig London", "place_id": "ChIJVVXFr7UadkgRjlckMB-sDCU", "types": ["art_gallery", "museum", "point_of_interest", "establishment"], "rating": 5, "user_ratings_total": 11}, "ChIJpTzjsLUadkgRpsoQGUCvtiY": {"geometry": {"location": {"lat": 51.5184598, "lng": -0.166549}, "viewport": {"northeast": {"lat": 51.51987153029149, "lng": -0.165337119708498}, "southwest": {"lat": 51.51717356970849, "lng": -0.168035080291502}}}, "name": "GLD GROUP", "place_id": "ChIJpTzjsLUadkgRpsoQGUCvtiY", "types": ["point_of_interest", "establishment"], "rating": 1.8, "user_ratings_total": 6}, "ChIJg3jDu7UadkgR5CtdMKi4JY0": {"geometry": {"location": {"lat": 51.5184525, "lng": -0.1664741}, "viewport": {"northeast": {"lat": 51.51987663029149, "lng": -0.1652893197084979}, "southwest": {"lat": 51.5171786697085, "lng": -0.167987280291502}}}, "name": "J Y C Accountants Ltd", "place_id": "ChIJg3jDu7UadkgR5CtdMKi4JY0", "types": ["accounting", "finance", "point_of_interest", "establishment"]}, "ChIJmQ0RsLUadkgRvsiL9GGaRCc": {"geometry": {"location": {"lat": 51.5182305, "lng": -0.1667878}, "viewport": {"northeast": {"lat": 51.5196533302915, "lng": -0.165582919708498}, "southwest": {"lat": 51.5169553697085, "lng": -0.168280880291502}}}, "name": "Grafton Cleaning Services", "place_id": "ChIJmQ0RsLUadkgRvsiL9GGaRCc", "types": ["laundry", "point_of_interest", "establishment"]}, "ChIJmQ0RsLUadkgRvUAZn5lT_RI": {"geometry": {"location": {"lat": 51.5182305, "lng": -0.1667878}, "viewport": {"northeast": {"lat": 51.5196533302915, "lng": -0.165582919708498}, "southwest": {"lat": 51.5169553697085, "lng": -0.168280880291502}}}, "name": "Alchemy Tec", "place_id": "ChIJmQ0RsLUadkgRvUAZn5lT_RI", "types": ["point_of_interest", "establishment"]}, "ChIJmQ0RsLUadkgRN0IdYu0RhdE": {"geometry": {"location": {"lat": 51.5182305, "lng": -0.1667878}, "viewport": {"northeast": {"lat": 51.5196533302915, "lng": -0.165582919708498}, "southwest": {"lat": 51.5169553697085, "lng": -0.168280880291502}}}, "name": "Ultrasis", "place_id": "ChIJmQ0RsLUadkgRN0IdYu0RhdE", "types": ["hospital", "health", "point_of_interest", "establishment"]}, "ChIJmQ0RsLUadkgR1L7ySeaiYsw": {"geometry": {"location": {"lat": 51.5182305, "lng": -0.1667878}, "viewport": {"northeast": {"lat": 51.5196533302915, "lng": -0.165582919708498}, "southwest": {"lat": 51.5169553697085, "lng": -0.168280880291502}}}, "name": "Alway Associates", "place_id": "ChIJmQ0RsLUadkgR1L7ySeaiYsw", "types": ["point_of_interest", "establishment"]}, "ChIJpSsRsLUadkgRM2HySgCMYHY": {"geometry": {"location": {"lat": 51.518227, "lng": -0.1667958}, "viewport": {"northeast": {"lat": 51.5196508802915, "lng": -0.165587869708498}, "southwest": {"lat": 51.5169529197085, "lng": -0.168285830291502}}}, "name": "Bookassist UK", "place_id": "ChIJpSsRsLUadkgRM2HySgCMYHY", "types": ["point_of_interest", "establishment"]}, "ChIJuSsDsbUadkgRwDM5VAkeMf8": {"geometry": {"location": {"lat": 51.5182581, "lng": -0.1668231}, "viewport": {"northeast": {"lat": 51.51965718029149, "lng": -0.165599269708498}, "southwest": {"lat": 51.5169592197085, "lng": -0.168297230291502}}}, "name": "London Centre for International Executive Education", "place_id": "ChIJuSsDsbUadkgRwDM5VAkeMf8", "types": ["point_of_interest", "establishment"]}, "ChIJx-c_sLUadkgR3qD19318SSk": {"geometry": {"location": {"lat": 51.5182522, "lng": -0.1668224}, "viewport": {"northeast": {"lat": 51.5196561302915, "lng": -0.165600219708498}, "southwest": {"lat": 51.5169581697085, "lng": -0.168298180291502}}}, "name": "W.Reilly Ltd", "place_id": "ChIJx-c_sLUadkgR3qD19318SSk", "types": ["point_of_interest", "establishment"]}, "ChIJx-c_sLUadkgReqRnheLysQs": {"geometry": {"location": {"lat": 51.5182532, "lng": -0.1668231}, "viewport": {"northeast": {"lat": 51.5196561302915, "lng": -0.165600569708498}, "southwest": {"lat": 51.5169581697085, "lng": -0.168298530291502}}}, "name": "Rapid Visa Service", "place_id": "ChIJx-c_sLUadkgReqRnheLysQs", "types": ["embassy", "point_of_interest", "establishment"]}, "ChIJWa_PuCwbdkgRdOCP1kJ4XNQ": {"geometry": {"location": {"lat": 51.51825220000001, "lng": -0.1668225}, "viewport": {"northeast": {"lat": 51.5196561302915, "lng": -0.165600269708498}, "southwest": {"lat": 51.5169581697085, "lng": -0.168298230291502}}}, "name": "amicitia - The IT Management Company", "place_id": "ChIJWa_PuCwbdkgRdOCP1kJ4XNQ", "types": ["point_of_interest", "establishment"]}, "ChIJx-c_sLUadkgRp-YtqHT0T4g": {"geometry": {"location": {"lat": 51.5182522, "lng": -0.1668224}, "viewport": {"northeast": {"lat": 51.5196561302915, "lng": -0.165600219708498}, "southwest": {"lat": 51.5169581697085, "lng": -0.168298180291502}}}, "name": "Crystals International Ltd", "place_id": "ChIJx-c_sLUadkgRp-YtqHT0T4g", "types": ["point_of_interest", "establishment"]}, "ChIJx-c_sLUadkgR7z5xpzBRk3o": {"geometry": {"location": {"lat": 51.5182522, "lng": -0.1668224}, "viewport": {"northeast": {"lat": 51.5196561302915, "lng": -0.165600219708498}, "southwest": {"lat": 51.5169581697085, "lng": -0.168298180291502}}}, "name": "Cellectivity Ltd", "place_id": "ChIJx-c_sLUadkgR7z5xpzBRk3o", "types": ["point_of_interest", "establishment"]}, "ChIJuSsDsbUadkgRajnofaxee9c": {"geometry": {"location": {"lat": 51.5182514, "lng": -0.1668223}, "viewport": {"northeast": {"lat": 51.5196561302915, "lng": -0.1656001697084979}, "southwest": {"lat": 51.5169581697085, "lng": -0.168298130291502}}}, "name": "ITS International", "place_id": "ChIJuSsDsbUadkgRajnofaxee9c", "types": ["point_of_interest", "establishment"]}, "ChIJmQ0RsLUadkgRGi5eYNDZBZo": {"geometry": {"location": {"lat": 51.5182514, "lng": -0.1668223}, "viewport": {"northeast": {"lat": 51.5196561302915, "lng": -0.1656001697084979}, "southwest": {"lat": 51.5169581697085, "lng": -0.168298130291502}}}, "name": "Creative Capital Fund", "place_id": "ChIJmQ0RsLUadkgRGi5eYNDZBZo", "types": ["point_of_interest", "establishment"]}, "ChIJFd0_sLUadkgRkXddCVrLVrk": {"geometry": {"location": {"lat": 51.5182514, "lng": -0.1668223}, "viewport": {"northeast": {"lat": 51.5196561302915, "lng": -0.1656001697084979}, "southwest": {"lat": 51.5169581697085, "lng": -0.168298130291502}}}, "name": "TalentsHunters", "place_id": "ChIJFd0_sLUadkgRkXddCVrLVrk", "types": ["point_of_interest", "establishment"]}, "ChIJMeHhr7UadkgR9lVH1VrVp0s": {"geometry": {"location": {"lat": 51.5181736, "lng": -0.1668012}, "viewport": {"northeast": {"lat": 51.51960988029149, "lng": -0.165610869708498}, "southwest": {"lat": 51.51691191970849, "lng": -0.1683088302915021}}}, "name": "Central London Architect & Builder", "place_id": "ChIJMeHhr7UadkgR9lVH1VrVp0s", "types": ["general_contractor", "point_of_interest", "establishment"]}, "ChIJieDVs7UadkgRQ7T7Kx0GxDQ": {"geometry": {"location": {"lat": 51.5182636, "lng": -0.166919}, "viewport": {"northeast": {"lat": 51.5196481802915, "lng": -0.165659719708498}, "southwest": {"lat": 51.51695021970851, "lng": -0.168357680291502}}}, "name": "Furuichoi & Co", "place_id": "ChIJieDVs7UadkgRQ7T7Kx0GxDQ", "types": ["atm", "finance", "point_of_interest", "establishment"], "rating": 5, "user_ratings_total": 1}, "ChIJFd0_sLUadkgRbRt-ExnyuMU": {"geometry": {"location": {"lat": 51.5182137, "lng": -0.1669036}, "viewport": {"northeast": {"lat": 51.51962538029151, "lng": -0.165668569708498}, "southwest": {"lat": 51.51692741970851, "lng": -0.168366530291502}}}, "name": "Jo & Hickey Printing supplies", "place_id": "ChIJFd0_sLUadkgRbRt-ExnyuMU", "types": ["shopping_mall", "point_of_interest", "establishment"]}, "ChIJmQ0RsLUadkgRnSGphakEJ4s": {"geometry": {"location": {"lat": 51.5181406, "lng": -0.1668627}, "viewport": {"northeast": {"lat": 51.51941463029149, "lng": -0.1656620697084979}, "southwest": {"lat": 51.51671666970849, "lng": -0.168360030291502}}}, "name": "Practical Car & Van Rental", "place_id": "ChIJmQ0RsLUadkgRnSGphakEJ4s", "types": ["car_rental", "point_of_interest", "establishment"], "rating": 3.4, "user_ratings_total": 34}, "ChIJyYqIlCgQdkgRu0HdXOij00o": {"geometry": {"location": {"lat": 51.518134, "lng": -0.166865}, "viewport": {"northeast": {"lat": 51.5194097302915, "lng": -0.165661069708498}, "southwest": {"lat": 51.5167117697085, "lng": -0.168359030291502}}}, "name": "Pelham Communications", "place_id": "ChIJyYqIlCgQdkgRu0HdXOij00o", "types": ["point_of_interest", "establishment"]}, "ChIJM02WkCEFdkgRpJAt_PfEMCA": {"geometry": {"location": {"lat": 51.51813360000001, "lng": -0.1668651}, "viewport": {"northeast": {"lat": 51.5194093802915, "lng": -0.165661019708498}, "southwest": {"lat": 51.5167114197085, "lng": -0.168358980291502}}}, "name": "Bluewater Bio", "place_id": "ChIJM02WkCEFdkgRpJAt_PfEMCA", "types": ["point_of_interest", "establishment"]}, "ChIJmQ0RsLUadkgRXdV9_cH6oEU": {"geometry": {"location": {"lat": 51.51813360000001, "lng": -0.1668651}, "viewport": {"northeast": {"lat": 51.5194093802915, "lng": -0.165661019708498}, "southwest": {"lat": 51.5167114197085, "lng": -0.168358980291502}}}, "name": "Abacus Certified Accountants", "place_id": "ChIJmQ0RsLUadkgRXdV9_cH6oEU", "types": ["lawyer", "accounting", "finance", "point_of_interest", "establishment"]}, "ChIJof3Xs7UadkgRFJQywDGJnLs": {"geometry": {"location": {"lat": 51.51813360000001, "lng": -0.1668651}, "viewport": {"northeast": {"lat": 51.5194093802915, "lng": -0.165661019708498}, "southwest": {"lat": 51.5167114197085, "lng": -0.168358980291502}}}, "name": "Cam note", "place_id": "ChIJof3Xs7UadkgRFJQywDGJnLs", "types": ["book_store", "point_of_interest", "store", "establishment"]}, "ChIJSUWusbUadkgRvXvvKGkLWhI": {"geometry": {"location": {"lat": 51.51813360000001, "lng": -0.1668651}, "viewport": {"northeast": {"lat": 51.5194093802915, "lng": -0.165661019708498}, "southwest": {"lat": 51.5167114197085, "lng": -0.168358980291502}}}, "name": "Atlantic Executive Search", "place_id": "ChIJSUWusbUadkgRvXvvKGkLWhI", "types": ["point_of_interest", "establishment"]}, "ChIJVVXFr7UadkgRpKoh-OJ7P6o": {"geometry": {"location": {"lat": 51.51813360000001, "lng": -0.1668651}, "viewport": {"northeast": {"lat": 51.5194093802915, "lng": -0.165661019708498}, "southwest": {"lat": 51.5167114197085, "lng": -0.168358980291502}}}, "name": "Abbingdon Knight", "place_id": "ChIJVVXFr7UadkgRpKoh-OJ7P6o", "types": ["accounting", "finance", "point_of_interest", "establishment"]}, "ChIJBfld-7kCdkgRrL7PfEAHHKk": {"geometry": {"location": {"lat": 51.518229, "lng": -0.1669655}, "viewport": {"northeast": {"lat": 51.5196277802915, "lng": -0.165703119708498}, "southwest": {"lat": 51.5169298197085, "lng": -0.168401080291502}}}, "name": "One Investments Global Ltd", "place_id": "ChIJBfld-7kCdkgRrL7PfEAHHKk", "types": ["finance", "real_estate_agency", "general_contractor", "point_of_interest", "establishment"], "rating": 4.5, "user_ratings_total": 41}, "ChIJ4W8qrrUadkgROkNEVLMU98o": {"geometry": {"location": {"lat": 51.51817200000001, "lng": -0.166926}, "viewport": {"northeast": {"lat": 51.5195910802915, "lng": -0.165698869708498}, "southwest": {"lat": 51.5168931197085, "lng": -0.168396830291502}}}, "name": "Cosmedica London", "place_id": "ChIJ4W8qrrUadkgROkNEVLMU98o", "types": ["health", "point_of_interest", "establishment"]}, "ChIJ4XUtvLUadkgRvss3xt1U7lk": {"geometry": {"location": {"lat": 51.518467, "lng": -0.1661885}, "viewport": {"northeast": {"lat": 51.5199309802915, "lng": -0.165090819708498}, "southwest": {"lat": 51.5172330197085, "lng": -0.167788780291502}}}, "name": "TPN Retail", "place_id": "ChIJ4XUtvLUadkgRvss3xt1U7lk", "types": ["point_of_interest", "establishment"]}, "ChIJ4XUtvLUadkgRQ2qVu8enUlU": {"geometry": {"location": {"lat": 51.518467, "lng": -0.1661885}, "viewport": {"northeast": {"lat": 51.5199309802915, "lng": -0.165090819708498}, "southwest": {"lat": 51.5172330197085, "lng": -0.167788780291502}}}, "name": "The London Magazine", "place_id": "ChIJ4XUtvLUadkgRQ2qVu8enUlU", "types": ["point_of_interest", "establishment"]}, "ChIJFTrzrrUadkgRd3ZK2kz3tbM": {"geometry": {"location": {"lat": 51.5180077, "lng": -0.1669604}, "viewport": {"northeast": {"lat": 51.5193362802915, "lng": -0.165671969708498}, "southwest": {"lat": 51.5166383197085, "lng": -0.168369930291502}}}, "name": "Travelnet & Tours Ltd.", "place_id": "ChIJFTrzrrUadkgRd3ZK2kz3tbM", "types": ["travel_agency", "point_of_interest", "establishment"]}, "ChIJXa0xubUadkgRaKPP_rXzkjQ": {"geometry": {"location": {"lat": 51.5186193, "lng": -0.1663964}, "viewport": {"northeast": {"lat": 51.5200256802915, "lng": -0.165172869708498}, "southwest": {"lat": 51.5173277197085, "lng": -0.167870830291502}}}, "name": "NEURO-COMPASS", "place_id": "ChIJXa0xubUadkgRaKPP_rXzkjQ", "types": ["point_of_interest", "establishment"]}, "ChIJ6TOur7UadkgRdBA--GpgJHI": {"geometry": {"location": {"lat": 51.51803179999999, "lng": -0.1669661}, "viewport": {"northeast": {"lat": 51.5193436302915, "lng": -0.1656858197084979}, "southwest": {"lat": 51.5166456697085, "lng": -0.168383780291502}}}, "name": "Al Jazeera Travel", "place_id": "ChIJ6TOur7UadkgRdBA--GpgJHI", "types": ["travel_agency", "point_of_interest", "establishment"], "rating": 4.5, "user_ratings_total": 8}, "ChIJj17ivrUadkgRRtG0-5Rrruk": {"geometry": {"location": {"lat": 51.5186003, "lng": -0.1661247}, "viewport": {"northeast": {"lat": 51.52005863029149, "lng": -0.164980719708498}, "southwest": {"lat": 51.51736066970849, "lng": -0.167678680291502}}}, "name": "Manhattan Loft Corporation", "place_id": "ChIJj17ivrUadkgRRtG0-5Rrruk", "types": ["point_of_interest", "establishment"], "rating": 3.4, "user_ratings_total": 5}, "ChIJJSfqpbUadkgRkAlAcAgL7h8": {"geometry": {"location": {"lat": 51.5179086, "lng": -0.1666413}, "viewport": {"northeast": {"lat": 51.5192061802915, "lng": -0.165197319708498}, "southwest": {"lat": 51.51650821970851, "lng": -0.167895280291502}}}, "name": "Babylon Trust", "place_id": "ChIJJSfqpbUadkgRkAlAcAgL7h8", "types": ["point_of_interest", "establishment"]}, "ChIJT88ZvrUadkgRAKy22eQ6d-E": {"geometry": {"location": {"lat": 51.5185739, "lng": -0.1660358}, "viewport": {"northeast": {"lat": 51.5200504802915, "lng": -0.164929419708498}, "southwest": {"lat": 51.5173525197085, "lng": -0.167627380291502}}}, "name": "Fitzrovia Apartments Ltd", "place_id": "ChIJT88ZvrUadkgRAKy22eQ6d-E", "types": ["real_estate_agency", "point_of_interest", "establishment"]}, "ChIJT88ZvrUadkgRfLZyoMrkDww": {"geometry": {"location": {"lat": 51.5185739, "lng": -0.1660358}, "viewport": {"northeast": {"lat": 51.5200504802915, "lng": -0.164929419708498}, "southwest": {"lat": 51.5173525197085, "lng": -0.167627380291502}}}, "name": "Expert Impact", "place_id": "ChIJT88ZvrUadkgRfLZyoMrkDww", "types": ["point_of_interest", "establishment"]}, "ChIJfXp-uLUadkgRySQ3BIYOnFg": {"geometry": {"location": {"lat": 51.5185739, "lng": -0.1660358}, "viewport": {"northeast": {"lat": 51.5200504802915, "lng": -0.164929419708498}, "southwest": {"lat": 51.5173525197085, "lng": -0.167627380291502}}}, "name": "BBF", "place_id": "ChIJfXp-uLUadkgRySQ3BIYOnFg", "types": ["finance", "point_of_interest", "establishment"], "rating": 1, "user_ratings_total": 1}, "ChIJ4XRUvrUadkgRId9OOwPJS1g": {"geometry": {"location": {"lat": 51.5186535, "lng": -0.1661562}, "viewport": {"northeast": {"lat": 51.52009503029149, "lng": -0.164983169708498}, "southwest": {"lat": 51.5173970697085, "lng": -0.167681130291502}}}, "name": "Imperium Network Solutions Limited", "place_id": "ChIJ4XRUvrUadkgRId9OOwPJS1g", "types": ["point_of_interest", "establishment"]}, "ChIJ4XRUvrUadkgRFvh5HrRuJjE": {"geometry": {"location": {"lat": 51.5186535, "lng": -0.1661562}, "viewport": {"northeast": {"lat": 51.52009503029149, "lng": -0.164983169708498}, "southwest": {"lat": 51.5173970697085, "lng": -0.167681130291502}}}, "name": "STEDMAN APPAREL LTD.", "place_id": "ChIJ4XRUvrUadkgRFvh5HrRuJjE", "types": ["point_of_interest", "establishment"]}, "ChIJq7kZvrUadkgRxt7mBgbQkbc": {"geometry": {"location": {"lat": 51.5186535, "lng": -0.1661562}, "viewport": {"northeast": {"lat": 51.52009503029149, "lng": -0.164983169708498}, "southwest": {"lat": 51.5173970697085, "lng": -0.167681130291502}}}, "name": "Mini-Epic", "place_id": "ChIJq7kZvrUadkgRxt7mBgbQkbc", "types": ["point_of_interest", "establishment"], "rating": 5, "user_ratings_total": 1}, "ChIJq7kZvrUadkgR2HUBSrFg8IQ": {"geometry": {"location": {"lat": 51.5186535, "lng": -0.1661562}, "viewport": {"northeast": {"lat": 51.52009503029149, "lng": -0.164983169708498}, "southwest": {"lat": 51.5173970697085, "lng": -0.167681130291502}}}, "name": "Westminster Leadership Ltd", "place_id": "ChIJq7kZvrUadkgR2HUBSrFg8IQ", "types": ["point_of_interest", "establishment"]}, "ChIJq7kZvrUadkgROlp2tmzY5Q0": {"geometry": {"location": {"lat": 51.5186535, "lng": -0.1661562}, "viewport": {"northeast": {"lat": 51.52009503029149, "lng": -0.164983169708498}, "southwest": {"lat": 51.5173970697085, "lng": -0.167681130291502}}}, "name": "WALLECTOR LIMITED", "place_id": "ChIJq7kZvrUadkgROlp2tmzY5Q0", "types": ["point_of_interest", "establishment"]}, "ChIJH3VUvrUadkgRwXUaz0wc7mU": {"geometry": {"location": {"lat": 51.5186535, "lng": -0.1661561}, "viewport": {"northeast": {"lat": 51.52009503029149, "lng": -0.164983069708498}, "southwest": {"lat": 51.5173970697085, "lng": -0.167681030291502}}}, "name": "Nitromobil International", "place_id": "ChIJH3VUvrUadkgRwXUaz0wc7mU", "types": ["food", "point_of_interest", "establishment"]}, "ChIJH3VUvrUadkgR8kSvn-9y5zs": {"geometry": {"location": {"lat": 51.5186535, "lng": -0.1661561}, "viewport": {"northeast": {"lat": 51.52009503029149, "lng": -0.164983069708498}, "southwest": {"lat": 51.5173970697085, "lng": -0.167681030291502}}}, "name": "Mainstage Bingo", "place_id": "ChIJH3VUvrUadkgR8kSvn-9y5zs", "types": ["point_of_interest", "establishment"], "rating": 4.5, "user_ratings_total": 2}, "ChIJH3VUvrUadkgRY0dque95PXI": {"geometry": {"location": {"lat": 51.5186535, "lng": -0.1661561}, "viewport": {"northeast": {"lat": 51.52009503029149, "lng": -0.164983069708498}, "southwest": {"lat": 51.5173970697085, "lng": -0.167681030291502}}}, "name": "Reel Island", "place_id": "ChIJH3VUvrUadkgRY0dque95PXI", "types": ["casino", "point_of_interest", "establishment"], "rating": 5, "user_ratings_total": 2}, "ChIJFa_bprUadkgRiEaX_RfUQWQ": {"geometry": {"location": {"lat": 51.51829439999999, "lng": -0.1658799}, "viewport": {"northeast": {"lat": 51.51962848029149, "lng": -0.164503369708498}, "southwest": {"lat": 51.5169305197085, "lng": -0.167201330291502}}}, "name": "Buy Off Plan Properties", "place_id": "ChIJFa_bprUadkgRiEaX_RfUQWQ", "types": ["point_of_interest", "establishment"], "rating": 5, "user_ratings_total": 1}, "ChIJP4hTfrUadkgRBZBDV7h6GWw": {"geometry": {"location": {"lat": 51.5179224, "lng": -0.1668505}, "viewport": {"northeast": {"lat": 51.5192389802915, "lng": -0.165557269708498}, "southwest": {"lat": 51.5165410197085, "lng": -0.168255230291502}}}, "name": "Sama Travel", "place_id": "ChIJP4hTfrUadkgRBZBDV7h6GWw", "types": ["travel_agency", "point_of_interest", "establishment"], "rating": 3.7, "user_ratings_total": 6}, "ChIJvzQFv7UadkgRx52ECGjykDo": {"geometry": {"location": {"lat": 51.5187034, "lng": -0.1662244}, "viewport": {"northeast": {"lat": 51.5201240802915, "lng": -0.165011719708498}, "southwest": {"lat": 51.5174261197085, "lng": -0.167709680291502}}}, "name": "Pidgeon Digital", "place_id": "ChIJvzQFv7UadkgRx52ECGjykDo", "types": ["point_of_interest", "establishment"]}, "ChIJvzQFv7UadkgRqfwGmozp0-g": {"geometry": {"location": {"lat": 51.5187034, "lng": -0.1662244}, "viewport": {"northeast": {"lat": 51.5201240802915, "lng": -0.165011719708498}, "southwest": {"lat": 51.5174261197085, "lng": -0.167709680291502}}}, "name": "NIFA London", "place_id": "ChIJvzQFv7UadkgRqfwGmozp0-g", "types": ["accounting", "finance", "point_of_interest", "establishment"]}, "ChIJXzwNCbUadkgRj8oUMZdNYyc": {"geometry": {"location": {"lat": 51.51743150091403, "lng": -0.1664944968979203}, "viewport": {"northeast": {"lat": 51.5187804802915, "lng": -0.165145519708498}, "southwest": {"lat": 51.5160825197085, "lng": -0.167843480291502}}}, "name": "Edgware Road", "place_id": "ChIJXzwNCbUadkgRj8oUMZdNYyc", "types": ["route"]}, "ChIJryb4Fs0adkgRVfSUm21bIbA": {"geometry": {"location": {"lat": 51.5169194, "lng": -0.1660639}, "viewport": {"northeast": {"lat": 51.51831738029151, "lng": -0.164623019708498}, "southwest": {"lat": 51.51561941970851, "lng": -0.167320980291502}}}, "name": "Barclays Bank", "place_id": "ChIJryb4Fs0adkgRVfSUm21bIbA", "types": ["bank", "atm", "finance", "point_of_interest", "establishment"], "rating": 2.2, "user_ratings_total": 69}, "ChIJG4NToLUadkgRYLKItotkONg": {"geometry": {"location": {"lat": 51.5176148, "lng": -0.1662277}, "viewport": {"northeast": {"lat": 51.5189000302915, "lng": -0.164975019708498}, "southwest": {"lat": 51.5162020697085, "lng": -0.167672980291502}}}, "name": "McDonald's Edgware Road", "place_id": "ChIJG4NToLUadkgRYLKItotkONg", "types": ["restaurant", "meal_takeaway", "food", "point_of_interest", "establishment"], "rating": 3.7, "user_ratings_total": 1690}, "ChIJ9WoZB7UadkgRFIxplGQlroA": {"geometry": {"location": {"lat": 51.51744110000001, "lng": -0.1669331}, "viewport": {"northeast": {"lat": 51.51886143029151, "lng": -0.165504569708498}, "southwest": {"lat": 51.51616346970851, "lng": -0.168202530291502}}}, "name": "zain salon", "place_id": "ChIJ9WoZB7UadkgRFIxplGQlroA", "types": ["beauty_salon", "point_of_interest", "establishment"], "rating": 4, "user_ratings_total": 26}, "ChIJ92oZB7UadkgRlQS8ClQ1eeA": {"geometry": {"location": {"lat": 51.5170988, "lng": -0.1663754}, "viewport": {"northeast": {"lat": 51.5185079302915, "lng": -0.164924369708498}, "southwest": {"lat": 51.5158099697085, "lng": -0.167622330291502}}}, "name": "EAZY TECH", "place_id": "ChIJ92oZB7UadkgRlQS8ClQ1eeA", "types": ["electronics_store", "point_of_interest", "store", "establishment"], "rating": 4.4, "user_ratings_total": 69}, "ChIJyxNTCbUadkgRfUsJNrRZrRY": {"geometry": {"location": {"lat": 51.51719240000001, "lng": -0.1664345}, "viewport": {"northeast": {"lat": 51.51873708029151, "lng": -0.165286919708498}, "southwest": {"lat": 51.51603911970851, "lng": -0.167984880291502}}}, "name": "Mason Menswear", "place_id": "ChIJyxNTCbUadkgRfUsJNrRZrRY", "types": ["point_of_interest", "clothing_store", "store", "establishment"]}, "ChIJ92oZB7UadkgR6_gFPJA5ZDg": {"geometry": {"location": {"lat": 51.51740129999999, "lng": -0.1669581}, "viewport": {"northeast": {"lat": 51.5188415302915, "lng": -0.165494519708498}, "southwest": {"lat": 51.5161435697085, "lng": -0.1681924802915021}}}, "name": "Luxury Wax Bar", "place_id": "ChIJ92oZB7UadkgR6_gFPJA5ZDg", "types": ["beauty_salon", "hair_care", "point_of_interest", "establishment"], "rating": 4.7, "user_ratings_total": 106}, "ChIJaeXAqbUadkgRLXs6wJt-Rw4": {"geometry": {"location": {"lat": 51.51737929999999, "lng": -0.1669807}, "viewport": {"northeast": {"lat": 51.51887268029149, "lng": -0.165577019708498}, "southwest": {"lat": 51.51617471970849, "lng": -0.168274980291502}}}, "name": "Holland & Barrett", "place_id": "ChIJaeXAqbUadkgRLXs6wJt-Rw4", "types": ["food", "health", "point_of_interest", "store", "establishment"], "rating": 3.6, "user_ratings_total": 21}, "ChIJtTLpB7UadkgRdb-ROERvER0": {"geometry": {"location": {"lat": 51.51743539999999, "lng": -0.166999}, "viewport": {"northeast": {"lat": 51.51886183029149, "lng": -0.165518619708498}, "southwest": {"lat": 51.51616386970849, "lng": -0.168216580291502}}}, "name": "Yu Yi", "place_id": "ChIJtTLpB7UadkgRdb-ROERvER0", "types": ["beauty_salon", "hair_care", "spa", "health", "point_of_interest", "establishment"], "rating": 1, "user_ratings_total": 1}, "ChIJRYk5DLUadkgR9nqaFrwTnOE": {"geometry": {"location": {"lat": 51.5170382, "lng": -0.1661623}, "viewport": {"northeast": {"lat": 51.51842638029149, "lng": -0.164740569708498}, "southwest": {"lat": 51.51572841970849, "lng": -0.167438530291502}}}, "name": "Mayfair communication", "place_id": "ChIJRYk5DLUadkgR9nqaFrwTnOE", "types": ["point_of_interest", "establishment"], "rating": 3, "user_ratings_total": 2}, "ChIJU82yc7UadkgR05HeHv4Sy1U": {"geometry": {"location": {"lat": 51.5174353, "lng": -0.1669989}, "viewport": {"northeast": {"lat": 51.5188617302915, "lng": -0.165518469708498}, "southwest": {"lat": 51.51616376970851, "lng": -0.168216430291502}}}, "name": "Flirt Properties", "place_id": "ChIJU82yc7UadkgR05HeHv4Sy1U", "types": ["point_of_interest", "establishment"]}, "ChIJA7SpDbUadkgRdZ0YHfALCE8": {"geometry": {"location": {"lat": 51.51699619999999, "lng": -0.1661756}, "viewport": {"northeast": {"lat": 51.51839508029149, "lng": -0.164733019708498}, "southwest": {"lat": 51.51569711970849, "lng": -0.167430980291502}}}, "name": "Air Transport Publications Ltd", "place_id": "ChIJA7SpDbUadkgRdZ0YHfALCE8", "types": ["point_of_interest", "establishment"]}, "ChIJ92oZB7UadkgR1w_qmXFGg14": {"geometry": {"location": {"lat": 51.51698769999999, "lng": -0.1661783}, "viewport": {"northeast": {"lat": 51.5183887802915, "lng": -0.164731569708498}, "southwest": {"lat": 51.5156908197085, "lng": -0.167429530291502}}}, "name": "SMALL ACCIDENT REPAIR TECHNOLOGY LIMITED", "place_id": "ChIJ92oZB7UadkgR1w_qmXFGg14", "types": ["insurance_agency", "point_of_interest", "establishment"], "rating": 1, "user_ratings_total": 1}, "ChIJ92oZB7UadkgROF4WVIjDJbM": {"geometry": {"location": {"lat": 51.51698769999999, "lng": -0.1661783}, "viewport": {"northeast": {"lat": 51.5183887802915, "lng": -0.164731569708498}, "southwest": {"lat": 51.5156908197085, "lng": -0.167429530291502}}}, "name": "TAKE THE WEEKEND OFF LIMITED", "place_id": "ChIJ92oZB7UadkgROF4WVIjDJbM", "types": ["car_repair", "point_of_interest", "establishment"], "rating": 1, "user_ratings_total": 1}, "ChIJ7WSoDbUadkgRMiIZEhUQHe8": {"geometry": {"location": {"lat": 51.51698769999999, "lng": -0.1661782}, "viewport": {"northeast": {"lat": 51.51838878029149, "lng": -0.1647314697084979}, "southwest": {"lat": 51.51569081970849, "lng": -0.167429430291502}}}, "name": "Dot Ltd", "place_id": "ChIJ7WSoDbUadkgRMiIZEhUQHe8", "types": ["point_of_interest", "establishment"]}, "ChIJ7WSoDbUadkgRee_-v7UmYsg": {"geometry": {"location": {"lat": 51.51698769999999, "lng": -0.1661782}, "viewport": {"northeast": {"lat": 51.51838878029149, "lng": -0.1647314697084979}, "southwest": {"lat": 51.51569081970849, "lng": -0.167429430291502}}}, "name": "Jamon Club Limited", "place_id": "ChIJ7WSoDbUadkgRee_-v7UmYsg", "types": ["point_of_interest", "establishment"]}, "ChIJUQY0sLUadkgRFDQcHf_J78s": {"geometry": {"location": {"lat": 51.5175914, "lng": -0.1661587}, "viewport": {"northeast": {"lat": 51.5189403802915, "lng": -0.164809719708498}, "southwest": {"lat": 51.5162424197085, "lng": -0.167507680291502}}}, "name": "Documents and Visas Ltd", "place_id": "ChIJUQY0sLUadkgRFDQcHf_J78s", "types": ["travel_agency", "point_of_interest", "establishment"]}, "ChIJ2YaEeLEadkgRpKy98DMQxtM": {"geometry": {"location": {"lat": 51.51688840000001, "lng": -0.1661444}, "viewport": {"northeast": {"lat": 51.51815978029151, "lng": -0.164692919708498}, "southwest": {"lat": 51.51546181970851, "lng": -0.167390880291502}}}, "name": "Safestore Self Storage London Paddington - Marble Arch", "place_id": "ChIJ2YaEeLEadkgRpKy98DMQxtM", "types": ["storage", "point_of_interest", "establishment"], "rating": 4.6, "user_ratings_total": 97}, "ChIJtTLpB7UadkgRlxfPi3WQ3dQ": {"geometry": {"location": {"lat": 51.5174353, "lng": -0.1669989}, "viewport": {"northeast": {"lat": 51.5188617302915, "lng": -0.165518469708498}, "southwest": {"lat": 51.51616376970851, "lng": -0.168216430291502}}}, "name": "H R Chinese Medicine Centre", "place_id": "ChIJtTLpB7UadkgRlxfPi3WQ3dQ", "types": ["hospital", "health", "point_of_interest", "establishment"]}, "ChIJ9WoZB7UadkgRjUKXlAWqaU8": {"geometry": {"location": {"lat": 51.5170733, "lng": -0.1662828}, "viewport": {"northeast": {"lat": 51.5184740802915, "lng": -0.164845919708498}, "southwest": {"lat": 51.5157761197085, "lng": -0.1675438802915021}}}, "name": "Al Mustafa", "place_id": "ChIJ9WoZB7UadkgRjUKXlAWqaU8", "types": ["supermarket", "grocery_or_supermarket", "food", "point_of_interest", "store", "establishment"], "rating": 2.8, "user_ratings_total": 60}, "ChIJu1htzNUbdkgRcu17pz7-mgE": {"geometry": {"location": {"lat": 51.5172465, "lng": -0.1666035}, "viewport": {"northeast": {"lat": 51.5187641302915, "lng": -0.165348569708498}, "southwest": {"lat": 51.5160661697085, "lng": -0.168046530291502}}}, "name": "El prince", "place_id": "ChIJu1htzNUbdkgRcu17pz7-mgE", "types": ["restaurant", "food", "point_of_interest", "establishment"]}, "ChIJZyhxGXUbdkgRJjn1JkT3rLw": {"geometry": {"location": {"lat": 51.5172462, "lng": -0.1664994}, "viewport": {"northeast": {"lat": 51.5186397302915, "lng": -0.165074769708498}, "southwest": {"lat": 51.5159417697085, "lng": -0.167772730291502}}}, "name": "Mua Mua", "place_id": "ChIJZyhxGXUbdkgRJjn1JkT3rLw", "types": ["restaurant", "food", "point_of_interest", "store", "establishment"], "rating": 4.2, "user_ratings_total": 16}, "ChIJCXLOqbUadkgR6xWt3vGja-A": {"geometry": {"location": {"lat": 51.5172536, "lng": -0.1664547}, "viewport": {"northeast": {"lat": 51.5186384302915, "lng": -0.165044819708498}, "southwest": {"lat": 51.5159404697085, "lng": -0.1677427802915021}}}, "name": "Fairouz Lebanese Cuisine", "place_id": "ChIJCXLOqbUadkgR6xWt3vGja-A", "types": ["restaurant", "food", "point_of_interest", "establishment"], "rating": 4.8, "user_ratings_total": 5}, "ChIJSRCVg6sbdkgRS0taHHg1iIw": {"geometry": {"location": {"lat": 51.5172256, "lng": -0.1667461}, "viewport": {"northeast": {"lat": 51.5187536802915, "lng": -0.165373919708498}, "southwest": {"lat": 51.5160557197085, "lng": -0.168071880291502}}}, "name": "One Falafel", "place_id": "ChIJSRCVg6sbdkgRS0taHHg1iIw", "types": ["restaurant", "food", "point_of_interest", "establishment"], "rating": 5, "user_ratings_total": 8}, "ChIJBy1nYhgbdkgRi4U0a8J_BvQ": {"geometry": {"location": {"lat": 51.5174089, "lng": -0.1666981}, "viewport": {"northeast": {"lat": 51.5187948802915, "lng": -0.1652864197084979}, "southwest": {"lat": 51.5160969197085, "lng": -0.167984380291502}}}, "name": "Sarah Periera Beauty Therapist", "place_id": "ChIJBy1nYhgbdkgRi4U0a8J_BvQ", "types": ["beauty_salon", "point_of_interest", "establishment"]}, "ChIJz6ZKAYkbdkgRyLXEL59CjYc": {"geometry": {"location": {"lat": 51.51740890000001, "lng": -0.1666982}, "viewport": {"northeast": {"lat": 51.5187948802915, "lng": -0.165286469708498}, "southwest": {"lat": 51.5160969197085, "lng": -0.167984430291502}}}, "name": "Cosmologica", "place_id": "ChIJz6ZKAYkbdkgRyLXEL59CjYc", "types": ["point_of_interest", "establishment"]}, "ChIJ13XGB7UadkgRsWb3pkJ3_iU": {"geometry": {"location": {"lat": 51.5173676, "lng": -0.1667803}, "viewport": {"northeast": {"lat": 51.51882468029151, "lng": -0.165438969708498}, "southwest": {"lat": 51.51612671970851, "lng": -0.168136930291502}}}, "name": "Salon Vague", "place_id": "ChIJ13XGB7UadkgRsWb3pkJ3_iU", "types": ["hair_care", "point_of_interest", "establishment"]}, "ChIJ3blxDLUadkgRFWrm3KSpewY": {"geometry": {"location": {"lat": 51.51718220000001, "lng": -0.1662789}, "viewport": {"northeast": {"lat": 51.5185557302915, "lng": -0.164885369708498}, "southwest": {"lat": 51.5158577697085, "lng": -0.167583330291502}}}, "name": "Burwood Place (Stop EK)", "place_id": "ChIJ3blxDLUadkgRFWrm3KSpewY", "types": ["bus_station", "transit_station", "point_of_interest", "establishment"]}, "ChIJ_6fLUOMbdkgR21iVNgEwiCA": {"geometry": {"location": {"lat": 51.5170988, "lng": -0.1663754}, "viewport": {"northeast": {"lat": 51.5186902802915, "lng": -0.165235419708498}, "southwest": {"lat": 51.5159923197085, "lng": -0.1679333802915021}}}, "name": "Mega Express", "place_id": "ChIJ_6fLUOMbdkgR21iVNgEwiCA", "types": ["food", "point_of_interest", "establishment"]}, "ChIJySicDWUbdkgRYCxYtRwZJ5c": {"geometry": {"location": {"lat": 51.5170988, "lng": -0.1663754}, "viewport": {"northeast": {"lat": 51.5186902802915, "lng": -0.165235419708498}, "southwest": {"lat": 51.5159923197085, "lng": -0.1679333802915021}}}, "name": "Brasil Hair - Edgware Road", "place_id": "ChIJySicDWUbdkgRYCxYtRwZJ5c", "types": ["hair_care", "point_of_interest", "establishment"]}, "ChIJF7gHDLUadkgRENCWant9VoM": {"geometry": {"location": {"lat": 51.5170988, "lng": -0.1663754}, "viewport": {"northeast": {"lat": 51.5186902802915, "lng": -0.165235419708498}, "southwest": {"lat": 51.5159923197085, "lng": -0.1679333802915021}}}, "name": "Beautyque Salon & Skin Care", "place_id": "ChIJF7gHDLUadkgRENCWant9VoM", "types": ["beauty_salon", "hair_care", "point_of_interest", "establishment"], "rating": 4.5, "user_ratings_total": 22}, "ChIJl2Y6BPcbdkgRoXJGb9fvwo4": {"geometry": {"location": {"lat": 51.5170988, "lng": -0.1663754}, "viewport": {"northeast": {"lat": 51.5186902802915, "lng": -0.165235419708498}, "southwest": {"lat": 51.5159923197085, "lng": -0.1679333802915021}}}, "name": "whair attend home", "place_id": "ChIJl2Y6BPcbdkgRoXJGb9fvwo4", "types": ["hair_care", "point_of_interest", "establishment"]}, "ChIJ9WoZB7UadkgRQL-q8oq1z-U": {"geometry": {"location": {"lat": 51.51742040000001, "lng": -0.1668969}, "viewport": {"northeast": {"lat": 51.5188510802915, "lng": -0.165487669708498}, "southwest": {"lat": 51.5161531197085, "lng": -0.168185630291502}}}, "name": "Pharmacentre pharmacy", "place_id": "ChIJ9WoZB7UadkgRQL-q8oq1z-U", "types": ["pharmacy", "health", "point_of_interest", "store", "establishment"], "rating": 4, "user_ratings_total": 27}, "ChIJd7sEB7UadkgRcxWmwpVlFlM": {"geometry": {"location": {"lat": 51.5173769, "lng": -0.1669485}, "viewport": {"northeast": {"lat": 51.5188293302915, "lng": -0.165482419708498}, "southwest": {"lat": 51.5161313697085, "lng": -0.1681803802915021}}}, "name": "The Minerva Academy", "place_id": "ChIJd7sEB7UadkgRcxWmwpVlFlM", "types": ["primary_school", "school", "point_of_interest", "establishment"]}, "ChIJe1-vl_cbdkgRPhMzjNNTHfE": {"geometry": {"location": {"lat": 51.51737929999999, "lng": -0.1669806}, "viewport": {"northeast": {"lat": 51.5188305302915, "lng": -0.165490969708498}, "southwest": {"lat": 51.5161325697085, "lng": -0.1681889302915021}}}, "name": "Express Apple Specialists", "place_id": "ChIJe1-vl_cbdkgRPhMzjNNTHfE", "types": ["point_of_interest", "establishment"], "rating": 5, "user_ratings_total": 112}, "ChIJ-f_vvBsQdkgRxaTExcRYmHM": {"geometry": {"location": {"lat": 51.51737929999999, "lng": -0.1669806}, "viewport": {"northeast": {"lat": 51.5188305302915, "lng": -0.165490969708498}, "southwest": {"lat": 51.5161325697085, "lng": -0.1681889302915021}}}, "name": "Taskplete Accountant", "place_id": "ChIJ-f_vvBsQdkgRxaTExcRYmHM", "types": ["accounting", "finance", "point_of_interest", "establishment"], "rating": 5, "user_ratings_total": 3}, "ChIJoclrC7UadkgRf3nh5_mQplo": {"geometry": {"location": {"lat": 51.51737929999999, "lng": -0.1669806}, "viewport": {"northeast": {"lat": 51.51872828029149, "lng": -0.165631619708498}, "southwest": {"lat": 51.51603031970849, "lng": -0.168329580291502}}}, "name": "Mobiley & Gold Vape London", "place_id": "ChIJoclrC7UadkgRf3nh5_mQplo", "types": ["point_of_interest", "establishment"], "rating": 3.9, "user_ratings_total": 8}, "ChIJn4aAB7UadkgR_i9929tSNiQ": {"geometry": {"location": {"lat": 51.51737929999999, "lng": -0.1669807}, "viewport": {"northeast": {"lat": 51.5188305302915, "lng": -0.165491019708498}, "southwest": {"lat": 51.5161325697085, "lng": -0.168188980291502}}}, "name": "365 Stays Limited", "place_id": "ChIJn4aAB7UadkgR_i9929tSNiQ", "types": ["lodging", "point_of_interest", "establishment"]}, "ChIJEfYfikkbdkgRyx-6OZN9Ck4": {"geometry": {"location": {"lat": 51.51737929999999, "lng": -0.1669807}, "viewport": {"northeast": {"lat": 51.5188305302915, "lng": -0.165491019708498}, "southwest": {"lat": 51.5161325697085, "lng": -0.168188980291502}}}, "name": "LINK U PC And Mobile Repair", "place_id": "ChIJEfYfikkbdkgRyx-6OZN9Ck4", "types": ["point_of_interest", "establishment"]}, "ChIJ9aPD1ewbdkgRUFRpGVVVoA8": {"geometry": {"location": {"lat": 51.51737929999999, "lng": -0.1669807}, "viewport": {"northeast": {"lat": 51.5188305302915, "lng": -0.165491019708498}, "southwest": {"lat": 51.5161325697085, "lng": -0.168188980291502}}}, "name": "LINK U Computer and Mobile Fast Repair", "place_id": "ChIJ9aPD1ewbdkgRUFRpGVVVoA8", "types": ["point_of_interest", "establishment"], "rating": 5, "user_ratings_total": 2}, "ChIJUQ0xBh4OdkgRX1e7wXg8f_w": {"geometry": {"location": {"lat": 51.51737929999999, "lng": -0.1669807}, "viewport": {"northeast": {"lat": 51.5188305302915, "lng": -0.165491019708498}, "southwest": {"lat": 51.5161325697085, "lng": -0.168188980291502}}}, "name": "MYCON DEVELOPMENTS LIMITED", "place_id": "ChIJUQ0xBh4OdkgRX1e7wXg8f_w", "types": ["general_contractor", "point_of_interest", "establishment"]}, "ChIJYzLEYG4bdkgRSVS7sSjlwA8": {"geometry": {"location": {"lat": 51.51737929999999, "lng": -0.1669807}, "viewport": {"northeast": {"lat": 51.5188305302915, "lng": -0.165491019708498}, "southwest": {"lat": 51.5161325697085, "lng": -0.168188980291502}}}, "name": "\u0645\u0637\u0639\u0645 \u0627\u0644\u0645\u0628\u0627\u0631\u0643\u064a\u0629", "place_id": "ChIJYzLEYG4bdkgRSVS7sSjlwA8", "types": ["restaurant", "food", "point_of_interest", "establishment"], "rating": 3, "user_ratings_total": 10}, "ChIJ5ccnVjIbdkgRzLLQZnUJN3Y": {"geometry": {"location": {"lat": 51.51744110000001, "lng": -0.1669331}, "viewport": {"northeast": {"lat": 51.51886143029151, "lng": -0.165504569708498}, "southwest": {"lat": 51.51616346970851, "lng": -0.168202530291502}}}, "name": "Pruies Salon", "place_id": "ChIJ5ccnVjIbdkgRzLLQZnUJN3Y", "types": ["beauty_salon", "point_of_interest", "establishment"], "rating": 4, "user_ratings_total": 4}, "ChIJYxGywOEadkgR7_UZuYd7F-k": {"geometry": {"location": {"lat": 51.5173965, "lng": -0.1669846}, "viewport": {"northeast": {"lat": 51.5188298802915, "lng": -0.165492369708498}, "southwest": {"lat": 51.5161319197085, "lng": -0.168190330291502}}}, "name": "DR.JD & Co", "place_id": "ChIJYxGywOEadkgR7_UZuYd7F-k", "types": ["beauty_salon", "point_of_interest", "establishment"], "rating": 5, "user_ratings_total": 3}, "ChIJkWaPB7UadkgR08F5tNMDl4k": {"geometry": {"location": {"lat": 51.5174901, "lng": -0.1668608}, "viewport": {"northeast": {"lat": 51.5188859302915, "lng": -0.165507119708498}, "southwest": {"lat": 51.5161879697085, "lng": -0.1682050802915021}}}, "name": "Reach 2 Academy Trust Within Minerva Academy", "place_id": "ChIJkWaPB7UadkgR08F5tNMDl4k", "types": ["primary_school", "school", "point_of_interest", "establishment"]}, "ChIJU82yc7UadkgRd6m2V8DaFjI": {"geometry": {"location": {"lat": 51.5174353, "lng": -0.1669989}, "viewport": {"northeast": {"lat": 51.5188617302915, "lng": -0.165518469708498}, "southwest": {"lat": 51.51616376970851, "lng": -0.168216430291502}}}, "name": "Mr Tech", "place_id": "ChIJU82yc7UadkgRd6m2V8DaFjI", "types": ["point_of_interest", "store", "establishment"], "rating": 3.6, "user_ratings_total": 8}, "ChIJh53DB7UadkgRk2N6bP3VTSE": {"geometry": {"location": {"lat": 51.51743539999999, "lng": -0.166999}, "viewport": {"northeast": {"lat": 51.51886183029149, "lng": -0.165518619708498}, "southwest": {"lat": 51.51616386970849, "lng": -0.168216580291502}}}, "name": "Albarius ltd", "place_id": "ChIJh53DB7UadkgRk2N6bP3VTSE", "types": ["point_of_interest", "establishment"]}, "ChIJF-2K-nAbdkgRKqDxkFqELbs": {"geometry": {"location": {"lat": 51.5175084, "lng": -0.1669252}, "viewport": {"northeast": {"lat": 51.5189061302915, "lng": -0.165529669708498}, "southwest": {"lat": 51.5162081697085, "lng": -0.168227630291502}}}, "name": "Linku laptop and mobile repair", "place_id": "ChIJF-2K-nAbdkgRKqDxkFqELbs", "types": ["point_of_interest", "establishment"], "rating": 5, "user_ratings_total": 1}, "ChIJ1dJqpR4bdkgRBX51Aq39WBQ": {"geometry": {"location": {"lat": 51.5173779, "lng": -0.1660281}, "viewport": {"northeast": {"lat": 51.5186910302915, "lng": -0.164740369708498}, "southwest": {"lat": 51.5159930697085, "lng": -0.167438330291502}}}, "name": "Sushi Daily", "place_id": "ChIJ1dJqpR4bdkgRBX51Aq39WBQ", "types": ["meal_takeaway", "restaurant", "food", "point_of_interest", "store", "establishment"]}, "ChIJ7yf4DLUadkgR__l8eVZQHxA": {"geometry": {"location": {"lat": 51.51698769999999, "lng": -0.1661782},