{"E00023663": {"ChIJy3twHSMFdkgRu4q9TaPIaTo": {"geometry": {"location": {"lat": 51.49655925024255, "lng": -0.1505806507826167}, "viewport": {"northeast": {"lat": 51.4979082302915, "lng": -0.149231669708498}, "southwest": {"lat": 51.4952102697085, "lng": -0.151929630291502}}}, "name": "Eaton Square", "place_id": "ChIJy3twHSMFdkgRu4q9TaPIaTo", "types": ["route"]}, "ChIJMUIwDCIFdkgRfZi3IyTQtMI": {"geometry": {"location": {"lat": 51.4961917, "lng": -0.1500227}, "viewport": {"northeast": {"lat": 51.49757038029149, "lng": -0.148721869708498}, "southwest": {"lat": 51.49487241970849, "lng": -0.151419830291502}}}, "name": "Allison Swan Physios", "place_id": "ChIJMUIwDCIFdkgRfZi3IyTQtMI", "types": ["physiotherapist", "health", "point_of_interest", "establishment"], "rating": 5, "user_ratings_total": 2}, "ChIJUbkY124FdkgRYKUA5SWpi5E": {"geometry": {"location": {"lat": 51.4963019, "lng": -0.1492993}, "viewport": {"northeast": {"lat": 51.4976091302915, "lng": -0.147880269708498}, "southwest": {"lat": 51.4949111697085, "lng": -0.150578230291502}}}, "name": "Dr. Cap Lesesne UK", "place_id": "ChIJUbkY124FdkgRYKUA5SWpi5E", "types": ["doctor", "health", "point_of_interest", "establishment"]}, "ChIJLXNFOhYFdkgR3qyYtZG4t-s": {"geometry": {"location": {"lat": 51.4958014, "lng": -0.1500994}, "viewport": {"northeast": {"lat": 51.49717733029149, "lng": -0.148699319708498}, "southwest": {"lat": 51.49447936970849, "lng": -0.151397280291502}}}, "name": "C'est Magnifique Makeup Services", "place_id": "ChIJLXNFOhYFdkgR3qyYtZG4t-s", "types": ["point_of_interest", "establishment"], "rating": 5, "user_ratings_total": 6}, "ChIJi6PTGtcFdkgRFFjgRKsgtUs": {"geometry": {"location": {"lat": 51.4958187, "lng": -0.1501917}, "viewport": {"northeast": {"lat": 51.4972646302915, "lng": -0.148997419708498}, "southwest": {"lat": 51.4945666697085, "lng": -0.151695380291502}}}, "name": "Mini & Large Skip Hire", "place_id": "ChIJi6PTGtcFdkgRFFjgRKsgtUs", "types": ["point_of_interest", "establishment"]}, "ChIJ4bCLs5cSdkgRp2UxnVyHoFQ": {"geometry": {"location": {"lat": 51.4957053, "lng": -0.1499298}, "viewport": {"northeast": {"lat": 51.49705428029149, "lng": -0.148580819708498}, "southwest": {"lat": 51.4943563197085, "lng": -0.151278780291502}}}, "name": "Kapital Estates", "place_id": "ChIJ4bCLs5cSdkgRp2UxnVyHoFQ", "types": ["finance", "point_of_interest", "establishment"]}, "ChIJCRK9UCIFdkgRchNn8-HiQ9Y": {"geometry": {"location": {"lat": 51.4959099, "lng": -0.1492362}, "viewport": {"northeast": {"lat": 51.4972239302915, "lng": -0.147824719708498}, "southwest": {"lat": 51.4945259697085, "lng": -0.150522680291502}}}, "name": "Future Academies", "place_id": "ChIJCRK9UCIFdkgRchNn8-HiQ9Y", "types": ["point_of_interest", "establishment"]}, "ChIJOd7vXiIFdkgRexUvDcVBdQs": {"geometry": {"location": {"lat": 51.49542540008591, "lng": -0.1494150496709967}, "viewport": {"northeast": {"lat": 51.4967743802915, "lng": -0.1480660697084979}, "southwest": {"lat": 51.49407641970851, "lng": -0.150764030291502}}}, "name": "Eccleston Street", "place_id": "ChIJOd7vXiIFdkgRexUvDcVBdQs", "types": ["route"]}, "ChIJR3ksC7IFdkgRgy-QFrcSla0": {"geometry": {"location": {"lat": 51.49508669999999, "lng": -0.1503684}, "viewport": {"northeast": {"lat": 51.4964105302915, "lng": -0.148974969708498}, "southwest": {"lat": 51.4937125697085, "lng": -0.151672930291502}}}, "name": "Mary Shelley Blue Plaque", "place_id": "ChIJR3ksC7IFdkgRgy-QFrcSla0", "types": ["point_of_interest", "establishment"], "rating": 5, "user_ratings_total": 1}, "ChIJkciFiSIFdkgRtXYUviwgCCU": {"geometry": {"location": {"lat": 51.49483559999999, "lng": -0.1498035}, "viewport": {"northeast": {"lat": 51.4962140302915, "lng": -0.148505969708498}, "southwest": {"lat": 51.4935160697085, "lng": -0.151203930291502}}}, "name": "S Pignatelli", "place_id": "ChIJkciFiSIFdkgRtXYUviwgCCU", "types": ["finance", "point_of_interest", "establishment"]}, "ChIJYUsYXiIFdkgRXEWqO8LIlwA": {"geometry": {"location": {"lat": 51.4952388, "lng": -0.1493983}, "viewport": {"northeast": {"lat": 51.4965877802915, "lng": -0.148049319708498}, "southwest": {"lat": 51.4938898197085, "lng": -0.150747280291502}}}, "name": "St Michael's Church", "place_id": "ChIJYUsYXiIFdkgRXEWqO8LIlwA", "types": ["church", "place_of_worship", "point_of_interest", "establishment"]}, "ChIJlcK_7CIFdkgRE6VuDkhXjQM": {"geometry": {"location": {"lat": 51.4952816, "lng": -0.1507018}, "viewport": {"northeast": {"lat": 51.4966523802915, "lng": -0.149389419708498}, "southwest": {"lat": 51.4939544197085, "lng": -0.152087380291502}}}, "name": "The Black Ant Group Llp", "place_id": "ChIJlcK_7CIFdkgRE6VuDkhXjQM", "types": ["point_of_interest", "establishment"]}, "ChIJodMTT68FdkgRqRa4jZhWysI": {"geometry": {"location": {"lat": 51.49537520000001, "lng": -0.1491993}, "viewport": {"northeast": {"lat": 51.4967442802915, "lng": -0.147889269708498}, "southwest": {"lat": 51.4940463197085, "lng": -0.150587230291502}}}, "name": "Rose", "place_id": "ChIJodMTT68FdkgRqRa4jZhWysI", "types": ["school", "point_of_interest", "establishment"]}, "ChIJu-GFfyIFdkgRYV6xx6Ngutk": {"geometry": {"location": {"lat": 51.49391692426189, "lng": -0.1495430900860755}, "viewport": {"northeast": {"lat": 51.4952645802915, "lng": -0.148191169708498}, "southwest": {"lat": 51.4925666197085, "lng": -0.150889130291502}}}, "name": "97-135 Ebury St", "place_id": "ChIJu-GFfyIFdkgRYV6xx6Ngutk", "types": ["route"]}, "ChIJywylexgFdkgR06UsvOQ60kg": {"geometry": {"location": {"lat": 51.4935188, "lng": -0.150181}, "viewport": {"northeast": {"lat": 51.4948459302915, "lng": -0.148785669708498}, "southwest": {"lat": 51.4921479697085, "lng": -0.151483630291502}}}, "name": "Astors Belgravia", "place_id": "ChIJywylexgFdkgR06UsvOQ60kg", "types": ["lodging", "point_of_interest", "establishment"], "rating": 3.9, "user_ratings_total": 393}, "ChIJfx9BfiIFdkgR8mLvHm77DIw": {"geometry": {"location": {"lat": 51.4936873, "lng": -0.1500813}, "viewport": {"northeast": {"lat": 51.4949979302915, "lng": -0.148652169708498}, "southwest": {"lat": 51.4922999697085, "lng": -0.151350130291502}}}, "name": "Belgravia Hotel", "place_id": "ChIJfx9BfiIFdkgR8mLvHm77DIw", "types": ["lodging", "point_of_interest", "establishment"], "rating": 3.2, "user_ratings_total": 377}, "ChIJVSfheCIFdkgRr3rgs5iM8A0": {"geometry": {"location": {"lat": 51.4939933, "lng": -0.1491961}, "viewport": {"northeast": {"lat": 51.4953815302915, "lng": -0.1479248197084979}, "southwest": {"lat": 51.4926835697085, "lng": -0.150622780291502}}}, "name": "The Lord Milner Hotel London", "place_id": "ChIJVSfheCIFdkgRr3rgs5iM8A0", "types": ["lodging", "point_of_interest", "establishment"], "rating": 4.1, "user_ratings_total": 67}, "ChIJsc2_fiIFdkgR0oZdNpp5cIg": {"geometry": {"location": {"lat": 51.49416739999999, "lng": -0.149484}, "viewport": {"northeast": {"lat": 51.4954780802915, "lng": -0.148056769708498}, "southwest": {"lat": 51.4927801197085, "lng": -0.150754730291502}}}, "name": "Ames Belgravia Property Consultants", "place_id": "ChIJsc2_fiIFdkgR0oZdNpp5cIg", "types": ["real_estate_agency", "point_of_interest", "establishment"]}, "ChIJvUAPgCIFdkgRVaL9gNJ3hGw": {"geometry": {"location": {"lat": 51.493936, "lng": -0.1497056}, "viewport": {"northeast": {"lat": 51.49525698029149, "lng": -0.148298119708498}, "southwest": {"lat": 51.4925590197085, "lng": -0.150996080291502}}}, "name": "Westminster Conservative", "place_id": "ChIJvUAPgCIFdkgRVaL9gNJ3hGw", "types": ["point_of_interest", "establishment"]}, "ChIJUfUFfyIFdkgRVIO33-aJOp0": {"geometry": {"location": {"lat": 51.4941548, "lng": -0.1494204}, "viewport": {"northeast": {"lat": 51.4954775302915, "lng": -0.148017719708498}, "southwest": {"lat": 51.4927795697085, "lng": -0.150715680291502}}}, "name": "Angloslav International", "place_id": "ChIJUfUFfyIFdkgRVIO33-aJOp0", "types": ["point_of_interest", "establishment"], "rating": 5, "user_ratings_total": 2}, "ChIJc_DbbxgFdkgRp8_wSh9KHQU": {"geometry": {"location": {"lat": 51.4936986, "lng": -0.1500813}, "viewport": {"northeast": {"lat": 51.49500173029149, "lng": -0.148654519708498}, "southwest": {"lat": 51.49230376970849, "lng": -0.151352480291502}}}, "name": "Collin House Hotel London", "place_id": "ChIJc_DbbxgFdkgRp8_wSh9KHQU", "types": ["lodging", "point_of_interest", "establishment"], "rating": 3.4, "user_ratings_total": 39}, "ChIJnXoieSIFdkgRJaAjd6rkZrE": {"geometry": {"location": {"lat": 51.4940411, "lng": -0.149173}, "viewport": {"northeast": {"lat": 51.4954229302915, "lng": -0.147891169708498}, "southwest": {"lat": 51.4927249697085, "lng": -0.150589130291502}}}, "name": "sss", "place_id": "ChIJnXoieSIFdkgRJaAjd6rkZrE", "types": ["restaurant", "food", "point_of_interest", "establishment"], "rating": 4, "user_ratings_total": 1}, "ChIJBTEQghgFdkgRmtM8lF9amNM": {"geometry": {"location": {"lat": 51.49405420000001, "lng": -0.1493824}, "viewport": {"northeast": {"lat": 51.4954200302915, "lng": -0.148067769708498}, "southwest": {"lat": 51.4927220697085, "lng": -0.150765730291502}}}, "name": "British Red Cross shop", "place_id": "ChIJBTEQghgFdkgRmtM8lF9amNM", "types": ["point_of_interest", "store", "establishment"], "rating": 3.7, "user_ratings_total": 3}, "ChIJRUTqcBgFdkgRcHZkP59L9fk": {"geometry": {"location": {"lat": 51.4936246, "lng": -0.1504763}, "viewport": {"northeast": {"lat": 51.4949251302915, "lng": -0.149206769708498}, "southwest": {"lat": 51.4922271697085, "lng": -0.151904730291502}}}, "name": "VICKISARGE", "place_id": "ChIJRUTqcBgFdkgRcHZkP59L9fk", "types": ["jewelry_store", "point_of_interest", "store", "establishment"], "rating": 5, "user_ratings_total": 12}, "ChIJQ7EHgCIFdkgRjODrsIQSlhw": {"geometry": {"location": {"lat": 51.4939618, "lng": -0.1497126}, "viewport": {"northeast": {"lat": 51.4952769302915, "lng": -0.148292919708498}, "southwest": {"lat": 51.4925789697085, "lng": -0.150990880291502}}}, "name": "Cities Of London & Westminster Conservative Association", "place_id": "ChIJQ7EHgCIFdkgRjODrsIQSlhw", "types": ["point_of_interest", "establishment"], "rating": 4, "user_ratings_total": 4}, "ChIJvUAPgCIFdkgR3cZrw_9pvx0": {"geometry": {"location": {"lat": 51.493936, "lng": -0.1497056}, "viewport": {"northeast": {"lat": 51.49525698029149, "lng": -0.148298119708498}, "southwest": {"lat": 51.4925590197085, "lng": -0.150996080291502}}}, "name": "Westminster Italian Conservatives Group", "place_id": "ChIJvUAPgCIFdkgR3cZrw_9pvx0", "types": ["point_of_interest", "establishment"]}, "ChIJm0MMfiIFdkgRCgyfTwXhums": {"geometry": {"location": {"lat": 51.4941918, "lng": -0.1496027}, "viewport": {"northeast": {"lat": 51.4954798802915, "lng": -0.148129269708498}, "southwest": {"lat": 51.4927819197085, "lng": -0.150827230291502}}}, "name": "Ebury House Hotel", "place_id": "ChIJm0MMfiIFdkgRCgyfTwXhums", "types": ["lodging", "point_of_interest", "establishment"]}, "ChIJS-qIfyIFdkgR-pIkpr4logk": {"geometry": {"location": {"lat": 51.493905, "lng": -0.1495468}, "viewport": {"northeast": {"lat": 51.49527483029149, "lng": -0.1482413697084979}, "southwest": {"lat": 51.49257686970849, "lng": -0.150939330291502}}}, "name": "LA Digital Communications", "place_id": "ChIJS-qIfyIFdkgR-pIkpr4logk", "types": ["point_of_interest", "establishment"]}, "ChIJT0JwfiIFdkgRXsr_iWwkP0k": {"geometry": {"location": {"lat": 51.49418439999999, "lng": -0.1495479}, "viewport": {"northeast": {"lat": 51.4954821802915, "lng": -0.148094269708498}, "southwest": {"lat": 51.4927842197085, "lng": -0.150792230291502}}}, "name": "Hotel Londres", "place_id": "ChIJT0JwfiIFdkgRXsr_iWwkP0k", "types": ["lodging", "point_of_interest", "establishment"], "rating": 5, "user_ratings_total": 1}, "ChIJsc2_fiIFdkgRWpadbYNAsbE": {"geometry": {"location": {"lat": 51.49416739999999, "lng": -0.149484}, "viewport": {"northeast": {"lat": 51.4954780802915, "lng": -0.148056769708498}, "southwest": {"lat": 51.4927801197085, "lng": -0.150754730291502}}}, "name": "Julien Standing", "place_id": "ChIJsc2_fiIFdkgRWpadbYNAsbE", "types": ["point_of_interest", "establishment"]}, "ChIJ2bjGnWEFdkgRfvgIWY-APlo": {"geometry": {"location": {"lat": 51.4941548, "lng": -0.1494204}, "viewport": {"northeast": {"lat": 51.4954775302915, "lng": -0.148017719708498}, "southwest": {"lat": 51.4927795697085, "lng": -0.150715680291502}}}, "name": "health gain turbo", "place_id": "ChIJ2bjGnWEFdkgRfvgIWY-APlo", "types": ["point_of_interest", "establishment"]}, "ChIJxyKUfiIFdkgRO2BvMNk2UtE": {"geometry": {"location": {"lat": 51.4941548, "lng": -0.1494204}, "viewport": {"northeast": {"lat": 51.4954775302915, "lng": -0.148017719708498}, "southwest": {"lat": 51.4927795697085, "lng": -0.150715680291502}}}, "name": "Rejuven8face Ltd", "place_id": "ChIJxyKUfiIFdkgRO2BvMNk2UtE", "types": ["point_of_interest", "establishment"]}, "ChIJxyKUfiIFdkgRD1eCi6DVIJA": {"geometry": {"location": {"lat": 51.4941548, "lng": -0.1494204}, "viewport": {"northeast": {"lat": 51.4954775302915, "lng": -0.148017719708498}, "southwest": {"lat": 51.4927795697085, "lng": -0.150715680291502}}}, "name": "Scion Mastery Ltd", "place_id": "ChIJxyKUfiIFdkgRD1eCi6DVIJA", "types": ["point_of_interest", "establishment"]}, "ChIJYfEbHHsFdkgRehylmp2maTE": {"geometry": {"location": {"lat": 51.4941548, "lng": -0.1494204}, "viewport": {"northeast": {"lat": 51.4954775302915, "lng": -0.148017719708498}, "southwest": {"lat": 51.4927795697085, "lng": -0.150715680291502}}}, "name": "McConnell Aesthetics", "place_id": "ChIJYfEbHHsFdkgRehylmp2maTE", "types": ["beauty_salon", "health", "point_of_interest", "establishment"]}, "ChIJZ4UxNnYFdkgRvPGsqiMmrBQ": {"geometry": {"location": {"lat": 51.4941548, "lng": -0.1494204}, "viewport": {"northeast": {"lat": 51.4954775302915, "lng": -0.148017719708498}, "southwest": {"lat": 51.4927795697085, "lng": -0.150715680291502}}}, "name": "Dr Giorgia Ratta Cosmetic Clinic", "place_id": "ChIJZ4UxNnYFdkgRvPGsqiMmrBQ", "types": ["spa", "health", "point_of_interest", "establishment"]}, "ChIJ1Y_fRtAFdkgRyDV4Z6yYMe0": {"geometry": {"location": {"lat": 51.4941548, "lng": -0.1494204}, "viewport": {"northeast": {"lat": 51.4954775302915, "lng": -0.148017719708498}, "southwest": {"lat": 51.4927795697085, "lng": -0.150715680291502}}}, "name": "Newcastle Skin Clinic at Institute Hyalual", "place_id": "ChIJ1Y_fRtAFdkgRyDV4Z6yYMe0", "types": ["spa", "health", "point_of_interest", "establishment"]}, "ChIJxyKUfiIFdkgR_mIMA-UTvaM": {"geometry": {"location": {"lat": 51.4941548, "lng": -0.1494204}, "viewport": {"northeast": {"lat": 51.4954775302915, "lng": -0.148017719708498}, "southwest": {"lat": 51.4927795697085, "lng": -0.150715680291502}}}, "name": "Business Entrepreneurs Network", "place_id": "ChIJxyKUfiIFdkgR_mIMA-UTvaM", "types": ["point_of_interest", "establishment"]}, "ChIJQSXzS_4FdkgRv1q36kBBM-8": {"geometry": {"location": {"lat": 51.4936945, "lng": -0.1500556}, "viewport": {"northeast": {"lat": 51.4950076802915, "lng": -0.148631769708498}, "southwest": {"lat": 51.4923097197085, "lng": -0.151329730291502}}}, "name": "Bounce - Luggage Storage Victoria Coach Station", "place_id": "ChIJQSXzS_4FdkgRv1q36kBBM-8", "types": ["storage", "point_of_interest", "store", "establishment"]}, "ChIJ89HUGXAFdkgRwqM4Lm8NwCM": {"geometry": {"location": {"lat": 51.4936945, "lng": -0.1500556}, "viewport": {"northeast": {"lat": 51.4950076802915, "lng": -0.148631769708498}, "southwest": {"lat": 51.4923097197085, "lng": -0.151329730291502}}}, "name": "KeyNest - Smart Key Exchange", "place_id": "ChIJ89HUGXAFdkgRwqM4Lm8NwCM", "types": ["point_of_interest", "store", "establishment"]}, "ChIJdSY_WTYFdkgRWcFG4G7mRbs": {"geometry": {"location": {"lat": 51.49383069999999, "lng": -0.1494769}, "viewport": {"northeast": {"lat": 51.4952056302915, "lng": -0.148182169708498}, "southwest": {"lat": 51.4925076697085, "lng": -0.150880130291502}}}, "name": "Lifting Equipment Hire Kensington and Chelsea", "place_id": "ChIJdSY_WTYFdkgRWcFG4G7mRbs", "types": ["point_of_interest", "establishment"]}, "ChIJZbrh9JgFdkgR-MqFjmWFmiY": {"geometry": {"location": {"lat": 51.4940035, "lng": -0.149371}, "viewport": {"northeast": {"lat": 51.4953531302915, "lng": -0.148023319708498}, "southwest": {"lat": 51.4926551697085, "lng": -0.150721280291502}}}, "name": "Gurrea/Plowright LTD", "place_id": "ChIJZbrh9JgFdkgR-MqFjmWFmiY", "types": ["general_contractor", "point_of_interest", "establishment"]}, "ChIJ9cO8r0gFdkgRI6cjjMR4lFA": {"geometry": {"location": {"lat": 51.49374659999999, "lng": -0.1495892}, "viewport": {"northeast": {"lat": 51.49512023029149, "lng": -0.148291769708498}, "southwest": {"lat": 51.49242226970849, "lng": -0.150989730291502}}}, "name": "George Moore Blue Plaque", "place_id": "ChIJ9cO8r0gFdkgRI6cjjMR4lFA", "types": ["point_of_interest", "establishment"], "rating": 4, "user_ratings_total": 1}, "ChIJBbRwsv4FdkgRD-Lfrc1q4QE": {"geometry": {"location": {"lat": 51.4938459, "lng": -0.1494099}, "viewport": {"northeast": {"lat": 51.49522793029149, "lng": -0.148130519708498}, "southwest": {"lat": 51.49252996970849, "lng": -0.150828480291502}}}, "name": "Eccle market", "place_id": "ChIJBbRwsv4FdkgRD-Lfrc1q4QE", "types": ["grocery_or_supermarket", "food", "point_of_interest", "store", "establishment"]}, "ChIJVVU4eRgFdkgR9ePkA4nPJzA": {"geometry": {"location": {"lat": 51.4936534, "lng": -0.1501013}, "viewport": {"northeast": {"lat": 51.4949673302915, "lng": -0.148679069708498}, "southwest": {"lat": 51.4922693697085, "lng": -0.151377030291502}}}, "name": "\u30d1\u30fc\u30af \u30a2\u30d9\u30cb\u30e5\u30fc \u30d9\u30eb\u30b0\u30ec\u30fc\u30d3\u30a2", "place_id": "ChIJVVU4eRgFdkgR9ePkA4nPJzA", "types": ["point_of_interest", "establishment"], "rating": 2, "user_ratings_total": 1}, "ChIJhfMGCOIFdkgRpV2_seJntww": {"geometry": {"location": {"lat": 51.4937935, "lng": -0.1504703}, "viewport": {"northeast": {"lat": 51.4951480302915, "lng": -0.149132269708498}, "southwest": {"lat": 51.4924500697085, "lng": -0.151830230291502}}}, "name": "Fast Interior Removals Belgravia", "place_id": "ChIJhfMGCOIFdkgRpV2_seJntww", "types": ["moving_company", "point_of_interest", "establishment"]}, "ChIJ__-igBgFdkgR-_yGroK4Zvc": {"geometry": {"location": {"lat": 51.49363349999999, "lng": -0.1496419}, "viewport": {"northeast": {"lat": 51.49502023029149, "lng": -0.148371819708498}, "southwest": {"lat": 51.49232226970849, "lng": -0.151069780291502}}}, "name": "\u0413\u043e\u043d\u043a\u043e\u043d\u0433 \u041e\u0442\u0435\u043b\u044c EATON", "place_id": "ChIJ__-igBgFdkgR-_yGroK4Zvc", "types": ["lodging", "point_of_interest", "establishment"], "rating": 5, "user_ratings_total": 1}, "ChIJAQAMfCIFdkgRYhff6cKZzJM": {"geometry": {"location": {"lat": 51.49428049999999, "lng": -0.1493354}, "viewport": {"northeast": {"lat": 51.49559278029149, "lng": -0.147909619708498}, "southwest": {"lat": 51.49289481970849, "lng": -0.150607580291502}}}, "name": "Abzed", "place_id": "ChIJAQAMfCIFdkgRYhff6cKZzJM", "types": ["point_of_interest", "establishment"]}, "ChIJx_z5eyIFdkgRCIkR_STptBk": {"geometry": {"location": {"lat": 51.49425910000001, "lng": -0.149292}, "viewport": {"northeast": {"lat": 51.4955818802915, "lng": -0.147888169708498}, "southwest": {"lat": 51.4928839197085, "lng": -0.150586130291502}}}, "name": "Hildred House", "place_id": "ChIJx_z5eyIFdkgRCIkR_STptBk", "types": ["point_of_interest", "establishment"]}, "ChIJ0Qh0fhgFdkgRHJ9bhc67yhc": {"geometry": {"location": {"lat": 51.4935753, "lng": -0.1497761}, "viewport": {"northeast": {"lat": 51.4949526302915, "lng": -0.148486369708498}, "southwest": {"lat": 51.4922546697085, "lng": -0.1511843302915021}}}, "name": "Cartref House", "place_id": "ChIJ0Qh0fhgFdkgRHJ9bhc67yhc", "types": ["lodging", "point_of_interest", "establishment"]}, "ChIJZ8LuvWgFdkgRYemWLtthYIk": {"geometry": {"location": {"lat": 51.4940411, "lng": -0.149173}, "viewport": {"northeast": {"lat": 51.4954229302915, "lng": -0.147891169708498}, "southwest": {"lat": 51.4927249697085, "lng": -0.150589130291502}}}, "name": "Edith Evans Blue Plaque", "place_id": "ChIJZ8LuvWgFdkgRYemWLtthYIk", "types": ["point_of_interest", "establishment"], "rating": 5, "user_ratings_total": 1}, "ChIJkdpP_RUFdkgRHSgCWaD9sWg": {"geometry": {"location": {"lat": 51.4937041, "lng": -0.1505812}, "viewport": {"northeast": {"lat": 51.4950014302915, "lng": -0.149316769708498}, "southwest": {"lat": 51.4923034697085, "lng": -0.152014730291502}}}, "name": "Jo Loves London Store", "place_id": "ChIJkdpP_RUFdkgRHSgCWaD9sWg", "types": ["home_goods_store", "point_of_interest", "clothing_store", "store", "establishment"], "rating": 4.3, "user_ratings_total": 112}, "ChIJ3VavYOcFdkgR6LEYcCnHeig": {"geometry": {"location": {"lat": 51.4938231, "lng": -0.1491937}, "viewport": {"northeast": {"lat": 51.4952417802915, "lng": -0.147991469708498}, "southwest": {"lat": 51.4925438197085, "lng": -0.150689430291502}}}, "name": "Flat battery Sloane Square", "place_id": "ChIJ3VavYOcFdkgR6LEYcCnHeig", "types": ["car_repair", "point_of_interest", "establishment"]}, "ChIJrczybxgFdkgRm4rrI-NrfhI": {"geometry": {"location": {"lat": 51.4931501500128, "lng": -0.1504472500538437}, "viewport": {"northeast": {"lat": 51.49449913029151, "lng": -0.149098269708498}, "southwest": {"lat": 51.49180116970851, "lng": -0.151796230291502}}}, "name": "143-147 Ebury St", "place_id": "ChIJrczybxgFdkgRm4rrI-NrfhI", "types": ["route"]}, "ChIJ10uKfBgFdkgRpTP-39COLUE": {"geometry": {"location": {"lat": 51.49336280000001, "lng": -0.1499672}, "viewport": {"northeast": {"lat": 51.4947471802915, "lng": -0.148700669708498}, "southwest": {"lat": 51.49204921970851, "lng": -0.151398630291502}}}, "name": "Lime Tree Hotel", "place_id": "ChIJ10uKfBgFdkgRpTP-39COLUE", "types": ["lodging", "point_of_interest", "establishment"], "rating": 4.6, "user_ratings_total": 75}, "ChIJDysLZRgFdkgRKDKL94_M8Ho": {"geometry": {"location": {"lat": 51.493058, "lng": -0.150261}, "viewport": {"northeast": {"lat": 51.49445018029149, "lng": -0.149008669708498}, "southwest": {"lat": 51.49175221970849, "lng": -0.151706630291502}}}, "name": "Il Convivio", "place_id": "ChIJDysLZRgFdkgRKDKL94_M8Ho", "types": ["restaurant", "food", "point_of_interest", "establishment"], "rating": 4.4, "user_ratings_total": 107}, "ChIJfx9BfiIFdkgR3sK35gqBm4g": {"geometry": {"location": {"lat": 51.4934501, "lng": -0.1502847}, "viewport": {"northeast": {"lat": 51.4947671802915, "lng": -0.148877069708498}, "southwest": {"lat": 51.4920692197085, "lng": -0.151575030291502}}}, "name": "Tomtom Coffee House", "place_id": "ChIJfx9BfiIFdkgR3sK35gqBm4g", "types": ["cafe", "restaurant", "food", "point_of_interest", "store", "establishment"], "rating": 4.1, "user_ratings_total": 455}, "ChIJlQmtaBgFdkgRPsUcmM_iALA": {"geometry": {"location": {"lat": 51.4929769, "lng": -0.1504568}, "viewport": {"northeast": {"lat": 51.49435288029149, "lng": -0.149171319708498}, "southwest": {"lat": 51.49165491970849, "lng": -0.151869280291502}}}, "name": "Bijoux Medical", "place_id": "ChIJlQmtaBgFdkgRPsUcmM_iALA", "types": ["spa", "health", "point_of_interest", "establishment"], "rating": 4.7, "user_ratings_total": 15}, "ChIJefdJjxgFdkgRdC6NA1S_HkA": {"geometry": {"location": {"lat": 51.4933026, "lng": -0.1505416}, "viewport": {"northeast": {"lat": 51.4946135802915, "lng": -0.149080619708498}, "southwest": {"lat": 51.4919156197085, "lng": -0.151778580291502}}}, "name": "Peggy Porschen", "place_id": "ChIJefdJjxgFdkgRdC6NA1S_HkA", "types": ["bakery", "cafe", "food", "point_of_interest", "store", "establishment"], "rating": 3.7, "user_ratings_total": 877}, "ChIJQwpZbxgFdkgRlYpyPaXhgCQ": {"geometry": {"location": {"lat": 51.49295550000001, "lng": -0.1504239}, "viewport": {"northeast": {"lat": 51.4943396302915, "lng": -0.149157619708498}, "southwest": {"lat": 51.4916416697085, "lng": -0.151855580291502}}}, "name": "Platelet Rich Plasma", "place_id": "ChIJQwpZbxgFdkgRlYpyPaXhgCQ", "types": ["health", "point_of_interest", "establishment"]}, "ChIJjS48iBgFdkgRTjrfPAupEfM": {"geometry": {"location": {"lat": 51.49320170000001, "lng": -0.1496319}, "viewport": {"northeast": {"lat": 51.49450218029151, "lng": -0.148320969708498}, "southwest": {"lat": 51.49180421970851, "lng": -0.151018930291502}}}, "name": "Olivogelo", "place_id": "ChIJjS48iBgFdkgRTjrfPAupEfM", "types": ["bakery", "cafe", "food", "point_of_interest", "store", "establishment"], "rating": 4.4, "user_ratings_total": 209}, "ChIJH1kvjxgFdkgRs9WetdHCEzo": {"geometry": {"location": {"lat": 51.493137, "lng": -0.1494436}, "viewport": {"northeast": {"lat": 51.49444048029149, "lng": -0.148104169708498}, "southwest": {"lat": 51.4917425197085, "lng": -0.150802130291502}}}, "name": "Sainsbury's Bank ATM", "place_id": "ChIJH1kvjxgFdkgRs9WetdHCEzo", "types": ["atm", "finance", "point_of_interest", "establishment"], "rating": 5, "user_ratings_total": 1}, "ChIJH233ixgFdkgRnKqvsiOoK5k": {"geometry": {"location": {"lat": 51.4928594, "lng": -0.1493198}, "viewport": {"northeast": {"lat": 51.4942574302915, "lng": -0.147923119708498}, "southwest": {"lat": 51.4915594697085, "lng": -0.150621080291502}}}, "name": "The Athenian", "place_id": "ChIJH233ixgFdkgRnKqvsiOoK5k", "types": ["restaurant", "food", "point_of_interest", "establishment"], "rating": 4.3, "user_ratings_total": 415}, "ChIJs17QjhgFdkgR54N7E69mmPA": {"geometry": {"location": {"lat": 51.493128, "lng": -0.1493497}, "viewport": {"northeast": {"lat": 51.4944247302915, "lng": -0.148046469708498}, "southwest": {"lat": 51.49172676970851, "lng": -0.150744430291502}}}, "name": "Sainsbury's Local", "place_id": "ChIJs17QjhgFdkgR54N7E69mmPA", "types": ["supermarket", "convenience_store", "grocery_or_supermarket", "food", "point_of_interest", "store", "establishment"], "rating": 3.4, "user_ratings_total": 42}, "ChIJm9eNeCIFdkgR4ScyO5FWM8E": {"geometry": {"location": {"lat": 51.4934561, "lng": -0.1498481}, "viewport": {"northeast": {"lat": 51.4948447302915, "lng": -0.148582019708498}, "southwest": {"lat": 51.4921467697085, "lng": -0.151279980291502}}}, "name": "Security Research Group", "place_id": "ChIJm9eNeCIFdkgR4ScyO5FWM8E", "types": ["point_of_interest", "establishment"]}, "ChIJjXezfRgFdkgRTEe1Gwld_cM": {"geometry": {"location": {"lat": 51.4934561, "lng": -0.1498481}, "viewport": {"northeast": {"lat": 51.4948447302915, "lng": -0.148582019708498}, "southwest": {"lat": 51.4921467697085, "lng": -0.151279980291502}}}, "name": "Grosvenor Gardens Department", "place_id": "ChIJjXezfRgFdkgRTEe1Gwld_cM", "types": ["point_of_interest", "establishment"]}, "ChIJefdJjxgFdkgRd5x-vZ145n4": {"geometry": {"location": {"lat": 51.4930901, "lng": -0.1491912}, "viewport": {"northeast": {"lat": 51.49438148029149, "lng": -0.147942269708498}, "southwest": {"lat": 51.49168351970849, "lng": -0.150640230291502}}}, "name": "ABF The Soldiers' Charity", "place_id": "ChIJefdJjxgFdkgRd5x-vZ145n4", "types": ["point_of_interest", "establishment"], "rating": 4.5, "user_ratings_total": 2}, "ChIJzQqXbhgFdkgRQpGgB4OJG3A": {"geometry": {"location": {"lat": 51.493054, "lng": -0.15078}, "viewport": {"northeast": {"lat": 51.4943704302915, "lng": -0.149356069708498}, "southwest": {"lat": 51.4916724697085, "lng": -0.152054030291502}}}, "name": "Rawi & Co", "place_id": "ChIJzQqXbhgFdkgRQpGgB4OJG3A", "types": ["accounting", "finance", "point_of_interest", "establishment"]}, "ChIJTw4bjxgFdkgRR_s0fp8_4Pc": {"geometry": {"location": {"lat": 51.4930971, "lng": -0.1491774}, "viewport": {"northeast": {"lat": 51.4943839802915, "lng": -0.147935369708498}, "southwest": {"lat": 51.4916860197085, "lng": -0.150633330291502}}}, "name": "X-Forces Enterprise", "place_id": "ChIJTw4bjxgFdkgRR_s0fp8_4Pc", "types": ["point_of_interest", "establishment"], "rating": 4.8, "user_ratings_total": 20}, "ChIJBTEQghgFdkgRlYXbs2_Xfa8": {"geometry": {"location": {"lat": 51.49304489999999, "lng": -0.1504592}, "viewport": {"northeast": {"lat": 51.49440783029149, "lng": -0.149142919708498}, "southwest": {"lat": 51.4917098697085, "lng": -0.151840880291502}}}, "name": "Le Spose di Gi\u00f2", "place_id": "ChIJBTEQghgFdkgRlYXbs2_Xfa8", "types": ["point_of_interest", "clothing_store", "store", "establishment"], "rating": 3.3, "user_ratings_total": 20}, "ChIJDSCGcBgFdkgRKUDFgUDrs_k": {"geometry": {"location": {"lat": 51.4934115, "lng": -0.1504558}, "viewport": {"northeast": {"lat": 51.4947830802915, "lng": -0.1490698197084979}, "southwest": {"lat": 51.4920851197085, "lng": -0.151767780291502}}}, "name": "Aperture Photo Gallery", "place_id": "ChIJDSCGcBgFdkgRKUDFgUDrs_k", "types": ["point_of_interest", "establishment"], "rating": 2.7, "user_ratings_total": 3}, "ChIJBwM9iRgFdkgRH5diw67vlNI": {"geometry": {"location": {"lat": 51.4930999, "lng": -0.149132}, "viewport": {"northeast": {"lat": 51.49438008029149, "lng": -0.147912669708498}, "southwest": {"lat": 51.49168211970849, "lng": -0.150610630291502}}}, "name": "RFEA - The Forces Employment Charity", "place_id": "ChIJBwM9iRgFdkgRH5diw67vlNI", "types": ["point_of_interest", "establishment"], "rating": 5, "user_ratings_total": 2}, "ChIJ1XHWbxgFdkgRZdkUFaiRWBk": {"geometry": {"location": {"lat": 51.4931124, "lng": -0.1500286}, "viewport": {"northeast": {"lat": 51.4945263302915, "lng": -0.148836119708498}, "southwest": {"lat": 51.4918283697085, "lng": -0.151534080291502}}}, "name": "Ebury House Hotel", "place_id": "ChIJ1XHWbxgFdkgRZdkUFaiRWBk", "types": ["lodging", "point_of_interest", "establishment"], "rating": 3, "user_ratings_total": 9}, "ChIJ53YUcHgFdkgR8eNrq8IP8PI": {"geometry": {"location": {"lat": 51.4928395, "lng": -0.1498151}, "viewport": {"northeast": {"lat": 51.4943086802915, "lng": -0.148371769708498}, "southwest": {"lat": 51.4916107197085, "lng": -0.1510697302915021}}}, "name": "Whistlestop", "place_id": "ChIJ53YUcHgFdkgR8eNrq8IP8PI", "types": ["convenience_store", "food", "point_of_interest", "store", "establishment"]}, "ChIJvREK_asFdkgRworWKddMZbM": {"geometry": {"location": {"lat": 51.4928225, "lng": -0.1497639}, "viewport": {"northeast": {"lat": 51.4942922302915, "lng": -0.148320119708498}, "southwest": {"lat": 51.4915942697085, "lng": -0.151018080291502}}}, "name": "Victoria Electrical Contractors", "place_id": "ChIJvREK_asFdkgRworWKddMZbM", "types": ["electrician", "point_of_interest", "establishment"]}, "ChIJ_9Yk3SQFdkgRVvxHlfuhlWE": {"geometry": {"location": {"lat": 51.4930005, "lng": -0.1496653}, "viewport": {"northeast": {"lat": 51.4943992802915, "lng": -0.148280669708498}, "southwest": {"lat": 51.4917013197085, "lng": -0.150978630291502}}}, "name": "Melissa's Kitchen", "place_id": "ChIJ_9Yk3SQFdkgRVvxHlfuhlWE", "types": ["restaurant", "food", "point_of_interest", "establishment"], "rating": 3.6, "user_ratings_total": 151}, "ChIJOU-0qAUFdkgRGnhDgCJ79Tw": {"geometry": {"location": {"lat": 51.4931129, "lng": -0.1501746}, "viewport": {"northeast": {"lat": 51.4945057802915, "lng": -0.148931419708498}, "southwest": {"lat": 51.49180781970851, "lng": -0.151629380291502}}}, "name": "Bayley & Sage", "place_id": "ChIJOU-0qAUFdkgRGnhDgCJ79Tw", "types": ["grocery_or_supermarket", "food", "point_of_interest", "store", "establishment"], "rating": 4.4, "user_ratings_total": 10}, "ChIJAWz3X6EFdkgRvzJq1ng_h2c": {"geometry": {"location": {"lat": 51.4929356, "lng": -0.1496612}, "viewport": {"northeast": {"lat": 51.4943470802915, "lng": -0.148263169708498}, "southwest": {"lat": 51.49164911970851, "lng": -0.150961130291502}}}, "name": "DUKE + DEXTER", "place_id": "ChIJAWz3X6EFdkgRvzJq1ng_h2c", "types": ["shoe_store", "point_of_interest", "clothing_store", "store", "establishment"]}, "ChIJufYVc-kFdkgR8TtSq39CQTE": {"geometry": {"location": {"lat": 51.4931435, "lng": -0.1498067}, "viewport": {"northeast": {"lat": 51.49451368029151, "lng": -0.148441019708498}, "southwest": {"lat": 51.49181571970851, "lng": -0.1511389802915021}}}, "name": "\u0627\u064a\u0633\u0643\u0631\u064a\u0645", "place_id": "ChIJufYVc-kFdkgR8TtSq39CQTE", "types": ["restaurant", "food", "point_of_interest", "establishment"]}, "ChIJ-yJLYxgFdkgRzYvJHbk8Ivs": {"geometry": {"location": {"lat": 51.493172, "lng": -0.149819}, "viewport": {"northeast": {"lat": 51.49450308029149, "lng": -0.148456819708498}, "southwest": {"lat": 51.4918051197085, "lng": -0.151154780291502}}}, "name": "Victoria Coach Station (Stop Y)", "place_id": "ChIJ-yJLYxgFdkgRzYvJHbk8Ivs", "types": ["bus_station", "transit_station", "point_of_interest", "establishment"], "rating": 5, "user_ratings_total": 2}, "ChIJ9dmZNAwFdkgRTuZ6U6ZRDc0": {"geometry": {"location": {"lat": 51.4930409, "lng": -0.1503234}, "viewport": {"northeast": {"lat": 51.49442683029151, "lng": -0.1490580197084979}, "southwest": {"lat": 51.49172886970851, "lng": -0.151755980291502}}}, "name": "Primalashes Belgravia | London's Top Eyelash Extensions Salon", "place_id": "ChIJ9dmZNAwFdkgRTuZ6U6ZRDc0", "types": ["beauty_salon", "point_of_interest", "establishment"], "rating": 4.3, "user_ratings_total": 37}, "ChIJuyUZihgFdkgRVWISFFxIOcw": {"geometry": {"location": {"lat": 51.4928813, "lng": -0.1495939}, "viewport": {"northeast": {"lat": 51.4943064302915, "lng": -0.148185119708498}, "southwest": {"lat": 51.4916084697085, "lng": -0.1508830802915021}}}, "name": "Flower Delivery Belgravia", "place_id": "ChIJuyUZihgFdkgRVWISFFxIOcw", "types": ["point_of_interest", "establishment"]}, "ChIJO2OrZCgFdkgRK9425ZMNg10": {"geometry": {"location": {"lat": 51.4929962, "lng": -0.1503734}, "viewport": {"northeast": {"lat": 51.4943811802915, "lng": -0.149109169708498}, "southwest": {"lat": 51.4916832197085, "lng": -0.151807130291502}}}, "name": "London Grace", "place_id": "ChIJO2OrZCgFdkgRK9425ZMNg10", "types": ["beauty_salon", "point_of_interest", "establishment"], "rating": 4.7, "user_ratings_total": 80}, "ChIJ6WeKUEkFdkgR5Y1jecoqAzA": {"geometry": {"location": {"lat": 51.4932228, "lng": -0.1497316}, "viewport": {"northeast": {"lat": 51.4945270302915, "lng": -0.148417769708498}, "southwest": {"lat": 51.4918290697085, "lng": -0.151115730291502}}}, "name": "Rebel Roses", "place_id": "ChIJ6WeKUEkFdkgR5Y1jecoqAzA", "types": ["florist", "point_of_interest", "store", "establishment"]}, "ChIJw6qYv7gFdkgRGIrHc15-wMA": {"geometry": {"location": {"lat": 51.4932228, "lng": -0.1497316}, "viewport": {"northeast": {"lat": 51.4945270302915, "lng": -0.148417769708498}, "southwest": {"lat": 51.4918290697085, "lng": -0.151115730291502}}}, "name": "My Wardrobe HQ", "place_id": "ChIJw6qYv7gFdkgRGIrHc15-wMA", "types": ["clothing_store", "point_of_interest", "store", "establishment"], "rating": 4, "user_ratings_total": 58}, "ChIJMcmAWGAFdkgRdlL0s3jyK4g": {"geometry": {"location": {"lat": 51.4928834, "lng": -0.1494293}, "viewport": {"northeast": {"lat": 51.4942966802915, "lng": -0.148076419708498}, "southwest": {"lat": 51.4915987197085, "lng": -0.150774380291502}}}, "name": "Chestnut Bakery", "place_id": "ChIJMcmAWGAFdkgRdlL0s3jyK4g", "types": ["bakery", "food", "point_of_interest", "store", "establishment"], "rating": 4.6, "user_ratings_total": 62}, "ChIJv1KlM8kFdkgRQ3AozHU-pmg": {"geometry": {"location": {"lat": 51.4933251, "lng": -0.1500307}, "viewport": {"northeast": {"lat": 51.4947062802915, "lng": -0.148756769708498}, "southwest": {"lat": 51.4920083197085, "lng": -0.151454730291502}}}, "name": "Ganymede SW1", "place_id": "ChIJv1KlM8kFdkgRQ3AozHU-pmg", "types": ["bar", "restaurant", "food", "point_of_interest", "establishment"]}, "ChIJ5zAQghgFdkgRuyiyVCRqhik": {"geometry": {"location": {"lat": 51.4933251, "lng": -0.1500307}, "viewport": {"northeast": {"lat": 51.4947062802915, "lng": -0.148756769708498}, "southwest": {"lat": 51.4920083197085, "lng": -0.151454730291502}}}, "name": "SofaClassics - bespoke handmade in london", "place_id": "ChIJ5zAQghgFdkgRuyiyVCRqhik", "types": ["point_of_interest", "establishment"]}, "ChIJPxrNaBgFdkgRfgYRmY5aNu8": {"geometry": {"location": {"lat": 51.49315209999999, "lng": -0.1505062}, "viewport": {"northeast": {"lat": 51.4944916802915, "lng": -0.149138069708498}, "southwest": {"lat": 51.4917937197085, "lng": -0.151836030291502}}}, "name": "Ebury Street", "place_id": "ChIJPxrNaBgFdkgRfgYRmY5aNu8", "types": ["transit_station", "point_of_interest", "establishment"], "rating": 2.5, "user_ratings_total": 2}, "ChIJl1o_fRgFdkgRlIhsbmhElmg": {"geometry": {"location": {"lat": 51.4932342, "lng": -0.1495147}, "viewport": {"northeast": {"lat": 51.49450718029151, "lng": -0.148225369708498}, "southwest": {"lat": 51.49180921970851, "lng": -0.150923330291502}}}, "name": "Eccourt", "place_id": "ChIJl1o_fRgFdkgRlIhsbmhElmg", "types": ["school", "point_of_interest", "establishment"]}, "ChIJI1s27W4FdkgR6UFTIUl6WXo": {"geometry": {"location": {"lat": 51.49336280000001, "lng": -0.1499672}, "viewport": {"northeast": {"lat": 51.4947471802915, "lng": -0.148700669708498}, "southwest": {"lat": 51.49204921970851, "lng": -0.151398630291502}}}, "name": "The Buttery", "place_id": "ChIJI1s27W4FdkgR6UFTIUl6WXo", "types": ["restaurant", "cafe", "food", "point_of_interest", "store", "establishment"], "rating": 5, "user_ratings_total": 8}, "ChIJZbxifBgFdkgREWaYn5LjMrk": {"geometry": {"location": {"lat": 51.4934003, "lng": -0.1499921}, "viewport": {"northeast": {"lat": 51.4947735302915, "lng": -0.148705119708498}, "southwest": {"lat": 51.4920755697085, "lng": -0.151403080291502}}}, "name": "Ebury Street apartment, Belgravia, thesqua.re", "place_id": "ChIJZbxifBgFdkgREWaYn5LjMrk", "types": ["lodging", "point_of_interest", "establishment"]}, "ChIJhUTK0o4FdkgRxu9-_h_u-DI": {"geometry": {"location": {"lat": 51.493086, "lng": -0.1492336}, "viewport": {"northeast": {"lat": 51.49438483029151, "lng": -0.1479634697084979}, "southwest": {"lat": 51.49168686970851, "lng": -0.150661430291502}}}, "name": "Cars Recovery Chelsea", "place_id": "ChIJhUTK0o4FdkgRxu9-_h_u-DI", "types": ["car_repair", "point_of_interest", "establishment"]}, "ChIJOTwvaigFdkgRbyMLyhnhwKM": {"geometry": {"location": {"lat": 51.49329370000001, "lng": -0.1505242}, "viewport": {"northeast": {"lat": 51.49460853029151, "lng": -0.149092969708498}, "southwest": {"lat": 51.49191056970851, "lng": -0.151790930291502}}}, "name": "\u05d1\u05d9\u05ea\u05e7\u05e4\u05d4", "place_id": "ChIJOTwvaigFdkgRbyMLyhnhwKM", "types": ["cafe", "food", "point_of_interest", "establishment"]}, "ChIJB_af7z4FdkgRIMHzflb092k": {"geometry": {"location": {"lat": 51.4934397, "lng": -0.1501253}, "viewport": {"northeast": {"lat": 51.4947886802915, "lng": -0.1487763197084979}, "southwest": {"lat": 51.4920907197085, "lng": -0.151474280291502}}}, "name": "SW1W Victoria & Pimlico Electricians", "place_id": "ChIJB_af7z4FdkgRIMHzflb092k", "types": ["electrician", "point_of_interest", "establishment"]}, "ChIJXWdcLWoFdkgRWmO4a1DIuiM": {"geometry": {"location": {"lat": 51.4930901, "lng": -0.1491912}, "viewport": {"northeast": {"lat": 51.49438148029149, "lng": -0.147942269708498}, "southwest": {"lat": 51.49168351970849, "lng": -0.150640230291502}}}, "name": "Cobseo", "place_id": "ChIJXWdcLWoFdkgRWmO4a1DIuiM", "types": ["point_of_interest", "establishment"]}, "ChIJ_f8bjxgFdkgRFKQgktZt3Yg": {"geometry": {"location": {"lat": 51.4930902, "lng": -0.1491912}, "viewport": {"northeast": {"lat": 51.4943815802915, "lng": -0.147942269708498}, "southwest": {"lat": 51.4916836197085, "lng": -0.150640230291502}}}, "name": "X-Forces Police", "place_id": "ChIJ_f8bjxgFdkgRFKQgktZt3Yg", "types": ["point_of_interest", "establishment"]}, "ChIJc_oIRhgFdkgRnhu9HqCeO68": {"geometry": {"location": {"lat": 51.493069, "lng": -0.149173}, "viewport": {"northeast": {"lat": 51.4943757302915, "lng": -0.147933169708498}, "southwest": {"lat": 51.4916777697085, "lng": -0.150631130291502}}}, "name": "ZSchneiter Storing Plajash", "place_id": "ChIJc_oIRhgFdkgRnhu9HqCeO68", "types": ["point_of_interest", "establishment"]}, "ChIJP8Iyji0FdkgRe_ayFGQ6aJA": {"geometry": {"location": {"lat": 51.493054, "lng": -0.15078}, "viewport": {"northeast": {"lat": 51.4943704302915, "lng": -0.149356069708498}, "southwest": {"lat": 51.4916724697085, "lng": -0.152054030291502}}}, "name": "Pinza Pizza UK Ltd", "place_id": "ChIJP8Iyji0FdkgRe_ayFGQ6aJA", "types": ["restaurant", "food", "point_of_interest", "establishment"]}, "ChIJKemDjhgFdkgRPseUpJMCbWk": {"geometry": {"location": {"lat": 51.492922, "lng": -0.149148}, "viewport": {"northeast": {"lat": 51.4942525802915, "lng": -0.147813419708498}, "southwest": {"lat": 51.4915546197085, "lng": -0.150511380291502}}}, "name": "London Victoria Coach Station", "place_id": "ChIJKemDjhgFdkgRPseUpJMCbWk", "types": ["bus_station", "transit_station", "point_of_interest", "establishment"], "rating": 3, "user_ratings_total": 2}, "ChIJL_H-jhgFdkgRFMhcGLJwbi4": {"geometry": {"location": {"lat": 51.493058, "lng": -0.1491374}, "viewport": {"northeast": {"lat": 51.4943702802915, "lng": -0.147915369708498}, "southwest": {"lat": 51.49167231970851, "lng": -0.150613330291502}}}, "name": "Work Permit Experts Limited", "place_id": "ChIJL_H-jhgFdkgRFMhcGLJwbi4", "types": ["point_of_interest", "establishment"]}, "ChIJL_H-jhgFdkgROOKJVuQrjFc": {"geometry": {"location": {"lat": 51.493058, "lng": -0.1491374}, "viewport": {"northeast": {"lat": 51.4943702802915, "lng": -0.147915369708498}, "southwest": {"lat": 51.49167231970851, "lng": -0.150613330291502}}}, "name": "Maidenhead Wine Company Limited", "place_id": "ChIJL_H-jhgFdkgROOKJVuQrjFc", "types": ["liquor_store", "point_of_interest", "store", "establishment"]}, "ChIJAQAtbBgFdkgRavlQ1CNQ4fQ": {"geometry": {"location": {"lat": 51.4930573, "lng": -0.15081}, "viewport": {"northeast": {"lat": 51.49436883029149, "lng": -0.149374769708498}, "southwest": {"lat": 51.49167086970849, "lng": -0.152072730291502}}}, "name": "Amk Trading And Investment Ltd", "place_id": "ChIJAQAtbBgFdkgRavlQ1CNQ4fQ", "types": ["point_of_interest", "establishment"]}, "ChIJAQAtbBgFdkgRSsfKOkSKfIA": {"geometry": {"location": {"lat": 51.4930573, "lng": -0.15081}, "viewport": {"northeast": {"lat": 51.49436883029149, "lng": -0.149374769708498}, "southwest": {"lat": 51.49167086970849, "lng": -0.152072730291502}}}, "name": "Mountside Services Limited", "place_id": "ChIJAQAtbBgFdkgRSsfKOkSKfIA", "types": ["point_of_interest", "establishment"]}, "ChIJAQAtbBgFdkgRJzLKWo-GGQo": {"geometry": {"location": {"lat": 51.4930573, "lng": -0.15081}, "viewport": {"northeast": {"lat": 51.49436883029149, "lng": -0.149374769708498}, "southwest": {"lat": 51.49167086970849, "lng": -0.152072730291502}}}, "name": "Kube Management Limited", "place_id": "ChIJAQAtbBgFdkgRJzLKWo-GGQo", "types": ["point_of_interest", "establishment"]}, "ChIJA1iEzyIFdkgRbmPFkJm6xwk": {"geometry": {"location": {"lat": 51.49573100176742, "lng": -0.1519073556777265}, "viewport": {"northeast": {"lat": 51.4970799802915, "lng": -0.150558369708498}, "southwest": {"lat": 51.4943820197085, "lng": -0.153256330291502}}}, "name": "Eaton Square", "place_id": "ChIJA1iEzyIFdkgRbmPFkJm6xwk", "types": ["route"]}, "ChIJw6g1KCMFdkgRaMhw-2p9Pnk": {"geometry": {"location": {"lat": 51.495709, "lng": -0.151948}, "viewport": {"northeast": {"lat": 51.4970785302915, "lng": -0.150632069708498}, "southwest": {"lat": 51.4943805697085, "lng": -0.153330030291502}}}, "name": "phillips refrigeration ltd", "place_id": "ChIJw6g1KCMFdkgRaMhw-2p9Pnk", "types": ["general_contractor", "point_of_interest", "establishment"]}, "ChIJ2XKNIyMFdkgRAg9iaR9iQhk": {"geometry": {"location": {"lat": 51.4967338, "lng": -0.1515904}, "viewport": {"northeast": {"lat": 51.4981244302915, "lng": -0.150168719708498}, "southwest": {"lat": 51.4954264697085, "lng": -0.152866680291502}}}, "name": "Belgravia - Belgrave Pl E", "place_id": "ChIJ2XKNIyMFdkgRAg9iaR9iQhk", "types": ["point_of_interest", "establishment"], "rating": 4.5, "user_ratings_total": 4}, "ChIJLxHz1yIFdkgRhZ15BGStiyg": {"geometry": {"location": {"lat": 51.49640669999999, "lng": -0.1519583}, "viewport": {"northeast": {"lat": 51.4977308302915, "lng": -0.150567969708498}, "southwest": {"lat": 51.4950328697085, "lng": -0.153265930291502}}}, "name": "ubitricity Charging Station", "place_id": "ChIJLxHz1yIFdkgRhZ15BGStiyg", "types": ["point_of_interest", "establishment"]}, "ChIJh2j3AoUFdkgReZOYfFqAB0c": {"geometry": {"location": {"lat": 51.49627399999999, "lng": -0.1522521}, "viewport": {"northeast": {"lat": 51.4975851302915, "lng": -0.150842269708498}, "southwest": {"lat": 51.4948871697085, "lng": -0.153540230291502}}}, "name": "Former Home of Clive Brook", "place_id": "ChIJh2j3AoUFdkgReZOYfFqAB0c", "types": ["cemetery", "point_of_interest", "establishment"]}, "ChIJYbW20yIFdkgRcFJEi6Ej9GQ": {"geometry": {"location": {"lat": 51.496067, "lng": -0.1524513}, "viewport": {"northeast": {"lat": 51.4973991802915, "lng": -0.151074169708498}, "southwest": {"lat": 51.4947012197085, "lng": -0.153772130291502}}}, "name": "ubitricity Charging Station", "place_id": "ChIJYbW20yIFdkgRcFJEi6Ej9GQ", "types": ["point_of_interest", "establishment"]}, "ChIJHVhN8e4FdkgRuIfxaU6hqds": {"geometry": {"location": {"lat": 51.49610449999999, "lng": -0.1524794}, "viewport": {"northeast": {"lat": 51.49742258029149, "lng": -0.151080719708498}, "southwest": {"lat": 51.49472461970849, "lng": -0.153778680291502}}}, "name": "Stanley Baldwin Blue Plaque", "place_id": "ChIJHVhN8e4FdkgRuIfxaU6hqds", "types": ["point_of_interest", "establishment"], "rating": 4, "user_ratings_total": 1}, "ChIJba9ml-EFdkgRk0XxzSTZ0Ug": {"geometry": {"location": {"lat": 51.494973, "lng": -0.151934}, "viewport": {"northeast": {"lat": 51.4963606302915, "lng": -0.150646669708498}, "southwest": {"lat": 51.4936626697085, "lng": -0.153344630291502}}}, "name": "Blue Plaque: Prince Metternich", "place_id": "ChIJba9ml-EFdkgRk0XxzSTZ0Ug", "types": ["point_of_interest", "establishment"], "rating": 5, "user_ratings_total": 1}, "ChIJe146tyIFdkgRXruVBpwYd4A": {"geometry": {"location": {"lat": 51.494919, "lng": -0.152013}, "viewport": {"northeast": {"lat": 51.4963079302915, "lng": -0.150727719708498}, "southwest": {"lat": 51.4936099697085, "lng": -0.153425680291502}}}, "name": "LS Interiors", "place_id": "ChIJe146tyIFdkgRXruVBpwYd4A", "types": ["general_contractor", "point_of_interest", "establishment"]}, "ChIJcxdS60MFdkgRNAHQtrG7TeA": {"geometry": {"location": {"lat": 51.4954093, "lng": -0.1513483}, "viewport": {"northeast": {"lat": 51.4967759302915, "lng": -0.150027469708498}, "southwest": {"lat": 51.4940779697085, "lng": -0.152725430291502}}}, "name": "Blue Plaque: Neville Chamberlain", "place_id": "ChIJcxdS60MFdkgRNAHQtrG7TeA", "types": ["point_of_interest", "establishment"], "rating": 3, "user_ratings_total": 1}, "ChIJgeTF_xoFdkgRvG5OSv31knk": {"geometry": {"location": {"lat": 51.4947744, "lng": -0.1520862}, "viewport": {"northeast": {"lat": 51.4961866302915, "lng": -0.150842269708498}, "southwest": {"lat": 51.4934886697085, "lng": -0.153540230291502}}}, "name": "Personal Injury Solicitors London", "place_id": "ChIJgeTF_xoFdkgRvG5OSv31knk", "types": ["lawyer", "point_of_interest", "establishment"]}, "ChIJoRRkoCIFdkgRCA75M3zaJUE": {"geometry": {"location": {"lat": 51.4940109000352, "lng": -0.1514084998846153}, "viewport": {"northeast": {"lat": 51.4953598802915, "lng": -0.150059519708498}, "southwest": {"lat": 51.4926619197085, "lng": -0.152757480291502}}}, "name": "56-50 Elizabeth St", "place_id": "ChIJoRRkoCIFdkgRCA75M3zaJUE", "types": ["route"]}, "ChIJs-KqoSIFdkgRE3lJjP31_WI": {"geometry": {"location": {"lat": 51.49408999999999, "lng": -0.1513242}, "viewport": {"northeast": {"lat": 51.4954064802915, "lng": -0.150028469708498}, "southwest": {"lat": 51.4927085197085, "lng": -0.152726430291502}}}, "name": "Baker & Spice", "place_id": "ChIJs-KqoSIFdkgRE3lJjP31_WI", "types": ["bakery", "food", "point_of_interest", "store", "establishment"], "rating": 4, "user_ratings_total": 371}, "ChIJqRQsCxgFdkgRyUJS55AleG4": {"geometry": {"location": {"lat": 51.49366369999999, "lng": -0.1511595}, "viewport": {"northeast": {"lat": 51.49506053029149, "lng": -0.149734819708498}, "southwest": {"lat": 51.49236256970849, "lng": -0.152432780291502}}}, "name": "Tomtom Cigars & Coffee", "place_id": "ChIJqRQsCxgFdkgRyUJS55AleG4", "types": ["food", "point_of_interest", "store", "establishment"], "rating": 4.3, "user_ratings_total": 52}, "ChIJ-T95ChgFdkgRtoE3ISfdzl4": {"geometry": {"location": {"lat": 51.4938453, "lng": -0.1514024}, "viewport": {"northeast": {"lat": 51.49523393029149, "lng": -0.149988519708498}, "southwest": {"lat": 51.49253596970849, "lng": -0.152686480291502}}}, "name": "Les Senteurs", "place_id": "ChIJ-T95ChgFdkgRtoE3ISfdzl4", "types": ["point_of_interest", "clothing_store", "store", "establishment"], "rating": 4.8, "user_ratings_total": 75}, "ChIJlZwwpyIFdkgR-UZ6Zjy8QhU": {"geometry": {"location": {"lat": 51.4939989, "lng": -0.1516754}, "viewport": {"northeast": {"lat": 51.4953923302915, "lng": -0.150253519708498}, "southwest": {"lat": 51.4926943697085, "lng": -0.152951480291502}}}, "name": "Mungo & Maud", "place_id": "ChIJlZwwpyIFdkgR-UZ6Zjy8QhU", "types": ["home_goods_store", "point_of_interest", "store", "establishment"], "rating": 4, "user_ratings_total": 30}, "ChIJQZtDpiIFdkgRN8ab2S4UPxc": {"geometry": {"location": {"lat": 51.4941361, "lng": -0.1518054}, "viewport": {"northeast": {"lat": 51.4955161302915, "lng": -0.150406569708498}, "southwest": {"lat": 51.4928181697085, "lng": -0.153104530291502}}}, "name": "Best Gapp Belgravia Estate Agents", "place_id": "ChIJQZtDpiIFdkgRN8ab2S4UPxc", "types": ["real_estate_agency", "finance", "point_of_interest", "establishment"], "rating": 5, "user_ratings_total": 8}, "ChIJpZWeoCIFdkgRw3Ry03tGR_c": {"geometry": {"location": {"lat": 51.49387739999999, "lng": -0.1515263}, "viewport": {"northeast": {"lat": 51.49527743029148, "lng": -0.150093669708498}, "southwest": {"lat": 51.49257946970849, "lng": -0.152791630291502}}}, "name": "Moncho Lobo V", "place_id": "ChIJpZWeoCIFdkgRw3Ry03tGR_c", "types": ["point_of_interest", "clothing_store", "store", "establishment"]}, "ChIJZ-PgqCIFdkgRf6ARe3OY8iM": {"geometry": {"location": {"lat": 51.4941079, "lng": -0.1518399}, "viewport": {"northeast": {"lat": 51.49550038029149, "lng": -0.150421119708498}, "southwest": {"lat": 51.49280241970849, "lng": -0.153119080291502}}}, "name": "Jewellery Imaging - Jewellery photography", "place_id": "ChIJZ-PgqCIFdkgRf6ARe3OY8iM", "types": ["point_of_interest", "establishment"]}, "ChIJz_SxI_UOdkgRRL8GvY8UHUY": {"geometry": {"location": {"lat": 51.4938977, "lng": -0.1515196}, "viewport": {"northeast": {"lat": 51.49529168029149, "lng": -0.150096819708498}, "southwest": {"lat": 51.49259371970849, "lng": -0.152794780291502}}}, "name": "Loquet London Ltd", "place_id": "ChIJz_SxI_UOdkgRRL8GvY8UHUY", "types": ["jewelry_store", "point_of_interest", "store", "establishment"], "rating": 4.1, "user_ratings_total": 11}, "ChIJuQQ8oSIFdkgR3FWbSQafxL4": {"geometry": {"location": {"lat": 51.49414789999999, "lng": -0.1514198}, "viewport": {"northeast": {"lat": 51.4954650802915, "lng": -0.150122919708498}, "southwest": {"lat": 51.4927671197085, "lng": -0.152820880291502}}}, "name": "Summerill and Bishop Ltd", "place_id": "ChIJuQQ8oSIFdkgR3FWbSQafxL4", "types": ["home_goods_store", "point_of_interest", "store", "establishment"], "rating": 5, "user_ratings_total": 1}, "ChIJlXVaVD0FdkgRI3v_6MQpqlU": {"geometry": {"location": {"lat": 51.4939614, "lng": -0.1525277}, "viewport": {"northeast": {"lat": 51.49535523029149, "lng": -0.151251019708498}, "southwest": {"lat": 51.4926572697085, "lng": -0.153948980291502}}}, "name": "Belgravia Garage", "place_id": "ChIJlXVaVD0FdkgRI3v_6MQpqlU", "types": ["car_wash", "car_dealer", "car_repair", "point_of_interest", "store", "establishment"], "rating": 4.6, "user_ratings_total": 168}, "ChIJXVKOChgFdkgRVXouBEsnliA": {"geometry": {"location": {"lat": 51.4938563, "lng": -0.1513718}, "viewport": {"northeast": {"lat": 51.49523748029149, "lng": -0.149970119708498}, "southwest": {"lat": 51.4925395197085, "lng": -0.152668080291502}}}, "name": "Philip Treacy London: Hat Shop", "place_id": "ChIJXVKOChgFdkgRVXouBEsnliA", "types": ["point_of_interest", "clothing_store", "store", "establishment"], "rating": 4.6, "user_ratings_total": 10}, "ChIJvTCfdRgFdkgRygQNg0L8Ibo": {"geometry": {"location": {"lat": 51.493863, "lng": -0.150896}, "viewport": {"northeast": {"lat": 51.4951682302915, "lng": -0.149616219708498}, "southwest": {"lat": 51.49247026970851, "lng": -0.152314180291502}}}, "name": "George Pope Leasehold Enfranchisement", "place_id": "ChIJvTCfdRgFdkgRygQNg0L8Ibo", "types": ["point_of_interest", "establishment"], "rating": 5, "user_ratings_total": 1}, "ChIJrz1fBhgFdkgRA_BFNKIpDC4": {"geometry": {"location": {"lat": 51.49362, "lng": -0.1521795}, "viewport": {"northeast": {"lat": 51.4949959802915, "lng": -0.150877469708498}, "southwest": {"lat": 51.49229801970851, "lng": -0.153575430291502}}}, "name": "Lily's Lovely Bites", "place_id": "ChIJrz1fBhgFdkgRA_BFNKIpDC4", "types": ["restaurant", "food", "point_of_interest", "establishment"], "rating": 4.5, "user_ratings_total": 2}, "ChIJ67i6nyIFdkgRPUyHYEwp3V8": {"geometry": {"location": {"lat": 51.4935602, "lng": -0.1513225}, "viewport": {"northeast": {"lat": 51.4949160802915, "lng": -0.149982569708498}, "southwest": {"lat": 51.4922181197085, "lng": -0.152680530291502}}}, "name": "Luria Media", "place_id": "ChIJ67i6nyIFdkgRPUyHYEwp3V8", "types": ["point_of_interest", "establishment"]}, "ChIJ5Re1oSIFdkgRFfpjV5BvwPY": {"geometry": {"location": {"lat": 51.4939775, "lng": -0.1511573}, "viewport": {"northeast": {"lat": 51.4952955802915, "lng": -0.149858969708498}, "southwest": {"lat": 51.4925976197085, "lng": -0.152556930291502}}}, "name": "Jeroboams", "place_id": "ChIJ5Re1oSIFdkgRFfpjV5BvwPY", "types": ["liquor_store", "food", "point_of_interest", "store", "establishment"], "rating": 4.6, "user_ratings_total": 18}, "ChIJi2kgdRgFdkgR5PvGbWdhtaI": {"geometry": {"location": {"lat": 51.4936407, "lng": -0.1510915}, "viewport": {"northeast": {"lat": 51.4950327802915, "lng": -0.149674319708498}, "southwest": {"lat": 51.4923348197085, "lng": -0.152372280291502}}}, "name": "Olivocarne", "place_id": "ChIJi2kgdRgFdkgR5PvGbWdhtaI", "types": ["restaurant", "food", "point_of_interest", "establishment"], "rating": 4.5, "user_ratings_total": 123}, "ChIJ0yAbpiIFdkgRu8siXlhAdMk": {"geometry": {"location": {"lat": 51.4941346, "lng": -0.1518889}, "viewport": {"northeast": {"lat": 51.4955280302915, "lng": -0.150468619708498}, "southwest": {"lat": 51.4928300697085, "lng": -0.153166580291502}}}, "name": "Elizabeth Street Dentist", "place_id": "ChIJ0yAbpiIFdkgRu8siXlhAdMk", "types": ["dentist", "health", "point_of_interest", "establishment"], "rating": 4.9, "user_ratings_total": 68}, "ChIJ902kABgFdkgRMQWViMdYHVw": {"geometry": {"location": {"lat": 51.4938948, "lng": -0.1521396}, "viewport": {"northeast": {"lat": 51.4952137302915, "lng": -0.150738319708498}, "southwest": {"lat": 51.4925157697085, "lng": -0.153436280291502}}}, "name": "Print Quarterly Publications", "place_id": "ChIJ902kABgFdkgRMQWViMdYHVw", "types": ["point_of_interest", "establishment"], "rating": 5, "user_ratings_total": 1}, "ChIJTwzk8iIFdkgRjY2jZbrAKB4": {"geometry": {"location": {"lat": 51.4942771, "lng": -0.1509751}, "viewport": {"northeast": {"lat": 51.4956704302915, "lng": -0.149560569708498}, "southwest": {"lat": 51.4929724697085, "lng": -0.152258530291502}}}, "name": "St Michael's Church", "place_id": "ChIJTwzk8iIFdkgRjY2jZbrAKB4", "types": ["church", "place_of_worship", "point_of_interest", "establishment"], "rating": 4.7, "user_ratings_total": 19}, "ChIJFW-6pyIFdkgRoQF4sii9mLA": {"geometry": {"location": {"lat": 51.4939857, "lng": -0.1517508}, "viewport": {"northeast": {"lat": 51.4953491802915, "lng": -0.150404319708498}, "southwest": {"lat": 51.4926512197085, "lng": -0.153102280291502}}}, "name": "ubitricity Charging Station", "place_id": "ChIJFW-6pyIFdkgRoQF4sii9mLA", "types": ["point_of_interest", "establishment"]}, "ChIJ_cYffx4FdkgRP8H_7gBrf7U": {"geometry": {"location": {"lat": 51.49395939999999, "lng": -0.1516186}, "viewport": {"northeast": {"lat": 51.49535368029149, "lng": -0.1501953697084979}, "southwest": {"lat": 51.49265571970849, "lng": -0.152893330291502}}}, "name": "Beulah London", "place_id": "ChIJ_cYffx4FdkgRP8H_7gBrf7U", "types": ["point_of_interest", "establishment"], "rating": 4.8, "user_ratings_total": 24}, "ChIJVcJOH54FdkgRrTtbQDIIb1g": {"geometry": {"location": {"lat": 51.4939184, "lng": -0.1515725}, "viewport": {"northeast": {"lat": 51.4953155802915, "lng": -0.150144569708498}, "southwest": {"lat": 51.4926176197085, "lng": -0.152842530291502}}}, "name": "Rixo Bridal", "place_id": "ChIJVcJOH54FdkgRrTtbQDIIb1g", "types": ["clothing_store", "point_of_interest", "store", "establishment"]}, "ChIJ_f9iqCIFdkgRql6Q0k27syU": {"geometry": {"location": {"lat": 51.4940411, "lng": -0.1519405}, "viewport": {"northeast": {"lat": 51.4953574802915, "lng": -0.150534369708498}, "southwest": {"lat": 51.4926595197085, "lng": -0.153232330291502}}}, "name": "Carradale Futures LLP", "place_id": "ChIJ_f9iqCIFdkgRql6Q0k27syU", "types": ["health", "point_of_interest", "establishment"]}, "ChIJ__9iqCIFdkgRpAExpKzDmws": {"geometry": {"location": {"lat": 51.4940411, "lng": -0.1519406}, "viewport": {"northeast": {"lat": 51.4953574802915, "lng": -0.150534419708498}, "southwest": {"lat": 51.4926595197085, "lng": -0.153232380291502}}}, "name": "Green Biofuels Limited", "place_id": "ChIJ__9iqCIFdkgRpAExpKzDmws", "types": ["point_of_interest", "establishment"]}, "ChIJBzNzgAQFdkgRlg9LPYHbCjM": {"geometry": {"location": {"lat": 51.4940411, "lng": -0.1519406}, "viewport": {"northeast": {"lat": 51.4953574802915, "lng": -0.150534419708498}, "southwest": {"lat": 51.4926595197085, "lng": -0.153232380291502}}}, "name": "Andrew Kitching", "place_id": "ChIJBzNzgAQFdkgRlg9LPYHbCjM", "types": ["health", "point_of_interest", "establishment"]}, "ChIJ__9iqCIFdkgR-B_U97Vvh8o": {"geometry": {"location": {"lat": 51.4940411, "lng": -0.1519406}, "viewport": {"northeast": {"lat": 51.4953574802915, "lng": -0.150534419708498}, "southwest": {"lat": 51.4926595197085, "lng": -0.153232380291502}}}, "name": "Avizor Uk Limited", "place_id": "ChIJ__9iqCIFdkgR-B_U97Vvh8o", "types": ["point_of_interest", "establishment"]}, "ChIJDxTaH7gFdkgRxAd_udDsF5o": {"geometry": {"location": {"lat": 51.4940411, "lng": -0.1519406}, "viewport": {"northeast": {"lat": 51.4953574802915, "lng": -0.150534419708498}, "southwest": {"lat": 51.4926595197085, "lng": -0.153232380291502}}}, "name": "Hierons LLP", "place_id": "ChIJDxTaH7gFdkgRxAd_udDsF5o", "types": ["point_of_interest", "establishment"]}, "ChIJJYcJnkIFdkgRz8yar3W9aCI": {"geometry": {"location": {"lat": 51.49416249999999, "lng": -0.1518696}, "viewport": {"northeast": {"lat": 51.4955459302915, "lng": -0.150465369708498}, "southwest": {"lat": 51.49284796970851, "lng": -0.153163330291502}}}, "name": "Sofa Hoist Hire Knightsbridge and Belgravia", "place_id": "ChIJJYcJnkIFdkgRz8yar3W9aCI", "types": ["point_of_interest", "establishment"]}, "ChIJpTUCpiIFdkgRvvhTAN0xYjw": {"geometry": {"location": {"lat": 51.4941059, "lng": -0.151954}, "viewport": {"northeast": {"lat": 51.4955166302915, "lng": -0.150505969708498}, "southwest": {"lat": 51.4928186697085, "lng": -0.1532039302915021}}}, "name": "Omell Stefan", "place_id": "ChIJpTUCpiIFdkgRvvhTAN0xYjw", "types": ["dentist", "health", "point_of_interest", "establishment"]}, "ChIJz0nLaDMFdkgRZq1S2agKots": {"geometry": {"location": {"lat": 51.4940714, "lng": -0.1512725}, "viewport": {"northeast": {"lat": 51.4953843802915, "lng": -0.149982469708498}, "southwest": {"lat": 51.49268641970851, "lng": -0.152680430291502}}}, "name": "Pulsely.io", "place_id": "ChIJz0nLaDMFdkgRZq1S2agKots", "types": ["point_of_interest", "establishment"]}, "ChIJSQ4PJzEFdkgRM6hdeXZXYKc": {"geometry": {"location": {"lat": 51.4940714, "lng": -0.1512725}, "viewport": {"northeast": {"lat": 51.4953843802915, "lng": -0.149982469708498}, "southwest": {"lat": 51.49268641970851, "lng": -0.152680430291502}}}, "name": "Atomic Hire", "place_id": "ChIJSQ4PJzEFdkgRM6hdeXZXYKc", "types": ["point_of_interest", "establishment"], "rating": 5, "user_ratings_total": 2}, "ChIJ6wKxcjkFdkgRcylUBvtEh5w": {"geometry": {"location": {"lat": 51.49408990000001, "lng": -0.1512626}, "viewport": {"northeast": {"lat": 51.4953968302915, "lng": -0.149982519708498}, "southwest": {"lat": 51.49269886970851, "lng": -0.152680480291502}}}, "name": "ISMAIL HOTELS", "place_id": "ChIJ6wKxcjkFdkgRcylUBvtEh5w", "types": ["lodging", "point_of_interest", "establishment"]}, "ChIJ71mpJ48FdkgREE4wFK0FxEs": {"geometry": {"location": {"lat": 51.4939139, "lng": -0.1520824}, "viewport": {"northeast": {"lat": 51.49523728029149, "lng": -0.150688919708498}, "southwest": {"lat": 51.4925393197085, "lng": -0.153386880291502}}}, "name": "Procurious", "place_id": "ChIJ71mpJ48FdkgREE4wFK0FxEs", "types": ["point_of_interest", "establishment"]}, "ChIJ2bcgryIFdkgRzk8O_iw2yQs": {"geometry": {"location": {"lat": 51.4942791, "lng": -0.1520625}, "viewport": {"northeast": {"lat": 51.4956633802915, "lng": -0.150656919708498}, "southwest": {"lat": 51.4929654197085, "lng": -0.153354880291502}}}, "name": "The Ebury Partnership Llp", "place_id": "ChIJ2bcgryIFdkgRzk8O_iw2yQs", "types": ["point_of_interest", "establishment"]}, "ChIJA0Vn-HUFdkgRo2M1BKwofdo": {"geometry": {"location": {"lat": 51.4936824, "lng": -0.1517393}, "viewport": {"northeast": {"lat": 51.49495648029149, "lng": -0.150253169708498}, "southwest": {"lat": 51.49225851970849, "lng": -0.152951130291502}}}, "name": "The Fragrance Shop", "place_id": "ChIJA0Vn-HUFdkgRo2M1BKwofdo", "types": ["point_of_interest", "clothing_store", "store", "establishment"], "rating": 5, "user_ratings_total": 1}, "ChIJxwrBCRgFdkgRM45n2eCzhvU": {"geometry": {"location": {"lat": 51.493744, "lng": -0.151308}, "viewport": {"northeast": {"lat": 51.4951428302915, "lng": -0.149877569708498}, "southwest": {"lat": 51.4924448697085, "lng": -0.152575530291502}}}, "name": "Walden chymist", "place_id": "ChIJxwrBCRgFdkgRM45n2eCzhvU", "types": ["pharmacy", "drugstore", "health", "point_of_interest", "store", "establishment"], "rating": 3.5, "user_ratings_total": 11}, "ChIJ-e_hk7oFdkgRN8ksKG5AAd0": {"geometry": {"location": {"lat": 51.4938051, "lng": -0.1522542}, "viewport": {"northeast": {"lat": 51.4951268802915, "lng": -0.150857919708498}, "southwest": {"lat": 51.4924289197085, "lng": -0.153555880291502}}}, "name": "CJC Computer Repairs", "place_id": "ChIJ-e_hk7oFdkgRN8ksKG5AAd0", "types": ["point_of_interest", "establishment"]}, "ChIJAyGWdRgFdkgR1d3yunDJ_SU": {"geometry": {"location": {"lat": 51.49385419999999, "lng": -0.1509101}, "viewport": {"northeast": {"lat": 51.49516388029149, "lng": -0.149623269708498}, "southwest": {"lat": 51.49246591970849, "lng": -0.152321230291502}}}, "name": "John D Wood & Co. Sales and Letting Agents Belgravia", "place_id": "ChIJAyGWdRgFdkgR1d3yunDJ_SU", "types": ["finance", "real_estate_agency", "point_of_interest", "establishment"], "rating": 4.7, "user_ratings_total": 64}, "ChIJ3biEmCIFdkgRfIxpiHefEDc": {"geometry": {"location": {"lat": 51.4943433, "lng": -0.1511218000000001}, "viewport": {"northeast": {"lat": 51.4957184802915, "lng": -0.149819269708498}, "southwest": {"lat": 51.4930205197085, "lng": -0.152517230291502}}}, "name": "Monkey Music Belgravia", "place_id": "ChIJ3biEmCIFdkgRfIxpiHefEDc", "types": ["point_of_interest", "establishment"]}, "ChIJHUojliwFdkgR6hVU7tUA4AA": {"geometry": {"location": {"lat": 51.49379419999999, "lng": -0.1523756}, "viewport": {"northeast": {"lat": 51.49509963029149, "lng": -0.150950919708498}, "southwest": {"lat": 51.4924016697085, "lng": -0.153648880291502}}}, "name": "BELGRAVIA HEATING", "place_id": "ChIJHUojliwFdkgR6hVU7tUA4AA", "types": ["plumber", "point_of_interest", "establishment"]}, "ChIJAQCPdRgFdkgRe6aadOLJigk": {"geometry": {"location": {"lat": 51.49385419999999, "lng": -0.15091}, "viewport": {"northeast": {"lat": 51.4951641302915, "lng": -0.149623669708498}, "southwest": {"lat": 51.4924661697085, "lng": -0.152321630291502}}}, "name": "London Country Association Sales", "place_id": "ChIJAQCPdRgFdkgRe6aadOLJigk", "types": ["real_estate_agency", "point_of_interest", "establishment"]}, "ChIJ-86RdRgFdkgRr7flXjfN63Q": {"geometry": {"location": {"lat": 51.4938441, "lng": -0.1509041}, "viewport": {"northeast": {"lat": 51.4951554302915, "lng": -0.149614719708498}, "southwest": {"lat": 51.4924574697085, "lng": -0.152312680291502}}}, "name": "Lettings Agents in Belgravia", "place_id": "ChIJ-86RdRgFdkgRr7flXjfN63Q", "types": ["point_of_interest", "establishment"]}, "ChIJ_c1_w78FdkgRdhLLCZk6HTs": {"geometry": {"location": {"lat": 51.4935456, "lng": -0.1513253}, "viewport": {"northeast": {"lat": 51.49490948029149, "lng": -0.149995769708498}, "southwest": {"lat": 51.49221151970849, "lng": -0.152693730291502}}}, "name": "Old Gerald Road Police Station, now private residence, Mayfair", "place_id": "ChIJ_c1_w78FdkgRdhLLCZk6HTs", "types": ["point_of_interest", "establishment"]}, "ChIJe4xA_M0FdkgRiCTL4KLwClY": {"geometry": {"location": {"lat": 51.49368729999999, "lng": -0.151043}, "viewport": {"northeast": {"lat": 51.49503628029149, "lng": -0.149694019708498}, "southwest": {"lat": 51.49233831970849, "lng": -0.152391980291502}}}, "name": "Mobile Tyre Fitting Sloane Square", "place_id": "ChIJe4xA_M0FdkgRiCTL4KLwClY", "types": ["car_repair", "point_of_interest", "store", "establishment"]}, "ChIJ1fYbDxgFdkgRkroQV2qVtL0": {"geometry": {"location": {"lat": 51.49344709999999, "lng": -0.1517703}, "viewport": {"northeast": {"lat": 51.4947659802915, "lng": -0.150369069708498}, "southwest": {"lat": 51.4920680197085, "lng": -0.153067030291502}}}, "name": "Viva Voce Conference Consultants", "place_id": "ChIJ1fYbDxgFdkgRkroQV2qVtL0", "types": ["point_of_interest", "establishment"]}, "ChIJ1fYbDxgFdkgRjFf50LLHuKk": {"geometry": {"location": {"lat": 51.4934665, "lng": -0.1517997}, "viewport": {"northeast": {"lat": 51.4947763302915, "lng": -0.150382769708498}, "southwest": {"lat": 51.4920783697085, "lng": -0.153080730291502}}}, "name": "We Speak Italiano", "place_id": "ChIJ1fYbDxgFdkgRjFf50LLHuKk", "types": ["point_of_interest", "establishment"]}, "ChIJ0b6CHUsFdkgRIHoYSwiuUis": {"geometry": {"location": {"lat": 51.49320669999999, "lng": -0.1517517}, "viewport": {"northeast": {"lat": 51.4945838802915, "lng": -0.150453119708498}, "southwest": {"lat": 51.4918859197085, "lng": -0.153151080291502}}}, "name": "Odin's Vault", "place_id": "ChIJ0b6CHUsFdkgRIHoYSwiuUis", "types": ["point_of_interest", "store", "establishment"], "rating": 5, "user_ratings_total": 2}, "ChIJ2z0MbBgFdkgR83uiYYhlTIY": {"geometry": {"location": {"lat": 51.49292939999999, "lng": -0.1508479}, "viewport": {"northeast": {"lat": 51.49425633029149, "lng": -0.149448069708498}, "southwest": {"lat": 51.4915583697085, "lng": -0.152146030291502}}}, "name": "Studio MPI", "place_id": "ChIJ2z0MbBgFdkgR83uiYYhlTIY", "types": ["point_of_interest", "establishment"]}, "ChIJocr8ID0FdkgRvsqizpb_HKQ": {"geometry": {"location": {"lat": 51.49636132326622, "lng": -0.1538722707786878}, "viewport": {"northeast": {"lat": 51.4977107302915, "lng": -0.152523969708498}, "southwest": {"lat": 51.4950127697085, "lng": -0.155221930291502}}}, "name": "69-45 Eaton Pl", "place_id": "ChIJocr8ID0FdkgRvsqizpb_HKQ", "types": ["route"]}, "ChIJ9T0nZusNdkgRROz9ekbzZTc": {"geometry": {"location": {"lat": 51.49639620000001, "lng": -0.1536258}, "viewport": {"northeast": {"lat": 51.4977748302915, "lng": -0.152324619708498}, "southwest": {"lat": 51.49507686970851, "lng": -0.155022580291502}}}, "name": "Rise and Shine Window Cleaners Ltd", "place_id": "ChIJ9T0nZusNdkgRROz9ekbzZTc", "types": ["point_of_interest", "establishment"], "rating": 4.9, "user_ratings_total": 12}, "ChIJgWyWKT0FdkgRAgnvriYoteQ": {"geometry": {"location": {"lat": 51.4964066, "lng": -0.153084}, "viewport": {"northeast": {"lat": 51.49772533029149, "lng": -0.151685119708498}, "southwest": {"lat": 51.4950273697085, "lng": -0.154383080291502}}}, "name": "Conference Interpreters", "place_id": "ChIJgWyWKT0FdkgRAgnvriYoteQ", "types": ["point_of_interest", "establishment"], "rating": 4.5, "user_ratings_total": 2}, "ChIJE-s8Lj0FdkgRR6BeDqDNfac": {"geometry": {"location": {"lat": 51.49607630000001, "lng": -0.1527862}, "viewport": {"northeast": {"lat": 51.4973536802915, "lng": -0.151322119708498}, "southwest": {"lat": 51.49465571970851, "lng": -0.154020080291502}}}, "name": "Easy Removals", "place_id": "ChIJE-s8Lj0FdkgRR6BeDqDNfac", "types": ["moving_company", "storage", "point_of_interest", "store", "establishment"], "rating": 5, "user_ratings_total": 9}, "ChIJB_1p73kFdkgRhjuA0d885sk": {"geometry": {"location": {"lat": 51.49626410000001, "lng": -0.1537406}, "viewport": {"northeast": {"lat": 51.4976577802915, "lng": -0.152463669708498}, "southwest": {"lat": 51.4949598197085, "lng": -0.155161630291502}}}, "name": "A-Plant Logistics", "place_id": "ChIJB_1p73kFdkgRhjuA0d885sk", "types": ["point_of_interest", "establishment"]}, "ChIJ57ZakRcFdkgRlH93uUAUjCA": {"geometry": {"location": {"lat": 51.49641, "lng": -0.1534349}, "viewport": {"northeast": {"lat": 51.4978149302915, "lng": -0.152176069708498}, "southwest": {"lat": 51.4951169697085, "lng": -0.154874030291502}}}, "name": "Handyman Belgravia", "place_id": "ChIJ57ZakRcFdkgRlH93uUAUjCA", "types": ["general_contractor", "point_of_interest", "establishment"]}, "ChIJXzrdvwAFdkgR0l6bUh6dZDs": {"geometry": {"location": {"lat": 51.4962186, "lng": -0.1538321}, "viewport": {"northeast": {"lat": 51.49760938029149, "lng": -0.152550519708498}, "southwest": {"lat": 51.49491141970849, "lng": -0.155248480291502}}}, "name": "Rappers Delight", "place_id": "ChIJXzrdvwAFdkgR0l6bUh6dZDs", "types": ["point_of_interest", "establishment"]}, "ChIJo1wBrz0FdkgRry4NRV3TbGI": {"geometry": {"location": {"lat": 51.496445, "lng": -0.1535393}, "viewport": {"northeast": {"lat": 51.49782493029149, "lng": -0.152240219708498}, "southwest": {"lat": 51.49512696970849, "lng": -0.154938180291502}}}, "name": "Primary Access & Research", "place_id": "ChIJo1wBrz0FdkgRry4NRV3TbGI", "types": ["point_of_interest", "establishment"]}, "ChIJAQAEKD0FdkgRnXmPQTVG8Xs": {"geometry": {"location": {"lat": 51.4964922, "lng": -0.1533435}, "viewport": {"northeast": {"lat": 51.4978908802915, "lng": -0.152074569708498}, "southwest": {"lat": 51.4951929197085, "lng": -0.154772530291502}}}, "name": "Fairy Water Trust", "place_id": "ChIJAQAEKD0FdkgRnXmPQTVG8Xs", "types": ["point_of_interest", "establishment"]}, "ChIJvaaIID0FdkgRLMkxPrDOuK0": {"geometry": {"location": {"lat": 51.4964699, "lng": -0.1538986}, "viewport": {"northeast": {"lat": 51.49778773029151, "lng": -0.152499419708498}, "southwest": {"lat": 51.49508976970851, "lng": -0.155197380291502}}}, "name": "ARTPOINT FOUNDATION", "place_id": "ChIJvaaIID0FdkgRLMkxPrDOuK0", "types": ["point_of_interest", "establishment"]}, "ChIJzSNZjaAFdkgRMTjL1xppXZY": {"geometry": {"location": {"lat": 51.4964199, "lng": -0.1539773}, "viewport": {"northeast": {"lat": 51.4977379302915, "lng": -0.152578469708498}, "southwest": {"lat": 51.4950399697085, "lng": -0.155276430291502}}}, "name": "EditionLdn", "place_id": "ChIJzSNZjaAFdkgRMTjL1xppXZY", "types": ["point_of_interest", "establishment"], "rating": 5, "user_ratings_total": 6}, "ChIJYx-12DwFdkgR564-R5HPgKs": {"geometry": {"location": {"lat": 51.49658489999999, "lng": -0.1537287}, "viewport": {"northeast": {"lat": 51.4979005302915, "lng": -0.152325969708498}, "southwest": {"lat": 51.4952025697085, "lng": -0.155023930291502}}}, "name": "Zara Litchford's House", "place_id": "ChIJYx-12DwFdkgR564-R5HPgKs", "types": ["point_of_interest", "establishment"], "rating": 4.5, "user_ratings_total": 2}, "ChIJp-q-KTgFdkgRtfvAIl6UNAE": {"geometry": {"location": {"lat": 51.496601, "lng": -0.1531884}, "viewport": {"northeast": {"lat": 51.4979967302915, "lng": -0.151914369708498}, "southwest": {"lat": 51.4952987697085, "lng": -0.154612330291502}}}, "name": "BBC Shop", "place_id": "ChIJp-q-KTgFdkgRtfvAIl6UNAE", "types": ["electronics_store", "home_goods_store", "point_of_interest", "store", "establishment"]}, "ChIJ6za7Vt8FdkgR2aqKv2NShic": {"geometry": {"location": {"lat": 51.49656929999999, "lng": -0.1538297}, "viewport": {"northeast": {"lat": 51.49787308029151, "lng": -0.152407869708498}, "southwest": {"lat": 51.49517511970851, "lng": -0.155105830291502}}}, "name": "ERYS Beauty Tan", "place_id": "ChIJ6za7Vt8FdkgR2aqKv2NShic", "types": ["point_of_interest", "establishment"]}, "ChIJadNyT9MFdkgRGvbghHCK71Y": {"geometry": {"location": {"lat": 51.4957137, "lng": -0.1530949}, "viewport": {"northeast": {"lat": 51.4970336302915, "lng": -0.151699219708498}, "southwest": {"lat": 51.4943356697085, "lng": -0.154397180291502}}}, "name": "Edward Wood Blue Plaque", "place_id": "ChIJadNyT9MFdkgRGvbghHCK71Y", "types": ["point_of_interest", "establishment"]}, "ChIJpyTbSD0FdkgROexmSWQ8Xss": {"geometry": {"location": {"lat": 51.49493405011963, "lng": -0.153187050379231}, "viewport": {"northeast": {"lat": 51.49628303029149, "lng": -0.151838069708498}, "southwest": {"lat": 51.49358506970849, "lng": -0.154536030291502}}}, "name": "Eaton Square", "place_id": "ChIJpyTbSD0FdkgROexmSWQ8Xss", "types": ["route"]}, "ChIJLbDyRz0FdkgR7NTovPUlKig": {"geometry": {"location": {"lat": 51.4951605, "lng": -0.1534488}, "viewport": {"northeast": {"lat": 51.49654673029149, "lng": -0.1520386697084979}, "southwest": {"lat": 51.4938487697085, "lng": -0.154736630291502}}}, "name": "Zipcar", "place_id": "ChIJLbDyRz0FdkgR7NTovPUlKig", "types": ["car_rental", "point_of_interest", "establishment"]}, "ChIJm1zpuVsFdkgRwLTryrxeh_k": {"geometry": {"location": {"lat": 51.495228, "lng": -0.153856}, "viewport": {"northeast": {"lat": 51.4965474802915, "lng": -0.152459069708498}, "southwest": {"lat": 51.4938495197085, "lng": -0.155157030291502}}}, "name": "George Peabody Blue Plaque", "place_id": "ChIJm1zpuVsFdkgRwLTryrxeh_k", "types": ["point_of_interest", "establishment"], "rating": 4, "user_ratings_total": 1}, "ChIJpfxkPz0FdkgRcfNUkh8OMqU": {"geometry": {"location": {"lat": 51.495228, "lng": -0.153856}, "viewport": {"northeast": {"lat": 51.4965474802915, "lng": -0.152459069708498}, "southwest": {"lat": 51.4938495197085, "lng": -0.155157030291502}}}, "name": "Bluebank Technologies Limited", "place_id": "ChIJpfxkPz0FdkgRcfNUkh8OMqU", "types": ["point_of_interest", "establishment"]}, "ChIJE5B6Tz0FdkgRsRnS1pkxlXM": {"geometry": {"location": {"lat": 51.49475409999999, "lng": -0.1532723}, "viewport": {"northeast": {"lat": 51.4961261302915, "lng": -0.151989569708498}, "southwest": {"lat": 51.4934281697085, "lng": -0.154687530291502}}}, "name": "Eaton Square (Stop F)", "place_id": "ChIJE5B6Tz0FdkgRsRnS1pkxlXM", "types": ["bus_station", "transit_station", "point_of_interest", "establishment"], "rating": 3, "user_ratings_total": 1}, "ChIJvf_fPj0FdkgR4P-iRUigBXU": {"geometry": {"location": {"lat": 51.495363, "lng": -0.1538191}, "viewport": {"northeast": {"lat": 51.4966547802915, "lng": -0.152377319708498}, "southwest": {"lat": 51.4939568197085, "lng": -0.155075280291502}}}, "name": "Chinese Estates Ltd", "place_id": "ChIJvf_fPj0FdkgR4P-iRUigBXU", "types": ["point_of_interest", "establishment"]}, "ChIJI1EeTD0FdkgR4_rtHnlSDlw": {"geometry": {"location": {"lat": 51.494801, "lng": -0.15298}, "viewport": {"northeast": {"lat": 51.4961499802915, "lng": -0.151631019708498}, "southwest": {"lat": 51.4934520197085, "lng": -0.154328980291502}}}, "name": "Eaton Square", "place_id": "ChIJI1EeTD0FdkgR4_rtHnlSDlw", "types": ["transit_station", "point_of_interest", "establishment"]}, "ChIJDz-lXD0FdkgRKE5wcsraGIQ": {"geometry": {"location": {"lat": 51.49459659999999, "lng": -0.1536367}, "viewport": {"northeast": {"lat": 51.4959606302915, "lng": -0.152312319708498}, "southwest": {"lat": 51.4932626697085, "lng": -0.155010280291502}}}, "name": "Chargemaster Charging Station", "place_id": "ChIJDz-lXD0FdkgRKE5wcsraGIQ", "types": ["point_of_interest", "establishment"]}, "ChIJ4fwVXT0FdkgRZ8k6Hbb6jNQ": {"geometry": {"location": {"lat": 51.49446390012827, "lng": -0.153950600406584}, "viewport": {"northeast": {"lat": 51.4958128802915, "lng": -0.152601619708498}, "southwest": {"lat": 51.4931149197085, "lng": -0.155299580291502}}}, "name": "Eaton Square", "place_id": "ChIJ4fwVXT0FdkgRZ8k6Hbb6jNQ", "types": ["route"]}, "ChIJwXVaVD0FdkgRfNeXMJGaojA": {"geometry": {"location": {"lat": 51.4940916, "lng": -0.1528319}, "viewport": {"northeast": {"lat": 51.49540563029149, "lng": -0.151426569708498}, "southwest": {"lat": 51.49270766970849, "lng": -0.154124530291502}}}, "name": "Londres Developments", "place_id": "ChIJwXVaVD0FdkgRfNeXMJGaojA", "types": ["point_of_interest", "establishment"]}, "ChIJY4y__RcFdkgRI-x_kY_idlo": {"geometry": {"location": {"lat": 51.49403990000001, "lng": -0.1527954}, "viewport": {"northeast": {"lat": 51.49537833029149, "lng": -0.151429469708498}, "southwest": {"lat": 51.4926803697085, "lng": -0.1541274302915021}}}, "name": "Kaa-Ching", "place_id": "ChIJY4y__RcFdkgRI-x_kY_idlo", "types": ["point_of_interest", "establishment"]}, "ChIJ1cYUVT0FdkgRF0hSZf4-lvo": {"geometry": {"location": {"lat": 51.4939653, "lng": -0.1527154}, "viewport": {"northeast": {"lat": 51.4953213302915, "lng": -0.151377769708498}, "southwest": {"lat": 51.4926233697085, "lng": -0.154075730291502}}}, "name": "Deliveris AUDIMAS", "place_id": "ChIJ1cYUVT0FdkgRF0hSZf4-lvo", "types": ["point_of_interest", "establishment"]}, "ChIJb4whVT0FdkgRcLBhiZnfdRc": {"geometry": {"location": {"lat": 51.4940313, "lng": -0.1527032}, "viewport": {"northeast": {"lat": 51.49540258029149, "lng": -0.151390269708498}, "southwest": {"lat": 51.49270461970849, "lng": -0.154088230291502}}}, "name": "Eaton Square Therapy Ltd", "place_id": "ChIJb4whVT0FdkgRcLBhiZnfdRc", "types": ["health", "point_of_interest", "establishment"]}, "ChIJ41FrtGEFdkgRHi3YmZAw4Ls": {"geometry": {"location": {"lat": 51.4941469, "lng": -0.1541689}, "viewport": {"northeast": {"lat": 51.4955531302915, "lng": -0.152723919708498}, "southwest": {"lat": 51.49285516970851, "lng": -0.155421880291502}}}, "name": "KM GROUP", "place_id": "ChIJ41FrtGEFdkgRHi3YmZAw4Ls", "types": ["finance", "health", "point_of_interest", "establishment"]}, "ChIJx_KaMHEFdkgRYVK50rpurNc": {"geometry": {"location": {"lat": 51.4936651, "lng": -0.1528788}, "viewport": {"northeast": {"lat": 51.49498743029149, "lng": -0.151573669708498}, "southwest": {"lat": 51.4922894697085, "lng": -0.154271630291502}}}, "name": "Viscount Cecil of Chelwood Blue Plaque", "place_id": "ChIJx_KaMHEFdkgRYVK50rpurNc", "types": ["point_of_interest", "establishment"], "rating": 4, "user_ratings_total": 1}, "ChIJSbduZCsFdkgRXcwh1WZxz9U": {"geometry": {"location": {"lat": 51.4936651, "lng": -0.1528788}, "viewport": {"northeast": {"lat": 51.49498743029149, "lng": -0.151573669708498}, "southwest": {"lat": 51.4922894697085, "lng": -0.154271630291502}}}, "name": "Phillip Noel-Baker Blue Plaque", "place_id": "ChIJSbduZCsFdkgRXcwh1WZxz9U", "types": ["point_of_interest", "establishment"], "rating": 5, "user_ratings_total": 1}, "ChIJAZy36BcFdkgRrtxj3fAQLKI": {"geometry": {"location": {"lat": 51.49307414714456, "lng": -0.1536100039935411}, "viewport": {"northeast": {"lat": 51.49442313029149, "lng": -0.152261019708498}, "southwest": {"lat": 51.4917251697085, "lng": -0.154958980291502}}}, "name": "52-48 Eaton Terrace", "place_id": "ChIJAZy36BcFdkgRrtxj3fAQLKI", "types": ["route"]}, "ChIJq53L7xcFdkgR-9mmMm--ymw": {"geometry": {"location": {"lat": 51.4930857, "lng": -0.1533346}, "viewport": {"northeast": {"lat": 51.4943882802915, "lng": -0.152046119708498}, "southwest": {"lat": 51.4916903197085, "lng": -0.154744080291502}}}, "name": "Duke of Wellington", "place_id": "ChIJq53L7xcFdkgR-9mmMm--ymw", "types": ["bar", "restaurant", "food", "point_of_interest", "establishment"], "rating": 4.2, "user_ratings_total": 332}, "ChIJh6O-7xcFdkgRvb-T3RQrAlk": {"geometry": {"location": {"lat": 51.4931296, "lng": -0.1534608}, "viewport": {"northeast": {"lat": 51.4944399302915, "lng": -0.152166419708498}, "southwest": {"lat": 51.4917419697085, "lng": -0.154864380291502}}}, "name": "Albion Parties", "place_id": "ChIJh6O-7xcFdkgRvb-T3RQrAlk", "types": ["point_of_interest", "establishment"]}, "ChIJGcDr5RcFdkgR5Mqnkyb7aiI": {"geometry": {"location": {"lat": 51.493377, "lng": -0.153893}, "viewport": {"northeast": {"lat": 51.49468978029149, "lng": -0.152608019708498}, "southwest": {"lat": 51.4919918197085, "lng": -0.155305980291502}}}, "name": "Graham & Graham Property Consultants Ltd (G&G)", "place_id": "ChIJGcDr5RcFdkgR5Mqnkyb7aiI", "types": ["finance", "real_estate_agency", "point_of_interest", "establishment"]}, "ChIJ0es_V7UFdkgRthotRUbgqS4": {"geometry": {"location": {"lat": 51.49299269999999, "lng": -0.153152}, "viewport": {"northeast": {"lat": 51.49428513029149, "lng": -0.151852469708498}, "southwest": {"lat": 51.4915871697085, "lng": -0.154550430291502}}}, "name": "Belgravia Food fayre", "place_id": "ChIJ0es_V7UFdkgRthotRUbgqS4", "types": ["convenience_store", "food", "point_of_interest", "store", "establishment"], "rating": 5, "user_ratings_total": 1}, "ChIJDXrUwdgFdkgRnbc18n_croo": {"geometry": {"location": {"lat": 51.49296609999999, "lng": -0.1531365}, "viewport": {"northeast": {"lat": 51.49427463029149, "lng": -0.151849469708498}, "southwest": {"lat": 51.4915766697085, "lng": -0.154547430291502}}}, "name": "Ecotricity", "place_id": "ChIJDXrUwdgFdkgRnbc18n_croo", "types": ["point_of_interest", "establishment"]}, "ChIJB5gq5RcFdkgR0JR0EuopEbA": {"geometry": {"location": {"lat": 51.49339019999999, "lng": -0.1533552}, "viewport": {"northeast": {"lat": 51.4947457302915, "lng": -0.1519939697084979}, "southwest": {"lat": 51.4920477697085, "lng": -0.154691930291502}}}, "name": "Pembroke Estates", "place_id": "ChIJB5gq5RcFdkgR0JR0EuopEbA", "types": ["general_contractor", "point_of_interest", "establishment"]}, "ChIJfTo6-hcFdkgRSqKIoVYJzgI": {"geometry": {"location": {"lat": 51.4933444, "lng": -0.153047}, "viewport": {"northeast": {"lat": 51.4946493802915, "lng": -0.1516225697084979}, "southwest": {"lat": 51.4919514197085, "lng": -0.154320530291502}}}, "name": "Lloyds Chambers & Co", "place_id": "ChIJfTo6-hcFdkgRSqKIoVYJzgI", "types": ["point_of_interest", "establishment"]}, "ChIJn1S1-3EFdkgRGsaG70b4bUk": {"geometry": {"location": {"lat": 51.4929397, "lng": -0.154255}, "viewport": {"northeast": {"lat": 51.49432153029149, "lng": -0.152963919708498}, "southwest": {"lat": 51.49162356970849, "lng": -0.155661880291502}}}, "name": "Chelsea Property Finder", "place_id": "ChIJn1S1-3EFdkgRGsaG70b4bUk", "types": ["real_estate_agency", "point_of_interest", "establishment"]}, "ChIJt4tlGj0FdkgRRdCktKKTtP8": {"geometry": {"location": {"lat": 51.49593985001133, "lng": -0.1545511000362816}, "viewport": {"northeast": {"lat": 51.4972888302915, "lng": -0.153202119708498}, "southwest": {"lat": 51.4945908697085, "lng": -0.155900080291502}}}, "name": "84 Eaton Pl", "place_id": "ChIJt4tlGj0FdkgRRdCktKKTtP8", "types": ["route"]}, "ChIJkRSRAz0FdkgRfoZzR9tExPo": {"geometry": {"location": {"lat": 51.496195, "lng": -0.1552312}, "viewport": {"northeast": {"lat": 51.4976049302915, "lng": -0.153785919708498}, "southwest": {"lat": 51.4949069697085, "lng": -0.156483880291502}}}, "name": "My Belgravia Home", "place_id": "ChIJkRSRAz0FdkgRfoZzR9tExPo", "types": ["lodging", "point_of_interest", "establishment"], "rating": 5, "user_ratings_total": 3}, "ChIJUfaO8sEFdkgREC739WaVIM0": {"geometry": {"location": {"lat": 51.496286, "lng": -0.1552124}, "viewport": {"northeast": {"lat": 51.4976698802915, "lng": -0.153808269708498}, "southwest": {"lat": 51.4949719197085, "lng": -0.156506230291502}}}, "name": "Thomas Cubitt Blue Plaque", "place_id": "ChIJUfaO8sEFdkgREC739WaVIM0", "types": ["point_of_interest", "establishment"], "rating": 5, "user_ratings_total": 1}, "ChIJY5FRu_MFdkgRWIYl_vKMu6E": {"geometry": {"location": {"lat": 51.4959077, "lng": -0.1549654}, "viewport": {"northeast": {"lat": 51.49720028029149, "lng": -0.153523969708498}, "southwest": {"lat": 51.4945023197085, "lng": -0.156221930291502}}}, "name": "HomieyBakes", "place_id": "ChIJY5FRu_MFdkgRWIYl_vKMu6E", "types": ["point_of_interest", "establishment"]}, "ChIJoxpRBT0FdkgRLb54foDKkEc": {"geometry": {"location": {"lat": 51.4958263, "lng": -0.1551523}, "viewport": {"northeast": {"lat": 51.49710973029149, "lng": -0.153695919708498}, "southwest": {"lat": 51.4944117697085, "lng": -0.156393880291502}}}, "name": "Greenburgh Dr A L", "place_id": "ChIJoxpRBT0FdkgRLb54foDKkEc", "types": ["doctor", "health", "point_of_interest", "establishment"]}, "ChIJV3wubj0FdkgRsw6WxN5uCQU": {"geometry": {"location": {"lat": 51.49474227719035, "lng": -0.1547537842867598}, "viewport": {"northeast": {"lat": 51.4960930802915, "lng": -0.153402269708498}, "southwest": {"lat": 51.4933951197085, "lng": -0.1561002302915021}}}, "name": "74-73 Eaton Square", "place_id": "ChIJV3wubj0FdkgRsw6WxN5uCQU", "types": ["route"]}, "ChIJF8E_evgFdkgRfSUQubfs4Q8": {"geometry": {"location": {"lat": 51.4953587, "lng": -0.1552002}, "viewport": {"northeast": {"lat": 51.49672788029149, "lng": -0.153932619708498}, "southwest": {"lat": 51.4940299197085, "lng": -0.156630580291502}}}, "name": "Splash! - indoor fishing tackle", "place_id": "ChIJF8E_evgFdkgRfSUQubfs4Q8", "types": ["point_of_interest", "establishment"]}, "ChIJLxqDDT0FdkgRXaiMOFfAFJE": {"geometry": {"location": {"lat": 51.4953975, "lng": -0.1551571}, "viewport": {"northeast": {"lat": 51.49678523029149, "lng": -0.153871619708498}, "southwest": {"lat": 51.4940872697085, "lng": -0.156569580291502}}}, "name": "Loncroft Consultancy", "place_id": "ChIJLxqDDT0FdkgRXaiMOFfAFJE", "types": ["point_of_interest", "establishment"]}, "ChIJWaEK1f4FdkgRkmpnR3L2og8": {"geometry": {"location": {"lat": 51.4947908, "lng": -0.15541}, "viewport": {"northeast": {"lat": 51.49618483029149, "lng": -0.154132219708498}, "southwest": {"lat": 51.4934868697085, "lng": -0.156830180291502}}}, "name": "Autoglass", "place_id": "ChIJWaEK1f4FdkgRkmpnR3L2og8", "types": ["point_of_interest", "establishment"], "rating": 3, "user_ratings_total": 1}, "ChIJfe15ylkFdkgRIBX1Jhrqbh8": {"geometry": {"location": {"lat": 51.49469089999999, "lng": -0.1549833}, "viewport": {"northeast": {"lat": 51.49608888029149, "lng": -0.153558319708498}, "southwest": {"lat": 51.49339091970849, "lng": -0.156256280291502}}}, "name": "Gosh International plc", "place_id": "ChIJfe15ylkFdkgRIBX1Jhrqbh8", "types": ["secondary_school", "school", "point_of_interest", "establishment"]}, "ChIJjRq7vkkFdkgRWhOltB3clqQ": {"geometry": {"location": {"lat": 51.4954973, "lng": -0.1549829}, "viewport": {"northeast": {"lat": 51.49688768029149, "lng": -0.153701769708498}, "southwest": {"lat": 51.4941897197085, "lng": -0.156399730291502}}}, "name": "Patrick Sport Cleaners", "place_id": "ChIJjRq7vkkFdkgRWhOltB3clqQ", "types": ["point_of_interest", "establishment"]}, "ChIJ67YnOwkFdkgRGlh9tSnf_4E": {"geometry": {"location": {"lat": 51.49554609999999, "lng": -0.1547623}, "viewport": {"northeast": {"lat": 51.49696013029149, "lng": -0.153518419708498}, "southwest": {"lat": 51.49426216970849, "lng": -0.156216380291502}}}, "name": "The Chilean Ambassadorial residence.", "place_id": "ChIJ67YnOwkFdkgRGlh9tSnf_4E", "types": ["embassy", "point_of_interest", "establishment"]}, "ChIJWwNNvGQFdkgRqOPQMDRdTjQ": {"geometry": {"location": {"lat": 51.495596, "lng": -0.155396}, "viewport": {"northeast": {"lat": 51.4968979302915, "lng": -0.153969919708498}, "southwest": {"lat": 51.4941999697085, "lng": -0.156667880291502}}}, "name": "Marino's", "place_id": "ChIJWwNNvGQFdkgRqOPQMDRdTjQ", "types": ["health", "point_of_interest", "establishment"]}, "ChIJ75Mo2BcFdkgRTUQd6gqe22c": {"geometry": {"location": {"lat": 51.49379339999999, "lng": -0.1546391}, "viewport": {"northeast": {"lat": 51.49520448029149, "lng": -0.153390919708498}, "southwest": {"lat": 51.49250651970849, "lng": -0.156088880291502}}}, "name": "Chasemore Property Ltd", "place_id": "ChIJ75Mo2BcFdkgRTUQd6gqe22c", "types": ["point_of_interest", "establishment"]}, "ChIJQW9Q0xcFdkgRmzGv1gY190o": {"geometry": {"location": {"lat": 51.49378309999999, "lng": -0.1549096}, "viewport": {"northeast": {"lat": 51.4951547802915, "lng": -0.153597119708498}, "southwest": {"lat": 51.4924568197085, "lng": -0.156295080291502}}}, "name": "Brent Osborn-Smith TD MBA DO ND PGDip", "place_id": "ChIJQW9Q0xcFdkgRmzGv1gY190o", "types": ["health", "point_of_interest", "establishment"]}, "ChIJj65K0xcFdkgRCzXHOSRjYCQ": {"geometry": {"location": {"lat": 51.49382110000001, "lng": -0.1553499}, "viewport": {"northeast": {"lat": 51.49511478029151, "lng": -0.153912069708498}, "southwest": {"lat": 51.49241681970851, "lng": -0.1566100302915021}}}, "name": "Lady Greys Productions", "place_id": "ChIJj65K0xcFdkgRCzXHOSRjYCQ", "types": ["point_of_interest", "establishment"]}, "ChIJZ1EG1hcFdkgRE_j3myuxm-g": {"geometry": {"location": {"lat": 51.493908, "lng": -0.1552466}, "viewport": {"northeast": {"lat": 51.4951960302915, "lng": -0.153799719708498}, "southwest": {"lat": 51.4924980697085, "lng": -0.156497680291502}}}, "name": "Bridget Tussaud Psychotherapy", "place_id": "ChIJZ1EG1hcFdkgRE_j3myuxm-g", "types": ["health", "point_of_interest", "establishment"]}, "ChIJ2ZxtZbIEdkgRKLPa70BfMX4": {"geometry": {"location": {"lat": 51.49381750000001, "lng": -0.1547293}, "viewport": {"northeast": {"lat": 51.4952085802915, "lng": -0.153448669708498}, "southwest": {"lat": 51.4925106197085, "lng": -0.156146630291502}}}, "name": "Tankard Wealth (UK and Europe)", "place_id": "ChIJ2ZxtZbIEdkgRKLPa70BfMX4", "types": ["point_of_interest", "establishment"], "rating": 5, "user_ratings_total": 1}, "ChIJD225sykFdkgRoCxDHW9TuOs": {"geometry": {"location": {"lat": 51.4938058, "lng": -0.1546545}, "viewport": {"northeast": {"lat": 51.4952114302915, "lng": -0.153397469708498}, "southwest": {"lat": 51.49251346970851, "lng": -0.1560954302915021}}}, "name": "Principle Equity LTD", "place_id": "ChIJD225sykFdkgRoCxDHW9TuOs", "types": ["real_estate_agency", "point_of_interest", "establishment"]}, "ChIJ75Mo2BcFdkgRrTBgA-y__GU": {"geometry": {"location": {"lat": 51.49379339999999, "lng": -0.1546391}, "viewport": {"northeast": {"lat": 51.49520448029149, "lng": -0.153390919708498}, "southwest": {"lat": 51.49250651970849, "lng": -0.156088880291502}}}, "name": "Gem Diamonds Ltd", "place_id": "ChIJ75Mo2BcFdkgRrTBgA-y__GU", "types": ["point_of_interest", "establishment"], "rating": 4.5, "user_ratings_total": 2}, "ChIJlzPmwXUPdkgRo-tsBrdBpQw": {"geometry": {"location": {"lat": 51.493781, "lng": -0.1546147}, "viewport": {"northeast": {"lat": 51.4951989302915, "lng": -0.153377669708498}, "southwest": {"lat": 51.49250096970851, "lng": -0.156075630291502}}}, "name": "Rawlings Property Consulting LTD", "place_id": "ChIJlzPmwXUPdkgRo-tsBrdBpQw", "types": ["real_estate_agency", "point_of_interest", "establishment"], "rating": 4, "user_ratings_total": 16}, "ChIJd0RC2BcFdkgRKwr7sPNLIeQ": {"geometry": {"location": {"lat": 51.493781, "lng": -0.1546147}, "viewport": {"northeast": {"lat": 51.49509468029151, "lng": -0.153319019708498}, "southwest": {"lat": 51.49239671970851, "lng": -0.156016980291502}}}, "name": "Egerton Roche Limited", "place_id": "ChIJd0RC2BcFdkgRKwr7sPNLIeQ", "types": ["point_of_interest", "establishment"]}, "ChIJ75Mo2BcFdkgRAULVKNr0P68": {"geometry": {"location": {"lat": 51.49379339999999, "lng": -0.1546391}, "viewport": {"northeast": {"lat": 51.49520448029149, "lng": -0.153390919708498}, "southwest": {"lat": 51.49250651970849, "lng": -0.156088880291502}}}, "name": "Prime Capital Asset Management Ag", "place_id": "ChIJ75Mo2BcFdkgRAULVKNr0P68", "types": ["finance", "point_of_interest", "establishment"], "rating": 1, "user_ratings_total": 1}, "ChIJjRFTJGgFdkgRi3mYW3FoWU8": {"geometry": {"location": {"lat": 51.4938516, "lng": -0.1545512}, "viewport": {"northeast": {"lat": 51.4952619802915, "lng": -0.153301869708498}, "southwest": {"lat": 51.4925640197085, "lng": -0.155999830291502}}}, "name": "Ruck & Ruck", "place_id": "ChIJjRFTJGgFdkgRi3mYW3FoWU8", "types": ["finance", "point_of_interest", "establishment"], "rating": 5, "user_ratings_total": 1}, "ChIJhbKyYj0FdkgRuigUc98TeGs": {"geometry": {"location": {"lat": 51.49379560000001, "lng": -0.1546379}, "viewport": {"northeast": {"lat": 51.4952063302915, "lng": -0.153389169708498}, "southwest": {"lat": 51.4925083697085, "lng": -0.156087130291502}}}, "name": "Crisp & Co Divorce & Family Law Solicitors - Chelsea", "place_id": "ChIJhbKyYj0FdkgRuigUc98TeGs", "types": ["lawyer", "point_of_interest", "establishment"], "rating": 5, "user_ratings_total": 1}, "ChIJe4pf2BcFdkgRLxGsBOfH670": {"geometry": {"location": {"lat": 51.49379560000001, "lng": -0.1546379}, "viewport": {"northeast": {"lat": 51.4952063302915, "lng": -0.153389169708498}, "southwest": {"lat": 51.4925083697085, "lng": -0.156087130291502}}}, "name": "Elvira Pourrat", "place_id": "ChIJe4pf2BcFdkgRLxGsBOfH670", "types": ["health", "point_of_interest", "establishment"]}, "ChIJe4pf2BcFdkgR0K_83L1lDjw": {"geometry": {"location": {"lat": 51.49379560000001, "lng": -0.1546379}, "viewport": {"northeast": {"lat": 51.4952063302915, "lng": -0.153389169708498}, "southwest": {"lat": 51.4925083697085, "lng": -0.156087130291502}}}, "name": "Y2DC", "place_id": "ChIJe4pf2BcFdkgR0K_83L1lDjw", "types": ["point_of_interest", "establishment"]}, "ChIJsaixMhYFdkgRN8x2N32u-r4": {"geometry": {"location": {"lat": 51.49379339999999, "lng": -0.1546391}, "viewport": {"northeast": {"lat": 51.49520448029149, "lng": -0.153390919708498}, "southwest": {"lat": 51.49250651970849, "lng": -0.156088880291502}}}, "name": "Eaton Gate Associates", "place_id": "ChIJsaixMhYFdkgRN8x2N32u-r4", "types": ["finance", "point_of_interest", "establishment"]}, "ChIJd4Zf2BcFdkgRkiBMRrQhp8E": {"geometry": {"location": {"lat": 51.49379339999999, "lng": -0.1546391}, "viewport": {"northeast": {"lat": 51.49520448029149, "lng": -0.153390919708498}, "southwest": {"lat": 51.49250651970849, "lng": -0.156088880291502}}}, "name": "Andrews Sykes Hire Ltd.", "place_id": "ChIJd4Zf2BcFdkgRkiBMRrQhp8E", "types": ["point_of_interest", "establishment"], "rating": 3, "user_ratings_total": 2}, "ChIJsaixMhYFdkgR7thkJ4vx03M": {"geometry": {"location": {"lat": 51.49379339999999, "lng": -0.1546391}, "viewport": {"northeast": {"lat": 51.49520448029149, "lng": -0.153390919708498}, "southwest": {"lat": 51.49250651970849, "lng": -0.156088880291502}}}, "name": "The Chelsea Psychology Clinic", "place_id": "ChIJsaixMhYFdkgR7thkJ4vx03M", "types": ["health", "point_of_interest", "establishment"], "rating": 4, "user_ratings_total": 11}, "ChIJeYZf2BcFdkgRFB9n7X_guAU": {"geometry": {"location": {"lat": 51.49379329999999, "lng": -0.1546391}, "viewport": {"northeast": {"lat": 51.49520443029149, "lng": -0.153390969708498}, "southwest": {"lat": 51.49250646970849, "lng": -0.1560889302915021}}}, "name": "Global Office Consulting", "place_id": "ChIJeYZf2BcFdkgRFB9n7X_guAU", "types": ["point_of_interest", "establishment"]}, "ChIJb4Zf2BcFdkgRE_YyXki0riM": {"geometry": {"location": {"lat": 51.49379339999999, "lng": -0.154639}, "viewport": {"northeast": {"lat": 51.49520448029149, "lng": -0.153390869708498}, "southwest": {"lat": 51.49250651970849, "lng": -0.156088830291502}}}, "name": "GCL", "place_id": "ChIJb4Zf2BcFdkgRE_YyXki0riM", "types": ["finance", "point_of_interest", "establishment"]}, "ChIJb4Zf2BcFdkgRiA5udPw6-c0": {"geometry": {"location": {"lat": 51.49379339999999, "lng": -0.154639}, "viewport": {"northeast": {"lat": 51.49520448029149, "lng": -0.153390869708498}, "southwest": {"lat": 51.49250651970849, "lng": -0.156088830291502}}}, "name": "Hero Investments LLP", "place_id": "ChIJb4Zf2BcFdkgRiA5udPw6-c0", "types": ["finance", "point_of_interest", "establishment"]}, "ChIJb4Zf2BcFdkgR5fGQsgmLDuQ": {"geometry": {"location": {"lat": 51.49379339999999, "lng": -0.154639}, "viewport": {"northeast": {"lat": 51.49520448029149, "lng": -0.153390869708498}, "southwest": {"lat": 51.49250651970849, "lng": -0.156088830291502}}}, "name": "True and Fair Foundation", "place_id": "ChIJb4Zf2BcFdkgR5fGQsgmLDuQ", "types": ["point_of_interest", "establishment"], "rating": 5, "user_ratings_total": 1}, "ChIJb4Zf2BcFdkgRK4C7SQNcsrE": {"geometry": {"location": {"lat": 51.49379339999999, "lng": -0.154639}, "viewport": {"northeast": {"lat": 51.49520448029149, "lng": -0.153390869708498}, "southwest": {"lat": 51.49250651970849, "lng": -0.156088830291502}}}, "name": "Nau Securities Limited", "place_id": "ChIJb4Zf2BcFdkgRK4C7SQNcsrE", "types": ["finance", "point_of_interest", "establishment"]}, "ChIJb4Zf2BcFdkgRIJnrRbwRp-Y": {"geometry": {"location": {"lat": 51.49379339999999, "lng": -0.154639}, "viewport": {"northeast": {"lat": 51.49520448029149, "lng": -0.153390869708498}, "southwest": {"lat": 51.49250651970849, "lng": -0.156088830291502}}}, "name": "DRUM IPD Ltd", "place_id": "ChIJb4Zf2BcFdkgRIJnrRbwRp-Y", "types": ["point_of_interest", "establishment"]}, "ChIJZYZf2BcFdkgRv8WT1a8SIZY": {"geometry": {"location": {"lat": 51.4937933, "lng": -0.154639}, "viewport": {"northeast": {"lat": 51.4952044302915, "lng": -0.153390919708498}, "southwest": {"lat": 51.4925064697085, "lng": -0.156088880291502}}}, "name": "PAPER SELF", "place_id": "ChIJZYZf2BcFdkgRv8WT1a8SIZY", "types": ["point_of_interest", "establishment"]}, "ChIJ2wY6GzkFdkgR3ssJgvj-1fI": {"geometry": {"location": {"lat": 51.4937937, "lng": -0.154638}, "viewport": {"northeast": {"lat": 51.4952048802915, "lng": -0.1533899697084979}, "southwest": {"lat": 51.4925069197085, "lng": -0.156087930291502}}}, "name": "Limetrees", "place_id": "ChIJ2wY6GzkFdkgR3ssJgvj-1fI", "types": ["real_estate_agency", "point_of_interest", "establishment"], "rating": 4.3, "user_ratings_total": 6}, "ChIJb4Zf2BcFdkgRVXGhOhl3THY": {"geometry": {"location": {"lat": 51.49381270000001, "lng": -0.1546175}, "viewport": {"northeast": {"lat": 51.49522238029149, "lng": -0.1533670197084979}, "southwest": {"lat": 51.4925244197085, "lng": -0.156064980291502}}}, "name": "Longridge Capital", "place_id": "ChIJb4Zf2BcFdkgRVXGhOhl3THY", "types": ["real_estate_agency", "point_of_interest", "establishment"]}, "ChIJKUB1J0AFdkgRXuUUwNd2r4E": {"geometry": {"location": {"lat": 51.4938149, "lng": -0.1545773}, "viewport": {"northeast": {"lat": 51.4952302802915, "lng": -0.153336119708498}, "southwest": {"lat": 51.49253231970851, "lng": -0.156034080291502}}}, "name": "Boston Radford", "place_id": "ChIJKUB1J0AFdkgRXuUUwNd2r4E", "types": ["point_of_interest", "establishment"]}, "ChIJc-dNfT0FdkgRzKXiHVgLl6M": {"geometry": {"location": {"lat": 51.493781, "lng": -0.1546147}, "viewport": {"northeast": {"lat": 51.4951989302915, "lng": -0.153377669708498}, "southwest": {"lat": 51.49250096970851, "lng": -0.156075630291502}}}, "name": "Lucy Richardson Ltd", "place_id": "ChIJc-dNfT0FdkgRzKXiHVgLl6M", "types": ["real_estate_agency", "point_of_interest", "establishment"]}, "ChIJS5U_uxgFdkgRVZoJYTn8IVc": {"geometry": {"location": {"lat": 51.493781, "lng": -0.1546147}, "viewport": {"northeast": {"lat": 51.4951989302915, "lng": -0.153377669708498}, "southwest": {"lat": 51.49250096970851, "lng": -0.156075630291502}}}, "name": "Sophia Hilsley", "place_id": "ChIJS5U_uxgFdkgRVZoJYTn8IVc", "types": ["health", "point_of_interest", "establishment"], "rating": 5, "user_ratings_total": 7}, "ChIJyVFYL9EEdkgRpx-AnUoOLuE": {"geometry": {"location": {"lat": 51.493781, "lng": -0.1546147}, "viewport": {"northeast": {"lat": 51.4951989302915, "lng": -0.153377669708498}, "southwest": {"lat": 51.49250096970851, "lng": -0.156075630291502}}}, "name": "The Argyll Club", "place_id": "ChIJyVFYL9EEdkgRpx-AnUoOLuE", "types": ["real_estate_agency", "point_of_interest", "establishment"], "rating": 2, "user_ratings_total": 3}, "ChIJd4Zf2BcFdkgRBAIZLZDqQjg": {"geometry": {"location": {"lat": 51.4937804, "lng": -0.1545899}, "viewport": {"northeast": {"lat": 51.4952023802915, "lng": -0.153359369708498}, "southwest": {"lat": 51.4925044197085, "lng": -0.156057330291502}}}, "name": "Richer Education", "place_id": "ChIJd4Zf2BcFdkgRBAIZLZDqQjg", "types": ["point_of_interest", "establishment"], "rating": 5, "user_ratings_total": 2}, "ChIJ-wg_fD0FdkgR4HEXA-8e02g": {"geometry": {"location": {"lat": 51.49410549999999, "lng": -0.1547957}, "viewport": {"northeast": {"lat": 51.49541503029149, "lng": -0.153382669708498}, "southwest": {"lat": 51.49271706970849, "lng": -0.156080630291502}}}, "name": "Eaton House Belgravia School", "place_id": "ChIJ-wg_fD0FdkgR4HEXA-8e02g", "types": ["school", "point_of_interest", "establishment"], "rating": 4.5, "user_ratings_total": 11},