{"E00024123": {"ChIJhYgB8ykbdkgRTFl3vyixWhY": {"geometry": {"location": {"lat": 51.5206629151054, "lng": -0.139677823437229}, "viewport": {"northeast": {"lat": 51.52201803029151, "lng": -0.138332869708498}, "southwest": {"lat": 51.51932006970851, "lng": -0.141030830291502}}}, "name": "115-191 New Cavendish St", "place_id": "ChIJhYgB8ykbdkgRTFl3vyixWhY", "types": ["route"]}, "ChIJfTsVAtYadkgRePHNR7VXrnw": {"geometry": {"location": {"lat": 51.52093970000001, "lng": -0.1401111}, "viewport": {"northeast": {"lat": 51.5221407802915, "lng": -0.138599019708498}, "southwest": {"lat": 51.5194428197085, "lng": -0.141296980291502}}}, "name": "University of Westminster Cavendish Campus", "place_id": "ChIJfTsVAtYadkgRePHNR7VXrnw", "types": ["university", "point_of_interest", "establishment"], "rating": 3.3, "user_ratings_total": 36}, "ChIJOViZ-ikbdkgR2WPK981cVSQ": {"geometry": {"location": {"lat": 51.52073559999999, "lng": -0.1402866}, "viewport": {"northeast": {"lat": 51.52204583029149, "lng": -0.139166419708498}, "southwest": {"lat": 51.5193478697085, "lng": -0.141864380291502}}}, "name": "Smoke Media", "place_id": "ChIJOViZ-ikbdkgR2WPK981cVSQ", "types": ["point_of_interest", "establishment"]}, "ChIJOViZ-ikbdkgR1AdMWnpYN8Y": {"geometry": {"location": {"lat": 51.52073559999999, "lng": -0.1402866}, "viewport": {"northeast": {"lat": 51.52204583029149, "lng": -0.139166419708498}, "southwest": {"lat": 51.5193478697085, "lng": -0.141864380291502}}}, "name": "UoW", "place_id": "ChIJOViZ-ikbdkgR1AdMWnpYN8Y", "types": ["university", "point_of_interest", "establishment"]}, "ChIJB1qY8SkbdkgR5-ES7YYoVvI": {"geometry": {"location": {"lat": 51.5207147, "lng": -0.1402143}, "viewport": {"northeast": {"lat": 51.52202208029149, "lng": -0.138679219708498}, "southwest": {"lat": 51.51932411970849, "lng": -0.141377180291502}}}, "name": "Westminster Business Consultants", "place_id": "ChIJB1qY8SkbdkgR5-ES7YYoVvI", "types": ["point_of_interest", "establishment"], "rating": 5, "user_ratings_total": 3}, "ChIJj55z_CkbdkgRyHQXJqKZu5Y": {"geometry": {"location": {"lat": 51.5207134, "lng": -0.1406505}, "viewport": {"northeast": {"lat": 51.5220410802915, "lng": -0.139345219708498}, "southwest": {"lat": 51.5193431197085, "lng": -0.142043180291502}}}, "name": "University of Westminster Polyclinic", "place_id": "ChIJj55z_CkbdkgRyHQXJqKZu5Y", "types": ["university", "hospital", "health", "point_of_interest", "establishment"], "rating": 3, "user_ratings_total": 2}, "ChIJJV9U9ykbdkgRXigvlcZTT0U": {"geometry": {"location": {"lat": 51.520498, "lng": -0.140243}, "viewport": {"northeast": {"lat": 51.5218762302915, "lng": -0.138906369708498}, "southwest": {"lat": 51.5191782697085, "lng": -0.141604330291502}}}, "name": "Mammoth Screen Ltd", "place_id": "ChIJJV9U9ykbdkgRXigvlcZTT0U", "types": ["point_of_interest", "establishment"], "rating": 3.7, "user_ratings_total": 3}, "ChIJc3pp8ykbdkgR_V9CjgeIEBI": {"geometry": {"location": {"lat": 51.5205692, "lng": -0.1396294}, "viewport": {"northeast": {"lat": 51.5219646802915, "lng": -0.138302219708498}, "southwest": {"lat": 51.5192667197085, "lng": -0.141000180291502}}}, "name": "Balance Massage & Wellness", "place_id": "ChIJc3pp8ykbdkgR_V9CjgeIEBI", "types": ["health", "point_of_interest", "establishment"], "rating": 4.6, "user_ratings_total": 130}, "ChIJQarn4ikbdkgRTNbgftdLf9I": {"geometry": {"location": {"lat": 51.5209286, "lng": -0.1408478}, "viewport": {"northeast": {"lat": 51.5222681802915, "lng": -0.139554519708498}, "southwest": {"lat": 51.5195702197085, "lng": -0.142252480291502}}}, "name": "Green Fiscal Commission", "place_id": "ChIJQarn4ikbdkgRTNbgftdLf9I", "types": ["point_of_interest", "establishment"]}, "ChIJCX-TeiobdkgRz7YpWPVHHuw": {"geometry": {"location": {"lat": 51.52046199999999, "lng": -0.140284}, "viewport": {"northeast": {"lat": 51.52181098029149, "lng": -0.138935019708498}, "southwest": {"lat": 51.51911301970849, "lng": -0.141632980291502}}}, "name": "Tortilla Head Office", "place_id": "ChIJCX-TeiobdkgRz7YpWPVHHuw", "types": ["restaurant", "food", "point_of_interest", "establishment"], "rating": 3.9, "user_ratings_total": 7}, "ChIJJV9U9ykbdkgRKpTSNzX40pY": {"geometry": {"location": {"lat": 51.52046170000001, "lng": -0.1402836}, "viewport": {"northeast": {"lat": 51.52185443029151, "lng": -0.138953069708498}, "southwest": {"lat": 51.51915646970851, "lng": -0.141651030291502}}}, "name": "Independent Histopathology Services Ltd", "place_id": "ChIJJV9U9ykbdkgRKpTSNzX40pY", "types": ["health", "point_of_interest", "establishment"]}, "ChIJ03bW-SkbdkgRMqtiGsTEItQ": {"geometry": {"location": {"lat": 51.5204477, "lng": -0.1402819}, "viewport": {"northeast": {"lat": 51.52184708029149, "lng": -0.138954219708498}, "southwest": {"lat": 51.51914911970849, "lng": -0.141652180291502}}}, "name": "Crossplatform", "place_id": "ChIJ03bW-SkbdkgRMqtiGsTEItQ", "types": ["food", "point_of_interest", "establishment"]}, "ChIJE49_8ykbdkgR58GRUqUjo5w": {"geometry": {"location": {"lat": 51.5205582, "lng": -0.1396709}, "viewport": {"northeast": {"lat": 51.52195528029151, "lng": -0.138344469708498}, "southwest": {"lat": 51.51925731970851, "lng": -0.141042430291502}}}, "name": "Trims & Treats", "place_id": "ChIJE49_8ykbdkgR58GRUqUjo5w", "types": ["pet_store", "point_of_interest", "store", "establishment"], "rating": 3.9, "user_ratings_total": 24}, "ChIJLXHW-SkbdkgRHxybQSK-9vE": {"geometry": {"location": {"lat": 51.5204439, "lng": -0.1402969}, "viewport": {"northeast": {"lat": 51.5218439302915, "lng": -0.138969469708498}, "southwest": {"lat": 51.5191459697085, "lng": -0.141667430291502}}}, "name": "Unilabs", "place_id": "ChIJLXHW-SkbdkgRHxybQSK-9vE", "types": ["health", "point_of_interest", "establishment"]}, "ChIJq6oa9CkbdkgRwielyc-hPtQ": {"geometry": {"location": {"lat": 51.5204687, "lng": -0.1398454}, "viewport": {"northeast": {"lat": 51.5218924302915, "lng": -0.138531469708498}, "southwest": {"lat": 51.5191944697085, "lng": -0.141229430291502}}}, "name": "New Cavendish Street serviced apartments, Fitzrovia - thesqua.re", "place_id": "ChIJq6oa9CkbdkgRwielyc-hPtQ", "types": ["lodging", "point_of_interest", "establishment"], "rating": 4.5, "user_ratings_total": 4}, "ChIJDcRF8ykbdkgRyW48uKcc_QI": {"geometry": {"location": {"lat": 51.52060549999999, "lng": -0.1395425}, "viewport": {"northeast": {"lat": 51.5219915302915, "lng": -0.138210919708498}, "southwest": {"lat": 51.5192935697085, "lng": -0.140908880291502}}}, "name": "Lion King London", "place_id": "ChIJDcRF8ykbdkgRyW48uKcc_QI", "types": ["cafe", "restaurant", "food", "point_of_interest", "establishment"], "rating": 4.1, "user_ratings_total": 24}, "ChIJHVXI4ikbdkgROLSTPcMq9z4": {"geometry": {"location": {"lat": 51.5208665, "lng": -0.1409141}, "viewport": {"northeast": {"lat": 51.5222056302915, "lng": -0.139533769708498}, "southwest": {"lat": 51.5195076697085, "lng": -0.142231730291502}}}, "name": "Structuretone", "place_id": "ChIJHVXI4ikbdkgROLSTPcMq9z4", "types": ["general_contractor", "point_of_interest", "establishment"]}, "ChIJfXMm8ykbdkgRv8cgN41-xpY": {"geometry": {"location": {"lat": 51.520596, "lng": -0.139534}, "viewport": {"northeast": {"lat": 51.52198713029149, "lng": -0.138204769708498}, "southwest": {"lat": 51.51928916970849, "lng": -0.140902730291502}}}, "name": "Property Consult", "place_id": "ChIJfXMm8ykbdkgRv8cgN41-xpY", "types": ["real_estate_agency", "point_of_interest", "establishment"]}, "ChIJLQn4ItQadkgRdxaoRUa-4Rs": {"geometry": {"location": {"lat": 51.5207532, "lng": -0.1409313}, "viewport": {"northeast": {"lat": 51.5221138302915, "lng": -0.139515869708498}, "southwest": {"lat": 51.5194158697085, "lng": -0.142213830291502}}}, "name": "Royal Mail West End Delivery Office", "place_id": "ChIJLQn4ItQadkgRdxaoRUa-4Rs", "types": ["point_of_interest", "establishment"], "rating": 3.9, "user_ratings_total": 64}, "ChIJhVyb-SkbdkgREINxJrQYr5U": {"geometry": {"location": {"lat": 51.5204355, "lng": -0.1405087}, "viewport": {"northeast": {"lat": 51.5217671802915, "lng": -0.139219969708498}, "southwest": {"lat": 51.51906921970851, "lng": -0.141917930291502}}}, "name": "Harris + Hoole", "place_id": "ChIJhVyb-SkbdkgREINxJrQYr5U", "types": ["cafe", "food", "point_of_interest", "store", "establishment"], "rating": 4.5, "user_ratings_total": 245}, "ChIJMR6WQu8RdkgRR8mLeggseDk": {"geometry": {"location": {"lat": 51.520422, "lng": -0.1405458}, "viewport": {"northeast": {"lat": 51.52176418029151, "lng": -0.1392342197084979}, "southwest": {"lat": 51.51906621970851, "lng": -0.141932180291502}}}, "name": "T & C Cleaning Services Ltd", "place_id": "ChIJMR6WQu8RdkgRR8mLeggseDk", "types": ["laundry", "point_of_interest", "establishment"], "rating": 5, "user_ratings_total": 1}, "ChIJJVhl4ykbdkgRCYSPJY8TRjw": {"geometry": {"location": {"lat": 51.52093900000001, "lng": -0.1407544}, "viewport": {"northeast": {"lat": 51.52227818029152, "lng": -0.139471969708498}, "southwest": {"lat": 51.51958021970852, "lng": -0.142169930291502}}}, "name": "Latimer House", "place_id": "ChIJJVhl4ykbdkgRCYSPJY8TRjw", "types": ["health", "point_of_interest", "establishment"]}, "ChIJCbKtCtYadkgRJEoon9bYxLg": {"geometry": {"location": {"lat": 51.5204426, "lng": -0.1402419}, "viewport": {"northeast": {"lat": 51.52184743029151, "lng": -0.1389165197084979}, "southwest": {"lat": 51.51914946970851, "lng": -0.141614480291502}}}, "name": "isobel Advertising", "place_id": "ChIJCbKtCtYadkgRJEoon9bYxLg", "types": ["point_of_interest", "establishment"], "rating": 4.7, "user_ratings_total": 3}, "ChIJy-vh8SkbdkgRUPhD1_kdPjk": {"geometry": {"location": {"lat": 51.5207612, "lng": -0.1400551}, "viewport": {"northeast": {"lat": 51.5220523302915, "lng": -0.139047919708498}, "southwest": {"lat": 51.5193543697085, "lng": -0.141745880291502}}}, "name": "Faculty of Science and Technology", "place_id": "ChIJy-vh8SkbdkgRUPhD1_kdPjk", "types": ["university", "point_of_interest", "establishment"], "rating": 5, "user_ratings_total": 1}, "ChIJO6cy_GQbdkgRDTg7VUKT2HU": {"geometry": {"location": {"lat": 51.5207613, "lng": -0.1400541}, "viewport": {"northeast": {"lat": 51.52205233029151, "lng": -0.139047369708498}, "southwest": {"lat": 51.51935436970851, "lng": -0.141745330291502}}}, "name": "Sam wax", "place_id": "ChIJO6cy_GQbdkgRDTg7VUKT2HU", "types": ["point_of_interest", "establishment"]}, "ChIJK5EDfx0bdkgRqhes4iZrWjs": {"geometry": {"location": {"lat": 51.5207613, "lng": -0.1400541}, "viewport": {"northeast": {"lat": 51.52205233029151, "lng": -0.139047369708498}, "southwest": {"lat": 51.51935436970851, "lng": -0.141745330291502}}}, "name": "Alice pump", "place_id": "ChIJK5EDfx0bdkgRqhes4iZrWjs", "types": ["point_of_interest", "establishment"]}, "ChIJ16dNshcbdkgR2OxPAQuJM4Q": {"geometry": {"location": {"lat": 51.5207613, "lng": -0.1400541}, "viewport": {"northeast": {"lat": 51.52205233029151, "lng": -0.139047369708498}, "southwest": {"lat": 51.51935436970851, "lng": -0.141745330291502}}}, "name": "Cordelia wax", "place_id": "ChIJ16dNshcbdkgR2OxPAQuJM4Q", "types": ["point_of_interest", "establishment"]}, "ChIJwQ3G8EYbdkgR9dFW6rxQ6uo": {"geometry": {"location": {"lat": 51.5207613, "lng": -0.1400541}, "viewport": {"northeast": {"lat": 51.52205233029151, "lng": -0.139047369708498}, "southwest": {"lat": 51.51935436970851, "lng": -0.141745330291502}}}, "name": "Cordelia Organic", "place_id": "ChIJwQ3G8EYbdkgR9dFW6rxQ6uo", "types": ["point_of_interest", "store", "establishment"]}, "ChIJUa3OvGMbdkgR4zPri81Om7s": {"geometry": {"location": {"lat": 51.5207613, "lng": -0.1400541}, "viewport": {"northeast": {"lat": 51.52205233029151, "lng": -0.139047369708498}, "southwest": {"lat": 51.51935436970851, "lng": -0.141745330291502}}}, "name": "Cordelia coal", "place_id": "ChIJUa3OvGMbdkgR4zPri81Om7s", "types": ["point_of_interest", "establishment"]}, "ChIJL9eI_PgbdkgRLRGyzPrGmHU": {"geometry": {"location": {"lat": 51.5207613, "lng": -0.1400541}, "viewport": {"northeast": {"lat": 51.52205233029151, "lng": -0.139047369708498}, "southwest": {"lat": 51.51935436970851, "lng": -0.141745330291502}}}, "name": "Son Basket", "place_id": "ChIJL9eI_PgbdkgRLRGyzPrGmHU", "types": ["point_of_interest", "establishment"]}, "ChIJebVtZVcbdkgRTkELcVvRXLE": {"geometry": {"location": {"lat": 51.5207613, "lng": -0.1400541}, "viewport": {"northeast": {"lat": 51.52205233029151, "lng": -0.139047369708498}, "southwest": {"lat": 51.51935436970851, "lng": -0.141745330291502}}}, "name": "Ben wax", "place_id": "ChIJebVtZVcbdkgRTkELcVvRXLE", "types": ["point_of_interest", "establishment"]}, "ChIJTb_Qy1EbdkgR7Uh_O89scvg": {"geometry": {"location": {"lat": 51.5207613, "lng": -0.1400541}, "viewport": {"northeast": {"lat": 51.52205233029151, "lng": -0.139047369708498}, "southwest": {"lat": 51.51935436970851, "lng": -0.141745330291502}}}, "name": "Tim Coffee", "place_id": "ChIJTb_Qy1EbdkgR7Uh_O89scvg", "types": ["point_of_interest", "establishment"]}, "ChIJJ-uM4swbdkgRhUAujQ4Y80g": {"geometry": {"location": {"lat": 51.5207613, "lng": -0.1400541}, "viewport": {"northeast": {"lat": 51.52205233029151, "lng": -0.139047369708498}, "southwest": {"lat": 51.51935436970851, "lng": -0.141745330291502}}}, "name": "Sam Coffee", "place_id": "ChIJJ-uM4swbdkgRhUAujQ4Y80g", "types": ["point_of_interest", "establishment"]}, "ChIJ4ypu-skbdkgRrnY2m3k-hUs": {"geometry": {"location": {"lat": 51.5207613, "lng": -0.1400541}, "viewport": {"northeast": {"lat": 51.52205233029151, "lng": -0.139047369708498}, "southwest": {"lat": 51.51935436970851, "lng": -0.141745330291502}}}, "name": "Michaella store", "place_id": "ChIJ4ypu-skbdkgRrnY2m3k-hUs", "types": ["point_of_interest", "establishment"]}, "ChIJHVBmtr8bdkgRBuVrChotTgY": {"geometry": {"location": {"lat": 51.5207613, "lng": -0.1400541}, "viewport": {"northeast": {"lat": 51.52205233029151, "lng": -0.139047369708498}, "southwest": {"lat": 51.51935436970851, "lng": -0.141745330291502}}}, "name": "Son seed", "place_id": "ChIJHVBmtr8bdkgRBuVrChotTgY", "types": ["food", "point_of_interest", "establishment"]}, "ChIJIyDK8SkbdkgRmGXewBanbFQ": {"geometry": {"location": {"lat": 51.5207612, "lng": -0.1400541}, "viewport": {"northeast": {"lat": 51.5220522302915, "lng": -0.139047369708498}, "southwest": {"lat": 51.5193542697085, "lng": -0.141745330291502}}}, "name": "Trax Agency", "place_id": "ChIJIyDK8SkbdkgRmGXewBanbFQ", "types": ["point_of_interest", "establishment"]}, "ChIJP4Nl8CkbdkgR9oGaetKopeU": {"geometry": {"location": {"lat": 51.5207124, "lng": -0.1402018}, "viewport": {"northeast": {"lat": 51.5220167802915, "lng": -0.1391163697084979}, "southwest": {"lat": 51.5193188197085, "lng": -0.141814330291502}}}, "name": "Attitude", "place_id": "ChIJP4Nl8CkbdkgR9oGaetKopeU", "types": ["hospital", "health", "point_of_interest", "establishment"]}, "ChIJPYNl8CkbdkgRIZ3Dv_2Huww": {"geometry": {"location": {"lat": 51.5207124, "lng": -0.1402019}, "viewport": {"northeast": {"lat": 51.5220167802915, "lng": -0.1391164197084979}, "southwest": {"lat": 51.5193188197085, "lng": -0.141814380291502}}}, "name": "XR Lab", "place_id": "ChIJPYNl8CkbdkgRIZ3Dv_2Huww", "types": ["university", "point_of_interest", "establishment"]}, "ChIJ3-LbCxIbdkgRXj2B-icqLEQ": {"geometry": {"location": {"lat": 51.52074229999999, "lng": -0.1403824}, "viewport": {"northeast": {"lat": 51.52205988029151, "lng": -0.139218969708498}, "southwest": {"lat": 51.51936191970851, "lng": -0.141916930291502}}}, "name": "Science4U", "place_id": "ChIJ3-LbCxIbdkgRXj2B-icqLEQ", "types": ["school", "point_of_interest", "establishment"]}, "ChIJechn4ykbdkgRYd9oJh8FyLk": {"geometry": {"location": {"lat": 51.5209272, "lng": -0.1406699}, "viewport": {"northeast": {"lat": 51.5222610302915, "lng": -0.139410269708498}, "southwest": {"lat": 51.5195630697085, "lng": -0.142108230291502}}}, "name": "Adventures in Awareness", "place_id": "ChIJechn4ykbdkgRYd9oJh8FyLk", "types": ["point_of_interest", "establishment"]}, "ChIJechn4ykbdkgRhnn02BcQQw0": {"geometry": {"location": {"lat": 51.5209272, "lng": -0.1406699}, "viewport": {"northeast": {"lat": 51.5222601802915, "lng": -0.139412069708498}, "southwest": {"lat": 51.5195622197085, "lng": -0.142110030291502}}}, "name": "Clc", "place_id": "ChIJechn4ykbdkgRhnn02BcQQw0", "types": ["point_of_interest", "establishment"]}, "ChIJSy15-ikbdkgRhEMN4igjx4o": {"geometry": {"location": {"lat": 51.520593, "lng": -0.1403883}, "viewport": {"northeast": {"lat": 51.5219165302915, "lng": -0.139026969708498}, "southwest": {"lat": 51.5192185697085, "lng": -0.141724930291502}}}, "name": "ubitricity Charging Station", "place_id": "ChIJSy15-ikbdkgRhEMN4igjx4o", "types": ["point_of_interest", "establishment"]}, "ChIJc5y78ykbdkgRrwXtQ3M3EJg": {"geometry": {"location": {"lat": 51.5205294, "lng": -0.1398638}, "viewport": {"northeast": {"lat": 51.5219236302915, "lng": -0.138536019708498}, "southwest": {"lat": 51.5192256697085, "lng": -0.141233980291502}}}, "name": "Lumaesthetic", "place_id": "ChIJc5y78ykbdkgRrwXtQ3M3EJg", "types": ["spa", "health", "point_of_interest", "establishment"]}, "ChIJBVZA9ykbdkgR1HqiM6Kq6zk": {"geometry": {"location": {"lat": 51.52048910000001, "lng": -0.1401526}, "viewport": {"northeast": {"lat": 51.5218380802915, "lng": -0.1388036197084979}, "southwest": {"lat": 51.5191401197085, "lng": -0.141501580291502}}}, "name": "Diva Catwalk", "place_id": "ChIJBVZA9ykbdkgR1HqiM6Kq6zk", "types": ["point_of_interest", "clothing_store", "store", "establishment"], "rating": 3.5, "user_ratings_total": 15}, "ChIJbaFCnwQbdkgRwp0TUiq2xqs": {"geometry": {"location": {"lat": 51.5205802, "lng": -0.1396792}, "viewport": {"northeast": {"lat": 51.5219673302915, "lng": -0.138347719708498}, "southwest": {"lat": 51.5192693697085, "lng": -0.141045680291502}}}, "name": "Tim store", "place_id": "ChIJbaFCnwQbdkgRwp0TUiq2xqs", "types": ["point_of_interest", "establishment"]}, "ChIJq6oa9CkbdkgR8yCMKPIlY2E": {"geometry": {"location": {"lat": 51.5205114, "lng": -0.1397883}, "viewport": {"northeast": {"lat": 51.52192023029149, "lng": -0.138467369708498}, "southwest": {"lat": 51.51922226970849, "lng": -0.141165330291502}}}, "name": "Flying Butler Apartments, Fitzrovia", "place_id": "ChIJq6oa9CkbdkgR8yCMKPIlY2E", "types": ["lodging", "point_of_interest", "establishment"], "rating": 1, "user_ratings_total": 1}, "ChIJTyTk-SkbdkgRVlntzs-Fu-w": {"geometry": {"location": {"lat": 51.5204494, "lng": -0.1402897}, "viewport": {"northeast": {"lat": 51.5218473802915, "lng": -0.138961419708498}, "southwest": {"lat": 51.5191494197085, "lng": -0.141659380291502}}}, "name": "Mexican Grill Ltd", "place_id": "ChIJTyTk-SkbdkgRVlntzs-Fu-w", "types": ["restaurant", "food", "point_of_interest", "establishment"]}, "ChIJTyTk-SkbdkgRX8oXnLHJGBQ": {"geometry": {"location": {"lat": 51.5204494, "lng": -0.1402897}, "viewport": {"northeast": {"lat": 51.5218473802915, "lng": -0.138961419708498}, "southwest": {"lat": 51.5191494197085, "lng": -0.141659380291502}}}, "name": "Funding Nav Limited", "place_id": "ChIJTyTk-SkbdkgRX8oXnLHJGBQ", "types": ["point_of_interest", "establishment"]}, "ChIJsXfPMCAbdkgR2CNjiRL8bIA": {"geometry": {"location": {"lat": 51.5204457, "lng": -0.1402733}, "viewport": {"northeast": {"lat": 51.5218466802915, "lng": -0.138946269708498}, "southwest": {"lat": 51.5191487197085, "lng": -0.141644230291502}}}, "name": "Ameris", "place_id": "ChIJsXfPMCAbdkgR2CNjiRL8bIA", "types": ["point_of_interest", "establishment"], "rating": 4.9, "user_ratings_total": 7}, "ChIJIVG7-SkbdkgRNV49UO2pMuM": {"geometry": {"location": {"lat": 51.52045689999999, "lng": -0.1403805}, "viewport": {"northeast": {"lat": 51.52184443029149, "lng": -0.1390478197084979}, "southwest": {"lat": 51.5191464697085, "lng": -0.141745780291502}}}, "name": "AWL Travel LTD", "place_id": "ChIJIVG7-SkbdkgRNV49UO2pMuM", "types": ["travel_agency", "point_of_interest", "establishment"], "rating": 1, "user_ratings_total": 1}, "ChIJr3qZKwQbdkgRg4OiJp-cvVs": {"geometry": {"location": {"lat": 51.5205173, "lng": -0.1397058}, "viewport": {"northeast": {"lat": 51.5219313302915, "lng": -0.138386619708498}, "southwest": {"lat": 51.5192333697085, "lng": -0.141084580291502}}}, "name": "Cordelia ice", "place_id": "ChIJr3qZKwQbdkgRg4OiJp-cvVs", "types": ["point_of_interest", "establishment"]}, "ChIJYZtGCKcbdkgRWhs0rBXQxLY": {"geometry": {"location": {"lat": 51.5205603, "lng": -0.1396147}, "viewport": {"northeast": {"lat": 51.5219619302915, "lng": -0.138289819708498}, "southwest": {"lat": 51.5192639697085, "lng": -0.140987780291502}}}, "name": "Lauren Coffee", "place_id": "ChIJYZtGCKcbdkgRWhs0rBXQxLY", "types": ["point_of_interest", "establishment"]}, "ChIJS0MJ_XcbdkgRrdL93xpr9NE": {"geometry": {"location": {"lat": 51.5204676, "lng": -0.1398326}, "viewport": {"northeast": {"lat": 51.5218941802915, "lng": -0.138519219708498}, "southwest": {"lat": 51.5191962197085, "lng": -0.141217180291502}}}, "name": "shop@shopifyfree", "place_id": "ChIJS0MJ_XcbdkgRrdL93xpr9NE", "types": ["store", "point_of_interest", "establishment"]}, "ChIJRUTW3LIbdkgR4U8hlv34hQo": {"geometry": {"location": {"lat": 51.5204676, "lng": -0.1398326}, "viewport": {"northeast": {"lat": 51.5218941802915, "lng": -0.138519219708498}, "southwest": {"lat": 51.5191962197085, "lng": -0.141217180291502}}}, "name": "Cordelia warehouse", "place_id": "ChIJRUTW3LIbdkgR4U8hlv34hQo", "types": ["storage", "point_of_interest", "establishment"]}, "ChIJ1SfyK5kbdkgRKepiqfCV0SQ": {"geometry": {"location": {"lat": 51.5204459, "lng": -0.1404063}, "viewport": {"northeast": {"lat": 51.52177453029149, "lng": -0.139169769708498}, "southwest": {"lat": 51.5190765697085, "lng": -0.141867730291502}}}, "name": "Staverton Consulting - Procurement Consultancy", "place_id": "ChIJ1SfyK5kbdkgRKepiqfCV0SQ", "types": ["point_of_interest", "establishment"]}, "ChIJ-aTuCfcbdkgR8sRk6fIam2Q": {"geometry": {"location": {"lat": 51.5204475, "lng": -0.1404198}, "viewport": {"northeast": {"lat": 51.52177718029149, "lng": -0.139177419708498}, "southwest": {"lat": 51.5190792197085, "lng": -0.141875380291502}}}, "name": "Leemic", "place_id": "ChIJ-aTuCfcbdkgR8sRk6fIam2Q", "types": ["point_of_interest", "establishment"], "rating": 5, "user_ratings_total": 1}, "ChIJt0xP8ykbdkgRB2PeJ17axO8": {"geometry": {"location": {"lat": 51.5205824, "lng": -0.1395526}, "viewport": {"northeast": {"lat": 51.5219782302915, "lng": -0.138225569708498}, "southwest": {"lat": 51.5192802697085, "lng": -0.140923530291502}}}, "name": "Claybury Properties Ltd", "place_id": "ChIJt0xP8ykbdkgRB2PeJ17axO8", "types": ["general_contractor", "point_of_interest", "establishment"]}, "ChIJfXMm8ykbdkgR0MxirM-6L5Q": {"geometry": {"location": {"lat": 51.5205824, "lng": -0.1395526}, "viewport": {"northeast": {"lat": 51.5219782302915, "lng": -0.138225569708498}, "southwest": {"lat": 51.5192802697085, "lng": -0.140923530291502}}}, "name": "Scala House & District Property Co Ltd", "place_id": "ChIJfXMm8ykbdkgR0MxirM-6L5Q", "types": ["point_of_interest", "establishment"]}, "ChIJu255V3cbdkgRVQ34g0YZ2yY": {"geometry": {"location": {"lat": 51.52057060000001, "lng": -0.1395344}, "viewport": {"northeast": {"lat": 51.52197403029151, "lng": -0.138210369708498}, "southwest": {"lat": 51.51927606970851, "lng": -0.140908330291502}}}, "name": "Oliver store", "place_id": "ChIJu255V3cbdkgRVQ34g0YZ2yY", "types": ["point_of_interest", "establishment"]}, "ChIJAaSpAyobdkgR_U9Rp3EYyys": {"geometry": {"location": {"lat": 51.51998698261395, "lng": -0.1404371313094561}, "viewport": {"northeast": {"lat": 51.5213351302915, "lng": -0.139092869708498}, "southwest": {"lat": 51.5186371697085, "lng": -0.141790830291502}}}, "name": "5-29 Hanson St", "place_id": "ChIJAaSpAyobdkgR_U9Rp3EYyys", "types": ["route"]}, "ChIJj-f6DyobdkgRH3OElEPL9Y8": {"geometry": {"location": {"lat": 51.5194878, "lng": -0.140291}, "viewport": {"northeast": {"lat": 51.52084053029149, "lng": -0.138920619708498}, "southwest": {"lat": 51.51814256970849, "lng": -0.141618580291502}}}, "name": "City Center Suites", "place_id": "ChIJj-f6DyobdkgRH3OElEPL9Y8", "types": ["lodging", "point_of_interest", "establishment"], "rating": 3.3, "user_ratings_total": 3}, "ChIJ2VViByobdkgRUFf76YiMal4": {"geometry": {"location": {"lat": 51.51973880000001, "lng": -0.1409807}, "viewport": {"northeast": {"lat": 51.52107488029151, "lng": -0.139701469708498}, "southwest": {"lat": 51.51837691970851, "lng": -0.142399430291502}}}, "name": "Sweet Inn - Fitzrovia (Oxford Street Area)", "place_id": "ChIJ2VViByobdkgRUFf76YiMal4", "types": ["lodging", "point_of_interest", "establishment"], "rating": 4, "user_ratings_total": 5}, "ChIJH1D0jtQadkgRT3hMpRjnp0s": {"geometry": {"location": {"lat": 51.5196608, "lng": -0.1397426}, "viewport": {"northeast": {"lat": 51.52100978029149, "lng": -0.138393619708498}, "southwest": {"lat": 51.51831181970849, "lng": -0.141091580291502}}}, "name": "Six Physio Fitzrovia", "place_id": "ChIJH1D0jtQadkgRT3hMpRjnp0s", "types": ["physiotherapist", "gym", "health", "point_of_interest", "establishment"], "rating": 4.5, "user_ratings_total": 39}, "ChIJK4IjJCsbdkgRfrEiOVFJyaE": {"geometry": {"location": {"lat": 51.5194482, "lng": -0.1403477}, "viewport": {"northeast": {"lat": 51.5207971802915, "lng": -0.138998719708498}, "southwest": {"lat": 51.5180992197085, "lng": -0.141696680291502}}}, "name": "Little Ones (UK) Ltd", "place_id": "ChIJK4IjJCsbdkgRfrEiOVFJyaE", "types": ["point_of_interest", "establishment"], "rating": 4.2, "user_ratings_total": 631}, "ChIJo2l6HiobdkgRgEZXHs6D0dA": {"geometry": {"location": {"lat": 51.5200395, "lng": -0.1399298}, "viewport": {"northeast": {"lat": 51.5213741802915, "lng": -0.138514869708498}, "southwest": {"lat": 51.5186762197085, "lng": -0.141212830291502}}}, "name": "St Charles Borromeo Church, Westminster", "place_id": "ChIJo2l6HiobdkgRgEZXHs6D0dA", "types": ["church", "place_of_worship", "point_of_interest", "establishment"], "rating": 4.7, "user_ratings_total": 59}, "ChIJU6ZpECobdkgR3FpQvf-ZIEE": {"geometry": {"location": {"lat": 51.5195017, "lng": -0.1400798}, "viewport": {"northeast": {"lat": 51.5208013802915, "lng": -0.138664119708498}, "southwest": {"lat": 51.5181034197085, "lng": -0.141362080291502}}}, "name": "Image Dental Clinic", "place_id": "ChIJU6ZpECobdkgR3FpQvf-ZIEE", "types": ["dentist", "health", "point_of_interest", "establishment"], "rating": 4.8, "user_ratings_total": 48}, "ChIJHS7cFiobdkgR6CdG18d_wj8": {"geometry": {"location": {"lat": 51.51933709999999, "lng": -0.1398355}, "viewport": {"northeast": {"lat": 51.52072193029149, "lng": -0.138536619708498}, "southwest": {"lat": 51.5180239697085, "lng": -0.141234580291502}}}, "name": "LDG The Creative Property Team", "place_id": "ChIJHS7cFiobdkgR6CdG18d_wj8", "types": ["point_of_interest", "establishment"], "rating": 4.5, "user_ratings_total": 179}, "ChIJt62LBSobdkgR9xZTU-vbs_A": {"geometry": {"location": {"lat": 51.51953089999999, "lng": -0.1404191}, "viewport": {"northeast": {"lat": 51.5208948302915, "lng": -0.138984769708498}, "southwest": {"lat": 51.5181968697085, "lng": -0.141682730291502}}}, "name": "2am London", "place_id": "ChIJt62LBSobdkgR9xZTU-vbs_A", "types": ["point_of_interest", "establishment"]}, "ChIJD-QYBCobdkgRSfo056V4dTg": {"geometry": {"location": {"lat": 51.51974920000001, "lng": -0.1405542}, "viewport": {"northeast": {"lat": 51.52111608029151, "lng": -0.139103019708498}, "southwest": {"lat": 51.51841811970851, "lng": -0.141800980291502}}}, "name": "BSiC Group", "place_id": "ChIJD-QYBCobdkgRSfo056V4dTg", "types": ["accounting", "finance", "point_of_interest", "establishment"]}, "ChIJWbP3itUadkgR1u9-w80Mh5Q": {"geometry": {"location": {"lat": 51.5195236, "lng": -0.1402543}, "viewport": {"northeast": {"lat": 51.5208678802915, "lng": -0.138932719708498}, "southwest": {"lat": 51.51816991970851, "lng": -0.141630680291502}}}, "name": "Lux Monkey", "place_id": "ChIJWbP3itUadkgR1u9-w80Mh5Q", "types": ["point_of_interest", "establishment"], "rating": 5, "user_ratings_total": 4}, "ChIJLek4XjS1dUgR_81pq8u9VQA": {"geometry": {"location": {"lat": 51.52004859999999, "lng": -0.1404645}, "viewport": {"northeast": {"lat": 51.52140598029149, "lng": -0.139066719708498}, "southwest": {"lat": 51.51870801970849, "lng": -0.141764680291502}}}, "name": "Carol Granger Nutritional Therapist & Herbalist", "place_id": "ChIJLek4XjS1dUgR_81pq8u9VQA", "types": ["health", "point_of_interest", "establishment"]}, "ChIJ__8PmSobdkgR_EnELjnlIm4": {"geometry": {"location": {"lat": 51.51990139999999, "lng": -0.1399171}, "viewport": {"northeast": {"lat": 51.5212503802915, "lng": -0.138568119708498}, "southwest": {"lat": 51.5185524197085, "lng": -0.141266080291502}}}, "name": "London Central Portfolio Ltd", "place_id": "ChIJ__8PmSobdkgR_EnELjnlIm4", "types": ["point_of_interest", "establishment"], "rating": 4.7, "user_ratings_total": 71}, "ChIJMyP3AyobdkgRJelWe3jdo70": {"geometry": {"location": {"lat": 51.51986799999999, "lng": -0.1405691}, "viewport": {"northeast": {"lat": 51.52123173029149, "lng": -0.139135919708498}, "southwest": {"lat": 51.51853376970849, "lng": -0.141833880291502}}}, "name": "Dudley Mansions", "place_id": "ChIJMyP3AyobdkgRJelWe3jdo70", "types": ["lodging", "point_of_interest", "establishment"], "rating": 3.8, "user_ratings_total": 5}, "ChIJTSdZBSobdkgRYpTWb3T29ZY": {"geometry": {"location": {"lat": 51.5195337, "lng": -0.1404037}, "viewport": {"northeast": {"lat": 51.5208962802915, "lng": -0.138977119708498}, "southwest": {"lat": 51.5181983197085, "lng": -0.141675080291502}}}, "name": "Motion IT Ltd", "place_id": "ChIJTSdZBSobdkgRYpTWb3T29ZY", "types": ["point_of_interest", "establishment"]}, "ChIJo2l6HiobdkgRN9JrEnGtAGc": {"geometry": {"location": {"lat": 51.52005339999999, "lng": -0.1398587}, "viewport": {"northeast": {"lat": 51.5214021302915, "lng": -0.138511769708498}, "southwest": {"lat": 51.5187041697085, "lng": -0.141209730291502}}}, "name": "Bentley Lewis", "place_id": "ChIJo2l6HiobdkgRN9JrEnGtAGc", "types": ["point_of_interest", "establishment"]}, "ChIJk6F-ECobdkgRLvqLaRzMyoM": {"geometry": {"location": {"lat": 51.51950439999999, "lng": -0.140088}, "viewport": {"northeast": {"lat": 51.5208027302915, "lng": -0.138668219708498}, "southwest": {"lat": 51.5181047697085, "lng": -0.141366180291502}}}, "name": "Zero Zero Group", "place_id": "ChIJk6F-ECobdkgRLvqLaRzMyoM", "types": ["point_of_interest", "establishment"]}, "ChIJA1VazssadkgRA-U2AZdd9Zg": {"geometry": {"location": {"lat": 51.5195017, "lng": -0.1400798}, "viewport": {"northeast": {"lat": 51.5208020302915, "lng": -0.138662869708498}, "southwest": {"lat": 51.5181040697085, "lng": -0.141360830291502}}}, "name": "HAIR ink. Clinic", "place_id": "ChIJA1VazssadkgRA-U2AZdd9Zg", "types": ["hair_care", "health", "point_of_interest", "establishment"], "rating": 5, "user_ratings_total": 124}, "ChIJ-ShjECobdkgRyuNhxNp3Ivo": {"geometry": {"location": {"lat": 51.5194807, "lng": -0.1400825}, "viewport": {"northeast": {"lat": 51.5207866302915, "lng": -0.138673369708498}, "southwest": {"lat": 51.5180886697085, "lng": -0.141371330291502}}}, "name": "Houghton Street Capital Ltd", "place_id": "ChIJ-ShjECobdkgRyuNhxNp3Ivo", "types": ["finance", "point_of_interest", "establishment"]}, "ChIJ1V6PECobdkgRzXS4YS0vs4A": {"geometry": {"location": {"lat": 51.5194772, "lng": -0.1400904}, "viewport": {"northeast": {"lat": 51.52078288029149, "lng": -0.1386809197084979}, "southwest": {"lat": 51.51808491970849, "lng": -0.141378880291502}}}, "name": "Giraffe Translations", "place_id": "ChIJ1V6PECobdkgRzXS4YS0vs4A", "types": ["point_of_interest", "establishment"]}, "ChIJj-f6DyobdkgRbf9SWxldHno": {"geometry": {"location": {"lat": 51.5194878, "lng": -0.140291}, "viewport": {"northeast": {"lat": 51.52084053029149, "lng": -0.138920669708498}, "southwest": {"lat": 51.51814256970849, "lng": -0.141618630291502}}}, "name": "villa fitzrovia", "place_id": "ChIJj-f6DyobdkgRbf9SWxldHno", "types": ["lodging", "point_of_interest", "establishment"], "rating": 3.5, "user_ratings_total": 27}, "ChIJAQCw9ykbdkgRdP6jMBcaFwU": {"geometry": {"location": {"lat": 51.5203041, "lng": -0.1401203}, "viewport": {"northeast": {"lat": 51.52178183029149, "lng": -0.138832419708498}, "southwest": {"lat": 51.5190838697085, "lng": -0.141530380291502}}}, "name": "Seed", "place_id": "ChIJAQCw9ykbdkgRdP6jMBcaFwU", "types": ["point_of_interest", "establishment"]}, "ChIJN0jjDiobdkgR2O7BaiyXT8A": {"geometry": {"location": {"lat": 51.519372, "lng": -0.1403195}, "viewport": {"northeast": {"lat": 51.5207353802915, "lng": -0.138901769708498}, "southwest": {"lat": 51.5180374197085, "lng": -0.141599730291502}}}, "name": "Foley's", "place_id": "ChIJN0jjDiobdkgR2O7BaiyXT8A", "types": ["bar", "restaurant", "food", "point_of_interest", "establishment"], "rating": 4.5, "user_ratings_total": 266}, "ChIJj_hk1ysFdkgRsBQx6lAAX-8": {"geometry": {"location": {"lat": 51.5195881, "lng": -0.1408087}, "viewport": {"northeast": {"lat": 51.5209157302915, "lng": -0.139575519708498}, "southwest": {"lat": 51.5182177697085, "lng": -0.1422734802915021}}}, "name": "Sturgeon Capital Ltd", "place_id": "ChIJj_hk1ysFdkgRsBQx6lAAX-8", "types": ["finance", "point_of_interest", "establishment"]}, "ChIJO4zLByobdkgRxZdn7pQeOj8": {"geometry": {"location": {"lat": 51.5195863, "lng": -0.1408222}, "viewport": {"northeast": {"lat": 51.52091513029151, "lng": -0.139582419708498}, "southwest": {"lat": 51.51821716970851, "lng": -0.142280380291502}}}, "name": "OPTIONALITY GLOBAL", "place_id": "ChIJO4zLByobdkgRxZdn7pQeOj8", "types": ["finance", "point_of_interest", "establishment"]}, "ChIJXymuDyobdkgRaLhsMYzvisk": {"geometry": {"location": {"lat": 51.5193427, "lng": -0.1403111}, "viewport": {"northeast": {"lat": 51.52064148029149, "lng": -0.138966869708498}, "southwest": {"lat": 51.5179435197085, "lng": -0.141664830291502}}}, "name": "Kin", "place_id": "ChIJXymuDyobdkgRaLhsMYzvisk", "types": ["cafe", "restaurant", "food", "point_of_interest", "store", "establishment"], "rating": 4.7, "user_ratings_total": 275}, "ChIJt62LBSobdkgRE164n9u83pA": {"geometry": {"location": {"lat": 51.5195488, "lng": -0.1403419}, "viewport": {"northeast": {"lat": 51.5208977802915, "lng": -0.1389929197084979}, "southwest": {"lat": 51.5181998197085, "lng": -0.141690880291502}}}, "name": "NIEMIERKO", "place_id": "ChIJt62LBSobdkgRE164n9u83pA", "types": ["point_of_interest", "establishment"], "rating": 5, "user_ratings_total": 9}, "ChIJAZD2DiobdkgR4iGe30T_fZ8": {"geometry": {"location": {"lat": 51.5193506, "lng": -0.1404356}, "viewport": {"northeast": {"lat": 51.52063813029149, "lng": -0.139059269708498}, "southwest": {"lat": 51.5179401697085, "lng": -0.141757230291502}}}, "name": "Fitzrovia Construction Ltd", "place_id": "ChIJAZD2DiobdkgR4iGe30T_fZ8", "types": ["general_contractor", "point_of_interest", "establishment"], "rating": 5, "user_ratings_total": 1}, "ChIJA64SZCobdkgRCeK2pjFS8iI": {"geometry": {"location": {"lat": 51.5201962, "lng": -0.1407641}, "viewport": {"northeast": {"lat": 51.5215644302915, "lng": -0.139308819708498}, "southwest": {"lat": 51.5188664697085, "lng": -0.142006780291502}}}, "name": "BAA Clothing", "place_id": "ChIJA64SZCobdkgRCeK2pjFS8iI", "types": ["clothing_store", "point_of_interest", "store", "establishment"]}, "ChIJLzIUCyobdkgROQe0fDRe08I": {"geometry": {"location": {"lat": 51.51954339999999, "lng": -0.1399958}, "viewport": {"northeast": {"lat": 51.52084483029149, "lng": -0.138580369708498}, "southwest": {"lat": 51.5181468697085, "lng": -0.141278330291502}}}, "name": "Nails Boutique", "place_id": "ChIJLzIUCyobdkgROQe0fDRe08I", "types": ["beauty_salon", "spa", "point_of_interest", "establishment"], "rating": 4.3, "user_ratings_total": 73}, "ChIJq_6XDyobdkgRNQIrr4c9qpI": {"geometry": {"location": {"lat": 51.5194516, "lng": -0.1403803}, "viewport": {"northeast": {"lat": 51.52081253029149, "lng": -0.138946669708498}, "southwest": {"lat": 51.5181145697085, "lng": -0.141644630291502}}}, "name": "Ecoinomy / Cost Of It", "place_id": "ChIJq_6XDyobdkgRNQIrr4c9qpI", "types": ["point_of_interest", "establishment"]}, "ChIJQ4QJHCobdkgR8gPHkOIxOVU": {"geometry": {"location": {"lat": 51.5198612, "lng": -0.1399553}, "viewport": {"northeast": {"lat": 51.5212294802915, "lng": -0.138517469708498}, "southwest": {"lat": 51.5185315197085, "lng": -0.141215430291502}}}, "name": "Minerva Smart Cities Ltd", "place_id": "ChIJQ4QJHCobdkgR8gPHkOIxOVU", "types": ["point_of_interest", "establishment"]}, "ChIJKwtEIcQbdkgR-TnOfTX3Vec": {"geometry": {"location": {"lat": 51.5198612, "lng": -0.1399553}, "viewport": {"northeast": {"lat": 51.5212294802915, "lng": -0.138517469708498}, "southwest": {"lat": 51.5185315197085, "lng": -0.141215430291502}}}, "name": "Ben", "place_id": "ChIJKwtEIcQbdkgR-TnOfTX3Vec", "types": ["point_of_interest", "establishment"]}, "ChIJ1_d0HAcbdkgRx6mcB40HuQc": {"geometry": {"location": {"lat": 51.5199916, "lng": -0.1403204}, "viewport": {"northeast": {"lat": 51.5213310802915, "lng": -0.139026619708498}, "southwest": {"lat": 51.5186331197085, "lng": -0.141724580291502}}}, "name": "Stamped Concrete", "place_id": "ChIJ1_d0HAcbdkgRx6mcB40HuQc", "types": ["general_contractor", "point_of_interest", "establishment"]}, "ChIJbY4wPpkbdkgR4n8NZDsMdG0": {"geometry": {"location": {"lat": 51.5199916, "lng": -0.1403204}, "viewport": {"northeast": {"lat": 51.52133133029149, "lng": -0.139025619708498}, "southwest": {"lat": 51.5186333697085, "lng": -0.141723580291502}}}, "name": "Great Portland Carpet Deep Cleansing", "place_id": "ChIJbY4wPpkbdkgR4n8NZDsMdG0", "types": ["laundry", "point_of_interest", "establishment"]}, "ChIJFxYFCKAbdkgRz4ajEmsXxn4": {"geometry": {"location": {"lat": 51.519991, "lng": -0.140443}, "viewport": {"northeast": {"lat": 51.5213485302915, "lng": -0.139045319708498}, "southwest": {"lat": 51.5186505697085, "lng": -0.141743280291502}}}, "name": "nutrijack Jackie McCusker Nutritionist", "place_id": "ChIJFxYFCKAbdkgRz4ajEmsXxn4", "types": ["health", "point_of_interest", "establishment"]}, "ChIJAQDpAiobdkgRx4H04eD8tko": {"geometry": {"location": {"lat": 51.5200677, "lng": -0.1403605}, "viewport": {"northeast": {"lat": 51.52140718029149, "lng": -0.139065819708498}, "southwest": {"lat": 51.51870921970849, "lng": -0.141763780291502}}}, "name": "Metcalfe Lancaster Food & Drink", "place_id": "ChIJAQDpAiobdkgRx4H04eD8tko", "types": ["point_of_interest", "establishment"], "rating": 5, "user_ratings_total": 1}, "ChIJAQDpAiobdkgRp2Wzb0jEl0g": {"geometry": {"location": {"lat": 51.5200677, "lng": -0.1403605}, "viewport": {"northeast": {"lat": 51.52140718029149, "lng": -0.139065819708498}, "southwest": {"lat": 51.51870921970849, "lng": -0.141763780291502}}}, "name": "Bullitt Ltd", "place_id": "ChIJAQDpAiobdkgRp2Wzb0jEl0g", "types": ["point_of_interest", "establishment"]}, "ChIJy4LpAiobdkgREuyhjc7mFZc": {"geometry": {"location": {"lat": 51.5200754, "lng": -0.1403601}, "viewport": {"northeast": {"lat": 51.5214145802915, "lng": -0.139067219708498}, "southwest": {"lat": 51.5187166197085, "lng": -0.141765180291502}}}, "name": "Onbeat Media", "place_id": "ChIJy4LpAiobdkgREuyhjc7mFZc", "types": ["point_of_interest", "establishment"]}, "ChIJJ5pbAiobdkgR4BYxMsLIfzk": {"geometry": {"location": {"lat": 51.5200754, "lng": -0.1403656}, "viewport": {"northeast": {"lat": 51.5214150302915, "lng": -0.1390701697084979}, "southwest": {"lat": 51.5187170697085, "lng": -0.141768130291502}}}, "name": "Mirror Max Group", "place_id": "ChIJJ5pbAiobdkgR4BYxMsLIfzk", "types": ["point_of_interest", "establishment"]}, "ChIJ61DtGSobdkgRwsFerXGRJoY": {"geometry": {"location": {"lat": 51.5196041, "lng": -0.1398392}, "viewport": {"northeast": {"lat": 51.52091078029149, "lng": -0.138434419708498}, "southwest": {"lat": 51.5182128197085, "lng": -0.141132380291502}}}, "name": "Hampton Music Limited", "place_id": "ChIJ61DtGSobdkgRwsFerXGRJoY", "types": ["point_of_interest", "establishment"]}, "ChIJG3zoK_IbdkgRHqqCeCw1D5I": {"geometry": {"location": {"lat": 51.5196041, "lng": -0.1398392}, "viewport": {"northeast": {"lat": 51.52091078029149, "lng": -0.138434419708498}, "southwest": {"lat": 51.5182128197085, "lng": -0.141132380291502}}}, "name": "Purple Physio", "place_id": "ChIJG3zoK_IbdkgRHqqCeCw1D5I", "types": ["physiotherapist", "health", "point_of_interest", "establishment"]}, "ChIJR4TxGSobdkgRTB8V19t4beA": {"geometry": {"location": {"lat": 51.5195841, "lng": -0.1398505}, "viewport": {"northeast": {"lat": 51.52089503029149, "lng": -0.138451319708498}, "southwest": {"lat": 51.51819706970849, "lng": -0.141149280291502}}}, "name": "Meekz Music Lifestyle & Entertainment Ltd", "place_id": "ChIJR4TxGSobdkgRTB8V19t4beA", "types": ["point_of_interest", "establishment"]}, "ChIJfXW0l2obdkgRZy2dCIH7k1M": {"geometry": {"location": {"lat": 51.5195841, "lng": -0.1398505}, "viewport": {"northeast": {"lat": 51.52089503029149, "lng": -0.138451319708498}, "southwest": {"lat": 51.51819706970849, "lng": -0.141149280291502}}}, "name": "genaghr ltd", "place_id": "ChIJfXW0l2obdkgRZy2dCIH7k1M", "types": ["electronics_store", "home_goods_store", "point_of_interest", "store", "establishment"]}, "ChIJR4TxGSobdkgRvLEQY9D0bGM": {"geometry": {"location": {"lat": 51.5195841, "lng": -0.1398505}, "viewport": {"northeast": {"lat": 51.52089503029149, "lng": -0.138451319708498}, "southwest": {"lat": 51.51819706970849, "lng": -0.141149280291502}}}, "name": "FREE FOCUS", "place_id": "ChIJR4TxGSobdkgRvLEQY9D0bGM", "types": ["point_of_interest", "establishment"]}, "ChIJaab2CKUbdkgRedE9ye0aTns": {"geometry": {"location": {"lat": 51.5195841, "lng": -0.1398505}, "viewport": {"northeast": {"lat": 51.52089503029149, "lng": -0.138451319708498}, "southwest": {"lat": 51.51819706970849, "lng": -0.141149280291502}}}, "name": "The Flight Club", "place_id": "ChIJaab2CKUbdkgRedE9ye0aTns", "types": ["point_of_interest", "establishment"]}, "ChIJqd89EhAbdkgRUvlvg-BJrU8": {"geometry": {"location": {"lat": 51.52013820000001, "lng": -0.140106}, "viewport": {"northeast": {"lat": 51.5214240802915, "lng": -0.138603019708498}, "southwest": {"lat": 51.5187261197085, "lng": -0.141300980291502}}}, "name": "Radisson Blu Edwardian Grafton Hotel", "place_id": "ChIJqd89EhAbdkgRUvlvg-BJrU8", "types": ["lodging", "point_of_interest", "establishment"]}, "ChIJu9dzldMadkgRJCgr4cNLSJY": {"geometry": {"location": {"lat": 51.5195236, "lng": -0.1402543}, "viewport": {"northeast": {"lat": 51.5208677302915, "lng": -0.138933019708498}, "southwest": {"lat": 51.5181697697085, "lng": -0.141630980291502}}}, "name": "Kate Moyle Psychosexual Therapy", "place_id": "ChIJu9dzldMadkgRJCgr4cNLSJY", "types": ["health", "point_of_interest", "establishment"]}, "ChIJtaF-ECobdkgRtZt8q4id5pQ": {"geometry": {"location": {"lat": 51.519504, "lng": -0.140088}, "viewport": {"northeast": {"lat": 51.5208024302915, "lng": -0.138668369708498}, "southwest": {"lat": 51.5181044697085, "lng": -0.141366330291502}}}, "name": "Natural Beauty Enhancement Ltd", "place_id": "ChIJtaF-ECobdkgRtZt8q4id5pQ", "types": ["beauty_salon", "point_of_interest", "establishment"], "rating": 1, "user_ratings_total": 1}, "ChIJaTVjBSobdkgRisy_INkN508": {"geometry": {"location": {"lat": 51.51953870000001, "lng": -0.1403919}, "viewport": {"northeast": {"lat": 51.52090013029149, "lng": -0.138971819708498}, "southwest": {"lat": 51.5182021697085, "lng": -0.141669780291502}}}, "name": "Lewis Wark", "place_id": "ChIJaTVjBSobdkgRisy_INkN508", "types": ["point_of_interest", "establishment"]}, "ChIJ-d9LyS0bdkgRA0F6fBC52BE": {"geometry": {"location": {"lat": 51.51953870000001, "lng": -0.1403919}, "viewport": {"northeast": {"lat": 51.5208999802915, "lng": -0.138971419708498}, "southwest": {"lat": 51.5182020197085, "lng": -0.141669380291502}}}, "name": "James R Alvarez PhD Associates", "place_id": "ChIJ-d9LyS0bdkgRA0F6fBC52BE", "types": ["health", "point_of_interest", "establishment"]}, "ChIJKT2rECobdkgRuORVm6w-egw": {"geometry": {"location": {"lat": 51.5195311, "lng": -0.1398878}, "viewport": {"northeast": {"lat": 51.52085238029151, "lng": -0.138500969708498}, "southwest": {"lat": 51.51815441970851, "lng": -0.141198930291502}}}, "name": "ColladoCollins", "place_id": "ChIJKT2rECobdkgRuORVm6w-egw", "types": ["point_of_interest", "establishment"], "rating": 5, "user_ratings_total": 9}, "ChIJ___TEMwEdkgRKj4vLsD4Zio": {"geometry": {"location": {"lat": 51.5195324, "lng": -0.140418}, "viewport": {"northeast": {"lat": 51.52089618029149, "lng": -0.138984519708498}, "southwest": {"lat": 51.51819821970849, "lng": -0.141682480291502}}}, "name": "The DSGN Studio", "place_id": "ChIJ___TEMwEdkgRKj4vLsD4Zio", "types": ["general_contractor", "point_of_interest", "establishment"], "rating": 4.5, "user_ratings_total": 2}, "ChIJRRVCGCobdkgRktbeP1BXxSM": {"geometry": {"location": {"lat": 51.51963199999999, "lng": -0.139679}, "viewport": {"northeast": {"lat": 51.52095478029149, "lng": -0.138295469708498}, "southwest": {"lat": 51.5182568197085, "lng": -0.140993430291502}}}, "name": "Candover Street Clinic", "place_id": "ChIJRRVCGCobdkgRktbeP1BXxSM", "types": ["health", "point_of_interest", "establishment"]}, "ChIJKbh_BSobdkgRc8xVr_JJO88": {"geometry": {"location": {"lat": 51.5195291, "lng": -0.1404296}, "viewport": {"northeast": {"lat": 51.5208939302915, "lng": -0.138990019708498}, "southwest": {"lat": 51.51819596970851, "lng": -0.141687980291502}}}, "name": "Grand Screen", "place_id": "ChIJKbh_BSobdkgRc8xVr_JJO88", "types": ["point_of_interest", "establishment"]}, "ChIJKbh_BSobdkgRS-GA1qcxdPc": {"geometry": {"location": {"lat": 51.5195291, "lng": -0.1404296}, "viewport": {"northeast": {"lat": 51.5208942302915, "lng": -0.138990169708498}, "southwest": {"lat": 51.5181962697085, "lng": -0.1416881302915021}}}, "name": "Titan screens", "place_id": "ChIJKbh_BSobdkgRS-GA1qcxdPc", "types": ["point_of_interest", "establishment"]}, "ChIJKbh_BSobdkgRXBubJMQgN2o": {"geometry": {"location": {"lat": 51.5195291, "lng": -0.1404296}, "viewport": {"northeast": {"lat": 51.5208939302915, "lng": -0.138990019708498}, "southwest": {"lat": 51.51819596970851, "lng": -0.141687980291502}}}, "name": "Laserlight Entertainment Limited", "place_id": "ChIJKbh_BSobdkgRXBubJMQgN2o", "types": ["point_of_interest", "establishment"]}, "ChIJBUaIUy0bdkgRaB5J3ARcxi4": {"geometry": {"location": {"lat": 51.519481, "lng": -0.140083}, "viewport": {"northeast": {"lat": 51.5207867302915, "lng": -0.138673619708498}, "southwest": {"lat": 51.5180887697085, "lng": -0.141371580291502}}}, "name": "Stellar Associates", "place_id": "ChIJBUaIUy0bdkgRaB5J3ARcxi4", "types": ["point_of_interest", "establishment"]}, "ChIJQxRPHyobdkgRv5elmyiPVco": {"geometry": {"location": {"lat": 51.5198941, "lng": -0.1395667}, "viewport": {"northeast": {"lat": 51.52115828029149, "lng": -0.138101369708498}, "southwest": {"lat": 51.5184603197085, "lng": -0.140799330291502}}}, "name": "The MacDonald-Buchanan School of Nursing", "place_id": "ChIJQxRPHyobdkgRv5elmyiPVco", "types": ["school", "point_of_interest", "establishment"]}, "ChIJ6fTOdCobdkgRc11niIJNpBo": {"geometry": {"location": {"lat": 51.51884140008391, "lng": -0.1407115990461477}, "viewport": {"northeast": {"lat": 51.5201903802915, "lng": -0.139362619708498}, "southwest": {"lat": 51.5174924197085, "lng": -0.142060580291502}}}, "name": "84-70 Great Titchfield St", "place_id": "ChIJ6fTOdCobdkgRc11niIJNpBo", "types": ["route"]}, "ChIJ3Zw-dSobdkgRZTBgHJ61V9g": {"geometry": {"location": {"lat": 51.5187722, "lng": -0.1408139}, "viewport": {"northeast": {"lat": 51.5201415802915, "lng": -0.139408419708498}, "southwest": {"lat": 51.5174436197085, "lng": -0.142106380291502}}}, "name": "Scandinavian Kitchen", "place_id": "ChIJ3Zw-dSobdkgRZTBgHJ61V9g", "types": ["cafe", "restaurant", "food", "point_of_interest", "store", "establishment"], "rating": 4.6, "user_ratings_total": 1239}, "ChIJF0CUcSobdkgRM2Mz_ZJTXgM": {"geometry": {"location": {"lat": 51.5184664, "lng": -0.1404}, "viewport": {"northeast": {"lat": 51.5197979302915, "lng": -0.139112969708498}, "southwest": {"lat": 51.5170999697085, "lng": -0.141810930291502}}}, "name": "Kaffeine", "place_id": "ChIJF0CUcSobdkgRM2Mz_ZJTXgM", "types": ["cafe", "restaurant", "food", "point_of_interest", "store", "establishment"], "rating": 4.5, "user_ratings_total": 1507}, "ChIJ8d6paiobdkgROBLNlY11yj8": {"geometry": {"location": {"lat": 51.518841, "lng": -0.1395165}, "viewport": {"northeast": {"lat": 51.5202061802915, "lng": -0.138124119708498}, "southwest": {"lat": 51.5175082197085, "lng": -0.140822080291502}}}, "name": "Spacious Two-Bedroom Apartment", "place_id": "ChIJ8d6paiobdkgROBLNlY11yj8", "types": ["lodging", "point_of_interest", "establishment"]}, "ChIJVeGBdCobdkgRwoqLXGyXpxg": {"geometry": {"location": {"lat": 51.5187328, "lng": -0.1404457}, "viewport": {"northeast": {"lat": 51.5200641302915, "lng": -0.139196969708498}, "southwest": {"lat": 51.5173661697085, "lng": -0.141894930291502}}}, "name": "Fleming Associates", "place_id": "ChIJVeGBdCobdkgRwoqLXGyXpxg", "types": ["point_of_interest", "establishment"]}, "ChIJgaepCyobdkgRG6MhS3lwqfU": {"geometry": {"location": {"lat": 51.51907139999999, "lng": -0.1406657}, "viewport": {"northeast": {"lat": 51.52043928029149, "lng": -0.139421369708498}, "southwest": {"lat": 51.51774131970849, "lng": -0.142119330291502}}}, "name": "Sergio's", "place_id": "ChIJgaepCyobdkgRG6MhS3lwqfU", "types": ["restaurant", "food", "point_of_interest", "establishment"], "rating": 4.4, "user_ratings_total": 513}, "ChIJxUakeiobdkgRTBBkhs1Jt9o": {"geometry": {"location": {"lat": 51.518234, "lng": -0.1403312}, "viewport": {"northeast": {"lat": 51.5195751302915, "lng": -0.139025869708498}, "southwest": {"lat": 51.5168771697085, "lng": -0.141723830291502}}}, "name": "Morplan London", "place_id": "ChIJxUakeiobdkgRTBBkhs1Jt9o", "types": ["clothing_store", "point_of_interest", "store", "establishment"], "rating": 3.1, "user_ratings_total": 27}, "ChIJvZJyRtQEdkgRKyJ15U-kgFM": {"geometry": {"location": {"lat": 51.5189678, "lng": -0.1394369}, "viewport": {"northeast": {"lat": 51.5203594802915, "lng": -0.138152819708498}, "southwest": {"lat": 51.5176615197085, "lng": -0.140850780291502}}}, "name": "Sri Lanka Tours", "place_id": "ChIJvZJyRtQEdkgRKyJ15U-kgFM", "types": ["travel_agency", "point_of_interest", "establishment"]}, "ChIJvzLPcSobdkgROfAT8ZZI5xw": {"geometry": {"location": {"lat": 51.51839150000001, "lng": -0.1403952}, "viewport": {"northeast": {"lat": 51.5197312802915, "lng": -0.139096869708498}, "southwest": {"lat": 51.5170333197085, "lng": -0.1417948302915021}}}, "name": "So Tiny London", "place_id": "ChIJvzLPcSobdkgROfAT8ZZI5xw", "types": ["point_of_interest", "clothing_store", "store", "establishment"], "rating": 4.6, "user_ratings_total": 42}, "ChIJvZJyRtQEdkgRJZnLXtuPmJ8": {"geometry": {"location": {"lat": 51.5190794, "lng": -0.1402894}, "viewport": {"northeast": {"lat": 51.5205045802915, "lng": -0.138974369708498}, "southwest": {"lat": 51.5178066197085, "lng": -0.141672330291502}}}, "name": "76", "place_id": "ChIJvZJyRtQEdkgRJZnLXtuPmJ8", "types": ["point_of_interest", "establishment"], "rating": 4.5, "user_ratings_total": 2}, "ChIJy2OVFSobdkgRatdegs9tYho": {"geometry": {"location": {"lat": 51.51894790000001, "lng": -0.1399577}, "viewport": {"northeast": {"lat": 51.52026433029151, "lng": -0.1385605697084979}, "southwest": {"lat": 51.51756636970851, "lng": -0.141258530291502}}}, "name": "Really Creative Media", "place_id": "ChIJy2OVFSobdkgRatdegs9tYho", "types": ["electronics_store", "point_of_interest", "store", "establishment"]}, "ChIJVeGBdCobdkgRYyiEKc33CXA": {"geometry": {"location": {"lat": 51.5187328, "lng": -0.1404457}, "viewport": {"northeast": {"lat": 51.5200641302915, "lng": -0.139196969708498}, "southwest": {"lat": 51.5173661697085, "lng": -0.141894930291502}}}, "name": "UK music marketing ltd", "place_id": "ChIJVeGBdCobdkgRYyiEKc33CXA", "types": ["point_of_interest", "establishment"]}, "ChIJVeGBdCobdkgRpLzLnTHctLQ": {"geometry": {"location": {"lat": 51.5187328, "lng": -0.1404457}, "viewport": {"northeast": {"lat": 51.5200641302915, "lng": -0.139196969708498}, "southwest": {"lat": 51.5173661697085, "lng": -0.141894930291502}}}, "name": "Property-forsaleincyprus.com", "place_id": "ChIJVeGBdCobdkgRpLzLnTHctLQ", "types": ["real_estate_agency", "point_of_interest", "establishment"]}, "ChIJBdbNI9QEdkgRirDxKFlUSiE": {"geometry": {"location": {"lat": 51.51846870000001, "lng": -0.1401517}, "viewport": {"northeast": {"lat": 51.51985053029151, "lng": -0.138753669708498}, "southwest": {"lat": 51.51715256970851, "lng": -0.141451630291502}}}, "name": "Cruise Portfolio", "place_id": "ChIJBdbNI9QEdkgRirDxKFlUSiE", "types": ["travel_agency", "point_of_interest", "establishment"], "rating": 5, "user_ratings_total": 1}, "ChIJJ6eedCobdkgRurInqh8kPR0": {"geometry": {"location": {"lat": 51.51868859999999, "lng": -0.1404391}, "viewport": {"northeast": {"lat": 51.5200210302915, "lng": -0.139184119708498}, "southwest": {"lat": 51.5173230697085, "lng": -0.141882080291502}}}, "name": "Edible Systems Ltd", "place_id": "ChIJJ6eedCobdkgRurInqh8kPR0", "types": ["food", "point_of_interest", "establishment"]}, "ChIJAbVw5GoOdkgRcXYLU-T5c_A": {"geometry": {"location": {"lat": 51.519079, "lng": -0.1402890000000001}, "viewport": {"northeast": {"lat": 51.52050438029151, "lng": -0.138974069708498}, "southwest": {"lat": 51.51780641970851, "lng": -0.141672030291502}}}, "name": "People Insight", "place_id": "ChIJAbVw5GoOdkgRcXYLU-T5c_A", "types": ["point_of_interest", "establishment"], "rating": 5, "user_ratings_total": 2}, "ChIJ9fkMbSobdkgRzSTm21fLbzA": {"geometry": {"location": {"lat": 51.51881799999999, "lng": -0.140213}, "viewport": {"northeast": {"lat": 51.5201300302915, "lng": -0.138809319708498}, "southwest": {"lat": 51.5174320697085, "lng": -0.141507280291502}}}, "name": "One Housing - Riding House", "place_id": "ChIJ9fkMbSobdkgRzSTm21fLbzA", "types": ["point_of_interest", "establishment"]}, "ChIJE96heCwFdkgRRewvqLlxi8Y": {"geometry": {"location": {"lat": 51.5188539, "lng": -0.1400721}, "viewport": {"northeast": {"lat": 51.5201780302915, "lng": -0.138686369708498}, "southwest": {"lat": 51.5174800697085, "lng": -0.141384330291502}}}, "name": "The Maria Montessori Institute", "place_id": "ChIJE96heCwFdkgRRewvqLlxi8Y", "types": ["university", "point_of_interest", "establishment"], "rating": 5, "user_ratings_total": 6}, "ChIJQ0mZcyobdkgRfpJDz7UEbWU": {"geometry": {"location": {"lat": 51.5185463, "lng": -0.1402374}, "viewport": {"northeast": {"lat": 51.51986683029151, "lng": -0.139045219708498}, "southwest": {"lat": 51.51716886970851, "lng": -0.141743180291502}}}, "name": "Mobilesignal.co.uk", "place_id": "ChIJQ0mZcyobdkgRfpJDz7UEbWU", "types": ["point_of_interest", "establishment"], "rating": 1, "user_ratings_total": 2}, "ChIJ2djFywAfdkgRKm2WO3ox2Qk": {"geometry": {"location": {"lat": 51.51868899999999, "lng": -0.140439}, "viewport": {"northeast": {"lat": 51.5200214302915, "lng": -0.139184169708498}, "southwest": {"lat": 51.5173234697085, "lng": -0.141882130291502}}}, "name": "Flash Haber Londra LTD", "place_id": "ChIJ2djFywAfdkgRKm2WO3ox2Qk", "types": ["book_store", "point_of_interest", "store", "establishment"]}, "ChIJAT2rcyobdkgRQg98S6BCBtE": {"geometry": {"location": {"lat": 51.51868859999999, "lng": -0.140439}, "viewport": {"northeast": {"lat": 51.5200210302915, "lng": -0.1391840697084979}, "southwest": {"lat": 51.5173230697085, "lng": -0.141882030291502}}}, "name": "Plateful Ltd", "place_id": "ChIJAT2rcyobdkgRQg98S6BCBtE", "types": ["point_of_interest", "establishment"]}, "ChIJdxiZcyobdkgRHPRzPlbOwhI": {"geometry": {"location": {"lat": 51.51868859999999, "lng": -0.1404392}, "viewport": {"northeast": {"lat": 51.5200210302915, "lng": -0.139184169708498}, "southwest": {"lat": 51.5173230697085, "lng": -0.141882130291502}}}, "name": "My Custom Tailor (no alterations)", "place_id": "ChIJdxiZcyobdkgRHPRzPlbOwhI", "types": ["point_of_interest", "establishment"], "rating": 5, "user_ratings_total": 1}, "ChIJBz2rcyobdkgRqym0zK-0c6Y": {"geometry": {"location": {"lat": 51.5187033, "lng": -0.1404426}, "viewport": {"northeast": {"lat": 51.5200354802915, "lng": -0.139189119708498}, "southwest": {"lat": 51.5173375197085, "lng": -0.141887080291502}}}, "name": "CLUCK PRINT - Bespoke Sticker Printers", "place_id": "ChIJBz2rcyobdkgRqym0zK-0c6Y", "types": ["point_of_interest", "store", "establishment"], "rating": 4.9, "user_ratings_total": 37}, "ChIJBz2rcyobdkgRhPkxmIAONUc": {"geometry": {"location": {"lat": 51.51868859999999, "lng": -0.1404392}, "viewport": {"northeast": {"lat": 51.5200210302915, "lng": -0.139184169708498}, "southwest": {"lat": 51.5173230697085, "lng": -0.141882130291502}}}, "name": "mobilerepeaters", "place_id": "ChIJBz2rcyobdkgRhPkxmIAONUc", "types": ["point_of_interest", "establishment"], "rating": 1, "user_ratings_total": 1}, "ChIJMZMEcyobdkgRxeCH2Andqqg": {"geometry": {"location": {"lat": 51.51873620000001, "lng": -0.1404628}, "viewport": {"northeast": {"lat": 51.5200688302915, "lng": -0.139206869708498}, "southwest": {"lat": 51.5173708697085, "lng": -0.1419048302915021}}}, "name": "LISA GRAYDON", "place_id": "ChIJMZMEcyobdkgRxeCH2Andqqg", "types": ["point_of_interest", "establishment"]}, "ChIJpYIEcyobdkgR5wpSuWbUElM": {"geometry": {"location": {"lat": 51.51873620000001, "lng": -0.1404628}, "viewport": {"northeast": {"lat": 51.5200688302915, "lng": -0.139206869708498}, "southwest": {"lat": 51.5173708697085, "lng": -0.1419048302915021}}}, "name": "No Sheet Music", "place_id": "ChIJpYIEcyobdkgR5wpSuWbUElM", "types": ["point_of_interest", "establishment"]}, "ChIJcxiZcyobdkgRMtQAGqkwOnk": {"geometry": {"location": {"lat": 51.5186783, "lng": -0.1405274}, "viewport": {"northeast": {"lat": 51.5200182802915, "lng": -0.139229369708498}, "southwest": {"lat": 51.5173203197085, "lng": -0.141927330291502}}}, "name": "Cargo Expert", "place_id": "ChIJcxiZcyobdkgRMtQAGqkwOnk", "types": ["point_of_interest", "establishment"], "rating": 5, "user_ratings_total": 1}, "ChIJLYSnbiobdkgR252kmrGGsGc": {"geometry": {"location": {"lat": 51.5186933, "lng": -0.1397367}, "viewport": {"northeast": {"lat": 51.5199504802915, "lng": -0.1385247197084979}, "southwest": {"lat": 51.5172525197085, "lng": -0.141222680291502}}}, "name": "West one House", "place_id": "ChIJLYSnbiobdkgR252kmrGGsGc", "types": ["lodging", "point_of_interest", "establishment"], "rating": 3.8, "user_ratings_total": 5}, "ChIJPe4XbiobdkgRRSom1KTQNWs": {"geometry": {"location": {"lat": 51.51846870000001, "lng": -0.1401517}, "viewport": {"northeast": {"lat": 51.51985053029151, "lng": -0.138753669708498}, "southwest": {"lat": 51.51715256970851, "lng": -0.141451630291502}}}, "name": "Mundy Adventures", "place_id": "ChIJPe4XbiobdkgRRSom1KTQNWs", "types": ["travel_agency", "point_of_interest", "establishment"]}, "ChIJF34FHSsbdkgRh6O-sybJxRw": {"geometry": {"location": {"lat": 51.5184706, "lng": -0.1404083}, "viewport": {"northeast": {"lat": 51.5198083802915, "lng": -0.139121019708498}, "southwest": {"lat": 51.5171104197085, "lng": -0.141818980291502}}}, "name": "Sibling & Co.", "place_id": "ChIJF34FHSsbdkgRh6O-sybJxRw", "types": ["point_of_interest", "establishment"]}, "ChIJd7CWcSobdkgRSJNaemsTS1M": {"geometry": {"location": {"lat": 51.51841109999999, "lng": -0.1403314}, "viewport": {"northeast": {"lat": 51.51974478029149, "lng": -0.139066719708498}, "southwest": {"lat": 51.5170468197085, "lng": -0.141764680291502}}}, "name": "The Play Room Post", "place_id": "ChIJd7CWcSobdkgRSJNaemsTS1M", "types": ["point_of_interest", "establishment"], "rating": 5, "user_ratings_total": 2}, "ChIJMUFwcyobdkgRgsS6q_Dtoa0": {"geometry": {"location": {"lat": 51.5186636, "lng": -0.1406696}, "viewport": {"northeast": {"lat": 51.5200103302915, "lng": -0.139333419708498}, "southwest": {"lat": 51.5173123697085, "lng": -0.142031380291502}}}, "name": "Zipcar", "place_id": "ChIJMUFwcyobdkgRgsS6q_Dtoa0", "types": ["point_of_interest", "establishment"]}, "ChIJ0SvPgdUadkgRidfRqqdQxVY": {"geometry": {"location": {"lat": 51.518404, "lng": -0.140364}, "viewport": {"northeast": {"lat": 51.5197406802915, "lng": -0.139082769708498}, "southwest": {"lat": 51.5170427197085, "lng": -0.141780730291502}}}, "name": "Polword Ltd. - Polish Language School", "place_id": "ChIJ0SvPgdUadkgRidfRqqdQxVY", "types": ["point_of_interest", "establishment"], "rating": 4.9, "user_ratings_total": 14}, "ChIJ2w4udCobdkgRXQZcnqInAHE": {"geometry": {"location": {"lat": 51.5185749, "lng": -0.1407221}, "viewport": {"northeast": {"lat": 51.5199345802915, "lng": -0.139312169708498}, "southwest": {"lat": 51.5172366197085, "lng": -0.142010130291502}}}, "name": "Hunza", "place_id": "ChIJ2w4udCobdkgRXQZcnqInAHE", "types": ["point_of_interest", "establishment"], "rating": 5, "user_ratings_total": 1}, "ChIJ34WlVNUadkgRcJfFTbDLss8": {"geometry": {"location": {"lat": 51.519079, "lng": -0.1402890000000001}, "viewport": {"northeast": {"lat": 51.52050438029151, "lng": -0.138974069708498}, "southwest": {"lat": 51.51780641970851, "lng": -0.141672030291502}}}, "name": "Music Plus Sport", "place_id": "ChIJ34WlVNUadkgRcJfFTbDLss8", "types": ["point_of_interest", "establishment"]}, "ChIJR-vtijQbdkgRO8PowDQozl8": {"geometry": {"location": {"lat": 51.5190794, "lng": -0.1402894}, "viewport": {"northeast": {"lat": 51.5205045802915, "lng": -0.138974369708498}, "southwest": {"lat": 51.5178066197085, "lng": -0.141672330291502}}}, "name": "TIPi Group", "place_id": "ChIJR-vtijQbdkgRO8PowDQozl8", "types": ["point_of_interest", "establishment"], "rating": 4.8, "user_ratings_total": 5}, "ChIJdaNh2TgbdkgRGwpGgyonxPo": {"geometry": {"location": {"lat": 51.5190794, "lng": -0.1402894}, "viewport": {"northeast": {"lat": 51.5205045802915, "lng": -0.138974369708498}, "southwest": {"lat": 51.5178066197085, "lng": -0.141672330291502}}}, "name": "Future Platforms", "place_id": "ChIJdaNh2TgbdkgRGwpGgyonxPo", "types": ["point_of_interest", "establishment"], "rating": 5, "user_ratings_total": 9}, "ChIJgzFyEiobdkgRRU_uGJKVOa4": {"geometry": {"location": {"lat": 51.5190956, "lng": -0.1402161}, "viewport": {"northeast": {"lat": 51.52051913029149, "lng": -0.138900319708498}, "southwest": {"lat": 51.51782116970849, "lng": -0.141598280291502}}}, "name": "Tracklicensing", "place_id": "ChIJgzFyEiobdkgRRU_uGJKVOa4", "types": ["point_of_interest", "establishment"]}, "ChIJa4rqGsoEdkgRiEXRX_ZtSPU": {"geometry": {"location": {"lat": 51.5190956, "lng": -0.1402161}, "viewport": {"northeast": {"lat": 51.52051913029149, "lng": -0.138900319708498}, "southwest": {"lat": 51.51782116970849, "lng": -0.141598280291502}}}, "name": "Eventspiration", "place_id": "ChIJa4rqGsoEdkgRiEXRX_ZtSPU", "types": ["point_of_interest", "establishment"]}, "ChIJsU9ufSobdkgRfhgN4y-16R8": {"geometry": {"location": {"lat": 51.5191019, "lng": -0.1402317}, "viewport": {"northeast": {"lat": 51.5205212302915, "lng": -0.138914069708498}, "southwest": {"lat": 51.5178232697085, "lng": -0.141612030291502}}}, "name": "ROAST", "place_id": "ChIJsU9ufSobdkgRfhgN4y-16R8", "types": ["point_of_interest", "establishment"], "rating": 4.9, "user_ratings_total": 15}, "ChIJeQdTcCobdkgRTzXKcWssix8": {"geometry": {"location": {"lat": 51.5183548, "lng": -0.1403803}, "viewport": {"northeast": {"lat": 51.51969478029149, "lng": -0.139080919708498}, "southwest": {"lat": 51.5169968197085, "lng": -0.141778880291502}}}, "name": "Tokimeki Ltd", "place_id": "ChIJeQdTcCobdkgRTzXKcWssix8", "types": ["point_of_interest", "establishment"], "rating": 5, "user_ratings_total": 2}, "ChIJ2Xxt7CobdkgRmC0K8ILS2BI": {"geometry": {"location": {"lat": 51.5183548, "lng": -0.1403803}, "viewport": {"northeast": {"lat": 51.51969478029149, "lng": -0.139080919708498}, "southwest": {"lat": 51.5169968197085, "lng": -0.141778880291502}}}, "name": "Tomoyuki & Co", "place_id": "ChIJ2Xxt7CobdkgRmC0K8ILS2BI", "types": ["beauty_salon", "hair_care", "point_of_interest", "establishment"], "rating": 4.6, "user_ratings_total": 114}, "ChIJxzQ7_9YadkgRaaSCpZ8iG3M": {"geometry": {"location": {"lat": 51.518704, "lng": -0.1394932}, "viewport": {"northeast": {"lat": 51.5200666802915, "lng": -0.138107519708498}, "southwest": {"lat": 51.5173687197085, "lng": -0.140805480291502}}}, "name": "Nicholas Peters & Co", "place_id": "ChIJxzQ7_9YadkgRaaSCpZ8iG3M", "types": ["accounting", "finance", "point_of_interest", "establishment"], "rating": 5, "user_ratings_total": 11}, "ChIJyY6tP9UadkgRzMyKNa4fL8E": {"geometry": {"location": {"lat": 51.518704, "lng": -0.1394932}, "viewport": {"northeast": {"lat": 51.5200666802915, "lng": -0.138107519708498}, "southwest": {"lat": 51.5173687197085, "lng": -0.140805480291502}}}, "name": "PIVOT", "place_id": "ChIJyY6tP9UadkgRzMyKNa4fL8E", "types": ["finance", "point_of_interest", "establishment"], "rating": 4, "user_ratings_total": 1}, "ChIJq815DCobdkgRIHPnEG3UQo0": {"geometry": {"location": {"lat": 51.51907490000001, "lng": -0.140537}, "viewport": {"northeast": {"lat": 51.52048288029151, "lng": -0.139235869708498}, "southwest": {"lat": 51.51778491970851, "lng": -0.141933830291502}}}, "name": "Electric Airwaves", "place_id": "ChIJq815DCobdkgRIHPnEG3UQo0", "types": ["electronics_store", "home_goods_store", "point_of_interest", "store", "establishment"]}, "ChIJhWFFzLIcdkgRZlYtX1orptM": {"geometry": {"location": {"lat": 51.5191423, "lng": -0.1401801}, "viewport": {"northeast": {"lat": 51.52054528029149, "lng": -0.138868769708498}, "southwest": {"lat": 51.51784731970849, "lng": -0.141566730291502}}}, "name": "Practicus Ltd", "place_id": "ChIJhWFFzLIcdkgRZlYtX1orptM", "types": ["point_of_interest", "establishment"], "rating": 5, "user_ratings_total": 1}, "ChIJH6xJKFsDdkgRDTI2RspYJf8": {"geometry": {"location": {"lat": 51.51913739999999, "lng": -0.1402675}, "viewport": {"northeast": {"lat": 51.52053738029149, "lng": -0.138941269708498}, "southwest": {"lat": 51.51783941970849, "lng": -0.141639230291502}}}, "name": "FirstPort", "place_id": "ChIJH6xJKFsDdkgRDTI2RspYJf8", "types": ["point_of_interest", "establishment"], "rating": 1.5, "user_ratings_total": 73}, "ChIJcxiZcyobdkgRVUDWGSRolK0": {"geometry": {"location": {"lat": 51.5186808, "lng": -0.1404873}, "viewport": {"northeast": {"lat": 51.5200174302915, "lng": -0.139208369708498}, "southwest": {"lat": 51.5173194697085, "lng": -0.141906330291502}}}, "name": "Mail Boxes Etc. Oxford Circus", "place_id": "ChIJcxiZcyobdkgRVUDWGSRolK0", "types": ["point_of_interest", "store", "establishment"], "rating": 3, "user_ratings_total": 9}, "ChIJuWVoDCobdkgRCGQaSVXFcj0": {"geometry": {"location": {"lat": 51.519075, "lng": -0.1405369}, "viewport": {"northeast": {"lat": 51.5204829302915, "lng": -0.139235819708498}, "southwest": {"lat": 51.5177849697085, "lng": -0.1419337802915021}}}, "name": "ABL Group", "place_id": "ChIJuWVoDCobdkgRCGQaSVXFcj0", "types": ["point_of_interest", "establishment"]}, "ChIJAx6Hbk3BdkgRUijkhfjxxQI": {"geometry": {"location": {"lat": 51.5189542, "lng": -0.1395374}, "viewport": {"northeast": {"lat": 51.5203338802915, "lng": -0.138235069708498}, "southwest": {"lat": 51.5176359197085, "lng": -0.140933030291502}}}, "name": "The Green Man, Fitzrovia W1", "place_id": "ChIJAx6Hbk3BdkgRUijkhfjxxQI", "types": ["bar", "restaurant", "food", "point_of_interest", "establishment"], "rating": 4.1, "user_ratings_total": 618}, "ChIJxXizFSobdkgRSp-c9QygEA0": {"geometry": {"location": {"lat": 51.51909309999999, "lng": -0.1397077}, "viewport": {"northeast": {"lat": 51.5204096302915, "lng": -0.138309419708498}, "southwest": {"lat": 51.5177116697085, "lng": -0.141007380291502}}}, "name": "Rare", "place_id": "ChIJxXizFSobdkgRSp-c9QygEA0", "types": ["point_of_interest", "establishment"]}, "ChIJAw2vVKccdkgR1VcseqWp_78": {"geometry": {"location": {"lat": 51.5183688, "lng": -0.1406103}, "viewport": {"northeast": {"lat": 51.51972748029149, "lng": -0.139207969708498}, "southwest": {"lat": 51.51702951970849, "lng": -0.141905930291502}}}, "name": "DIALECTICA LTD", "place_id": "ChIJAw2vVKccdkgR1VcseqWp_78", "types": ["finance", "point_of_interest", "establishment"]}, "ChIJB8T8jSobdkgRNtKcRgo-zlo": {"geometry": {"location": {"lat": 51.5187674, "lng": -0.139375}, "viewport": {"northeast": {"lat": 51.5201131802915, "lng": -0.1380344197084979}, "southwest": {"lat": 51.5174152197085, "lng": -0.140732380291502}}}, "name": "FORM CLINIC - Osteopathy & Physiotherapy Clinic", "place_id": "ChIJB8T8jSobdkgRNtKcRgo-zlo", "types": ["physiotherapist", "health", "point_of_interest", "establishment"], "rating": 4.9, "user_ratings_total": 184}, "ChIJj6WiRtEadkgRwpNH556oyWs": {"geometry": {"location": {"lat": 51.5182474, "lng": -0.1399913}, "viewport": {"northeast": {"lat": 51.51962503029149, "lng": -0.138663269708498}, "southwest": {"lat": 51.51692706970849, "lng": -0.141361230291502}}}, "name": "111SKIN - Luxury Innovative Skincare", "place_id": "ChIJj6WiRtEadkgRwpNH556oyWs", "types": ["point_of_interest", "store", "establishment"], "rating": 4.7, "user_ratings_total": 67}, "ChIJSVSBFSobdkgRRINjpmaNhgY": {"geometry": {"location": {"lat": 51.51852309999999, "lng": -0.1408621}, "viewport": {"northeast": {"lat": 51.5198671802915, "lng": -0.139509319708498}, "southwest": {"lat": 51.51716921970851, "lng": -0.142207280291502}}}, "name": "Warp Films", "place_id": "ChIJSVSBFSobdkgRRINjpmaNhgY", "types": ["point_of_interest", "establishment"]}, "ChIJcX2sCiobdkgRnGqEkWxDLa0": {"geometry": {"location": {"lat": 51.5188893, "lng": -0.1408743}, "viewport": {"northeast": {"lat": 51.5202500802915, "lng": -0.139460219708498}, "southwest": {"lat": 51.5175521197085, "lng": -0.142158180291502}}}, "name": "Mac and Wild Fitzrovia", "place_id": "ChIJcX2sCiobdkgRnGqEkWxDLa0", "types": ["restaurant", "food", "point_of_interest", "establishment"], "rating": 4.3, "user_ratings_total": 994}, "ChIJqXfiI7AcdkgRoTCedsg71gQ": {"geometry": {"location": {"lat": 51.5185538, "lng": -0.1408775}, "viewport": {"northeast": {"lat": 51.5198698802915, "lng": -0.139511769708498}, "southwest": {"lat": 51.5171719197085, "lng": -0.142209730291502}}}, "name": "Gorilla Editors", "place_id": "ChIJqXfiI7AcdkgRoTCedsg71gQ", "types": ["point_of_interest", "establishment"], "rating": 5, "user_ratings_total": 3}, "ChIJuyjBPyobdkgRGLyBXA6tUQw": {"geometry": {"location": {"lat": 51.5189678, "lng": -0.1394369}, "viewport": {"northeast": {"lat": 51.5203594802915, "lng": -0.138152819708498}, "southwest": {"lat": 51.5176615197085, "lng": -0.140850780291502}}}, "name": "Umrah Packages | Al-Hijaz Travel", "place_id": "ChIJuyjBPyobdkgRGLyBXA6tUQw", "types": ["travel_agency", "point_of_interest", "establishment"], "rating": 4.5, "user_ratings_total": 2}, "ChIJuyjBPyobdkgRCMZl6DZR6W0": {"geometry": {"location": {"lat": 51.5189678, "lng": -0.1394369}, "viewport": {"northeast": {"lat": 51.5203594802915, "lng": -0.138152819708498}, "southwest": {"lat": 51.5176615197085, "lng": -0.140850780291502}}}, "name": "Flights To India", "place_id": "ChIJuyjBPyobdkgRCMZl6DZR6W0", "types": ["travel_agency", "point_of_interest", "store", "establishment"], "rating": 3.7, "user_ratings_total": 3}, "ChIJ4fZ-ZCobdkgR2YpUxjMqXPU": {"geometry": {"location": {"lat": 51.51788765022039, "lng": -0.1400435001932249}, "viewport": {"northeast": {"lat": 51.51923663029149, "lng": -0.138694519708498}, "southwest": {"lat": 51.5165386697085, "lng": -0.141392480291502}}}, "name": "57-61 A5204", "place_id": "ChIJ4fZ-ZCobdkgR2YpUxjMqXPU", "types": ["route"]}, "ChIJO_jFZyoFdkgRwW5vRdPDesM": {"geometry": {"location": {"lat": 51.5179529, "lng": -0.140166}, "viewport": {"northeast": {"lat": 51.5192618302915, "lng": -0.138799469708498}, "southwest": {"lat": 51.5165638697085, "lng": -0.141497430291502}}}, "name": "Glazier Design", "place_id": "ChIJO_jFZyoFdkgRwW5vRdPDesM", "types": ["point_of_interest", "establishment"], "rating": 5, "user_ratings_total": 1}, "ChIJndR7XiwbdkgRXEEMda9U3Nk": {"geometry": {"location": {"lat": 51.5179529, "lng": -0.140166}, "viewport": {"northeast": {"lat": 51.5192618302915, "lng": -0.138799469708498}, "southwest": {"lat": 51.5165638697085, "lng": -0.141497430291502}}}, "name": "Farrell + Clark Architects", "place_id": "ChIJndR7XiwbdkgRXEEMda9U3Nk", "types": ["point_of_interest", "establishment"]}, "ChIJy5lRs0AFdkgRff-GurfXkPE": {"geometry": {"location": {"lat": 51.51779, "lng": -0.140132}, "viewport": {"northeast": {"lat": 51.5191774302915, "lng": -0.138745869708498}, "southwest": {"lat": 51.5164794697085, "lng": -0.141443830291502}}}, "name": "The Buying Agents", "place_id": "ChIJy5lRs0AFdkgRff-GurfXkPE", "types": ["real_estate_agency", "point_of_interest", "establishment"], "rating": 5, "user_ratings_total": 3}, "ChIJP81qYyobdkgRl_lcu7yu44k": {"geometry": {"location": {"lat": 51.5177927, "lng": -0.1401418}, "viewport": {"northeast": {"lat": 51.5191780802915, "lng": -0.138749869708498}, "southwest": {"lat": 51.5164801197085, "lng": -0.141447830291502}}}, "name": "IV Response Limited", "place_id": "ChIJP81qYyobdkgRl_lcu7yu44k", "types": ["point_of_interest", "establishment"]}, "ChIJs7ITCisbdkgRQ0-G2bTJOdY": {"geometry": {"location": {"lat": 51.5177954, "lng": -0.1400617}, "viewport": {"northeast": {"lat": 51.5191858802915, "lng": -0.138712069708498}, "southwest": {"lat": 51.5164879197085, "lng": -0.141410030291502}}}, "name": "The Third Floor", "place_id": "ChIJs7ITCisbdkgRQ0-G2bTJOdY", "types": ["point_of_interest", "establishment"], "rating": 5, "user_ratings_total": 3}, "ChIJvYW_ZCobdkgR9gnGnVXO3pw": {"geometry": {"location": {"lat": 51.51798389999999, "lng": -0.1400453}, "viewport": {"northeast": {"lat": 51.5192879302915, "lng": -0.138676619708498}, "southwest": {"lat": 51.5165899697085, "lng": -0.141374580291502}}}, "name": "JON OPSTAD", "place_id": "ChIJvYW_ZCobdkgR9gnGnVXO3pw", "types": ["point_of_interest", "establishment"]}, "ChIJBfHZZCobdkgRzCV1_eeMzcI": {"geometry": {"location": {"lat": 51.5180265, "lng": -0.1401971}, "viewport": {"northeast": {"lat": 51.5193644302915, "lng": -0.138917219708498}, "southwest": {"lat": 51.5166664697085, "lng": -0.141615180291502}}}, "name": "Shackleton", "place_id": "ChIJBfHZZCobdkgRzCV1_eeMzcI", "types": ["real_estate_agency", "point_of_interest", "establishment"], "rating": 5, "user_ratings_total": 1}, "ChIJj3_TmNUadkgRurc5SHaJuAs": {"geometry": {"location": {"lat": 51.51802489999999, "lng": -0.14004}, "viewport": {"northeast": {"lat": 51.51931028029149, "lng": -0.138663119708498}, "southwest": {"lat": 51.51661231970849, "lng": -0.141361080291502}}}, "name": "Carver PR", "place_id": "ChIJj3_TmNUadkgRurc5SHaJuAs", "types": ["point_of_interest", "establishment"]}, "ChIJ46ISmiobdkgR5aQhHWs_wc0": {"geometry": {"location": {"lat": 51.51802489999999, "lng": -0.14004}, "viewport": {"northeast": {"lat": 51.51937388029149, "lng": -0.138691019708498}, "southwest": {"lat": 51.5166759197085, "lng": -0.141388980291502}}}, "name": "Full Comms", "place_id": "ChIJ46ISmiobdkgR5aQhHWs_wc0", "types": ["point_of_interest", "establishment"], "rating": 3.9, "user_ratings_total": 7}, "ChIJW8hReSobdkgRX_nKdrENFiU": {"geometry": {"location": {"lat": 51.5179954, "lng": -0.1404971}, "viewport": {"northeast": {"lat": 51.51925803029151, "lng": -0.139107619708498}, "southwest": {"lat": 51.51656006970851, "lng": -0.141805580291502}}}, "name": "Genese London", "place_id": "ChIJW8hReSobdkgRX_nKdrENFiU", "types": ["point_of_interest", "clothing_store", "store", "establishment"], "rating": 3.7, "user_ratings_total": 3}, "ChIJD3UOHNYadkgRWU-XWCe0uKY": {"geometry": {"location": {"lat": 51.52104527787115, "lng": -0.141624143632541}, "viewport": {"northeast": {"lat": 51.5223935302915, "lng": -0.140274769708498}, "southwest": {"lat": 51.5196955697085, "lng": -0.142972730291502}}}, "name": "34 Clipstone St", "place_id": "ChIJD3UOHNYadkgRWU-XWCe0uKY", "types": ["route"]}, "ChIJKcLmdNYadkgR6-u569TK_xc": {"geometry": {"location": {"lat": 51.5207354, "lng": -0.1424074}, "viewport": {"northeast": {"lat": 51.52197933029149, "lng": -0.140969419708498}, "southwest": {"lat": 51.5192813697085, "lng": -0.143667380291502}}}, "name": "YHA London Central Hostel", "place_id": "ChIJKcLmdNYadkgR6-u569TK_xc", "types": ["lodging", "point_of_interest", "establishment"], "rating": 4.2, "user_ratings_total": 1179}, "ChIJtRsPEtYadkgRCwMdtCYiGSE": {"geometry": {"location": {"lat": 51.5208417, "lng": -0.142125}, "viewport": {"northeast": {"lat": 51.5222442302915, "lng": -0.140799419708498}, "southwest": {"lat": 51.5195462697085, "lng": -0.143497380291502}}}, "name": "The Lucky Pig Cocktail Bar", "place_id": "ChIJtRsPEtYadkgRCwMdtCYiGSE", "types": ["bar", "point_of_interest", "establishment"], "rating": 4.1, "user_ratings_total": 420}, "ChIJ00gcP9YadkgRa7yn8wmFCmw": {"geometry": {"location": {"lat": 51.521301, "lng": -0.141985}, "viewport": {"northeast": {"lat": 51.5226646802915, "lng": -0.140552619708498}, "southwest": {"lat": 51.5199667197085, "lng": -0.143250580291502}}}, "name": "Vanilla", "place_id": "ChIJ00gcP9YadkgRa7yn8wmFCmw", "types": ["point_of_interest", "establishment"], "rating": 4.4, "user_ratings_total": 73}, "ChIJYXYLENYadkgRQLLvAoLHVkA": {"geometry": {"location": {"lat": 51.5209415, "lng": -0.1417536}, "viewport": {"northeast": {"lat": 51.52229678029149, "lng": -0.140369819708498}, "southwest": {"lat": 51.5195988197085, "lng": -0.143067780291502}}}, "name": "Conchiglia", "place_id": "ChIJYXYLENYadkgRQLLvAoLHVkA", "types": ["restaurant", "food", "point_of_interest", "establishment"], "rating": 4.5, "user_ratings_total": 346}, "ChIJK-YcEdYadkgRdvQoJ01HAxs": {"geometry": {"location": {"lat": 51.5211, "lng": -0.141959}, "viewport": {"northeast": {"lat": 51.5225130802915, "lng": -0.140496269708498}, "southwest": {"lat": 51.5198151197085, "lng": -0.143194230291502}}}, "name": "The London Smile Clinic", "place_id": "ChIJK-YcEdYadkgRdvQoJ01HAxs", "types": ["dentist", "health", "point_of_interest", "establishment"], "rating": 4.8, "user_ratings_total": 174}, "ChIJ00gcP9YadkgRDU5yrI7Drtk": {"geometry": {"location": {"lat": 51.5206933, "lng": -0.1421413}, "viewport": {"northeast": {"lat": 51.5220294302915, "lng": -0.140864669708498}, "southwest": {"lat": 51.5193314697085, "lng": -0.143562630291502}}}, "name": "Music for London Ltd.", "place_id": "ChIJ00gcP9YadkgRDU5yrI7Drtk", "types": ["point_of_interest", "establishment"], "rating": 5, "user_ratings_total": 10}, "ChIJSyc8_tUadkgRAWRZpbCd8e4": {"geometry": {"location": {"lat": 51.5206933, "lng": -0.1421413}, "viewport": {"northeast": {"lat": 51.5220294302915, "lng": -0.140864669708498}, "southwest": {"lat": 51.5193314697085, "lng": -0.143562630291502}}}, "name": "Puur Floors Ltd", "place_id": "ChIJSyc8_tUadkgRAWRZpbCd8e4", "types": ["general_contractor", "point_of_interest", "establishment"], "rating": 4, "user_ratings_total": 2}, "ChIJeW5FYpAadkgRjTpVmJ25-Gg": {"geometry": {"location": {"lat": 51.5206426, "lng": -0.1420313}, "viewport": {"northeast": {"lat": 51.5219716302915, "lng": -0.140794819708498}, "southwest": {"lat": 51.5192736697085, "lng": -0.143492780291502}}}, "name": "Canfields Law Limited", "place_id": "ChIJeW5FYpAadkgRjTpVmJ25-Gg", "types": ["lawyer", "point_of_interest", "establishment"], "rating": 3.7, "user_ratings_total": 7}, "ChIJceZiF24QdkgRQzY8Dbe7ooU": {"geometry": {"location": {"lat": 51.5206426, "lng": -0.1420313}, "viewport": {"northeast": {"lat": 51.5219716302915, "lng": -0.140794819708498}, "southwest": {"lat": 51.5192736697085, "lng": -0.143492780291502}}}, "name": "Sigma Construction UK - building company London", "place_id": "ChIJceZiF24QdkgRQzY8Dbe7ooU", "types": ["general_contractor", "point_of_interest", "establishment"], "rating": 4.7, "user_ratings_total": 17}, "ChIJX7jGD9YadkgR9tYST5XtAoo": {"geometry": {"location": {"lat": 51.5207777, "lng": -0.1418257}, "viewport": {"northeast": {"lat": 51.52214668029149, "lng": -0.1403664197084979}, "southwest": {"lat": 51.5194487197085, "lng": -0.143064380291502}}}, "name": "Handwoodflooring", "place_id": "ChIJX7jGD9YadkgR9tYST5XtAoo", "types": ["home_goods_store", "general_contractor", "point_of_interest", "store", "establishment"]}, "ChIJtRsPEtYadkgRlfx4UCs3s2I": {"geometry": {"location": {"lat": 51.52083500000001, "lng": -0.1421313}, "viewport": {"northeast": {"lat": 51.5222401302915, "lng": -0.140806869708498}, "southwest": {"lat": 51.5195421697085, "lng": -0.143504830291502}}}, "name": "Syntel Europe Ltd.", "place_id": "ChIJtRsPEtYadkgRlfx4UCs3s2I", "types": ["electronics_store", "point_of_interest", "store", "establishment"], "rating": 4.4, "user_ratings_total": 8}, "ChIJpf-fE9YadkgRTekt7fTFkIk": {"geometry": {"location": {"lat": 51.52110829999999, "lng": -0.142123}, "viewport": {"northeast": {"lat": 51.5225172302915, "lng": -0.140586119708498}, "southwest": {"lat": 51.5198192697085, "lng": -0.1432840802915021}}}, "name": "Milk VFX", "place_id": "ChIJpf-fE9YadkgRTekt7fTFkIk", "types": ["point_of_interest", "establishment"], "rating": 4.9, "user_ratings_total": 14}, "ChIJfw0Cl9QadkgRazVnK1M8j34": {"geometry": {"location": {"lat": 51.52083500000001, "lng": -0.1421313}, "viewport": {"northeast": {"lat": 51.5222401302915, "lng": -0.140806869708498}, "southwest": {"lat": 51.5195421697085, "lng": -0.143504830291502}}}, "name": "Centreland", "place_id": "ChIJfw0Cl9QadkgRazVnK1M8j34", "types": ["point_of_interest", "establishment"]}, "ChIJs1nE0dUadkgRwEn7NOPhRDY": {"geometry": {"location": {"lat": 51.5206337, "lng": -0.1421463}, "viewport": {"northeast": {"lat": 51.52197313029149, "lng": -0.140855019708498}, "southwest": {"lat": 51.51927516970849, "lng": -0.143552980291502}}}, "name": "Simmons Gleek", "place_id": "ChIJs1nE0dUadkgRwEn7NOPhRDY", "types": ["lawyer", "point_of_interest", "establishment"]}, "ChIJmRrWYCwFdkgR6aY4vYmMM1U": {"geometry": {"location": {"lat": 51.520643, "lng": -0.142031}, "viewport": {"northeast": {"lat": 51.5219719802915, "lng": -0.140794719708498}, "southwest": {"lat": 51.5192740197085, "lng": -0.143492680291502}}}, "name": "Reflective IT Solutions", "place_id": "ChIJmRrWYCwFdkgR6aY4vYmMM1U", "types": ["point_of_interest", "establishment"], "rating": 5, "user_ratings_total": 8}, "ChIJ2_DRDdYadkgR3L-Vxsgu5us": {"geometry": {"location": {"lat": 51.5206303, "lng": -0.1420525}, "viewport": {"northeast": {"lat": 51.5219615302915, "lng": -0.140803569708498}, "southwest": {"lat": 51.5192635697085, "lng": -0.143501530291502}}}, "name": "Exo Design", "place_id": "ChIJ2_DRDdYadkgR3L-Vxsgu5us", "types": ["point_of_interest", "establishment"], "rating": 3, "user_ratings_total": 2}, "ChIJXUxlGtYadkgRaFjC4amhrJg": {"geometry": {"location": {"lat": 51.5209206, "lng": -0.1417746}, "viewport": {"northeast": {"lat": 51.52231398029151, "lng": -0.140445019708498}, "southwest": {"lat": 51.51961601970851, "lng": -0.143142980291502}}}, "name": "Pinta Production", "place_id": "ChIJXUxlGtYadkgRaFjC4amhrJg", "types": ["point_of_interest", "establishment"]}, "ChIJ2_DRDdYadkgREGF9PH2YpFw": {"geometry": {"location": {"lat": 51.5208075, "lng": -0.1419612}, "viewport": {"northeast": {"lat": 51.5221245802915, "lng": -0.140792069708498}, "southwest": {"lat": 51.5194266197085, "lng": -0.143490030291502}}}, "name": "HQ - London, HQ Great Portland Street", "place_id": "ChIJ2_DRDdYadkgREGF9PH2YpFw", "types": ["real_estate_agency", "point_of_interest", "establishment"], "rating": 3.4, "user_ratings_total": 5}, "ChIJhVAg1bcadkgRFNGXO66mDm0": {"geometry": {"location": {"lat": 51.52076999999999, "lng": -0.14185}, "viewport": {"northeast": {"lat": 51.52214133029149, "lng": -0.140377819708498}, "southwest": {"lat": 51.51944336970849, "lng": -0.143075780291502}}}, "name": "Embodiment Works - Holistic Massage, Somatic Bodywork, Somatic Counsellor, Acupuncture", "place_id": "ChIJhVAg1bcadkgRFNGXO66mDm0", "types": ["physiotherapist", "health", "point_of_interest", "establishment"], "rating": 5, "user_ratings_total": 91}, "ChIJObUBEtYadkgRzgDfspjLhEk": {"geometry": {"location": {"lat": 51.5208461, "lng": -0.1421057}, "viewport": {"northeast": {"lat": 51.5222480802915, "lng": -0.140779869708498}, "southwest": {"lat": 51.5195501197085, "lng": -0.143477830291502}}}, "name": "PeoplePlus London", "place_id": "ChIJObUBEtYadkgRzgDfspjLhEk", "types": ["point_of_interest", "establishment"]}, "ChIJ2YL4DdYadkgRbGirLQu6Eds": {"geometry": {"location": {"lat": 51.52083500000001, "lng": -0.1421313}, "viewport": {"northeast": {"lat": 51.5222401302915, "lng": -0.140806869708498}, "southwest": {"lat": 51.5195421697085, "lng": -0.143504830291502}}}, "name": "Centreland", "place_id": "ChIJ2YL4DdYadkgRbGirLQu6Eds", "types": ["point_of_interest", "establishment"]}, "ChIJKZ34DdYadkgRc77GSMZZBmc": {"geometry": {"location": {"lat": 51.520835, "lng": -0.1421806}, "viewport": {"northeast": {"lat": 51.5222442802915, "lng": -0.140892119708498}, "southwest": {"lat": 51.5195463197085, "lng": -0.143590080291502}}}, "name": "Clipstone", "place_id": "ChIJKZ34DdYadkgRc77GSMZZBmc", "types": ["restaurant", "food", "point_of_interest", "establishment"], "rating": 4.6, "user_ratings_total": 323}, "ChIJT8sAkiQQdkgR1tH_3IxXnEk": {"geometry": {"location": {"lat": 51.52064859999999, "lng": -0.1420214}, "viewport": {"northeast": {"lat": 51.5219765802915, "lng": -0.140790769708498}, "southwest": {"lat": 51.5192786197085, "lng": -0.143488730291502}}}, "name": "Olsberg SPI Ltd", "place_id": "ChIJT8sAkiQQdkgR1tH_3IxXnEk", "types": ["point_of_interest", "establishment"], "rating": 4.5, "user_ratings_total": 2}, "ChIJycWdD9YadkgRYdodF-x4OR0": {"geometry": {"location": {"lat": 51.52067890000001, "lng": -0.1417959}, "viewport": {"northeast": {"lat": 51.5220492802915, "lng": -0.140329019708498}, "southwest": {"lat": 51.51935131970851, "lng": -0.143026980291502}}}, "name": "Cloud Pioneer", "place_id": "ChIJycWdD9YadkgRYdodF-x4OR0", "types": ["point_of_interest", "establishment"]}, "ChIJ2_DRDdYadkgR41oI-0-IA1M": {"geometry": {"location": {"lat": 51.5206507, "lng": -0.141987}, "viewport": {"northeast": {"lat": 51.52198723029151, "lng": -0.140777969708498}, "southwest": {"lat": 51.51928926970851, "lng": -0.143475930291502}}}, "name": "Bentinck House", "place_id": "ChIJ2_DRDdYadkgR41oI-0-IA1M", "types": ["health", "point_of_interest", "establishment"], "rating": 3.6, "user_ratings_total": 5}, "ChIJ8-JBMCsFdkgRGrNWXwJYrHY": {"geometry": {"location": {"lat": 51.5206933, "lng": -0.1421413}, "viewport": {"northeast": {"lat": 51.5220294302915, "lng": -0.140864669708498}, "southwest": {"lat": 51.5193314697085, "lng": -0.143562630291502}}}, "name": "Alexander Lawson Surveyors Ltd", "place_id": "ChIJ8-JBMCsFdkgRGrNWXwJYrHY", "types": ["point_of_interest", "establishment"], "rating": 3.7, "user_ratings_total": 3}, "ChIJ2_DRDdYadkgR67b6QnJMrSA": {"geometry": {"location": {"lat": 51.5206933, "lng": -0.1421413}, "viewport": {"northeast": {"lat": 51.5220294302915, "lng": -0.140864669708498}, "southwest": {"lat": 51.5193314697085, "lng": -0.143562630291502}}}, "name": "L2P Enterprise Ltd", "place_id": "ChIJ2_DRDdYadkgR67b6QnJMrSA", "types": ["point_of_interest", "establishment"]}, "ChIJ2_DRDdYadkgRNcqPruADk18": {"geometry": {"location": {"lat": 51.5206933, "lng": -0.1421413}, "viewport": {"northeast": {"lat": 51.5220294302915, "lng": -0.140864669708498}, "southwest": {"lat": 51.5193314697085, "lng": -0.143562630291502}}}, "name": "Videoflare", "place_id": "ChIJ2_DRDdYadkgRNcqPruADk18", "types": ["accounting", "finance", "point_of_interest", "establishment"]}, "ChIJuRtHjB8QdkgRG70HSrvAJEQ": {"geometry": {"location": {"lat": 51.520656, "lng": -0.14203}, "viewport": {"northeast": {"lat": 51.5219844302915, "lng": -0.140796919708498}, "southwest": {"lat": 51.5192864697085, "lng": -0.143494880291502}}}, "name": "Clare Slaney Counselling", "place_id": "ChIJuRtHjB8QdkgRG70HSrvAJEQ", "types": ["health", "point_of_interest", "establishment"]}, "ChIJA-CLDtYadkgR6kDdTy-e6Hw": {"geometry": {"location": {"lat": 51.52065589999999, "lng": -0.1420296}, "viewport": {"northeast": {"lat": 51.52198428029149, "lng": -0.140796719708498}, "southwest": {"lat": 51.51928631970849, "lng": -0.143494680291502}}}, "name": "Estudio Londres", "place_id": "ChIJA-CLDtYadkgR6kDdTy-e6Hw", "types": ["health", "point_of_interest", "establishment"], "rating": 5, "user_ratings_total": 3}, "ChIJ2_DRDdYadkgRnAXzAEPx958": {"geometry": {"location": {"lat": 51.52069299999999, "lng": -0.142141}, "viewport": {"northeast": {"lat": 51.52202913029149, "lng": -0.140864469708498}, "southwest": {"lat": 51.51933116970849, "lng": -0.143562430291502}}}, "name": "Cio Connect", "place_id": "ChIJ2_DRDdYadkgRnAXzAEPx958", "types": ["point_of_interest", "establishment"]}, "ChIJ9V-JDtYadkgR6fHhOewFC5k": {"geometry": {"location": {"lat": 51.52065580000001, "lng": -0.1420297}, "viewport": {"northeast": {"lat": 51.5219841802915, "lng": -0.1407967197084979}, "southwest": {"lat": 51.5192862197085, "lng": -0.143494680291502}}}, "name": "Tablet Media", "place_id": "ChIJ9V-JDtYadkgR6fHhOewFC5k", "types": ["point_of_interest", "establishment"]}, "ChIJ-Y7_DNYadkgRodMGPeIHy4s": {"geometry": {"location": {"lat": 51.52064859999999, "lng": -0.1420214}, "viewport": {"northeast": {"lat": 51.5219765802915, "lng": -0.140790769708498}, "southwest": {"lat": 51.5192786197085, "lng": -0.143488730291502}}}, "name": "Nordeus", "place_id": "ChIJ-Y7_DNYadkgRodMGPeIHy4s", "types": ["point_of_interest", "establishment"], "rating": 2.3, "user_ratings_total": 3}, "ChIJC0LFIH2n2EcR1lua3qIEkVc": {"geometry": {"location": {"lat": 51.520646, "lng": -0.1420241}, "viewport": {"northeast": {"lat": 51.5219742802915, "lng": -0.140791669708498}, "southwest": {"lat": 51.5192763197085, "lng": -0.143489630291502}}}, "name": "Improve Your Accent", "place_id": "ChIJC0LFIH2n2EcR1lua3qIEkVc", "types": ["school", "point_of_interest", "establishment"], "rating": 5, "user_ratings_total": 11}, "ChIJ9V-JDtYadkgRym1OUOasgco": {"geometry": {"location": {"lat": 51.520643, "lng": -0.142031}, "viewport": {"northeast": {"lat": 51.5219719802915, "lng": -0.140794719708498}, "southwest": {"lat": 51.5192740197085, "lng": -0.143492680291502}}}, "name": "Shining Management Ltd", "place_id": "ChIJ9V-JDtYadkgRym1OUOasgco", "types": ["point_of_interest", "establishment"]}, "ChIJZav9PdYadkgRfTCRx4VOrEA": {"geometry": {"location": {"lat": 51.5206426, "lng": -0.1420313}, "viewport": {"northeast": {"lat": 51.5219716302915, "lng": -0.140794819708498}, "southwest": {"lat": 51.5192736697085, "lng": -0.143492780291502}}}, "name": "Beneficial.", "place_id": "ChIJZav9PdYadkgRfTCRx4VOrEA", "types": ["finance", "point_of_interest", "establishment"], "rating": 4.3, "user_ratings_total": 38}, "ChIJ_1IQ1VUXdkgR9PNuefoHzig": {"geometry": {"location": {"lat": 51.5206426, "lng": -0.1420313}, "viewport": {"northeast": {"lat": 51.5219716302915, "lng": -0.140794819708498}, "southwest": {"lat": 51.5192736697085, "lng": -0.143492780291502}}}, "name": "Dr Liat Levy", "place_id": "ChIJ_1IQ1VUXdkgR9PNuefoHzig", "types": ["health", "point_of_interest", "establishment"]}, "ChIJc19VDNYadkgRAHzEq6JpxwA": {"geometry": {"location": {"lat": 51.5206856, "lng": -0.1421683}, "viewport": {"northeast": {"lat": 51.5220249802915, "lng": -0.1408779197084979}, "southwest": {"lat": 51.5193270197085, "lng": -0.143575880291502}}}, "name": "One Property Consultants", "place_id": "ChIJc19VDNYadkgRAHzEq6JpxwA", "types": ["point_of_interest", "establishment"], "rating": 3.7, "user_ratings_total": 3}, "ChIJd1GoE9YadkgR0osWIfJufNw": {"geometry": {"location": {"lat": 51.521032, "lng": -0.142275}, "viewport": {"northeast": {"lat": 51.5224790802915, "lng": -0.140651669708498}, "southwest": {"lat": 51.5197811197085, "lng": -0.143349630291502}}}, "name": "Salonium", "place_id": "ChIJd1GoE9YadkgR0osWIfJufNw", "types": ["point_of_interest", "establishment"]}, "ChIJA-CLDtYadkgRgY_JCSj2lM0": {"geometry": {"location": {"lat": 51.5206303, "lng": -0.1420525}, "viewport": {"northeast": {"lat": 51.5219615302915, "lng": -0.140803569708498}, "southwest": {"lat": 51.5192635697085, "lng": -0.143501530291502}}}, "name": "Savile Row Style Magazine", "place_id": "ChIJA-CLDtYadkgRgY_JCSj2lM0", "types": ["point_of_interest", "establishment"]}, "ChIJpf-fE9YadkgRVH1ux5aoMgY": {"geometry": {"location": {"lat": 51.5210824, "lng": -0.142284}, "viewport": {"northeast": {"lat": 51.5225042802915, "lng": -0.140667119708498}, "southwest": {"lat": 51.5198063197085, "lng": -0.143365080291502}}}, "name": "Tangent", "place_id": "ChIJpf-fE9YadkgRVH1ux5aoMgY", "types": ["point_of_interest", "establishment"], "rating": 4.3, "user_ratings_total": 27}, "ChIJd1GoE9YadkgRt1OyrHLvKSk": {"geometry": {"location": {"lat": 51.5210873, "lng": -0.1422861}, "viewport": {"northeast": {"lat": 51.5225067302915, "lng": -0.140669319708498}, "southwest": {"lat": 51.5198087697085, "lng": -0.143367280291502}}}, "name": "HERO\u00ae", "place_id": "ChIJd1GoE9YadkgRt1OyrHLvKSk", "types": ["point_of_interest", "establishment"], "rating": 5, "user_ratings_total": 2}, "ChIJW_ntFtYadkgRwTcE7GBEy2E": {"geometry": {"location": {"lat": 51.5212864, "lng": -0.1419885}, "viewport": {"northeast": {"lat": 51.5226509302915, "lng": -0.140551419708498}, "southwest": {"lat": 51.5199529697085, "lng": -0.143249380291502}}}, "name": "Mobile Value Partners", "place_id": "ChIJW_ntFtYadkgRwTcE7GBEy2E", "types": ["point_of_interest", "establishment"]}, "ChIJvVl2C9YadkgRb6XWFrKt3zM": {"geometry": {"location": {"lat": 51.52046310000001, "lng": -0.1422762}, "viewport": {"northeast": {"lat": 51.5218172302915, "lng": -0.140898319708498}, "southwest": {"lat": 51.5191192697085, "lng": -0.143596280291502}}}, "name": "Montel", "place_id": "ChIJvVl2C9YadkgRb6XWFrKt3zM", "types": ["point_of_interest", "establishment"]}, "ChIJTROMDdYadkgRT491JSThW9Y": {"geometry": {"location": {"lat": 51.52083500000001, "lng": -0.1421313}, "viewport": {"northeast": {"lat": 51.5222401302915, "lng": -0.140806869708498}, "southwest": {"lat": 51.5195421697085, "lng": -0.143504830291502}}}, "name": "Avanta - Westminster", "place_id": "ChIJTROMDdYadkgRT491JSThW9Y", "types": ["point_of_interest", "establishment"]}, "ChIJ03bW-SkbdkgRnJHxjN1CJQM": {"geometry": {"location": {"lat": 51.52061, "lng": -0.1421}, "viewport": {"northeast": {"lat": 51.5219458802915, "lng": -0.140824819708498}, "southwest": {"lat": 51.5192479197085, "lng": -0.143522780291502}}}, "name": "GLAMOROUS Lashes London- Premier Eyelash Extensions Salon", "place_id": "ChIJ03bW-SkbdkgRnJHxjN1CJQM", "types": ["beauty_salon", "point_of_interest", "establishment"], "rating": 4.9, "user_ratings_total": 250}, "ChIJfQNDhdUadkgRMgMz2YoQTsM": {"geometry": {"location": {"lat": 51.5207547, "lng": -0.1410879}, "viewport": {"northeast": {"lat": 51.52215188029149, "lng": -0.139598569708498}, "southwest": {"lat": 51.51945391970849, "lng": -0.142296530291502}}}, "name": "Central London Assessment Services (CLASS)", "place_id": "ChIJfQNDhdUadkgRMgMz2YoQTsM", "types": ["university", "health", "point_of_interest", "establishment"]}, "ChIJcavpTysbdkgRXjDzrcdJ7-w": {"geometry": {"location": {"lat": 51.5210873, "lng": -0.1422861}, "viewport": {"northeast": {"lat": 51.5225067302915, "lng": -0.140669319708498}, "southwest": {"lat": 51.5198087697085, "lng": -0.143367280291502}}}, "name": "Escape Technology", "place_id": "ChIJcavpTysbdkgRXjDzrcdJ7-w", "types": ["point_of_interest", "establishment"], "rating": 4.3, "user_ratings_total": 11}, "ChIJzY923f9qdkgRmPIqealc1Zo": {"geometry": {"location": {"lat": 51.5207547, "lng": -0.1410879}, "viewport": {"northeast": {"lat": 51.52215188029149, "lng": -0.139598569708498}, "southwest": {"lat": 51.51945391970849, "lng": -0.142296530291502}}}, "name": "Camelot Lottery Solutions.", "place_id": "ChIJzY923f9qdkgRmPIqealc1Zo", "types": ["point_of_interest", "store", "establishment"], "rating": 4.4, "user_ratings_total": 20}, "ChIJ2zB5xqMPdkgRjvE2hFuR2Rw": {"geometry": {"location": {"lat": 51.5207547, "lng": -0.1410879}, "viewport": {"northeast": {"lat": 51.52215188029149, "lng": -0.139598569708498}, "southwest": {"lat": 51.51945391970849, "lng": -0.142296530291502}}}, "name": "iwoca", "place_id": "ChIJ2zB5xqMPdkgRjvE2hFuR2Rw", "types": ["finance", "point_of_interest", "establishment"], "rating": 4.4, "user_ratings_total": 232}, "ChIJSzPdEdYadkgRQWiJ1pdoqXA": {"geometry": {"location": {"lat": 51.520855, "lng": -0.142131}, "viewport": {"northeast": {"lat": 51.5222508302915, "lng": -0.140802519708498}, "southwest": {"lat": 51.5195528697085, "lng": -0.143500480291502}}}, "name": "Babel PR", "place_id": "ChIJSzPdEdYadkgRQWiJ1pdoqXA", "types": ["point_of_interest", "establishment"], "rating": 4, "user_ratings_total": 4}, "ChIJPW2JXdUEdkgRautt7IUKZQc": {"geometry": {"location": {"lat": 51.5206028, "lng": -0.1420202}, "viewport": {"northeast": {"lat": 51.5219324302915, "lng": -0.140780419708498}, "southwest": {"lat": 51.5192344697085, "lng": -0.143478380291502}}}, "name": "Colbun Psychology", "place_id": "ChIJPW2JXdUEdkgRautt7IUKZQc", "types": ["health", "point_of_interest", "establishment"], "rating": 5, "user_ratings_total": 7}, "ChIJrV4A9NIadkgRFuSgmr4C4s0": {"geometry": {"location": {"lat": 51.52070860000001, "lng": -0.1421718}, "viewport": {"northeast": {"lat": 51.5220466802915, "lng": -0.140884319708498}, "southwest": {"lat": 51.5193487197085, "lng": -0.143582280291502}}}, "name": "Mission Impossible", "place_id": "ChIJrV4A9NIadkgRFuSgmr4C4s0", "types": ["point_of_interest", "store", "establishment"], "rating": 5, "user_ratings_total": 3}, "ChIJyVkHENYadkgRExZHPccrVPs": {"geometry": {"location": {"lat": 51.5208595, "lng": -0.1417327}, "viewport": {"northeast": {"lat": 51.52221753029151, "lng": -0.140333919708498}, "southwest": {"lat": 51.51951956970851, "lng": -0.143031880291502}}}, "name": "Lynton House", "place_id": "ChIJyVkHENYadkgRExZHPccrVPs", "types": ["point_of_interest", "establishment"]}, "ChIJyw37EdYadkgRPibsO5YtZYQ": {"geometry": {"location": {"lat": 51.520843, "lng": -0.1420523}, "viewport": {"northeast": {"lat": 51.52224783029151, "lng": -0.140747169708498}, "southwest": {"lat": 51.51954986970851, "lng": -0.143445130291502}}}, "name": "Bolsover House", "place_id": "ChIJyw37EdYadkgRPibsO5YtZYQ", "types": ["point_of_interest", "establishment"], "rating": 5, "user_ratings_total": 1}, "ChIJtRsPEtYadkgRFBiaHpAYRls": {"geometry": {"location": {"lat": 51.5208561, "lng": -0.1421226}, "viewport": {"northeast": {"lat": 51.5222520802915, "lng": -0.140794169708498}, "southwest": {"lat": 51.5195541197085, "lng": -0.143492130291502}}}, "name": "CVL", "place_id": "ChIJtRsPEtYadkgRFBiaHpAYRls", "types": ["point_of_interest", "establishment"]}, "ChIJ8esGEtYadkgRNpMaRgSJZ2g": {"geometry": {"location": {"lat": 51.52084989999999, "lng": -0.1421296}, "viewport": {"northeast": {"lat": 51.5222482302915, "lng": -0.140802169708498}, "southwest": {"lat": 51.5195502697085, "lng": -0.143500130291502}}}, "name": "19 Events Ltd", "place_id": "ChIJ8esGEtYadkgRNpMaRgSJZ2g", "types": ["point_of_interest", "establishment"]}, "ChIJM4ptvtQEdkgRrukCqp3LTtM": {"geometry": {"location": {"lat": 51.520835, "lng": -0.142131}, "viewport": {"northeast": {"lat": 51.52224048029149, "lng": -0.140795619708498}, "southwest": {"lat": 51.51954251970849, "lng": -0.143493580291502}}}, "name": "Genix Imaging Ltd", "place_id": "ChIJM4ptvtQEdkgRrukCqp3LTtM", "types": ["point_of_interest", "establishment"]}, "ChIJQzVxCNYadkgR4c4AsMk1Ml8": {"geometry": {"location": {"lat": 51.5202879504537, "lng": -0.1417496004300571}, "viewport": {"northeast": {"lat": 51.5216369302915, "lng": -0.140400619708498}, "southwest": {"lat": 51.5189389697085, "lng": -0.143098580291502}}}, "name": "95-97 New Cavendish St", "place_id": "ChIJQzVxCNYadkgR4c4AsMk1Ml8", "types": ["route"]}, "ChIJd9Ry3tUadkgROpKN1-SLP7Y": {"geometry": {"location": {"lat": 51.519851, "lng": -0.1424679}, "viewport": {"northeast": {"lat": 51.52119028029149, "lng": -0.141175219708498}, "southwest": {"lat": 51.5184923197085, "lng": -0.143873180291502}}}, "name": "Horse & Groom", "place_id": "ChIJd9Ry3tUadkgROpKN1-SLP7Y", "types": ["bar", "point_of_interest", "establishment"], "rating": 4.3, "user_ratings_total": 366}, "ChIJd5cn-tUadkgR1Z2L1-LyR48": {"geometry": {"location": {"lat": 51.519638, "lng": -0.141363}, "viewport": {"northeast": {"lat": 51.5210106302915, "lng": -0.139886019708498}, "southwest": {"lat": 51.5183126697085, "lng": -0.142583980291502}}}, "name": "londonparties.co.uk", "place_id": "ChIJd5cn-tUadkgR1Z2L1-LyR48", "types": ["point_of_interest", "establishment"]}, "ChIJZ0fc4dUadkgRwPWVKt-Mwr4": {"geometry": {"location": {"lat": 51.52009589999999, "lng": -0.1421926}, "viewport": {"northeast": {"lat": 51.52149748029149, "lng": -0.140866269708498}, "southwest": {"lat": 51.51879951970849, "lng": -0.143564230291502}}},