{"E00023860": {"ChIJmSJnZRYQdkgReQG0JE15taQ": {"geometry": {"location": {"lat": 51.52979766087189, "lng": -0.2090454595133395}, "viewport": {"northeast": {"lat": 51.5311543802915, "lng": -0.20652165}, "southwest": {"lat": 51.5284564197085, "lng": -0.21156825}}}, "name": "1-73 Lothrop St", "place_id": "ChIJmSJnZRYQdkgReQG0JE15taQ", "types": ["route"]}, "ChIJP0WVbxYQdkgRloCa9WUEaCU": {"geometry": {"location": {"lat": 51.5299452, "lng": -0.2096119}, "viewport": {"northeast": {"lat": 51.5312510802915, "lng": -0.2082743197084979}, "southwest": {"lat": 51.5285531197085, "lng": -0.210972280291502}}}, "name": "John Ferry Fitness", "place_id": "ChIJP0WVbxYQdkgRloCa9WUEaCU", "types": ["gym", "health", "point_of_interest", "establishment"], "rating": 5, "user_ratings_total": 15}, "ChIJK5sWYxYQdkgRhgr8Ghqdh3A": {"geometry": {"location": {"lat": 51.529841, "lng": -0.209022}, "viewport": {"northeast": {"lat": 51.5311765302915, "lng": -0.207676719708498}, "southwest": {"lat": 51.5284785697085, "lng": -0.210374680291502}}}, "name": "ubitricity Charging Station", "place_id": "ChIJK5sWYxYQdkgRhgr8Ghqdh3A", "types": ["point_of_interest", "establishment"]}, "ChIJVyPGihYQdkgRWv1K-BuwWgM": {"geometry": {"location": {"lat": 51.52932300000001, "lng": -0.208659}, "viewport": {"northeast": {"lat": 51.5306581802915, "lng": -0.207313669708498}, "southwest": {"lat": 51.5279602197085, "lng": -0.210011630291502}}}, "name": "ubitricity Charging Station", "place_id": "ChIJVyPGihYQdkgRWv1K-BuwWgM", "types": ["point_of_interest", "establishment"]}, "ChIJ7XXjiBYQdkgREsQEZsMP3w0": {"geometry": {"location": {"lat": 51.529789, "lng": -0.208529}, "viewport": {"northeast": {"lat": 51.5311240302915, "lng": -0.207183819708498}, "southwest": {"lat": 51.5284260697085, "lng": -0.209881780291502}}}, "name": "ubitricity Charging Station", "place_id": "ChIJ7XXjiBYQdkgREsQEZsMP3w0", "types": ["point_of_interest", "establishment"]}, "ChIJ5aF1bhYQdkgROAwXJ0cKNTY": {"geometry": {"location": {"lat": 51.529841, "lng": -0.20987}, "viewport": {"northeast": {"lat": 51.53121043029149, "lng": -0.208515369708498}, "southwest": {"lat": 51.5285124697085, "lng": -0.211213330291502}}}, "name": "ubitricity Charging Station", "place_id": "ChIJ5aF1bhYQdkgROAwXJ0cKNTY", "types": ["point_of_interest", "establishment"]}, "ChIJmUdN9hYQdkgR-1PQjTim6VQ": {"geometry": {"location": {"lat": 51.52878962509902, "lng": -0.2086205091313051}, "viewport": {"northeast": {"lat": 51.5301375302915, "lng": -0.2064878}, "southwest": {"lat": 51.5274395697085, "lng": -0.2107538}}}, "name": "58-4 Ilbert St.", "place_id": "ChIJmUdN9hYQdkgR-1PQjTim6VQ", "types": ["route"]}, "ChIJnxMQVxYQdkgRuaX5QFd2-Dg": {"geometry": {"location": {"lat": 51.528502, "lng": -0.208996}, "viewport": {"northeast": {"lat": 51.52985098029151, "lng": -0.207647019708498}, "southwest": {"lat": 51.52715301970851, "lng": -0.210344980291502}}}, "name": "QPG Football", "place_id": "ChIJnxMQVxYQdkgRuaX5QFd2-Dg", "types": ["point_of_interest", "establishment"], "rating": 5, "user_ratings_total": 11}, "ChIJ__-rNzwQdkgRKAlP8tBC2C0": {"geometry": {"location": {"lat": 51.528409, "lng": -0.209092}, "viewport": {"northeast": {"lat": 51.52975798029149, "lng": -0.207743019708498}, "southwest": {"lat": 51.52706001970849, "lng": -0.210440980291502}}}, "name": "QPG Sports", "place_id": "ChIJ__-rNzwQdkgRKAlP8tBC2C0", "types": ["university", "point_of_interest", "establishment"], "rating": 5, "user_ratings_total": 7}, "ChIJx3S4VxYQdkgRihRXfVIq-vo": {"geometry": {"location": {"lat": 51.528504, "lng": -0.208854}, "viewport": {"northeast": {"lat": 51.53000378029149, "lng": -0.2074638697084979}, "southwest": {"lat": 51.5273058197085, "lng": -0.210161830291502}}}, "name": "QPG Bootcamp", "place_id": "ChIJx3S4VxYQdkgRihRXfVIq-vo", "types": ["point_of_interest", "establishment"]}, "ChIJO6EzVhYQdkgRz0YKoLE9rUA": {"geometry": {"location": {"lat": 51.5284574, "lng": -0.2089447}, "viewport": {"northeast": {"lat": 51.5299845802915, "lng": -0.207548019708498}, "southwest": {"lat": 51.52728661970851, "lng": -0.210245980291502}}}, "name": "Queen's Park Public Open Space", "place_id": "ChIJO6EzVhYQdkgRz0YKoLE9rUA", "types": ["park", "point_of_interest", "establishment"], "rating": 4.4, "user_ratings_total": 157}, "ChIJTYXr3eIRdkgRxTg8A4hsqoM": {"geometry": {"location": {"lat": 51.5282373, "lng": -0.2093285}, "viewport": {"northeast": {"lat": 51.5295862802915, "lng": -0.207979519708498}, "southwest": {"lat": 51.5268883197085, "lng": -0.210677480291502}}}, "name": "Queen\u2019s Park Children Playground", "place_id": "ChIJTYXr3eIRdkgRxTg8A4hsqoM", "types": ["point_of_interest", "establishment"]}, "ChIJP07Q9xYQdkgR8IxXhxVnsrA": {"geometry": {"location": {"lat": 51.528754, "lng": -0.208725}, "viewport": {"northeast": {"lat": 51.53011733029149, "lng": -0.2073721197084979}, "southwest": {"lat": 51.52741936970849, "lng": -0.210070080291502}}}, "name": "ubitricity Charging Station", "place_id": "ChIJP07Q9xYQdkgR8IxXhxVnsrA", "types": ["point_of_interest", "establishment"]}, "ChIJ-9HBl_IRdkgRPifDtr8vUlU": {"geometry": {"location": {"lat": 51.5289141, "lng": -0.2087414}, "viewport": {"northeast": {"lat": 51.5302087802915, "lng": -0.207407219708498}, "southwest": {"lat": 51.5275108197085, "lng": -0.210105180291502}}}, "name": "New renewals by Ricardo of london", "place_id": "ChIJ-9HBl_IRdkgRPifDtr8vUlU", "types": ["general_contractor", "point_of_interest", "establishment"]}, "ChIJuU9UWxYQdkgRs27k7EW1Ur0": {"geometry": {"location": {"lat": 51.528937, "lng": -0.209486}, "viewport": {"northeast": {"lat": 51.5302610802915, "lng": -0.208143619708498}, "southwest": {"lat": 51.5275631197085, "lng": -0.210841580291502}}}, "name": "ubitricity Charging Station", "place_id": "ChIJuU9UWxYQdkgRs27k7EW1Ur0", "types": ["point_of_interest", "establishment"]}, "ChIJuxzrAiERdkgR-lxw10oKbnQ": {"geometry": {"location": {"lat": 51.5288923, "lng": -0.2086134}, "viewport": {"northeast": {"lat": 51.5301910302915, "lng": -0.207278119708498}, "southwest": {"lat": 51.52749306970851, "lng": -0.209976080291502}}}, "name": "Pro Ace Security", "place_id": "ChIJuxzrAiERdkgR-lxw10oKbnQ", "types": ["point_of_interest", "establishment"], "rating": 5, "user_ratings_total": 3}, "ChIJkVWDrxcQdkgRopxcFWBBXe0": {"geometry": {"location": {"lat": 51.52734601772965, "lng": -0.2093277621522193}, "viewport": {"northeast": {"lat": 51.52869593029149, "lng": -0.2074145}, "southwest": {"lat": 51.5259979697085, "lng": -0.2112405}}}, "name": "28-5 Droop St", "place_id": "ChIJkVWDrxcQdkgRopxcFWBBXe0", "types": ["route"]}, "ChIJCxQffD0QdkgRhybsV1F6Tr8": {"geometry": {"location": {"lat": 51.527412, "lng": -0.2091727}, "viewport": {"northeast": {"lat": 51.5287208802915, "lng": -0.207834819708498}, "southwest": {"lat": 51.5260229197085, "lng": -0.210532780291502}}}, "name": "Voices of Spirit", "place_id": "ChIJCxQffD0QdkgRhybsV1F6Tr8", "types": ["health", "point_of_interest", "establishment"], "rating": 5, "user_ratings_total": 3}, "ChIJaYJU858adkgR6sjIucbX-P0": {"geometry": {"location": {"lat": 51.52735970000001, "lng": -0.2088057}, "viewport": {"northeast": {"lat": 51.52867438029151, "lng": -0.2074664697084979}, "southwest": {"lat": 51.52597641970851, "lng": -0.210164430291502}}}, "name": "Robert Macdonald", "place_id": "ChIJaYJU858adkgR6sjIucbX-P0", "types": ["health", "point_of_interest", "establishment"], "rating": 5, "user_ratings_total": 1}, "ChIJVVXJuhcQdkgRnqZ7vh_s8Io": {"geometry": {"location": {"lat": 51.527204, "lng": -0.209511}, "viewport": {"northeast": {"lat": 51.5286314802915, "lng": -0.208141069708498}, "southwest": {"lat": 51.5259335197085, "lng": -0.210839030291502}}}, "name": "Plumber8", "place_id": "ChIJVVXJuhcQdkgRnqZ7vh_s8Io", "types": ["plumber", "car_repair", "home_goods_store", "general_contractor", "point_of_interest", "store", "establishment"], "rating": 4.8, "user_ratings_total": 24}, "ChIJNwF0rRcQdkgR8nhgNJ-Q6oM": {"geometry": {"location": {"lat": 51.527819, "lng": -0.209422}, "viewport": {"northeast": {"lat": 51.5291736802915, "lng": -0.2080714697084979}, "southwest": {"lat": 51.5264757197085, "lng": -0.210769430291502}}}, "name": "ubitricity Charging Station", "place_id": "ChIJNwF0rRcQdkgR8nhgNJ-Q6oM", "types": ["point_of_interest", "establishment"]}, "ChIJkWaYrBcQdkgRDMqTzGxSdjo": {"geometry": {"location": {"lat": 51.527878, "lng": -0.209161}, "viewport": {"northeast": {"lat": 51.5292102302915, "lng": -0.207816619708498}, "southwest": {"lat": 51.5265122697085, "lng": -0.210514580291502}}}, "name": "ubitricity Charging Station", "place_id": "ChIJkWaYrBcQdkgRDMqTzGxSdjo", "types": ["point_of_interest", "establishment"]}, "ChIJ-5NWABcQdkgRsRcEBtUy10w": {"geometry": {"location": {"lat": 51.5278149, "lng": -0.208599}, "viewport": {"northeast": {"lat": 51.5291499302915, "lng": -0.207253919708498}, "southwest": {"lat": 51.5264519697085, "lng": -0.209951880291502}}}, "name": "ubitricity Charging Station", "place_id": "ChIJ-5NWABcQdkgRsRcEBtUy10w", "types": ["point_of_interest", "establishment"]}, "ChIJS4KKohcQdkgR_6awvOOprHI": {"geometry": {"location": {"lat": 51.52678912723549, "lng": -0.209453832044661}, "viewport": {"northeast": {"lat": 51.52809898029149, "lng": -0.2070882}, "southwest": {"lat": 51.5254010197085, "lng": -0.2118457999999999}}}, "name": "449-487 Harrow Rd", "place_id": "ChIJS4KKohcQdkgR_6awvOOprHI", "types": ["route"]}, "ChIJz64dN90RdkgRHKE7Dj88xNo": {"geometry": {"location": {"lat": 51.5261444, "lng": -0.2088595}, "viewport": {"northeast": {"lat": 51.52740448029149, "lng": -0.207551769708498}, "southwest": {"lat": 51.5247065197085, "lng": -0.210249730291502}}}, "name": "100% STUDIOS WEST", "place_id": "ChIJz64dN90RdkgRHKE7Dj88xNo", "types": ["point_of_interest", "establishment"], "rating": 5, "user_ratings_total": 41}, "ChIJv9Fw4xcQdkgRGloMWpSN3DE": {"geometry": {"location": {"lat": 51.52615219999999, "lng": -0.2095387}, "viewport": {"northeast": {"lat": 51.52761268029149, "lng": -0.208424869708498}, "southwest": {"lat": 51.52491471970849, "lng": -0.211122830291502}}}, "name": "Eastcote Studios Ltd", "place_id": "ChIJv9Fw4xcQdkgRGloMWpSN3DE", "types": ["electronics_store", "home_goods_store", "point_of_interest", "store", "establishment"], "rating": 4.8, "user_ratings_total": 12}, "ChIJv7rAmxcQdkgRLXsE0WPbev8": {"geometry": {"location": {"lat": 51.5261164, "lng": -0.2088811}, "viewport": {"northeast": {"lat": 51.5273911802915, "lng": -0.207566519708498}, "southwest": {"lat": 51.5246932197085, "lng": -0.210264480291502}}}, "name": "Databasics/KnowledgeBase Ltd", "place_id": "ChIJv7rAmxcQdkgRLXsE0WPbev8", "types": ["point_of_interest", "establishment"]}, "ChIJv7rAmxcQdkgRaFAev5UMUyI": {"geometry": {"location": {"lat": 51.5261164, "lng": -0.2088811}, "viewport": {"northeast": {"lat": 51.5273911802915, "lng": -0.207566519708498}, "southwest": {"lat": 51.5246932197085, "lng": -0.210264480291502}}}, "name": "Green Row", "place_id": "ChIJv7rAmxcQdkgRaFAev5UMUyI", "types": ["point_of_interest", "establishment"]}, "ChIJZ77qmxcQdkgRyedwwjY0vmE": {"geometry": {"location": {"lat": 51.5261164, "lng": -0.2088811}, "viewport": {"northeast": {"lat": 51.5273911802915, "lng": -0.207566519708498}, "southwest": {"lat": 51.5246932197085, "lng": -0.210264480291502}}}, "name": "Fogelman P J & Co", "place_id": "ChIJZ77qmxcQdkgRyedwwjY0vmE", "types": ["accounting", "finance", "point_of_interest", "establishment"]}, "ChIJddNGmwAQdkgR0jJ65nbZS7M": {"geometry": {"location": {"lat": 51.5261203, "lng": -0.2088525}, "viewport": {"northeast": {"lat": 51.5273909302915, "lng": -0.207539869708498}, "southwest": {"lat": 51.5246929697085, "lng": -0.210237830291502}}}, "name": "ny-lon design ltd", "place_id": "ChIJddNGmwAQdkgR0jJ65nbZS7M", "types": ["point_of_interest", "establishment"]}, "ChIJv7rAmxcQdkgR2iNTrKoIbDo": {"geometry": {"location": {"lat": 51.5261164, "lng": -0.2088811}, "viewport": {"northeast": {"lat": 51.5273911802915, "lng": -0.207566519708498}, "southwest": {"lat": 51.5246932197085, "lng": -0.210264480291502}}}, "name": "Creative Fibre", "place_id": "ChIJv7rAmxcQdkgR2iNTrKoIbDo", "types": ["point_of_interest", "establishment"]}, "ChIJheP94xcQdkgRTOaTGBpOuT4": {"geometry": {"location": {"lat": 51.52611700000001, "lng": -0.2087481}, "viewport": {"northeast": {"lat": 51.52738048029151, "lng": -0.207438769708498}, "southwest": {"lat": 51.52468251970851, "lng": -0.2101367302915021}}}, "name": "SoupClub.co.uk", "place_id": "ChIJheP94xcQdkgRTOaTGBpOuT4", "types": ["meal_delivery", "grocery_or_supermarket", "restaurant", "food", "health", "point_of_interest", "store", "establishment"]}, "ChIJn0PAnBcQdkgRW8-iv-0mJDk": {"geometry": {"location": {"lat": 51.5260682, "lng": -0.2090119}, "viewport": {"northeast": {"lat": 51.5273760802915, "lng": -0.207681969708498}, "southwest": {"lat": 51.5246781197085, "lng": -0.210379930291502}}}, "name": "Theophrastus Social Botany", "place_id": "ChIJn0PAnBcQdkgRW8-iv-0mJDk", "types": ["point_of_interest", "establishment"]}, "ChIJ7_L7ccsRdkgRFX20cp6Q2jU": {"geometry": {"location": {"lat": 51.526149, "lng": -0.20885}, "viewport": {"northeast": {"lat": 51.52740618029149, "lng": -0.2075436197084979}, "southwest": {"lat": 51.5247082197085, "lng": -0.210241580291502}}}, "name": "breathingjuice", "place_id": "ChIJ7_L7ccsRdkgRFX20cp6Q2jU", "types": ["point_of_interest", "establishment"]}, "ChIJKxH4nRcQdkgROL8P2CUa0hk": {"geometry": {"location": {"lat": 51.5262566, "lng": -0.2089281}, "viewport": {"northeast": {"lat": 51.5274705802915, "lng": -0.207641769708498}, "southwest": {"lat": 51.5247726197085, "lng": -0.210339730291502}}}, "name": "Screenhits", "place_id": "ChIJKxH4nRcQdkgROL8P2CUa0hk", "types": ["point_of_interest", "establishment"]}, "ChIJgUMo9-YadkgRV5hjIsh8y58": {"geometry": {"location": {"lat": 51.5261663, "lng": -0.2089322}, "viewport": {"northeast": {"lat": 51.5274222802915, "lng": -0.207626369708498}, "southwest": {"lat": 51.52472431970851, "lng": -0.210324330291502}}}, "name": "PMA Digital", "place_id": "ChIJgUMo9-YadkgRV5hjIsh8y58", "types": ["point_of_interest", "establishment"]}, "ChIJKxH4nRcQdkgRJdHX7I2yrlE": {"geometry": {"location": {"lat": 51.52625320000001, "lng": -0.2087598}, "viewport": {"northeast": {"lat": 51.52745478029151, "lng": -0.207479219708498}, "southwest": {"lat": 51.52475681970851, "lng": -0.210177180291502}}}, "name": "Clarion Communication Management | IT Support & Telecoms", "place_id": "ChIJKxH4nRcQdkgRJdHX7I2yrlE", "types": ["point_of_interest", "establishment"], "rating": 4, "user_ratings_total": 8}, "ChIJKxH4nRcQdkgRKwbTFab_bZE": {"geometry": {"location": {"lat": 51.5262533, "lng": -0.2087593}, "viewport": {"northeast": {"lat": 51.52745478029149, "lng": -0.207478719708498}, "southwest": {"lat": 51.52475681970849, "lng": -0.210176680291502}}}, "name": "Flavr", "place_id": "ChIJKxH4nRcQdkgRKwbTFab_bZE", "types": ["point_of_interest", "establishment"], "rating": 4.3, "user_ratings_total": 6}, "ChIJKxH4nRcQdkgRcbxTG13FfFk": {"geometry": {"location": {"lat": 51.5262533, "lng": -0.2087593}, "viewport": {"northeast": {"lat": 51.52745478029149, "lng": -0.207478719708498}, "southwest": {"lat": 51.52475681970849, "lng": -0.210176680291502}}}, "name": "Northrop McNaughtan Deller", "place_id": "ChIJKxH4nRcQdkgRcbxTG13FfFk", "types": ["lawyer", "point_of_interest", "establishment"]}, "ChIJKxH4nRcQdkgRZU3XrawMIjI": {"geometry": {"location": {"lat": 51.5262533, "lng": -0.2087593}, "viewport": {"northeast": {"lat": 51.52745478029149, "lng": -0.207478719708498}, "southwest": {"lat": 51.52475681970849, "lng": -0.210176680291502}}}, "name": "The Good Web Guide", "place_id": "ChIJKxH4nRcQdkgRZU3XrawMIjI", "types": ["point_of_interest", "establishment"]}, "ChIJKxH4nRcQdkgRyaqm5DWXK_I": {"geometry": {"location": {"lat": 51.5262533, "lng": -0.2087593}, "viewport": {"northeast": {"lat": 51.52745478029149, "lng": -0.207478719708498}, "southwest": {"lat": 51.52475681970849, "lng": -0.210176680291502}}}, "name": "Kuka-me ltd", "place_id": "ChIJKxH4nRcQdkgRyaqm5DWXK_I", "types": ["jewelry_store", "point_of_interest", "store", "establishment"], "rating": 5, "user_ratings_total": 1}, "ChIJKRH4nRcQdkgRyEUenllpjXA": {"geometry": {"location": {"lat": 51.5262533, "lng": -0.2087592}, "viewport": {"northeast": {"lat": 51.52745478029149, "lng": -0.207478619708498}, "southwest": {"lat": 51.52475681970849, "lng": -0.210176580291502}}}, "name": "Everything But The Cow", "place_id": "ChIJKRH4nRcQdkgRyEUenllpjXA", "types": ["food", "point_of_interest", "establishment"]}, "ChIJKRH4nRcQdkgRGg-yuifDTUQ": {"geometry": {"location": {"lat": 51.5262533, "lng": -0.2087592}, "viewport": {"northeast": {"lat": 51.52745478029149, "lng": -0.207478619708498}, "southwest": {"lat": 51.52475681970849, "lng": -0.210176580291502}}}, "name": "ROLAND DE VILLIERS", "place_id": "ChIJKRH4nRcQdkgRGg-yuifDTUQ", "types": ["point_of_interest", "establishment"]}, "ChIJKRH4nRcQdkgRXzyh2p4k0zw": {"geometry": {"location": {"lat": 51.5262533, "lng": -0.2087592}, "viewport": {"northeast": {"lat": 51.52745478029149, "lng": -0.207478619708498}, "southwest": {"lat": 51.52475681970849, "lng": -0.210176580291502}}}, "name": "Christmas Party Bands", "place_id": "ChIJKRH4nRcQdkgRXzyh2p4k0zw", "types": ["point_of_interest", "establishment"]}, "ChIJKRH4nRcQdkgROAnH4gOiWR4": {"geometry": {"location": {"lat": 51.5262533, "lng": -0.2087592}, "viewport": {"northeast": {"lat": 51.52745478029149, "lng": -0.207478619708498}, "southwest": {"lat": 51.52475681970849, "lng": -0.210176580291502}}}, "name": "Ecotomy", "place_id": "ChIJKRH4nRcQdkgROAnH4gOiWR4", "types": ["point_of_interest", "establishment"]}, "ChIJKRH4nRcQdkgRaUKCr3KHVl0": {"geometry": {"location": {"lat": 51.5262533, "lng": -0.2087592}, "viewport": {"northeast": {"lat": 51.52745478029149, "lng": -0.207478619708498}, "southwest": {"lat": 51.52475681970849, "lng": -0.210176580291502}}}, "name": "Jonathan Sanders & Co", "place_id": "ChIJKRH4nRcQdkgRaUKCr3KHVl0", "types": ["point_of_interest", "establishment"]}, "ChIJKRH4nRcQdkgRmNmDsHL_Fkk": {"geometry": {"location": {"lat": 51.5262533, "lng": -0.2087592}, "viewport": {"northeast": {"lat": 51.52745478029149, "lng": -0.207478619708498}, "southwest": {"lat": 51.52475681970849, "lng": -0.210176580291502}}}, "name": "Keystone Accountability", "place_id": "ChIJKRH4nRcQdkgRmNmDsHL_Fkk", "types": ["point_of_interest", "establishment"]}, "ChIJKRH4nRcQdkgRm3WOUH0Wn1A": {"geometry": {"location": {"lat": 51.5262532, "lng": -0.2087588}, "viewport": {"northeast": {"lat": 51.5274547302915, "lng": -0.207478219708498}, "southwest": {"lat": 51.5247567697085, "lng": -0.210176180291502}}}, "name": "MINAKO TANAKA Architecture + Design", "place_id": "ChIJKRH4nRcQdkgRm3WOUH0Wn1A", "types": ["general_contractor", "point_of_interest", "establishment"]}, "ChIJu8a74hwQdkgRz0WsH31ipm4": {"geometry": {"location": {"lat": 51.5261503, "lng": -0.2088477}, "viewport": {"northeast": {"lat": 51.5274992802915, "lng": -0.207498719708498}, "southwest": {"lat": 51.5248013197085, "lng": -0.210196680291502}}}, "name": "Foodery Halal Meals", "place_id": "ChIJu8a74hwQdkgRz0WsH31ipm4", "types": ["food", "point_of_interest", "establishment"]}, "ChIJKxH4nRcQdkgRLADark0mFC4": {"geometry": {"location": {"lat": 51.5261503, "lng": -0.2088477}, "viewport": {"northeast": {"lat": 51.5274066802915, "lng": -0.207541669708498}, "southwest": {"lat": 51.5247087197085, "lng": -0.210239630291502}}}, "name": "Amanda Nimmo Fashion Agency", "place_id": "ChIJKxH4nRcQdkgRLADark0mFC4", "types": ["clothing_store", "point_of_interest", "store", "establishment"], "rating": 5, "user_ratings_total": 1}, "ChIJKxH4nRcQdkgR2ppdhufME_M": {"geometry": {"location": {"lat": 51.5261503, "lng": -0.2088477}, "viewport": {"northeast": {"lat": 51.5274066802915, "lng": -0.207541669708498}, "southwest": {"lat": 51.5247087197085, "lng": -0.210239630291502}}}, "name": "Nice & Clean Kensington", "place_id": "ChIJKxH4nRcQdkgR2ppdhufME_M", "types": ["point_of_interest", "establishment"]}, "ChIJr1kKnRcQdkgRp_Qf_u6I4pA": {"geometry": {"location": {"lat": 51.5261503, "lng": -0.2088477}, "viewport": {"northeast": {"lat": 51.5274066802915, "lng": -0.207541669708498}, "southwest": {"lat": 51.5247087197085, "lng": -0.210239630291502}}}, "name": "Freewaters UK", "place_id": "ChIJr1kKnRcQdkgRp_Qf_u6I4pA", "types": ["point_of_interest", "establishment"], "rating": 5, "user_ratings_total": 1}, "ChIJ1VEKnRcQdkgRLCYjGciEMQg": {"geometry": {"location": {"lat": 51.5261491, "lng": -0.2088497}, "viewport": {"northeast": {"lat": 51.52740618029149, "lng": -0.207543369708498}, "southwest": {"lat": 51.5247082197085, "lng": -0.210241330291502}}}, "name": "Belgriffin Construction", "place_id": "ChIJ1VEKnRcQdkgRLCYjGciEMQg", "types": ["general_contractor", "point_of_interest", "establishment"]}, "ChIJ1VEKnRcQdkgR_31Ps4_c_cU": {"geometry": {"location": {"lat": 51.5261491, "lng": -0.2088497}, "viewport": {"northeast": {"lat": 51.52740618029149, "lng": -0.207543369708498}, "southwest": {"lat": 51.5247082197085, "lng": -0.210241330291502}}}, "name": "District J Ltd", "place_id": "ChIJ1VEKnRcQdkgR_31Ps4_c_cU", "types": ["point_of_interest", "store", "establishment"]}, "ChIJ01EKnRcQdkgRsDx1LjSeju8": {"geometry": {"location": {"lat": 51.52614909999999, "lng": -0.2088496}, "viewport": {"northeast": {"lat": 51.52740618029149, "lng": -0.207543269708498}, "southwest": {"lat": 51.5247082197085, "lng": -0.210241230291502}}}, "name": "Peninsula Films", "place_id": "ChIJ01EKnRcQdkgRsDx1LjSeju8", "types": ["point_of_interest", "establishment"]}, "ChIJlbrAmxcQdkgRrVLc4SBDcMI": {"geometry": {"location": {"lat": 51.5261676, "lng": -0.209466}, "viewport": {"northeast": {"lat": 51.52762038029149, "lng": -0.208385269708498}, "southwest": {"lat": 51.5249224197085, "lng": -0.211083230291502}}}, "name": "247 Investigations", "place_id": "ChIJlbrAmxcQdkgRrVLc4SBDcMI", "types": ["point_of_interest", "establishment"]}, "ChIJ_c5t5hcQdkgR1MlaLHLLzmU": {"geometry": {"location": {"lat": 51.5261023, "lng": -0.2093442}, "viewport": {"northeast": {"lat": 51.5274193302915, "lng": -0.208007769708498}, "southwest": {"lat": 51.5247213697085, "lng": -0.210705730291502}}}, "name": "Contentmarketplace LTD", "place_id": "ChIJ_c5t5hcQdkgR1MlaLHLLzmU", "types": ["point_of_interest", "establishment"]}, "ChIJKxH4nRcQdkgRG3cG6GooQSs": {"geometry": {"location": {"lat": 51.52611640000001, "lng": -0.2088805}, "viewport": {"northeast": {"lat": 51.52739113029151, "lng": -0.207565969708498}, "southwest": {"lat": 51.52469316970851, "lng": -0.210263930291502}}}, "name": "Showroom One", "place_id": "ChIJKxH4nRcQdkgRG3cG6GooQSs", "types": ["point_of_interest", "store", "establishment"]}, "ChIJwwo2irscdkgRXUKcFpnGb88": {"geometry": {"location": {"lat": 51.52611640000001, "lng": -0.2088805}, "viewport": {"northeast": {"lat": 51.52739113029151, "lng": -0.207565969708498}, "southwest": {"lat": 51.52469316970851, "lng": -0.210263930291502}}}, "name": "Aula Education", "place_id": "ChIJwwo2irscdkgRXUKcFpnGb88", "types": ["point_of_interest", "establishment"]}, "ChIJr1kKnRcQdkgRcoDAofGmQ7s": {"geometry": {"location": {"lat": 51.52606439999999, "lng": -0.209017}, "viewport": {"northeast": {"lat": 51.52737443029149, "lng": -0.2076860697084979}, "southwest": {"lat": 51.5246764697085, "lng": -0.210384030291502}}}, "name": "Workspace Meeting Rooms - Canalot Studios", "place_id": "ChIJr1kKnRcQdkgRcoDAofGmQ7s", "types": ["point_of_interest", "establishment"]}, "ChIJ5524nBcQdkgRfRxM4YCl7_I": {"geometry": {"location": {"lat": 51.52604799999999, "lng": -0.209019}, "viewport": {"northeast": {"lat": 51.5273657802915, "lng": -0.207684469708498}, "southwest": {"lat": 51.5246678197085, "lng": -0.210382430291502}}}, "name": "Butterfly Twists", "place_id": "ChIJ5524nBcQdkgRfRxM4YCl7_I", "types": ["shoe_store", "point_of_interest", "store", "establishment"], "rating": 3.3, "user_ratings_total": 28}, "ChIJn524nBcQdkgRZnXWhoJqSJQ": {"geometry": {"location": {"lat": 51.52604799999999, "lng": -0.209019}, "viewport": {"northeast": {"lat": 51.5273657802915, "lng": -0.207684469708498}, "southwest": {"lat": 51.5246678197085, "lng": -0.210382430291502}}}, "name": "Bentheim London - Interior Design", "place_id": "ChIJn524nBcQdkgRZnXWhoJqSJQ", "types": ["general_contractor", "point_of_interest", "establishment"]}, "ChIJn524nBcQdkgRSUL96llW9ew": {"geometry": {"location": {"lat": 51.5260475, "lng": -0.209019}, "viewport": {"northeast": {"lat": 51.5273655302915, "lng": -0.207684369708498}, "southwest": {"lat": 51.52466756970851, "lng": -0.2103823302915021}}}, "name": "Charliesaidthat", "place_id": "ChIJn524nBcQdkgRSUL96llW9ew", "types": ["point_of_interest", "establishment"]}, "ChIJn524nBcQdkgRcQGzf637ni8": {"geometry": {"location": {"lat": 51.5260475, "lng": -0.209019}, "viewport": {"northeast": {"lat": 51.5273655302915, "lng": -0.207684369708498}, "southwest": {"lat": 51.52466756970851, "lng": -0.2103823302915021}}}, "name": "A Business Innovation", "place_id": "ChIJn524nBcQdkgRcQGzf637ni8", "types": ["point_of_interest", "establishment"]}, "ChIJ36DST1cQdkgR1P2T31L3so8": {"geometry": {"location": {"lat": 51.52611700000001, "lng": -0.2087481}, "viewport": {"northeast": {"lat": 51.52738048029151, "lng": -0.207438769708498}, "southwest": {"lat": 51.52468251970851, "lng": -0.2101367302915021}}}, "name": "Loud & Clear Voices", "place_id": "ChIJ36DST1cQdkgR1P2T31L3so8", "types": ["point_of_interest", "establishment"], "rating": 5, "user_ratings_total": 1}, "ChIJn524nBcQdkgRGhJoIkEUYrM": {"geometry": {"location": {"lat": 51.5261157, "lng": -0.2087478}, "viewport": {"northeast": {"lat": 51.5273797802915, "lng": -0.207438219708498}, "southwest": {"lat": 51.5246818197085, "lng": -0.210136180291502}}}, "name": "EBS UK", "place_id": "ChIJn524nBcQdkgRGhJoIkEUYrM", "types": ["point_of_interest", "establishment"]}, "ChIJVVVFY9cPdkgRPxZUqMv9f6Y": {"geometry": {"location": {"lat": 51.5261157, "lng": -0.2087478}, "viewport": {"northeast": {"lat": 51.5273797802915, "lng": -0.207438219708498}, "southwest": {"lat": 51.5246818197085, "lng": -0.210136180291502}}}, "name": "Swimming Rocks Ltd", "place_id": "ChIJVVVFY9cPdkgRPxZUqMv9f6Y", "types": ["school", "health", "point_of_interest", "establishment"]}, "ChIJyZHUghcQdkgRAf9vax8yHHU": {"geometry": {"location": {"lat": 51.52619550000001, "lng": -0.2085903}, "viewport": {"northeast": {"lat": 51.5274340302915, "lng": -0.207439619708498}, "southwest": {"lat": 51.5247360697085, "lng": -0.210137580291502}}}, "name": "Canal Deli And Cafe", "place_id": "ChIJyZHUghcQdkgRAf9vax8yHHU", "types": ["cafe", "food", "point_of_interest", "store", "establishment"], "rating": 4.2, "user_ratings_total": 24}, "ChIJoUGHFSzYdUgRaO5uV7CxjbU": {"geometry": {"location": {"lat": 51.526046, "lng": -0.208769}, "viewport": {"northeast": {"lat": 51.5273439802915, "lng": -0.207443669708498}, "southwest": {"lat": 51.5246460197085, "lng": -0.210141630291502}}}, "name": "Yacht Sentinel", "place_id": "ChIJoUGHFSzYdUgRaO5uV7CxjbU", "types": ["point_of_interest", "establishment"], "rating": 5, "user_ratings_total": 3}, "ChIJk2SdpR4QdkgRAvoPGQs_fzg": {"geometry": {"location": {"lat": 51.526016, "lng": -0.2088399}, "viewport": {"northeast": {"lat": 51.5273337302915, "lng": -0.207505419708498}, "southwest": {"lat": 51.5246357697085, "lng": -0.210203380291502}}}, "name": "By Caprice", "place_id": "ChIJk2SdpR4QdkgRAvoPGQs_fzg", "types": ["home_goods_store", "point_of_interest", "store", "establishment"], "rating": 5, "user_ratings_total": 2}, "ChIJNVU_WagadkgR3ShjcsmEJF4": {"geometry": {"location": {"lat": 51.526076, "lng": -0.2084665}, "viewport": {"northeast": {"lat": 51.5273350802915, "lng": -0.207159219708498}, "southwest": {"lat": 51.5246371197085, "lng": -0.209857180291502}}}, "name": "Shanade McAllister-Fisher Design", "place_id": "ChIJNVU_WagadkgR3ShjcsmEJF4", "types": ["general_contractor", "point_of_interest", "establishment"]}, "ChIJXa_AlRcQdkgRtKILOAqUjr4": {"geometry": {"location": {"lat": 51.5264376, "lng": -0.2099419}, "viewport": {"northeast": {"lat": 51.5277553802915, "lng": -0.208553769708498}, "southwest": {"lat": 51.5250574197085, "lng": -0.211251730291502}}}, "name": "Chapter Portobello", "place_id": "ChIJXa_AlRcQdkgRtKILOAqUjr4", "types": ["point_of_interest", "establishment"], "rating": 4.1, "user_ratings_total": 64}, "ChIJn524nBcQdkgRJD5l8h5mWiA": {"geometry": {"location": {"lat": 51.5261164, "lng": -0.2088811}, "viewport": {"northeast": {"lat": 51.5273911802915, "lng": -0.207566519708498}, "southwest": {"lat": 51.5246932197085, "lng": -0.210264480291502}}}, "name": "Personal Presentation", "place_id": "ChIJn524nBcQdkgRJD5l8h5mWiA", "types": ["point_of_interest", "establishment"], "rating": 5, "user_ratings_total": 5}, "ChIJn524nBcQdkgRHdWr-e7qLj4": {"geometry": {"location": {"lat": 51.52611700000001, "lng": -0.2087481}, "viewport": {"northeast": {"lat": 51.52738048029151, "lng": -0.207438769708498}, "southwest": {"lat": 51.52468251970851, "lng": -0.2101367302915021}}}, "name": "Workspace | Canalot Studios", "place_id": "ChIJn524nBcQdkgRHdWr-e7qLj4", "types": ["point_of_interest", "establishment"], "rating": 4, "user_ratings_total": 26}, "ChIJKefinxcQdkgRdBI5v0BmZn4": {"geometry": {"location": {"lat": 51.52654990000001, "lng": -0.2084905}, "viewport": {"northeast": {"lat": 51.5278988802915, "lng": -0.207141519708498}, "southwest": {"lat": 51.52520091970851, "lng": -0.209839480291502}}}, "name": "Gillian Radford & Co", "place_id": "ChIJKefinxcQdkgRdBI5v0BmZn4", "types": ["lawyer", "point_of_interest", "establishment"], "rating": 3.3, "user_ratings_total": 20}, "ChIJn524nBcQdkgRaz6ptfWOwCA": {"geometry": {"location": {"lat": 51.52611700000001, "lng": -0.2087481}, "viewport": {"northeast": {"lat": 51.52738048029151, "lng": -0.207438769708498}, "southwest": {"lat": 51.52468251970851, "lng": -0.2101367302915021}}}, "name": "Ask The Boss", "place_id": "ChIJn524nBcQdkgRaz6ptfWOwCA", "types": ["accounting", "finance", "point_of_interest", "establishment"], "rating": 4.3, "user_ratings_total": 6}, "ChIJO8BDnBcQdkgR4fHOYECLAuk": {"geometry": {"location": {"lat": 51.5262141, "lng": -0.2090029}, "viewport": {"northeast": {"lat": 51.5274538802915, "lng": -0.207704569708498}, "southwest": {"lat": 51.5247559197085, "lng": -0.210402530291502}}}, "name": "London Wine Whisperer", "place_id": "ChIJO8BDnBcQdkgR4fHOYECLAuk", "types": ["food", "point_of_interest", "establishment"]}, "ChIJSegFTCkRdkgR2Glav_2l7H4": {"geometry": {"location": {"lat": 51.52617559999999, "lng": -0.2090163}, "viewport": {"northeast": {"lat": 51.52743428029149, "lng": -0.207709219708498}, "southwest": {"lat": 51.5247363197085, "lng": -0.210407180291502}}}, "name": "Buckingham & Lloyds", "place_id": "ChIJSegFTCkRdkgR2Glav_2l7H4", "types": ["real_estate_agency", "point_of_interest", "establishment"]}, "ChIJKRH4nRcQdkgR6qCNKRyX3MQ": {"geometry": {"location": {"lat": 51.5262533, "lng": -0.2087592}, "viewport": {"northeast": {"lat": 51.5276022802915, "lng": -0.207410219708498}, "southwest": {"lat": 51.5249043197085, "lng": -0.210108180291502}}}, "name": "Paradym Ltd", "place_id": "ChIJKRH4nRcQdkgR6qCNKRyX3MQ", "types": ["point_of_interest", "establishment"]}, "ChIJKRH4nRcQdkgRgPiye4GmKy4": {"geometry": {"location": {"lat": 51.5262533, "lng": -0.2087592}, "viewport": {"northeast": {"lat": 51.52745478029149, "lng": -0.207478619708498}, "southwest": {"lat": 51.52475681970849, "lng": -0.210176580291502}}}, "name": "TRIAS CONSULT LTD", "place_id": "ChIJKRH4nRcQdkgRgPiye4GmKy4", "types": ["point_of_interest", "establishment"]}, "ChIJKRH4nRcQdkgRvGGYvFHjBXQ": {"geometry": {"location": {"lat": 51.5262533, "lng": -0.2087592}, "viewport": {"northeast": {"lat": 51.52745478029149, "lng": -0.207478619708498}, "southwest": {"lat": 51.52475681970849, "lng": -0.210176580291502}}}, "name": "Freedom Management", "place_id": "ChIJKRH4nRcQdkgRvGGYvFHjBXQ", "types": ["point_of_interest", "establishment"]}, "ChIJGX9hHBYQdkgRPvV9tcBZUwc": {"geometry": {"location": {"lat": 51.52975660000935, "lng": -0.2114188001848121}, "viewport": {"northeast": {"lat": 51.5311055802915, "lng": -0.210069819708498}, "southwest": {"lat": 51.5284076197085, "lng": -0.212767780291502}}}, "name": "96-84 Fifth Ave", "place_id": "ChIJGX9hHBYQdkgRPvV9tcBZUwc", "types": ["route"]}, "ChIJb4kFyLAadkgRfbnLu1GsVfI": {"geometry": {"location": {"lat": 51.5301188, "lng": -0.2111376}, "viewport": {"northeast": {"lat": 51.53147643029151, "lng": -0.209880919708498}, "southwest": {"lat": 51.52877846970851, "lng": -0.212578880291502}}}, "name": "Care to Book", "place_id": "ChIJb4kFyLAadkgRfbnLu1GsVfI", "types": ["food", "point_of_interest", "establishment"]}, "ChIJX18qDhYQdkgRJKGNo98lIAE": {"geometry": {"location": {"lat": 51.529943, "lng": -0.2108231}, "viewport": {"northeast": {"lat": 51.5313111802915, "lng": -0.209469869708498}, "southwest": {"lat": 51.5286132197085, "lng": -0.212167830291502}}}, "name": "ubitricity Charging Station", "place_id": "ChIJX18qDhYQdkgRJKGNo98lIAE", "types": ["point_of_interest", "establishment"]}, "ChIJ_a7ZHhYQdkgRNzttdwdYRtU": {"geometry": {"location": {"lat": 51.52945099999999, "lng": -0.211402}, "viewport": {"northeast": {"lat": 51.5308053302915, "lng": -0.210099419708498}, "southwest": {"lat": 51.5281073697085, "lng": -0.212797380291502}}}, "name": "ubitricity Charging Station", "place_id": "ChIJ_a7ZHhYQdkgRNzttdwdYRtU", "types": ["point_of_interest", "establishment"]}, "ChIJaZQxaxYQdkgRJEkmJULlusU": {"geometry": {"location": {"lat": 51.529488, "lng": -0.210214}, "viewport": {"northeast": {"lat": 51.53081608029149, "lng": -0.208874519708498}, "southwest": {"lat": 51.52811811970849, "lng": -0.211572480291502}}}, "name": "ubitricity Charging Station", "place_id": "ChIJaZQxaxYQdkgRJEkmJULlusU", "types": ["point_of_interest", "establishment"]}, "ChIJ6-3Ks7AadkgR2FIF6w0FJIE": {"geometry": {"location": {"lat": 51.5301188, "lng": -0.2111376}, "viewport": {"northeast": {"lat": 51.53147643029151, "lng": -0.209880919708498}, "southwest": {"lat": 51.52877846970851, "lng": -0.212578880291502}}}, "name": "A Home To Grow Childminders", "place_id": "ChIJ6-3Ks7AadkgR2FIF6w0FJIE", "types": ["school", "point_of_interest", "establishment"]}, "ChIJEcmuBRYQdkgRM3PDLhyXLQI": {"geometry": {"location": {"lat": 51.5301188, "lng": -0.2111376}, "viewport": {"northeast": {"lat": 51.5314775302915, "lng": -0.2098788197084979}, "southwest": {"lat": 51.5287795697085, "lng": -0.212576780291502}}}, "name": "Lydia Abou-Jaib", "place_id": "ChIJEcmuBRYQdkgRM3PDLhyXLQI", "types": ["point_of_interest", "establishment"]}, "ChIJGfwuMsoRdkgROCAdKuzLeyA": {"geometry": {"location": {"lat": 51.5301188, "lng": -0.2111376}, "viewport": {"northeast": {"lat": 51.53147643029151, "lng": -0.209880919708498}, "southwest": {"lat": 51.52877846970851, "lng": -0.212578880291502}}}, "name": "Garden of Games", "place_id": "ChIJGfwuMsoRdkgROCAdKuzLeyA", "types": ["point_of_interest", "establishment"]}, "ChIJkYwMSBYQdkgRGgbF1jU-PHg": {"geometry": {"location": {"lat": 51.5284074000071, "lng": -0.2102097501423014}, "viewport": {"northeast": {"lat": 51.5297563802915, "lng": -0.208860769708498}, "southwest": {"lat": 51.5270584197085, "lng": -0.211558730291502}}}, "name": "41-49 Fourth Ave", "place_id": "ChIJkYwMSBYQdkgRGgbF1jU-PHg", "types": ["route"]}, "ChIJ6WXEMRYQdkgRc-zcMGkoyBY": {"geometry": {"location": {"lat": 51.528396, "lng": -0.21091}, "viewport": {"northeast": {"lat": 51.5297469802915, "lng": -0.209580069708498}, "southwest": {"lat": 51.5270490197085, "lng": -0.212278030291502}}}, "name": "ubitricity Charging Station", "place_id": "ChIJ6WXEMRYQdkgRc-zcMGkoyBY", "types": ["point_of_interest", "establishment"]}, "ChIJk2TdGHwRdkgRMqcHOSQcJzA": {"geometry": {"location": {"lat": 51.5288727, "lng": -0.210554}, "viewport": {"northeast": {"lat": 51.5302800302915, "lng": -0.209188419708498}, "southwest": {"lat": 51.5275820697085, "lng": -0.211886380291502}}}, "name": "Rock Me Momma", "place_id": "ChIJk2TdGHwRdkgRMqcHOSQcJzA", "types": ["point_of_interest", "store", "establishment"]}, "ChIJk2W8lE4RdkgR5ojN-apg-IQ": {"geometry": {"location": {"lat": 51.5288784, "lng": -0.2104264}, "viewport": {"northeast": {"lat": 51.5302761302915, "lng": -0.209063569708498}, "southwest": {"lat": 51.5275781697085, "lng": -0.211761530291502}}}, "name": "St Judes Community Hall", "place_id": "ChIJk2W8lE4RdkgR5ojN-apg-IQ", "types": ["museum", "point_of_interest", "establishment"], "rating": 3.3, "user_ratings_total": 3}, "ChIJh5IgORYQdkgRtDOjZOob7bk": {"geometry": {"location": {"lat": 51.5288785, "lng": -0.2104263}, "viewport": {"northeast": {"lat": 51.5302761802915, "lng": -0.209063469708498}, "southwest": {"lat": 51.5275782197085, "lng": -0.211761430291502}}}, "name": "Mirabilia", "place_id": "ChIJh5IgORYQdkgRtDOjZOob7bk", "types": ["food", "point_of_interest", "store", "establishment"]}, "ChIJh5IgORYQdkgR-eD5JTHLSGg": {"geometry": {"location": {"lat": 51.5288785, "lng": -0.2104263}, "viewport": {"northeast": {"lat": 51.5302761802915, "lng": -0.209063469708498}, "southwest": {"lat": 51.5275782197085, "lng": -0.211761430291502}}}, "name": "Apenn Fabrics", "place_id": "ChIJh5IgORYQdkgR-eD5JTHLSGg", "types": ["home_goods_store", "point_of_interest", "store", "establishment"]}, "ChIJC_vtSRYQdkgRC3XYEZQZRLQ": {"geometry": {"location": {"lat": 51.528334, "lng": -0.210162}, "viewport": {"northeast": {"lat": 51.5296844802915, "lng": -0.208828019708498}, "southwest": {"lat": 51.5269865197085, "lng": -0.211525980291502}}}, "name": "ubitricity Charging Station", "place_id": "ChIJC_vtSRYQdkgRC3XYEZQZRLQ", "types": ["point_of_interest", "establishment"]}, "ChIJWfoxKBYQdkgRoTy7KY-Mr9c": {"geometry": {"location": {"lat": 51.528475, "lng": -0.211659}, "viewport": {"northeast": {"lat": 51.5298279302915, "lng": -0.210348069708498}, "southwest": {"lat": 51.5271299697085, "lng": -0.213046030291502}}}, "name": "ubitricity Charging Station", "place_id": "ChIJWfoxKBYQdkgRoTy7KY-Mr9c", "types": ["point_of_interest", "establishment"]}, "ChIJQai03hcQdkgRzqbZH4Yru0k": {"geometry": {"location": {"lat": 51.5269638867972, "lng": -0.211390443092669}, "viewport": {"northeast": {"lat": 51.5283156802915, "lng": -0.2099229499999999}, "southwest": {"lat": 51.5256177197085, "lng": -0.21285675}}}, "name": "487-511 Harrow Rd", "place_id": "ChIJQai03hcQdkgRzqbZH4Yru0k", "types": ["route"]}, "ChIJt8mixBcQdkgRPM2CwdSHQe4": {"geometry": {"location": {"lat": 51.5270371, "lng": -0.2107987}, "viewport": {"northeast": {"lat": 51.5284534802915, "lng": -0.209344869708498}, "southwest": {"lat": 51.5257555197085, "lng": -0.212042830291502}}}, "name": "Queen's Park Library", "place_id": "ChIJt8mixBcQdkgRPM2CwdSHQe4", "types": ["library", "point_of_interest", "establishment"], "rating": 4.1, "user_ratings_total": 15}, "ChIJ3xNnzxcQdkgR0tPdGggcZik": {"geometry": {"location": {"lat": 51.5273316, "lng": -0.2106929}, "viewport": {"northeast": {"lat": 51.5287640802915, "lng": -0.209392719708498}, "southwest": {"lat": 51.5260661197085, "lng": -0.212090680291502}}}, "name": "Juniper House", "place_id": "ChIJ3xNnzxcQdkgR0tPdGggcZik", "types": ["point_of_interest", "establishment"], "rating": 3, "user_ratings_total": 5}, "ChIJD6Be0hcQdkgRu_a0qwKn8TM": {"geometry": {"location": {"lat": 51.527776, "lng": -0.211075}, "viewport": {"northeast": {"lat": 51.5291263302915, "lng": -0.209739469708498}, "southwest": {"lat": 51.5264283697085, "lng": -0.212437430291502}}}, "name": "ubitricity Charging Station", "place_id": "ChIJD6Be0hcQdkgRu_a0qwKn8TM", "types": ["point_of_interest", "establishment"]}, "ChIJK2EyLtkPdkgRSM0Cks9HAwE": {"geometry": {"location": {"lat": 51.526112, "lng": -0.211459}, "viewport": {"northeast": {"lat": 51.52752418029149, "lng": -0.210102219708498}, "southwest": {"lat": 51.52482621970849, "lng": -0.212800180291502}}}, "name": "Scott Davidson", "place_id": "ChIJK2EyLtkPdkgRSM0Cks9HAwE", "types": ["point_of_interest", "establishment"], "rating": 3.7, "user_ratings_total": 3}, "ChIJnywm5BcQdkgR1J6OkaDNMFA": {"geometry": {"location": {"lat": 51.52650560000001, "lng": -0.2111422}, "viewport": {"northeast": {"lat": 51.5277616802915, "lng": -0.209910519708498}, "southwest": {"lat": 51.52506371970851, "lng": -0.212608480291502}}}, "name": "Sangye Yoga - Jivamukti Affiliate London", "place_id": "ChIJnywm5BcQdkgR1J6OkaDNMFA", "types": ["gym", "health", "point_of_interest", "establishment"], "rating": 4.7, "user_ratings_total": 55}, "ChIJnZP96g4QdkgRWyvJXVvP-Rg": {"geometry": {"location": {"lat": 51.52655799999999, "lng": -0.211098}, "viewport": {"northeast": {"lat": 51.52777748029149, "lng": -0.209675219708498}, "southwest": {"lat": 51.5250795197085, "lng": -0.212373180291502}}}, "name": "Healthvision UK", "place_id": "ChIJnZP96g4QdkgRWyvJXVvP-Rg", "types": ["point_of_interest", "establishment"], "rating": 3.8, "user_ratings_total": 18}, "ChIJAawLLj0QdkgR5ISK5XeKHSg": {"geometry": {"location": {"lat": 51.5265583, "lng": -0.2110982}, "viewport": {"northeast": {"lat": 51.52777763029149, "lng": -0.209675319708498}, "southwest": {"lat": 51.52507966970849, "lng": -0.212373280291502}}}, "name": "Seth Stein Architects Ltd", "place_id": "ChIJAawLLj0QdkgR5ISK5XeKHSg", "types": ["point_of_interest", "establishment"]}, "ChIJX_wR5xcQdkgRM1zV8MALYKs": {"geometry": {"location": {"lat": 51.5264967, "lng": -0.2110373}, "viewport": {"northeast": {"lat": 51.52774683029149, "lng": -0.209644869708498}, "southwest": {"lat": 51.52504886970849, "lng": -0.212342830291502}}}, "name": "Universal Display Fittings Co Ltd", "place_id": "ChIJX_wR5xcQdkgRM1zV8MALYKs", "types": ["point_of_interest", "establishment"]}, "ChIJH5MS5hcQdkgRQsHGMTj2LhQ": {"geometry": {"location": {"lat": 51.5263673, "lng": -0.2110661}, "viewport": {"northeast": {"lat": 51.5276820802915, "lng": -0.209658569708498}, "southwest": {"lat": 51.52498411970851, "lng": -0.212356530291502}}}, "name": "McKay Williamson, Art Gallery & Creative Agency", "place_id": "ChIJH5MS5hcQdkgRQsHGMTj2LhQ", "types": ["art_gallery", "point_of_interest", "establishment"], "rating": 5, "user_ratings_total": 47}, "ChIJv9Fw4xcQdkgR6KmVYUZJ6lk": {"geometry": {"location": {"lat": 51.52608000000001, "lng": -0.210543}, "viewport": {"northeast": {"lat": 51.5274792302915, "lng": -0.209182119708498}, "southwest": {"lat": 51.52478126970851, "lng": -0.211880080291502}}}, "name": "Mayfair Valley Pashmina", "place_id": "ChIJv9Fw4xcQdkgR6KmVYUZJ6lk", "types": ["point_of_interest", "clothing_store", "store", "establishment"]}, "ChIJv9Fw4xcQdkgRWA5O-OiaWEU": {"geometry": {"location": {"lat": 51.526105, "lng": -0.2104688}, "viewport": {"northeast": {"lat": 51.5274886302915, "lng": -0.209111619708498}, "southwest": {"lat": 51.5247906697085, "lng": -0.211809580291502}}}, "name": "Walter's Workshops Ltd", "place_id": "ChIJv9Fw4xcQdkgRWA5O-OiaWEU", "types": ["point_of_interest", "establishment"], "rating": 5, "user_ratings_total": 2}, "ChIJ_c5t5hcQdkgRNFnansKoOY4": {"geometry": {"location": {"lat": 51.5263673, "lng": -0.2110661}, "viewport": {"northeast": {"lat": 51.5276821302915, "lng": -0.209659269708498}, "southwest": {"lat": 51.5249841697085, "lng": -0.212357230291502}}}, "name": "HappyHopperz", "place_id": "ChIJ_c5t5hcQdkgRNFnansKoOY4", "types": ["point_of_interest", "establishment"]}, "ChIJ_c5t5hcQdkgRZT_TJSUzJFE": {"geometry": {"location": {"lat": 51.5264932, "lng": -0.2110362}, "viewport": {"northeast": {"lat": 51.52774508029149, "lng": -0.209644319708498}, "southwest": {"lat": 51.52504711970849, "lng": -0.212342280291502}}}, "name": "Fluent Architecture", "place_id": "ChIJ_c5t5hcQdkgRZT_TJSUzJFE", "types": ["point_of_interest", "establishment"]}, "ChIJbQDB_CQQdkgR_v60MgXEfIc": {"geometry": {"location": {"lat": 51.5264932, "lng": -0.2110362}, "viewport": {"northeast": {"lat": 51.52774508029149, "lng": -0.209644319708498}, "southwest": {"lat": 51.52504711970849, "lng": -0.212342280291502}}}, "name": "Geraldine Larkin", "place_id": "ChIJbQDB_CQQdkgR_v60MgXEfIc", "types": ["point_of_interest", "establishment"], "rating": 5, "user_ratings_total": 1}, "ChIJ_c5t5hcQdkgR4NeARC99X1w": {"geometry": {"location": {"lat": 51.5264932, "lng": -0.2110362}, "viewport": {"northeast": {"lat": 51.52774508029149, "lng": -0.209644319708498}, "southwest": {"lat": 51.52504711970849, "lng": -0.212342280291502}}}, "name": "Gourmet Scratch Map", "place_id": "ChIJ_c5t5hcQdkgR4NeARC99X1w", "types": ["point_of_interest", "establishment"], "rating": 1, "user_ratings_total": 1}, "ChIJ_c5t5hcQdkgR5_5f55bkt20": {"geometry": {"location": {"lat": 51.5265583, "lng": -0.2110982}, "viewport": {"northeast": {"lat": 51.52777763029149, "lng": -0.209675319708498}, "southwest": {"lat": 51.52507966970849, "lng": -0.212373280291502}}}, "name": "Insurance Capital Ventures", "place_id": "ChIJ_c5t5hcQdkgR5_5f55bkt20", "types": ["point_of_interest", "establishment"]}, "ChIJ_c5t5hcQdkgRYakWRlM_Y-g": {"geometry": {"location": {"lat": 51.5265583, "lng": -0.2110982}, "viewport": {"northeast": {"lat": 51.52777763029149, "lng": -0.209675319708498}, "southwest": {"lat": 51.52507966970849, "lng": -0.212373280291502}}}, "name": "ConversionMinds Ltd", "place_id": "ChIJ_c5t5hcQdkgRYakWRlM_Y-g", "types": ["point_of_interest", "establishment"]}, "ChIJ_c5t5hcQdkgRi-bEmV6ttUM": {"geometry": {"location": {"lat": 51.5265583, "lng": -0.2110982}, "viewport": {"northeast": {"lat": 51.52777763029149, "lng": -0.209675319708498}, "southwest": {"lat": 51.52507966970849, "lng": -0.212373280291502}}}, "name": "JFDP Labs Limited", "place_id": "ChIJ_c5t5hcQdkgRi-bEmV6ttUM", "types": ["point_of_interest", "establishment"]}, "ChIJ58ai5xcQdkgRCRH9qivvlrk": {"geometry": {"location": {"lat": 51.5265583, "lng": -0.2110982}, "viewport": {"northeast": {"lat": 51.52777763029149, "lng": -0.209675319708498}, "southwest": {"lat": 51.52507966970849, "lng": -0.212373280291502}}}, "name": "Re-Structure JC Ltd", "place_id": "ChIJ58ai5xcQdkgRCRH9qivvlrk", "types": ["home_goods_store", "general_contractor", "point_of_interest", "store", "establishment"], "rating": 3.5, "user_ratings_total": 11}, "ChIJ_c5t5hcQdkgRI2kUXL9N1m4": {"geometry": {"location": {"lat": 51.5265435, "lng": -0.2111633}, "viewport": {"northeast": {"lat": 51.52778043029149, "lng": -0.2099216697084979}, "southwest": {"lat": 51.52508246970849, "lng": -0.212619630291502}}}, "name": "Stelfox May", "place_id": "ChIJ_c5t5hcQdkgRI2kUXL9N1m4", "types": ["general_contractor", "point_of_interest", "establishment"]}, "ChIJ9fkUXz0QdkgRtEhHDnrWqxI": {"geometry": {"location": {"lat": 51.5265435, "lng": -0.2111633}, "viewport": {"northeast": {"lat": 51.52778043029149, "lng": -0.2099216697084979}, "southwest": {"lat": 51.52508246970849, "lng": -0.212619630291502}}}, "name": "Sentient", "place_id": "ChIJ9fkUXz0QdkgRtEhHDnrWqxI", "types": ["point_of_interest", "establishment"]}, "ChIJX_wR5xcQdkgR42nHYItNB1Q": {"geometry": {"location": {"lat": 51.52654159999999, "lng": -0.2111873}, "viewport": {"northeast": {"lat": 51.52777948029149, "lng": -0.209933669708498}, "southwest": {"lat": 51.52508151970849, "lng": -0.212631630291502}}}, "name": "Swann International", "place_id": "ChIJX_wR5xcQdkgR42nHYItNB1Q", "types": ["point_of_interest", "establishment"]}, "ChIJzTzd7RcQdkgRAeLbq3RAz94": {"geometry": {"location": {"lat": 51.52608000000001, "lng": -0.210543}, "viewport": {"northeast": {"lat": 51.5274792302915, "lng": -0.209182119708498}, "southwest": {"lat": 51.52478126970851, "lng": -0.211880080291502}}}, "name": "Sarah M Richardson", "place_id": "ChIJzTzd7RcQdkgRAeLbq3RAz94", "types": ["point_of_interest", "establishment"]}, "ChIJ9wgOdhcQdkgR-Ma56fUnHa0": {"geometry": {"location": {"lat": 51.52608000000001, "lng": -0.210543}, "viewport": {"northeast": {"lat": 51.5274792302915, "lng": -0.209182119708498}, "southwest": {"lat": 51.52478126970851, "lng": -0.211880080291502}}}, "name": "Sue Timney", "place_id": "ChIJ9wgOdhcQdkgR-Ma56fUnHa0", "types": ["general_contractor", "point_of_interest", "establishment"]}, "ChIJzTzd7RcQdkgReWDhOwNmCas": {"geometry": {"location": {"lat": 51.52608000000001, "lng": -0.210543}, "viewport": {"northeast": {"lat": 51.5274792302915, "lng": -0.209182119708498}, "southwest": {"lat": 51.52478126970851, "lng": -0.211880080291502}}}, "name": "Julian Broad Photography", "place_id": "ChIJzTzd7RcQdkgReWDhOwNmCas", "types": ["point_of_interest", "establishment"]}, "ChIJzTzd7RcQdkgRZXTk3Uk4fPk": {"geometry": {"location": {"lat": 51.52608000000001, "lng": -0.210543}, "viewport": {"northeast": {"lat": 51.5274792302915, "lng": -0.209182119708498}, "southwest": {"lat": 51.52478126970851, "lng": -0.211880080291502}}}, "name": "SACHA SKARBEK", "place_id": "ChIJzTzd7RcQdkgRZXTk3Uk4fPk", "types": ["point_of_interest", "establishment"]}, "ChIJpym67RcQdkgRm2xiFqs5ZLI": {"geometry": {"location": {"lat": 51.526105, "lng": -0.2104687}, "viewport": {"northeast": {"lat": 51.52748863029149, "lng": -0.209111519708498}, "southwest": {"lat": 51.52479066970849, "lng": -0.211809480291502}}}, "name": "Florence de Mar\u00e9", "place_id": "ChIJpym67RcQdkgRm2xiFqs5ZLI", "types": ["point_of_interest", "establishment"]}, "ChIJhVGT8hcQdkgRvRV7nK5XQTs": {"geometry": {"location": {"lat": 51.5260958, "lng": -0.2104641}, "viewport": {"northeast": {"lat": 51.52748373029149, "lng": -0.209105869708498}, "southwest": {"lat": 51.5247857697085, "lng": -0.211803830291502}}}, "name": "The Workshop", "place_id": "ChIJhVGT8hcQdkgRvRV7nK5XQTs", "types": ["electronics_store", "home_goods_store", "point_of_interest", "store", "establishment"], "rating": 5, "user_ratings_total": 1}, "ChIJbx1B5BcQdkgRppGjF0zVDgk": {"geometry": {"location": {"lat": 51.5261156, "lng": -0.2112619}, "viewport": {"northeast": {"lat": 51.5275213302915, "lng": -0.209905919708498}, "southwest": {"lat": 51.52482336970851, "lng": -0.212603880291502}}}, "name": "Preen", "place_id": "ChIJbx1B5BcQdkgRppGjF0zVDgk", "types": ["point_of_interest", "clothing_store", "store", "establishment"]}, "ChIJ60CH8xcQdkgRZdF3DVdCotg": {"geometry": {"location": {"lat": 51.5260313, "lng": -0.2105379}, "viewport": {"northeast": {"lat": 51.5274541302915, "lng": -0.209171419708498}, "southwest": {"lat": 51.5247561697085, "lng": -0.2118693802915021}}}, "name": "Revolution Mastering", "place_id": "ChIJ60CH8xcQdkgRZdF3DVdCotg", "types": ["electronics_store", "home_goods_store", "point_of_interest", "store", "establishment"]}, "ChIJX9Bl_SQQdkgRHOpcmdNG3QM": {"geometry": {"location": {"lat": 51.52631530000001, "lng": -0.2107228}, "viewport": {"northeast": {"lat": 51.5276687802915, "lng": -0.209373319708498}, "southwest": {"lat": 51.5249708197085, "lng": -0.212071280291502}}}, "name": "Westway Housing Association Ltd", "place_id": "ChIJX9Bl_SQQdkgRHOpcmdNG3QM", "types": ["point_of_interest", "establishment"], "rating": 3.7, "user_ratings_total": 3}, "ChIJV_fIPj0QdkgRPwCfXbi_KKE": {"geometry": {"location": {"lat": 51.5265583, "lng": -0.2110982}, "viewport": {"northeast": {"lat": 51.52777763029149, "lng": -0.209675319708498}, "southwest": {"lat": 51.52507966970849, "lng": -0.212373280291502}}}, "name": "The Hub Dental Rooms", "place_id": "ChIJV_fIPj0QdkgRPwCfXbi_KKE", "types": ["dentist", "health", "point_of_interest", "establishment"], "rating": 4, "user_ratings_total": 34}, "ChIJV3wGMz0QdkgRLyJ3WZarP64": {"geometry": {"location": {"lat": 51.5264096, "lng": -0.2113616}, "viewport": {"northeast": {"lat": 51.5277145302915, "lng": -0.210024919708498}, "southwest": {"lat": 51.5250165697085, "lng": -0.212722880291502}}}, "name": "Graham Harrison Framing Ltd", "place_id": "ChIJV3wGMz0QdkgRLyJ3WZarP64", "types": ["point_of_interest", "store", "establishment"], "rating": 4.4, "user_ratings_total": 7}, "ChIJ_c5t5hcQdkgRViZW_FsD4-k": {"geometry": {"location": {"lat": 51.5263673, "lng": -0.2110661}, "viewport": {"northeast": {"lat": 51.5276820802915, "lng": -0.209658569708498}, "southwest": {"lat": 51.52498411970851, "lng": -0.212356530291502}}}, "name": "Erlam Ltd", "place_id": "ChIJ_c5t5hcQdkgRViZW_FsD4-k", "types": ["point_of_interest", "establishment"]}, "ChIJqaUrgPwRdkgRpeLpOLpPzyM": {"geometry": {"location": {"lat": 51.5264932, "lng": -0.2110362}, "viewport": {"northeast": {"lat": 51.52774508029149, "lng": -0.209644319708498}, "southwest": {"lat": 51.52504711970849, "lng": -0.212342280291502}}}, "name": "Gibson's Goodology", "place_id": "ChIJqaUrgPwRdkgRpeLpOLpPzyM", "types": ["food", "health", "point_of_interest", "store", "establishment"]}, "ChIJhZ5qINARdkgRWmzjAFP6XoQ": {"geometry": {"location": {"lat": 51.5264932, "lng": -0.2110362}, "viewport": {"northeast": {"lat": 51.52774508029149, "lng": -0.209644319708498}, "southwest": {"lat": 51.52504711970849, "lng": -0.212342280291502}}}, "name": "Shrimps", "place_id": "ChIJhZ5qINARdkgRWmzjAFP6XoQ", "types": ["point_of_interest", "establishment"]}, "ChIJ_c5t5hcQdkgR9GENRhw3MoE": {"geometry": {"location": {"lat": 51.5264932, "lng": -0.2110362}, "viewport": {"northeast": {"lat": 51.52774508029149, "lng": -0.209644319708498}, "southwest": {"lat": 51.52504711970849, "lng": -0.212342280291502}}}, "name": "Specialist Homeowner Finance", "place_id": "ChIJ_c5t5hcQdkgR9GENRhw3MoE", "types": ["point_of_interest", "establishment"]}, "ChIJ_c5t5hcQdkgR2EGMBvw9r5A": {"geometry": {"location": {"lat": 51.5264932, "lng": -0.2110362}, "viewport": {"northeast": {"lat": 51.52774508029149, "lng": -0.209644319708498}, "southwest": {"lat": 51.52504711970849, "lng": -0.212342280291502}}}, "name": "Oil & Co", "place_id": "ChIJ_c5t5hcQdkgR2EGMBvw9r5A", "types": ["point_of_interest", "establishment"]}, "ChIJ_c5t5hcQdkgRZaenuqcQ4V4": {"geometry": {"location": {"lat": 51.5264932, "lng": -0.2110362}, "viewport": {"northeast": {"lat": 51.52774508029149, "lng": -0.209644319708498}, "southwest": {"lat": 51.52504711970849, "lng": -0.212342280291502}}}, "name": "Yellowbrick Marketing Communications", "place_id": "ChIJ_c5t5hcQdkgRZaenuqcQ4V4", "types": ["point_of_interest", "establishment"]}, "ChIJYwnE5RcQdkgRWfB2c_aym44": {"geometry": {"location": {"lat": 51.526264, "lng": -0.211073}, "viewport": {"northeast": {"lat": 51.52759908029149, "lng": -0.209726319708498}, "southwest": {"lat": 51.5249011197085, "lng": -0.212424280291502}}}, "name": "Alderson Street (Stop J)", "place_id": "ChIJYwnE5RcQdkgRWfB2c_aym44", "types": ["transit_station", "point_of_interest", "establishment"]}, "ChIJiZiFvhcQdkgRmX6IVOiBfAs": {"geometry": {"location": {"lat": 51.5265024, "lng": -0.2111321}, "viewport": {"northeast": {"lat": 51.52774968029149, "lng": -0.209692269708498}, "southwest": {"lat": 51.52505171970849, "lng": -0.212390230291502}}}, "name": "Back in the Saddle", "place_id": "ChIJiZiFvhcQdkgRmX6IVOiBfAs", "types": ["health", "point_of_interest", "establishment"], "rating": 5, "user_ratings_total": 1}, "ChIJ_c5t5hcQdkgRGNl6zozqcLI": {"geometry": {"location": {"lat": 51.5265254, "lng": -0.2111118}, "viewport": {"northeast": {"lat": 51.5277611302915, "lng": -0.209681419708498}, "southwest": {"lat": 51.5250631697085, "lng": -0.212379380291502}}}, "name": "ASSET PARTNERSLIMITED", "place_id": "ChIJ_c5t5hcQdkgRGNl6zozqcLI", "types": ["finance", "point_of_interest", "establishment"]}, "ChIJ_c5t5hcQdkgRUrmMJew02ko": {"geometry": {"location": {"lat": 51.5265254, "lng": -0.2111118}, "viewport": {"northeast": {"lat": 51.52776118029149, "lng": -0.209682119708498}, "southwest": {"lat": 51.52506321970849, "lng": -0.212380080291502}}}, "name": "Camari Consulting Ltd", "place_id": "ChIJ_c5t5hcQdkgRUrmMJew02ko", "types": ["point_of_interest", "establishment"]}, "ChIJCQnZ5RcQdkgRJeXVKW0oEWk": {"geometry": {"location": {"lat": 51.5265254, "lng": -0.2111118}, "viewport": {"northeast": {"lat": 51.5277611302915, "lng": -0.209681419708498}, "southwest": {"lat": 51.5250631697085, "lng": -0.212379380291502}}}, "name": "Mother Hen Films Ltd", "place_id": "ChIJCQnZ5RcQdkgRJeXVKW0oEWk", "types": ["point_of_interest", "establishment"]}, "ChIJ_c5t5hcQdkgR2tudBGBaFXc": {"geometry": {"location": {"lat": 51.5265576, "lng": -0.2110752}, "viewport": {"northeast": {"lat": 51.5277772802915, "lng": -0.209663819708498}, "southwest": {"lat": 51.5250793197085, "lng": -0.212361780291502}}}, "name": "Scratchmap.co.uk", "place_id": "ChIJ_c5t5hcQdkgR2tudBGBaFXc", "types": ["point_of_interest", "store", "establishment"]}, "ChIJx2Io5BcQdkgRidfpOcz_SM4": {"geometry": {"location": {"lat": 51.5265127, "lng": -0.2111592}, "viewport": {"northeast": {"lat": 51.5277655802915, "lng": -0.209919719708498}, "southwest": {"lat": 51.5250676197085, "lng": -0.212617680291502}}}, "name": "Coachgeorginag", "place_id": "ChIJx2Io5BcQdkgRidfpOcz_SM4", "types": ["health", "point_of_interest", "establishment"]}, "ChIJ_c5t5hcQdkgRx7N5NWLgMN0": {"geometry": {"location": {"lat": 51.5265583, "lng": -0.2110982}, "viewport": {"northeast": {"lat": 51.52777763029149, "lng": -0.209675319708498}, "southwest": {"lat": 51.52507966970849, "lng": -0.212373280291502}}}, "name": "Moving by Appointment Ltd", "place_id": "ChIJ_c5t5hcQdkgRx7N5NWLgMN0", "types": ["point_of_interest", "establishment"]}, "ChIJv209GVIRdkgRUkvunserQfw": {"geometry": {"location": {"lat": 51.526523, "lng": -0.2111861}, "viewport": {"northeast": {"lat": 51.5277707302915, "lng": -0.209933169708498}, "southwest": {"lat": 51.5250727697085, "lng": -0.212631130291502}}}, "name": "Deeplomatic LTD", "place_id": "ChIJv209GVIRdkgRUkvunserQfw", "types": ["point_of_interest", "establishment"]}, "ChIJYfdOJ3ERdkgRa67j7UiVa2Q": {"geometry": {"location": {"lat": 51.526523, "lng": -0.2111861}, "viewport": {"northeast": {"lat": 51.5277701802915, "lng": -0.209933069708498}, "southwest": {"lat": 51.5250722197085, "lng": -0.212631030291502}}}, "name": "Backinthesaddlebits", "place_id": "ChIJYfdOJ3ERdkgRa67j7UiVa2Q", "types": ["health", "point_of_interest", "establishment"]}, "ChIJd_e2ZW0RdkgRoWlCIzTZ7Y4": {"geometry": {"location": {"lat": 51.5265204, "lng": -0.2113552}, "viewport": {"northeast": {"lat": 51.5277714302915, "lng": -0.210030669708498}, "southwest": {"lat": 51.5250734697085, "lng": -0.212728630291502}}}, "name": "Ladbroke Grove Skips", "place_id": "ChIJd_e2ZW0RdkgRoWlCIzTZ7Y4", "types": ["point_of_interest", "establishment"], "rating": 5, "user_ratings_total": 1}, "ChIJzTzd7RcQdkgR2ZqaDEVszko": {"geometry": {"location": {"lat": 51.52608000000001, "lng": -0.210543}, "viewport": {"northeast": {"lat": 51.5274792302915, "lng": -0.209182119708498}, "southwest": {"lat": 51.52478126970851, "lng": -0.211880080291502}}}, "name": "GLEN SCOTT MUSIC", "place_id": "ChIJzTzd7RcQdkgR2ZqaDEVszko", "types": ["point_of_interest", "establishment"]}, "ChIJA74H7BcQdkgRqUALqBrXRRQ": {"geometry": {"location": {"lat": 51.52649299999999, "lng": -0.2103033}, "viewport": {"northeast": {"lat": 51.5277305802915, "lng": -0.208967569708498}, "southwest": {"lat": 51.5250326197085, "lng": -0.211665530291502}}}, "name": "RBKC Housing Management", "place_id": "ChIJA74H7BcQdkgRqUALqBrXRRQ", "types": ["local_government_office", "point_of_interest", "establishment"]}, "ChIJKU3U4vkRdkgRrYDwyrq7h2U": {"geometry": {"location": {"lat": 51.5260313, "lng": -0.2105379}, "viewport": {"northeast": {"lat": 51.5274541302915, "lng": -0.209171419708498}, "southwest": {"lat": 51.5247561697085, "lng": -0.2118693802915021}}}, "name": "Bespoke Britain", "place_id": "ChIJKU3U4vkRdkgRrYDwyrq7h2U", "types": ["point_of_interest", "establishment"], "rating": 5, "user_ratings_total": 2}, "ChIJ5_DQIXYRdkgRxigIn91_cxM": {"geometry": {"location": {"lat": 51.5260313, "lng": -0.2105379}, "viewport": {"northeast": {"lat": 51.5274541302915, "lng": -0.209171419708498}, "southwest": {"lat": 51.5247561697085, "lng": -0.2118693802915021}}}, "name": "Royal Mail Postbox - Kensal Road", "place_id": "ChIJ5_DQIXYRdkgRxigIn91_cxM", "types": ["post_office", "finance", "point_of_interest", "establishment"], "rating": 5, "user_ratings_total": 1}, "ChIJd7F04xcQdkgRJ18nw6Q6GuU": {"geometry": {"location": {"lat": 51.5261356, "lng": -0.2114117}, "viewport": {"northeast": {"lat": 51.5275349302915, "lng": -0.210056519708498}, "southwest": {"lat": 51.5248369697085, "lng": -0.212754480291502}}}, "name": "Frames", "place_id": "ChIJd7F04xcQdkgRJ18nw6Q6GuU", "types": ["point_of_interest", "establishment"]}, "ChIJL3AukxcQdkgRmB6gvzX0y7Q": {"geometry": {"location": {"lat": 51.526189, "lng": -0.210191}, "viewport": {"northeast": {"lat": 51.5275312302915, "lng": -0.208843619708498}, "southwest": {"lat": 51.5248332697085, "lng": -0.2115415802915021}}}, "name": "ubitricity Charging Station", "place_id": "ChIJL3AukxcQdkgRmB6gvzX0y7Q", "types": ["point_of_interest", "establishment"]}, "ChIJnfdaScMRdkgR-C9Z4XLxajE": {"geometry": {"location": {"lat": 51.5262453, "lng": -0.2115878}, "viewport": {"northeast": {"lat": 51.5275942802915, "lng": -0.210238819708498}, "southwest": {"lat": 51.5248963197085, "lng": -0.2129367802915021}}}, "name": "The Grill", "place_id": "ChIJnfdaScMRdkgR-C9Z4XLxajE", "types": ["restaurant", "food", "point_of_interest", "establishment"], "rating": 5, "user_ratings_total": 1}, "ChIJW8oU6j0QdkgRvaotqkktViQ": {"geometry": {"location": {"lat": 51.52950565000437, "lng": -0.2131027500913412}, "viewport": {"northeast": {"lat": 51.5308546302915, "lng": -0.211753769708498}, "southwest": {"lat": 51.5281566697085, "lng": -0.2144517302915021}}}, "name": "51-55 Sixth Ave", "place_id": "ChIJW8oU6j0QdkgRvaotqkktViQ", "types": ["route"]}, "ChIJ81Tn7j0QdkgRtYePHvgOmv0": {"geometry": {"location": {"lat": 51.52974399999999, "lng": -0.2127289999999999}, "viewport": {"northeast": {"lat": 51.5310984802915, "lng": -0.211378469708498}, "southwest": {"lat": 51.5284005197085, "lng": -0.214076430291502}}}, "name": "ubitricity Charging Station", "place_id": "ChIJ81Tn7j0QdkgRtYePHvgOmv0", "types": ["point_of_interest", "establishment"]}, "ChIJ97vcyCwfdkgRgCxUfZEJS5g": {"geometry": {"location": {"lat": 51.5295681, "lng": -0.2123442}, "viewport": {"northeast": {"lat": 51.5309692302915, "lng": -0.210980519708498}, "southwest": {"lat": 51.5282712697085, "lng": -0.213678480291502}}}, "name": "Braka Construction Ltd", "place_id": "ChIJ97vcyCwfdkgRgCxUfZEJS5g", "types": ["point_of_interest", "establishment"]}, "ChIJc6xj6D0QdkgRmjqcCcavPAM": {"geometry": {"location": {"lat": 51.5298887, "lng": -0.2128688}, "viewport": {"northeast": {"lat": 51.5312424302915, "lng": -0.211585569708498}, "southwest": {"lat": 51.5285444697085, "lng": -0.214283530291502}}}, "name": "Kate Gielgud Acting Parties", "place_id": "ChIJc6xj6D0QdkgRmjqcCcavPAM", "types": ["point_of_interest", "establishment"], "rating": 4, "user_ratings_total": 1}, "ChIJ-T6kwj0QdkgRIxBTF88mL7k": {"geometry": {"location": {"lat": 51.53004019999999, "lng": -0.2131406}, "viewport": {"northeast": {"lat": 51.5313823802915, "lng": -0.211707669708498}, "southwest": {"lat": 51.5286844197085, "lng": -0.214405630291502}}}, "name": "Gainecrest Builders Ltd", "place_id": "ChIJ-T6kwj0QdkgRIxBTF88mL7k", "types": ["general_contractor", "point_of_interest", "establishment"]}, "ChIJRxJBnD0QdkgRIkfBGUGPz4s": {"geometry": {"location": {"lat": 51.5283615, "lng": -0.2125346}, "viewport": {"northeast": {"lat": 51.5297130302915, "lng": -0.211221119708498}, "southwest": {"lat": 51.5270150697085, "lng": -0.213919080291502}}}, "name": "ubitricity Charging Station", "place_id": "ChIJRxJBnD0QdkgRIkfBGUGPz4s", "types": ["point_of_interest", "establishment"]}, "ChIJyXy2jz0QdkgRCCMhb76xZcg": {"geometry": {"location": {"lat": 51.528757, "lng": -0.2123437}, "viewport": {"northeast": {"lat": 51.53011388029149, "lng": -0.2110718697084979}, "southwest": {"lat": 51.5274159197085, "lng": -0.213769830291502}}}, "name": "Berkeley Beauty", "place_id": "ChIJyXy2jz0QdkgRCCMhb76xZcg", "types": ["beauty_salon", "point_of_interest", "establishment"]}, "ChIJRX_YkT0QdkgRSzTwAPWKr-k": {"geometry": {"location": {"lat": 51.52891799999999, "lng": -0.2123845}, "viewport": {"northeast": {"lat": 51.5302695302915, "lng": -0.211072369708498}, "southwest": {"lat": 51.5275715697085, "lng": -0.213770330291502}}}, "name": "ubitricity Charging Station", "place_id": "ChIJRX_YkT0QdkgRSzTwAPWKr-k", "types": ["point_of_interest", "establishment"]}, "ChIJzQ-sLDIRdkgRB34TQdJjcBw": {"geometry": {"location": {"lat": 51.5287011, "lng": -0.2118988}, "viewport": {"northeast": {"lat": 51.53003953029149, "lng": -0.210447719708498}, "southwest": {"lat": 51.5273415697085, "lng": -0.213145680291502}}}, "name": "Financial Guidance", "place_id": "ChIJzQ-sLDIRdkgRB34TQdJjcBw", "types": ["point_of_interest", "establishment"]}, "ChIJD_uDbj0QdkgRe3vaqOaxFLw": {"geometry": {"location": {"lat": 51.52710332371559, "lng": -0.2127851681927923}, "viewport": {"northeast": {"lat": 51.5284629302915, "lng": -0.211432419708498}, "southwest": {"lat": 51.5257649697085, "lng": -0.214130380291502}}}, "name": "513-541 Harrow Rd", "place_id": "ChIJD_uDbj0QdkgRe3vaqOaxFLw", "types": ["route"]}, "ChIJ4fgaZT0QdkgR9mjKNOMnhMs": {"geometry": {"location": {"lat": 51.5272799, "lng": -0.2128264}, "viewport": {"northeast": {"lat": 51.5286807302915, "lng": -0.211456919708498}, "southwest": {"lat": 51.5259827697085, "lng": -0.214154880291502}}}, "name": "Ardyss International UK (Work from Home Opportunity)", "place_id": "ChIJ4fgaZT0QdkgR9mjKNOMnhMs", "types": ["health", "point_of_interest", "store", "establishment"]}, "ChIJR5EiKv4RdkgR8tWKZFay5_c": {"geometry": {"location": {"lat": 51.52754290000001, "lng": -0.2127559}, "viewport": {"northeast": {"lat": 51.5289737302915, "lng": -0.211384669708498}, "southwest": {"lat": 51.5262757697085, "lng": -0.214082630291502}}}, "name": "Empress Nail and Beauty", "place_id": "ChIJR5EiKv4RdkgR8tWKZFay5_c", "types": ["beauty_salon", "point_of_interest", "establishment"], "rating": 5, "user_ratings_total": 4}, "ChIJDzgmyz0RdkgRnsmkUzsBTr8": {"geometry": {"location": {"lat": 51.5272244, "lng": -0.2123042}, "viewport": {"northeast": {"lat": 51.5286288802915, "lng": -0.210940819708498}, "southwest": {"lat": 51.5259309197085, "lng": -0.213638780291502}}}, "name": "Pure.mignon", "place_id": "ChIJDzgmyz0RdkgRnsmkUzsBTr8", "types": ["point_of_interest", "store", "establishment"]}, "ChIJtbllbj0QdkgRkQYKVhJp-zU": {"geometry": {"location": {"lat": 51.527172, "lng": -0.212868}, "viewport": {"northeast": {"lat": 51.5284946802915, "lng": -0.2115292197084979}, "southwest": {"lat": 51.5257967197085, "lng": -0.214227180291502}}}, "name": "Fifth Avenue Queen's Park (Stop Z)", "place_id": "ChIJtbllbj0QdkgRkQYKVhJp-zU", "types": ["transit_station", "point_of_interest", "establishment"], "rating": 5, "user_ratings_total": 1}, "ChIJW4eB0y8RdkgRH6tmVU8tH6E": {"geometry": {"location": {"lat": 51.52712199999999, "lng": -0.2130124}, "viewport": {"northeast": {"lat": 51.5284519302915, "lng": -0.211670619708498}, "southwest": {"lat": 51.5257539697085, "lng": -0.214368580291502}}}, "name": "Second chance", "place_id": "ChIJW4eB0y8RdkgRH6tmVU8tH6E", "types": ["point_of_interest", "establishment"]}, "ChIJPSEXbD0QdkgRRUOMWWfQ0P0": {"geometry": {"location": {"lat": 51.52702, "lng": -0.212844}, "viewport": {"northeast": {"lat": 51.5283689802915, "lng": -0.211495019708498}, "southwest": {"lat": 51.5256710197085, "lng": -0.214192980291502}}}, "name": "Taylor Walker", "place_id": "ChIJPSEXbD0QdkgRRUOMWWfQ0P0", "types": ["hair_care", "point_of_interest", "establishment"]}, "ChIJKVQVMD4RdkgRRKKsIWMQEy8": {"geometry": {"location": {"lat": 51.52747910000001, "lng": -0.2118195}, "viewport": {"northeast": {"lat": 51.52889213029151, "lng": -0.210447619708498}, "southwest": {"lat": 51.52619416970851, "lng": -0.213145580291502}}}, "name": "Creativeonestop", "place_id": "ChIJKVQVMD4RdkgRRKKsIWMQEy8", "types": ["point_of_interest", "establishment"]}, "ChIJ5aUJYz0QdkgR6kvU5TZjIV0": {"geometry": {"location": {"lat": 51.52714659999999, "lng": -0.2119421}, "viewport": {"northeast": {"lat": 51.5285623802915, "lng": -0.210577469708498}, "southwest": {"lat": 51.5258644197085, "lng": -0.213275430291502}}}, "name": "Just like Home's", "place_id": "ChIJ5aUJYz0QdkgR6kvU5TZjIV0", "types": ["point_of_interest", "establishment"]}, "ChIJI6rNbD0QdkgREl-_bsAYMVY": {"geometry": {"location": {"lat": 51.5270732, "lng": -0.2131621}, "viewport": {"northeast": {"lat": 51.5284613802915, "lng": -0.2117983197084979}, "southwest": {"lat": 51.5257634197085, "lng": -0.214496280291502}}}, "name": "MIRUS HOMES", "place_id": "ChIJI6rNbD0QdkgREl-_bsAYMVY", "types": ["point_of_interest", "establishment"]}, "ChIJR8HWEj0QdkgR6jS7HPgxs9U": {"geometry": {"location": {"lat": 51.5270732, "lng": -0.2131621}, "viewport": {"northeast": {"lat": 51.5284613802915, "lng": -0.2117983197084979}, "southwest": {"lat": 51.5257634197085, "lng": -0.214496280291502}}}, "name": "C 3 I", "place_id": "ChIJR8HWEj0QdkgR6jS7HPgxs9U", "types": ["point_of_interest", "establishment"]}, "ChIJb-0hdj0QdkgR-2vJD0TCzHw": {"geometry": {"location": {"lat": 51.5279488, "lng": -0.2127777}, "viewport": {"northeast": {"lat": 51.5292945302915, "lng": -0.211398819708498}, "southwest": {"lat": 51.5265965697085, "lng": -0.214096780291502}}}, "name": "ubitricity Charging Station", "place_id": "ChIJb-0hdj0QdkgR-2vJD0TCzHw", "types": ["point_of_interest", "establishment"]}, "ChIJ1QnefT0QdkgR1TK9rYi7nQs": {"geometry": {"location": {"lat": 51.52761040000001, "lng": -0.2117966}, "viewport": {"northeast": {"lat": 51.5289593802915, "lng": -0.210447619708498}, "southwest": {"lat": 51.5262614197085, "lng": -0.213145580291502}}}, "name": "Westminster Children\u2019s University", "place_id": "ChIJ1QnefT0QdkgR1TK9rYi7nQs", "types": ["school", "point_of_interest", "establishment"]}, "ChIJU0ekpdcRdkgRg30BG8R6T8k": {"geometry": {"location": {"lat": 51.52761040000001, "lng": -0.2117966}, "viewport": {"northeast": {"lat": 51.5289593802915, "lng": -0.210447619708498}, "southwest": {"lat": 51.5262614197085, "lng": -0.213145580291502}}}, "name": "ALICE RESTO BAR", "place_id": "ChIJU0ekpdcRdkgRg30BG8R6T8k", "types": ["bar", "point_of_interest", "establishment"], "rating": 4, "user_ratings_total": 1}, "ChIJc06uOD0QdkgRi0Nwu-xTppc": {"geometry": {"location": {"lat": 51.52629395258771, "lng": -0.213181049632428}, "viewport": {"northeast": {"lat": 51.5276429302915, "lng": -0.21162055}, "southwest": {"lat": 51.5249449697085, "lng": -0.2147415499999999}}}, "name": "326-316 Kensal Rd", "place_id": "ChIJc06uOD0QdkgRi0Nwu-xTppc", "types": ["route"]}, "ChIJLemSRT0QdkgR3Xwy64iQtaQ": {"geometry": {"location": {"lat": 51.5264377, "lng": -0.2129351}, "viewport": {"northeast": {"lat": 51.5277115802915, "lng": -0.211591469708498}, "southwest": {"lat": 51.5250136197085, "lng": -0.214289430291502}}}, "name": "Kensal Evangelical Church", "place_id": "ChIJLemSRT0QdkgR3Xwy64iQtaQ", "types": ["church", "place_of_worship", "point_of_interest", "establishment"], "rating": 5, "user_ratings_total": 1}, "ChIJa1rfl7UPdkgRh-8YBqyDjzw": {"geometry": {"location": {"lat": 51.5266075, "lng": -0.2119089}, "viewport": {"northeast": {"lat": 51.5278288302915, "lng": -0.210576869708498}, "southwest": {"lat": 51.5251308697085, "lng": -0.213274830291502}}}, "name": "HealthVision UK (Hammersmith Team)", "place_id": "ChIJa1rfl7UPdkgRh-8YBqyDjzw", "types": ["health", "point_of_interest", "establishment"], "rating": 4, "user_ratings_total": 1}, "ChIJAxROXz0QdkgRj6rn07FLoBM": {"geometry": {"location": {"lat": 51.5263411, "lng": -0.2117416}, "viewport": {"northeast": {"lat": 51.5277181802915, "lng": -0.210389469708498}, "southwest": {"lat": 51.5250202197085, "lng": -0.213087430291502}}}, "name": "Captus Data", "place_id": "ChIJAxROXz0QdkgRj6rn07FLoBM", "types": ["point_of_interest", "establishment"]}, "ChIJWylPQT0QdkgRc60UbYRys_8": {"geometry": {"location": {"lat": 51.52636969999999, "lng": -0.2127885}, "viewport": {"northeast": {"lat": 51.52767663029149, "lng": -0.2114422697084979}, "southwest": {"lat": 51.52497866970849, "lng": -0.214140230291502}}}, "name": "3x Architecture Ltd", "place_id": "ChIJWylPQT0QdkgRc60UbYRys_8", "types": ["point_of_interest", "establishment"]}, "ChIJvUQOl3oRdkgRk_CWdOoOrp4": {"geometry": {"location": {"lat": 51.52629779999999, "lng": -0.2129996}, "viewport": {"northeast": {"lat": 51.5276118802915, "lng": -0.211652919708498}, "southwest": {"lat": 51.5249139197085, "lng": -0.214350880291502}}}, "name": "SILK Search", "place_id": "ChIJvUQOl3oRdkgRk_CWdOoOrp4", "types": ["point_of_interest", "establishment"]}, "ChIJW3OmWz0QdkgRE9fQkhXtAaQ": {"geometry": {"location": {"lat": 51.5261978, "lng": -0.2122211}, "viewport": {"northeast": {"lat": 51.52758213029151, "lng": -0.210868719708498}, "southwest": {"lat": 51.52488416970851, "lng": -0.213566680291502}}}, "name": "Kensal Food & Wine", "place_id": "ChIJW3OmWz0QdkgRE9fQkhXtAaQ", "types": ["convenience_store", "food", "point_of_interest", "store", "establishment"], "rating": 4.3, "user_ratings_total": 6}, "ChIJY88IWz0QdkgRYMcWUdjYh6I": {"geometry": {"location": {"lat": 51.5261998, "lng": -0.2122089}, "viewport": {"northeast": {"lat": 51.5275818302915, "lng": -0.210863369708498}, "southwest": {"lat": 51.5248838697085, "lng": -0.213561330291502}}}, "name": "ATM", "place_id": "ChIJY88IWz0QdkgRYMcWUdjYh6I", "types": ["atm", "finance", "point_of_interest", "establishment"], "rating": 5, "user_ratings_total": 1}, "ChIJVVUFQT0QdkgRdQK0eTkTGzs": {"geometry": {"location": {"lat": 51.5263785, "lng": -0.2131337}, "viewport": {"northeast": {"lat": 51.5276846302915, "lng": -0.2117877697084979}, "southwest": {"lat": 51.5249866697085, "lng": -0.214485730291502}}}, "name": "Ecourier", "place_id": "ChIJVVUFQT0QdkgRdQK0eTkTGzs", "types": ["point_of_interest", "establishment"]}, "ChIJA_JlWT0QdkgRoR2ERqgGM24": {"geometry": {"location": {"lat": 51.52620949999999, "lng": -0.2120152}, "viewport": {"northeast": {"lat": 51.52757853029149, "lng": -0.210664319708498}, "southwest": {"lat": 51.52488056970849, "lng": -0.213362280291502}}}, "name": "Cowboy Films Limited", "place_id": "ChIJA_JlWT0QdkgRoR2ERqgGM24", "types": ["point_of_interest", "establishment"]}, "ChIJA_JlWT0QdkgRYNtpD9TtsBA": {"geometry": {"location": {"lat": 51.52620949999999, "lng": -0.2120152}, "viewport": {"northeast": {"lat": 51.52757853029149, "lng": -0.210664319708498}, "southwest": {"lat": 51.52488056970849, "lng": -0.213362280291502}}}, "name": "Well Street Productions Limited", "place_id": "ChIJA_JlWT0QdkgRYNtpD9TtsBA", "types": ["point_of_interest", "establishment"]}, "ChIJA_JlWT0QdkgRnQAn764dQvQ": {"geometry": {"location": {"lat": 51.52620949999999, "lng": -0.2120152}, "viewport": {"northeast": {"lat": 51.52757853029149, "lng": -0.210664319708498}, "southwest": {"lat": 51.52488056970849, "lng": -0.213362280291502}}}, "name": "Top Boy Productions Ltd", "place_id": "ChIJA_JlWT0QdkgRnQAn764dQvQ", "types": ["point_of_interest", "establishment"]}, "ChIJ3dLp7hcQdkgRnI9PW7rGjiU": {"geometry": {"location": {"lat": 51.5263962, "lng": -0.2119049}, "viewport": {"northeast": {"lat": 51.5277309802915, "lng": -0.210557869708498}, "southwest": {"lat": 51.5250330197085, "lng": -0.213255830291502}}}, "name": "North Kensington Jobcentre", "place_id": "ChIJ3dLp7hcQdkgRnI9PW7rGjiU", "types": ["point_of_interest", "establishment"], "rating": 3.4, "user_ratings_total": 16}, "ChIJZxm-QT0QdkgRyRd3_Eiqsrk": {"geometry": {"location": {"lat": 51.5265403, "lng": -0.2129589}, "viewport": {"northeast": {"lat": 51.52779185176367, "lng": -0.2115409763864839}, "southwest": {"lat": 51.52509389118067, "lng": -0.214238936969488}}}, "name": "Parking lot", "place_id": "ChIJZxm-QT0QdkgRyRd3_Eiqsrk", "types": ["parking", "premise", "point_of_interest", "establishment"]}, "ChIJDfuA4RcQdkgRlc_IEIcowmg": {"geometry": {"location": {"lat": 51.52633729999999, "lng": -0.2116682}, "viewport": {"northeast": {"lat": 51.52768937442475, "lng": -0.2103860228916589}, "southwest": {"lat": 51.52499141384175, "lng": -0.213083983474663}}}, "name": "Parking lot", "place_id": "ChIJDfuA4RcQdkgRlc_IEIcowmg", "types": ["parking", "premise", "point_of_interest", "establishment"]}, "ChIJU2yQ_hYQdkgRxKWa-z1UrU8": {"geometry": {"location": {"lat": 51.52810219999999, "lng": -0.2083474}, "viewport": {"northeast": {"lat": 51.52927598029149, "lng": -0.2070451697084979}, "southwest": {"lat": 51.5265780197085, "lng": -0.209743130291502}}}, "name": "Queen's Park Gardens Wildlife Area", "place_id": "ChIJU2yQ_hYQdkgRxKWa-z1UrU8", "types": ["park", "point_of_interest", "establishment"], "rating": 4.4, "user_ratings_total": 38}, "ChIJWVK8pGARdkgRP3Bijc7KYCo": {"geometry": {"location": {"lat": 51.5269729, "lng": -0.2086287}, "viewport": {"northeast": {"lat": 51.5282879802915, "lng": -0.207282169708498}, "southwest": {"lat": 51.5255900197085, "lng": -0.209980130291502}}}, "name": "Ash house", "place_id": "ChIJWVK8pGARdkgRP3Bijc7KYCo", "types": ["point_of_interest", "establishment"]}, "ChIJdSqKnxcQdkgR6RpKkqaLNgc": {"geometry": {"location": {"lat": 51.5264887, "lng": -0.2084361}, "viewport": {"northeast": {"lat": 51.5278376802915, "lng": -0.207087119708498}, "southwest": {"lat": 51.52513971970851, "lng": -0.209785080291502}}}, "name": "Co-op Funeralcare, North Kensington", "place_id": "ChIJdSqKnxcQdkgR6RpKkqaLNgc", "types": ["funeral_home", "point_of_interest", "establishment"], "rating": 5, "user_ratings_total": 5}, "ChIJfZaioRcQdkgRlcLkAJtVPyY": {"geometry": {"location": {"lat": 51.526779, "lng": -0.20902}, "viewport": {"northeast": {"lat": 51.5281043302915, "lng": -0.207681269708498}, "southwest": {"lat": 51.5254063697085, "lng": -0.210379230291502}}}, "name": "Third Avenue (Stop P)", "place_id": "ChIJfZaioRcQdkgRlcLkAJtVPyY", "types": ["transit_station", "point_of_interest", "establishment"], "rating": 5, "user_ratings_total": 2}, "ChIJf5AQehcQdkgRXP67_wb0hJ4": {"geometry": {"location": {"lat": 51.5260352, "lng": -0.2083281}, "viewport": {"northeast": {"lat": 51.5273016302915, "lng": -0.2070174197084979}, "southwest": {"lat": 51.5246036697085, "lng": -0.209715380291502}}}, "name": "Mears Group PLC", "place_id": "ChIJf5AQehcQdkgRXP67_wb0hJ4", "types": ["general_contractor", "point_of_interest", "establishment"], "rating": 2.7, "user_ratings_total": 28}, "ChIJETnwzS0PdkgR6d1cERSzG2E": {"geometry": {"location": {"lat": 51.5259971, "lng": -0.2086563}, "viewport": {"northeast": {"lat": 51.5273083302915, "lng": -0.207324819708498}, "southwest": {"lat": 51.5246103697085, "lng": -0.210022780291502}}}, "name": "London Vinyl Graphics Ltd", "place_id": "ChIJETnwzS0PdkgR6d1cERSzG2E", "types": ["car_repair", "point_of_interest", "establishment"], "rating": 5, "user_ratings_total": 3}, "ChIJq7lYnRcQdkgRfRl4RHDmLrk": {"geometry": {"location": {"lat": 51.52605179999999, "lng": -0.2087475}, "viewport": {"northeast": {"lat": 51.5273453302915, "lng": -0.207424269708498}, "southwest": {"lat": 51.5246473697085, "lng": -0.210122230291502}}}, "name": "Freelance Films", "place_id": "ChIJq7lYnRcQdkgRfRl4RHDmLrk", "types": ["point_of_interest", "establishment"]}, "ChIJw2zZnBcQdkgRoIFEsJ2kavA": {"geometry": {"location": {"lat": 51.5261157, "lng": -0.2087478}, "viewport": {"northeast": {"lat": 51.5273797802915, "lng": -0.207438219708498}, "southwest": {"lat": 51.5246818197085, "lng": -0.210136180291502}}}, "name": "REDROCK", "place_id": "ChIJw2zZnBcQdkgRoIFEsJ2kavA", "types": ["point_of_interest", "establishment"]}, "ChIJjTCpRhYQdkgR3JsiQ3B0WJc": {"geometry": {"location": {"lat": 51.52892005015767, "lng": -0.2098798999156041}, "viewport": {"northeast": {"lat": 51.5302690302915, "lng": -0.208530919708498}, "southwest": {"lat": 51.5275710697085, "lng": -0.211228880291502}}}, "name": "71 Ilbert St.", "place_id": "ChIJjTCpRhYQdkgR3JsiQ3B0WJc", "types": ["route"]}, "ChIJ8zv7PBYQdkgRT0HoW4TJrgc": {"geometry": {"location": {"lat": 51.529084, "lng": -0.210833}, "viewport": {"northeast": {"lat": 51.5304052802915, "lng": -0.209491369708498}, "southwest": {"lat": 51.5277073197085, "lng": -0.212189330291502}}}, "name": "ubitricity Charging Station", "place_id": "ChIJ8zv7PBYQdkgRT0HoW4TJrgc", "types": ["point_of_interest", "establishment"]}, "ChIJRzdQyhcQdkgRoYzuiZX70yg": {"geometry": {"location": {"lat": 51.52776065001041, "lng": -0.2103757002116234}, "viewport": {"northeast": {"lat": 51.52910963029149, "lng": -0.209026719708498}, "southwest": {"lat": 51.5264116697085, "lng": -0.211724680291502}}}, "name": "24-12 Fourth Ave", "place_id": "ChIJRzdQyhcQdkgRoYzuiZX70yg", "types": ["route"]}, "ChIJJWEbsxcQdkgRpARipgZFTEA": {"geometry": {"location": {"lat": 51.5281013, "lng": -0.2102125}, "viewport": {"northeast": {"lat": 51.5294534802915, "lng": -0.208900719708498}, "southwest": {"lat": 51.5267555197085, "lng": -0.211598680291502}}}, "name": "ubitricity Charging Station", "place_id": "ChIJJWEbsxcQdkgRpARipgZFTEA", "types": ["point_of_interest", "establishment"]}, "ChIJp7HLvhcQdkgRwLQi4rTfHUE": {"geometry": {"location": {"lat": 51.5269975, "lng": -0.2099696}, "viewport": {"northeast": {"lat": 51.5283978802915, "lng": -0.208605969708498}, "southwest": {"lat": 51.5256999197085, "lng": -0.211303930291502}}}, "name": "ZumbaPaulaJacinto", "place_id": "ChIJp7HLvhcQdkgRwLQi4rTfHUE", "types": ["home_goods_store", "food", "health", "point_of_interest", "store", "establishment"]}, "ChIJfYG4vRcQdkgRrZU2QdhIA0s": {"geometry": {"location": {"lat": 51.5267604, "lng": -0.2097599}, "viewport": {"northeast": {"lat": 51.5281093802915, "lng": -0.208410919708498}, "southwest": {"lat": 51.5254114197085, "lng": -0.211108880291502}}}, "name": "Jamal Satellites", "place_id": "ChIJfYG4vRcQdkgRrZU2QdhIA0s", "types": ["point_of_interest", "establishment"], "rating": 4, "user_ratings_total": 4}, "ChIJp7HLvhcQdkgRn7Z2NBeg6qE": {"geometry": {"location": {"lat": 51.5270032, "lng": -0.2099877}, "viewport": {"northeast": {"lat": 51.5284017802915, "lng": -0.208624569708498}, "southwest": {"lat": 51.5257038197085, "lng": -0.211322530291502}}}, "name": "Paula Childminding Services", "place_id": "ChIJp7HLvhcQdkgRn7Z2NBeg6qE", "types": ["point_of_interest", "establishment"]}, "ChIJ_dcLvRcQdkgRIuxYy6tiBAs": {"geometry": {"location": {"lat": 51.5267515, "lng": -0.2096543}, "viewport": {"northeast": {"lat": 51.5281004802915, "lng": -0.208305319708498}, "southwest": {"lat": 51.5254025197085, "lng": -0.211003280291502}}}, "name": "Styel@481 Hair & Beauty Salon", "place_id": "ChIJ_dcLvRcQdkgRIuxYy6tiBAs", "types": ["beauty_salon", "point_of_interest", "establishment"]}, "ChIJMQ0F7xcQdkgRlk5z_W5Oky4": {"geometry": {"location": {"lat": 51.52615468527201, "lng": -0.2102388809469721}, "viewport": {"northeast": {"lat": 51.52750023029149, "lng": -0.208890919708498}, "southwest": {"lat": 51.5248022697085, "lng": -0.211588880291502}}}, "name": "237-243 Kensal Rd", "place_id": "ChIJMQ0F7xcQdkgRlk5z_W5Oky4", "types": ["route"]}, "ChIJhZcvkhcQdkgRb-ChtP9_rLU": {"geometry": {"location": {"lat": 51.5261859, "lng": -0.2098577}, "viewport": {"northeast": {"lat": 51.5276295302915, "lng": -0.208580369708498}, "southwest": {"lat": 51.5249315697085, "lng": -0.211278330291502}}}, "name": "TMO Tavistock", "place_id": "ChIJhZcvkhcQdkgRb-ChtP9_rLU", "types": ["point_of_interest", "establishment"]}, "ChIJpwwb7BcQdkgRT2Otr3cZ_CI": {"geometry": {"location": {"lat": 51.5262574, "lng": -0.2103784}, "viewport": {"northeast": {"lat": 51.5276174105439, "lng": -0.2092076632824817}, "southwest": {"lat": 51.5249194499609, "lng": -0.2119056238654858}}}, "name": "Parking lot", "place_id": "ChIJpwwb7BcQdkgRT2Otr3cZ_CI", "types": ["parking", "premise", "point_of_interest", "establishment"]}, "ChIJtcDlAhYQdkgRppdv2h2fDf0": {"geometry": {"location": {"lat": 51.530038, "lng": -0.2115754}, "viewport": {"northeast": {"lat": 51.53140103029149, "lng": -0.2102223197084979}, "southwest": {"lat": 51.5287030697085, "lng": -0.212920280291502}}}, "name": "ubitricity Charging Station", "place_id": "ChIJtcDlAhYQdkgRppdv2h2fDf0", "types": ["point_of_interest", "establishment"]}, "ChIJjZN9IBYQdkgRt2QBYlbjRTo": {"geometry": {"location": {"lat": 51.5291135000443, "lng": -0.2116823999730889}, "viewport": {"northeast": {"lat": 51.5304624802915, "lng": -0.2103334197084979}, "southwest": {"lat": 51.5277645197085, "lng": -0.213031380291502}}}, "name": "98 Ilbert St.", "place_id": "ChIJjZN9IBYQdkgRt2QBYlbjRTo", "types": ["route"]}, "ChIJwfWO1hcQdkgRNLoJioQ27-Y": {"geometry": {"location": {"lat": 51.52757564829439, "lng": -0.2114980283946483}, "viewport": {"northeast": {"lat": 51.52892598029149, "lng": -0.210148619708498}, "southwest": {"lat": 51.5262280197085, "lng": -0.212846580291502}}}, "name": "7 Droop St", "place_id": "ChIJwfWO1hcQdkgRNLoJioQ27-Y", "types": ["route"]}, "ChIJk0E9Yj0QdkgREE9ZeuQgRQY": {"geometry": {"location": {"lat": 51.52701949999999, "lng": -0.211793}, "viewport": {"northeast": {"lat": 51.5283765302915, "lng": -0.210442369708498}, "southwest": {"lat": 51.5256785697085, "lng": -0.213140330291502}}}, "name": "Fifth Avenue Queen's Park Library", "place_id": "ChIJk0E9Yj0QdkgREE9ZeuQgRQY", "types": ["transit_station", "point_of_interest", "establishment"]}, "ChIJ5-9ANjwTdkgR7SqgohfmjYE": {"geometry": {"location": {"lat": 51.5269142, "lng": -0.2114667}, "viewport": {"northeast": {"lat": 51.5282867302915, "lng": -0.210112869708498}, "southwest": {"lat": 51.5255887697085, "lng": -0.212810830291502}}}, "name": "Purling London Ltd", "place_id": "ChIJ5-9ANjwTdkgR7SqgohfmjYE", "types": ["point_of_interest", "establishment"], "rating": 5, "user_ratings_total": 4}, "ChIJeZcWwxcQdkgRCOgPNzbNulc": {"geometry": {"location": {"lat": 51.526917, "lng": -0.211451}, "viewport": {"northeast": {"lat": 51.52828553029149, "lng": -0.210097969708498}, "southwest": {"lat": 51.52558756970849, "lng": -0.212795930291502}}}, "name": "Fifth Avenue / Queen's Park Library (Stop Y)", "place_id": "ChIJeZcWwxcQdkgRCOgPNzbNulc", "types": ["transit_station", "point_of_interest", "establishment"], "rating": 1, "user_ratings_total": 1}, "ChIJ6SdaWT0QdkgRA7O725PoHeY": {"geometry": {"location": {"lat": 51.52625890070238, "lng": -0.2119942998785828}, "viewport": {"northeast": {"lat": 51.5276078802915, "lng": -0.210645319708498}, "southwest": {"lat": 51.5249099197085, "lng": -0.213343280291502}}}, "name": "267-277 Kensal Rd", "place_id": "ChIJ6SdaWT0QdkgRA7O725PoHeY", "types": ["route"]}, "ChIJv9Fw4xcQdkgRYjGkwHtPkak": {"geometry": {"location": {"lat": 51.526143, "lng": -0.2115358}, "viewport": {"northeast": {"lat": 51.52749198029149, "lng": -0.210186819708498}, "southwest": {"lat": 51.5247940197085, "lng": -0.2128847802915021}}}, "name": "Middle Row Play Centre", "place_id": "ChIJv9Fw4xcQdkgRYjGkwHtPkak", "types": ["point_of_interest", "establishment"]}, "ChIJDSpM5j0QdkgRN0w2AIWol6E": {"geometry": {"location": {"lat": 51.5300337998849, "lng": -0.2129711612254434}, "viewport": {"northeast": {"lat": 51.5313827802915, "lng": -0.211622119708498}, "southwest": {"lat": 51.52868481970851, "lng": -0.214320080291502}}}, "name": "67-83 Sixth Ave", "place_id": "ChIJDSpM5j0QdkgRN0w2AIWol6E", "types": ["route"]}, "ChIJrZx8lT0QdkgRnJoe5wa9c50": {"geometry": {"location": {"lat": 51.5291405, "lng": -0.2131642}, "viewport": {"northeast": {"lat": 51.5304877302915, "lng": -0.211800669708498}, "southwest": {"lat": 51.5277897697085, "lng": -0.214498630291502}}}, "name": "Zipcar", "place_id": "ChIJrZx8lT0QdkgRnJoe5wa9c50", "types": ["car_rental", "point_of_interest", "establishment"]}}}