{"E00023776": {"ChIJxTz7yaYadkgRA2LNnB1XizU": {"geometry": {"location": {"lat": 51.53027000013817, "lng": -0.1837636993853461}, "viewport": {"northeast": {"lat": 51.5316189802915, "lng": -0.1824147197084979}, "southwest": {"lat": 51.5289210197085, "lng": -0.185112680291502}}}, "name": "48-46 A5", "place_id": "ChIJxTz7yaYadkgRA2LNnB1XizU", "types": ["route"]}, "ChIJJ0zQSqEadkgRXwf6qhTMmCs": {"geometry": {"location": {"lat": 51.5306677, "lng": -0.1835892}, "viewport": {"northeast": {"lat": 51.53198323029149, "lng": -0.182308119708498}, "southwest": {"lat": 51.5292852697085, "lng": -0.185006080291502}}}, "name": "Logichem", "place_id": "ChIJJ0zQSqEadkgRXwf6qhTMmCs", "types": ["health", "point_of_interest", "establishment"], "rating": 3, "user_ratings_total": 2}, "ChIJCUe_yqYadkgRitTA4Oau7LA": {"geometry": {"location": {"lat": 51.5302727, "lng": -0.1832566}, "viewport": {"northeast": {"lat": 51.5316031802915, "lng": -0.181934219708498}, "southwest": {"lat": 51.52890521970851, "lng": -0.184632180291502}}}, "name": "Wellesley Court", "place_id": "ChIJCUe_yqYadkgRitTA4Oau7LA", "types": ["point_of_interest", "establishment"], "rating": 3.9, "user_ratings_total": 8}, "ChIJl09yNqEadkgR6Al519htbL0": {"geometry": {"location": {"lat": 51.5309856, "lng": -0.183932}, "viewport": {"northeast": {"lat": 51.5323076302915, "lng": -0.1825524197084979}, "southwest": {"lat": 51.52960966970851, "lng": -0.185250380291502}}}, "name": "ubitricity Charging Station", "place_id": "ChIJl09yNqEadkgR6Al519htbL0", "types": ["point_of_interest", "establishment"]}, "ChIJ6wL_oqYadkgRz3QyjsmIlGA": {"geometry": {"location": {"lat": 51.52950084639525, "lng": -0.1828494705435862}, "viewport": {"northeast": {"lat": 51.53084988029149, "lng": -0.1815003697084979}, "southwest": {"lat": 51.5281519197085, "lng": -0.184198330291502}}}, "name": "135 A5", "place_id": "ChIJ6wL_oqYadkgRz3QyjsmIlGA", "types": ["route"]}, "ChIJP524l6YadkgRKjbx2VVIj2I": {"geometry": {"location": {"lat": 51.5292395, "lng": -0.1831127}, "viewport": {"northeast": {"lat": 51.53047653029149, "lng": -0.182052469708498}, "southwest": {"lat": 51.5277785697085, "lng": -0.184750430291502}}}, "name": "MM Productions & Events Ltd", "place_id": "ChIJP524l6YadkgRKjbx2VVIj2I", "types": ["point_of_interest", "establishment"]}, "ChIJV7IyvaYadkgRcMKw7sxeyac": {"geometry": {"location": {"lat": 51.5292603, "lng": -0.1831504}, "viewport": {"northeast": {"lat": 51.5304991302915, "lng": -0.182071319708498}, "southwest": {"lat": 51.5278011697085, "lng": -0.184769280291502}}}, "name": "Get a Job Recruitment Ltd", "place_id": "ChIJV7IyvaYadkgRcMKw7sxeyac", "types": ["point_of_interest", "establishment"]}, "ChIJ8YhwvaYadkgRk7KJVoNYDgQ": {"geometry": {"location": {"lat": 51.52938750000001, "lng": -0.1832073}, "viewport": {"northeast": {"lat": 51.53063133029151, "lng": -0.182145119708498}, "southwest": {"lat": 51.52793336970851, "lng": -0.184843080291502}}}, "name": "Braemar House", "place_id": "ChIJ8YhwvaYadkgRk7KJVoNYDgQ", "types": ["point_of_interest", "establishment"]}, "ChIJ7YY5uqYadkgRstyeLY1gi9M": {"geometry": {"location": {"lat": 51.5298642, "lng": -0.1832914}, "viewport": {"northeast": {"lat": 51.53123083029149, "lng": -0.181903469708498}, "southwest": {"lat": 51.52853286970849, "lng": -0.184601430291502}}}, "name": "Travel Charters", "place_id": "ChIJ7YY5uqYadkgRstyeLY1gi9M", "types": ["travel_agency", "point_of_interest", "establishment"]}, "ChIJ8y67uaYadkgRkmkPhH9rZp8": {"geometry": {"location": {"lat": 51.529857, "lng": -0.183486}, "viewport": {"northeast": {"lat": 51.5312355802915, "lng": -0.182071669708498}, "southwest": {"lat": 51.5285376197085, "lng": -0.184769630291502}}}, "name": "Santander Cycles", "place_id": "ChIJ8y67uaYadkgRkmkPhH9rZp8", "types": ["point_of_interest", "establishment"], "rating": 4.7, "user_ratings_total": 7}, "ChIJVVXJl6YadkgRNi11HdjToG4": {"geometry": {"location": {"lat": 51.5292603, "lng": -0.1831504}, "viewport": {"northeast": {"lat": 51.5304991302915, "lng": -0.182071319708498}, "southwest": {"lat": 51.5278011697085, "lng": -0.184769280291502}}}, "name": "Hedge", "place_id": "ChIJVVXJl6YadkgRNi11HdjToG4", "types": ["finance", "point_of_interest", "establishment"]}, "ChIJP524l6YadkgRUgD6WQdpxow": {"geometry": {"location": {"lat": 51.5292603, "lng": -0.1831504}, "viewport": {"northeast": {"lat": 51.5304991302915, "lng": -0.182071319708498}, "southwest": {"lat": 51.5278011697085, "lng": -0.184769280291502}}}, "name": "The MultiMedia Shop", "place_id": "ChIJP524l6YadkgRUgD6WQdpxow", "types": ["electronics_store", "home_goods_store", "point_of_interest", "store", "establishment"], "rating": 5, "user_ratings_total": 1}, "ChIJ4T1907QbdkgR0oELvOEnUhA": {"geometry": {"location": {"lat": 51.52979329999999, "lng": -0.1837982}, "viewport": {"northeast": {"lat": 51.53121298029149, "lng": -0.182238569708498}, "southwest": {"lat": 51.52851501970849, "lng": -0.184936530291502}}}, "name": "Dundee House", "place_id": "ChIJ4T1907QbdkgR0oELvOEnUhA", "types": ["point_of_interest", "establishment"], "rating": 4, "user_ratings_total": 6}, "ChIJkWUNusAbdkgRZWuN4igBYTo": {"geometry": {"location": {"lat": 51.5292633, "lng": -0.1838872}, "viewport": {"northeast": {"lat": 51.5306122802915, "lng": -0.182538219708498}, "southwest": {"lat": 51.5279143197085, "lng": -0.185236180291502}}}, "name": "Tara Beauty", "place_id": "ChIJkWUNusAbdkgRZWuN4igBYTo", "types": ["beauty_salon", "point_of_interest", "establishment"]}, "ChIJWRuehqYadkgRVu1gBccmN5k": {"geometry": {"location": {"lat": 51.52833250583118, "lng": -0.1827190790623918}, "viewport": {"northeast": {"lat": 51.5296851302915, "lng": -0.181362819708498}, "southwest": {"lat": 51.52698716970851, "lng": -0.184060780291502}}}, "name": "85-113 Lanark Rd", "place_id": "ChIJWRuehqYadkgRVu1gBccmN5k", "types": ["route"]}, "ChIJK2LBfqYadkgRYgH1f0CnRhE": {"geometry": {"location": {"lat": 51.5277065, "lng": -0.1825971}, "viewport": {"northeast": {"lat": 51.52907473029151, "lng": -0.181275269708498}, "southwest": {"lat": 51.52637676970851, "lng": -0.183973230291502}}}, "name": "Chargemaster Charging Station", "place_id": "ChIJK2LBfqYadkgRYgH1f0CnRhE", "types": ["point_of_interest", "establishment"]}, "ChIJ17ObLaEadkgRq1gJIhBGNtk": {"geometry": {"location": {"lat": 51.53085925010278, "lng": -0.1844405995581761}, "viewport": {"northeast": {"lat": 51.5322082302915, "lng": -0.183091619708498}, "southwest": {"lat": 51.5295102697085, "lng": -0.185789580291502}}}, "name": "58-48 A5", "place_id": "ChIJ17ObLaEadkgRq1gJIhBGNtk", "types": ["route"]}, "ChIJ-bvJK6cadkgRoi8-VY3Dijw": {"geometry": {"location": {"lat": 51.5303645, "lng": -0.1854109}, "viewport": {"northeast": {"lat": 51.5317121302915, "lng": -0.183992319708498}, "southwest": {"lat": 51.5290141697085, "lng": -0.186690280291502}}}, "name": "The Elgin - Maida Vale", "place_id": "ChIJ-bvJK6cadkgRoi8-VY3Dijw", "types": ["bar", "night_club", "cafe", "restaurant", "food", "point_of_interest", "establishment"], "rating": 4.3, "user_ratings_total": 891}, "ChIJI1l7K6cadkgRTgZtudh7ot4": {"geometry": {"location": {"lat": 51.5305249, "lng": -0.1855665}, "viewport": {"northeast": {"lat": 51.5318942302915, "lng": -0.184173219708498}, "southwest": {"lat": 51.5291962697085, "lng": -0.186871180291502}}}, "name": "Lanark Medical Centre", "place_id": "ChIJI1l7K6cadkgRTgZtudh7ot4", "types": ["hospital", "health", "point_of_interest", "establishment"], "rating": 2.2, "user_ratings_total": 29}, "ChIJJQNtLqcadkgR6SWzoLvycm0": {"geometry": {"location": {"lat": 51.5304222, "lng": -0.1854857}, "viewport": {"northeast": {"lat": 51.5317975302915, "lng": -0.184079019708498}, "southwest": {"lat": 51.5290995697085, "lng": -0.186776980291502}}}, "name": "Urban Leisure Group", "place_id": "ChIJJQNtLqcadkgR6SWzoLvycm0", "types": ["restaurant", "food", "point_of_interest", "establishment"], "rating": 5, "user_ratings_total": 1}, "ChIJ-an_K6cadkgR2Qlx2yqFiZw": {"geometry": {"location": {"lat": 51.53031420000001, "lng": -0.185562}, "viewport": {"northeast": {"lat": 51.5316054802915, "lng": -0.184144069708498}, "southwest": {"lat": 51.5289075197085, "lng": -0.186842030291502}}}, "name": "PeopleByRyan Wedding Photographer", "place_id": "ChIJ-an_K6cadkgR2Qlx2yqFiZw", "types": ["point_of_interest", "establishment"]}, "ChIJ-an_K6cadkgRtQuHNepfbPE": {"geometry": {"location": {"lat": 51.5303131, "lng": -0.185567}, "viewport": {"northeast": {"lat": 51.5316039802915, "lng": -0.184148569708498}, "southwest": {"lat": 51.5289060197085, "lng": -0.186846530291502}}}, "name": "Mobile Beauty Care", "place_id": "ChIJ-an_K6cadkgRtQuHNepfbPE", "types": ["beauty_salon", "point_of_interest", "establishment"]}, "ChIJJQNtLqcadkgRQfs6QC4D8K4": {"geometry": {"location": {"lat": 51.530313, "lng": -0.185567}, "viewport": {"northeast": {"lat": 51.53160348029149, "lng": -0.184148519708498}, "southwest": {"lat": 51.52890551970849, "lng": -0.186846480291502}}}, "name": "HAIR BY MASTERS", "place_id": "ChIJJQNtLqcadkgRQfs6QC4D8K4", "types": ["hair_care", "point_of_interest", "establishment"], "rating": 3.8, "user_ratings_total": 67}, "ChIJQf0Y1KYadkgRNt2yp8bk3uU": {"geometry": {"location": {"lat": 51.5302467, "lng": -0.1848389999999999}, "viewport": {"northeast": {"lat": 51.5316672802915, "lng": -0.183502369708498}, "southwest": {"lat": 51.5289693197085, "lng": -0.186200330291502}}}, "name": "Haj & Umra Travel", "place_id": "ChIJQf0Y1KYadkgRNt2yp8bk3uU", "types": ["point_of_interest", "establishment"], "rating": 4.2, "user_ratings_total": 25}, "ChIJfZrw06YadkgRAuI63WZ1g8s": {"geometry": {"location": {"lat": 51.53032140000001, "lng": -0.1847653}, "viewport": {"northeast": {"lat": 51.5317287802915, "lng": -0.183450019708498}, "southwest": {"lat": 51.5290308197085, "lng": -0.1861479802915021}}}, "name": "Boomerang", "place_id": "ChIJfZrw06YadkgRAuI63WZ1g8s", "types": ["supermarket", "grocery_or_supermarket", "food", "point_of_interest", "store", "establishment"], "rating": 3.5, "user_ratings_total": 2}, "ChIJV56jgdYbdkgRVycF05fawoA": {"geometry": {"location": {"lat": 51.53043590000001, "lng": -0.1845261}, "viewport": {"northeast": {"lat": 51.53184253029151, "lng": -0.183247019708498}, "southwest": {"lat": 51.52914456970851, "lng": -0.185944980291502}}}, "name": "Elgin Market", "place_id": "ChIJV56jgdYbdkgRVycF05fawoA", "types": ["grocery_or_supermarket", "food", "point_of_interest", "store", "establishment"]}, "ChIJg3UxLqcadkgRQ1d4mvfZG_E": {"geometry": {"location": {"lat": 51.53033790000001, "lng": -0.184687}, "viewport": {"northeast": {"lat": 51.53176053029151, "lng": -0.183397819708498}, "southwest": {"lat": 51.52906256970851, "lng": -0.186095780291502}}}, "name": "Williams Chemist", "place_id": "ChIJg3UxLqcadkgRQ1d4mvfZG_E", "types": ["pharmacy", "health", "point_of_interest", "store", "establishment"], "rating": 5, "user_ratings_total": 2}, "ChIJozwQ1KYadkgRGSoOfbaKivM": {"geometry": {"location": {"lat": 51.5302579, "lng": -0.1849044}, "viewport": {"northeast": {"lat": 51.5316646802915, "lng": -0.183625519708498}, "southwest": {"lat": 51.5289667197085, "lng": -0.186323480291502}}}, "name": "Sales & Lettings Ltd", "place_id": "ChIJozwQ1KYadkgRGSoOfbaKivM", "types": ["real_estate_agency", "point_of_interest", "establishment"], "rating": 4.6, "user_ratings_total": 30}, "ChIJOdyW7m4bdkgRd2OH47N67h4": {"geometry": {"location": {"lat": 51.5303554, "lng": -0.1854932}, "viewport": {"northeast": {"lat": 51.5316431802915, "lng": -0.184071469708498}, "southwest": {"lat": 51.5289452197085, "lng": -0.1867694302915021}}}, "name": "House Cleaning Services Maida Vale", "place_id": "ChIJOdyW7m4bdkgRd2OH47N67h4", "types": ["point_of_interest", "establishment"]}, "ChIJOXPfK6cadkgR-0gmApY38X4": {"geometry": {"location": {"lat": 51.5303091, "lng": -0.1854681}, "viewport": {"northeast": {"lat": 51.5316155802915, "lng": -0.184068569708498}, "southwest": {"lat": 51.5289176197085, "lng": -0.186766530291502}}}, "name": "Lebanon Valley", "place_id": "ChIJOXPfK6cadkgR-0gmApY38X4", "types": ["grocery_or_supermarket", "food", "point_of_interest", "store", "establishment"], "rating": 3.7, "user_ratings_total": 6}, "ChIJQXteLqEadkgReCRhjy-2Pmc": {"geometry": {"location": {"lat": 51.5310535, "lng": -0.1846375}, "viewport": {"northeast": {"lat": 51.5324107802915, "lng": -0.183270069708498}, "southwest": {"lat": 51.5297128197085, "lng": -0.185968030291502}}}, "name": "Elgin Avenue Maida Vale Stn", "place_id": "ChIJQXteLqEadkgReCRhjy-2Pmc", "types": ["transit_station", "point_of_interest", "establishment"]}, "ChIJf1ODKKcadkgRP7ImG95QD0I": {"geometry": {"location": {"lat": 51.53016779999999, "lng": -0.1851349}, "viewport": {"northeast": {"lat": 51.53154688029149, "lng": -0.183784119708498}, "southwest": {"lat": 51.5288489197085, "lng": -0.186482080291502}}}, "name": "Local Supermarket", "place_id": "ChIJf1ODKKcadkgRP7ImG95QD0I", "types": ["supermarket", "convenience_store", "grocery_or_supermarket", "food", "point_of_interest", "store", "establishment"], "rating": 2.7, "user_ratings_total": 11}, "ChIJXzpMzIsbdkgRLih-BZ7FxIg": {"geometry": {"location": {"lat": 51.53014700000001, "lng": -0.1851526}, "viewport": {"northeast": {"lat": 51.53152168029151, "lng": -0.183766519708498}, "southwest": {"lat": 51.52882371970851, "lng": -0.186464480291502}}}, "name": "JUUL Stockist", "place_id": "ChIJXzpMzIsbdkgRLih-BZ7FxIg", "types": ["point_of_interest", "store", "establishment"], "rating": 1, "user_ratings_total": 1}, "ChIJV6vL16YadkgRB-752l_P1Nc": {"geometry": {"location": {"lat": 51.5301288, "lng": -0.1851237}, "viewport": {"northeast": {"lat": 51.5315447802915, "lng": -0.183854269708498}, "southwest": {"lat": 51.5288468197085, "lng": -0.186552230291502}}}, "name": "Food Corner", "place_id": "ChIJV6vL16YadkgRB-752l_P1Nc", "types": ["restaurant", "food", "point_of_interest", "establishment"]}, "ChIJjYbNzaYadkgRFo5YRIYu3a0": {"geometry": {"location": {"lat": 51.530347, "lng": -0.1843311}, "viewport": {"northeast": {"lat": 51.53169488032722, "lng": -0.1829480352917626}, "southwest": {"lat": 51.52899691974422, "lng": -0.1856459958747666}}}, "name": "Parking lot", "place_id": "ChIJjYbNzaYadkgRFo5YRIYu3a0", "types": ["parking", "premise", "point_of_interest", "establishment"]}, "ChIJ4VIi0aYadkgR4c7kT3rBusY": {"geometry": {"location": {"lat": 51.53012039999999, "lng": -0.1847208}, "viewport": {"northeast": {"lat": 51.53148783266111, "lng": -0.1833518051761735}, "southwest": {"lat": 51.52878987207811, "lng": -0.1860497657591775}}}, "name": "Parking lot", "place_id": "ChIJ4VIi0aYadkgR4c7kT3rBusY", "types": ["parking", "premise", "point_of_interest", "establishment"]}, "ChIJ18yh0qAadkgRbo-3F5gV6Y0": {"geometry": {"location": {"lat": 51.5306936, "lng": -0.1859212}, "viewport": {"northeast": {"lat": 51.53205990446482, "lng": -0.1845837152756966}, "southwest": {"lat": 51.52936194388182, "lng": -0.1872816758587007}}}, "name": "Parking lot", "place_id": "ChIJ18yh0qAadkgRbo-3F5gV6Y0", "types": ["parking", "premise", "point_of_interest", "establishment"]}, "ChIJ-_Zq8KYadkgRg8bGiu2A1-U": {"geometry": {"location": {"lat": 51.52858962574012, "lng": -0.184399623227434}, "viewport": {"northeast": {"lat": 51.53062290000005, "lng": -0.18188085}, "southwest": {"lat": 51.52655449999994, "lng": -0.1869218499999999}}}, "name": "164-98 Randolph Ave", "place_id": "ChIJ-_Zq8KYadkgRg8bGiu2A1-U", "types": ["route"]}, "ChIJ20M2tggQdkgROFgtBVbiBWQ": {"geometry": {"location": {"lat": 51.5300721, "lng": -0.1853611}, "viewport": {"northeast": {"lat": 51.5314712302915, "lng": -0.184072069708498}, "southwest": {"lat": 51.5287732697085, "lng": -0.186770030291502}}}, "name": "Dexters Maida Vale Estate Agents", "place_id": "ChIJ20M2tggQdkgROFgtBVbiBWQ", "types": ["finance", "real_estate_agency", "point_of_interest", "establishment"], "rating": 4.9, "user_ratings_total": 653}, "ChIJvVSDKKcadkgRU7ekykImK4E": {"geometry": {"location": {"lat": 51.5300064, "lng": -0.1853989}, "viewport": {"northeast": {"lat": 51.5314209802915, "lng": -0.184127919708498}, "southwest": {"lat": 51.5287230197085, "lng": -0.186825880291502}}}, "name": "IVA-Assist - CVA London - IVA London - Debt Mangement London", "place_id": "ChIJvVSDKKcadkgRU7ekykImK4E", "types": ["finance", "point_of_interest", "establishment"]}, "ChIJiQylKKcadkgRg_CAMw34894": {"geometry": {"location": {"lat": 51.5299843, "lng": -0.1854849}, "viewport": {"northeast": {"lat": 51.5313923302915, "lng": -0.1842092697084979}, "southwest": {"lat": 51.5286943697085, "lng": -0.186907230291502}}}, "name": "The Peppermint", "place_id": "ChIJiQylKKcadkgRg_CAMw34894", "types": ["cafe", "restaurant", "food", "point_of_interest", "establishment"], "rating": 4.3, "user_ratings_total": 255}, "ChIJL8buJacadkgRbDHK2Uj2dkI": {"geometry": {"location": {"lat": 51.5299163, "lng": -0.1856333}, "viewport": {"northeast": {"lat": 51.5313251802915, "lng": -0.184355519708498}, "southwest": {"lat": 51.5286272197085, "lng": -0.187053480291502}}}, "name": "PROPERTY WEBWISE LTD", "place_id": "ChIJL8buJacadkgRbDHK2Uj2dkI", "types": ["real_estate_agency", "point_of_interest", "establishment"]}, "ChIJ2brLKacadkgRLjttyP-K0cs": {"geometry": {"location": {"lat": 51.5301073, "lng": -0.1852085}, "viewport": {"northeast": {"lat": 51.5315175802915, "lng": -0.183932419708498}, "southwest": {"lat": 51.5288196197085, "lng": -0.186630380291502}}}, "name": "Savills Maida Vale & Little Venice Estate Agents", "place_id": "ChIJ2brLKacadkgRLjttyP-K0cs", "types": ["real_estate_agency", "point_of_interest", "establishment"], "rating": 4.8, "user_ratings_total": 62}, "ChIJodDQ9H8bdkgRaeZNLu_Ix24": {"geometry": {"location": {"lat": 51.5296675, "lng": -0.1854081}, "viewport": {"northeast": {"lat": 51.5310273802915, "lng": -0.184072219708498}, "southwest": {"lat": 51.5283294197085, "lng": -0.186770180291502}}}, "name": "Maida Vale Carpet Cleaning", "place_id": "ChIJodDQ9H8bdkgRaeZNLu_Ix24", "types": ["laundry", "point_of_interest", "establishment"]}, "ChIJY3PeI6cadkgR6bJKxvNfiIc": {"geometry": {"location": {"lat": 51.529559, "lng": -0.18559}, "viewport": {"northeast": {"lat": 51.53088663029149, "lng": -0.184284419708498}, "southwest": {"lat": 51.5281886697085, "lng": -0.186982380291502}}}, "name": "ubitricity Charging Station", "place_id": "ChIJY3PeI6cadkgR6bJKxvNfiIc", "types": ["point_of_interest", "establishment"]}, "ChIJZ5Vpw6YadkgRkus7LGuM7WI": {"geometry": {"location": {"lat": 51.5295904, "lng": -0.1843711}, "viewport": {"northeast": {"lat": 51.5309506802915, "lng": -0.182997169708498}, "southwest": {"lat": 51.5282527197085, "lng": -0.185695130291502}}}, "name": "ubitricity Charging Station", "place_id": "ChIJZ5Vpw6YadkgRkus7LGuM7WI", "types": ["point_of_interest", "establishment"]}, "ChIJjY6RMKcadkgR5VWAJPuqjus": {"geometry": {"location": {"lat": 51.5297841, "lng": -0.1856962}, "viewport": {"northeast": {"lat": 51.5311054302915, "lng": -0.184405419708498}, "southwest": {"lat": 51.5284074697085, "lng": -0.187103380291502}}}, "name": "Banana Tree Maida Vale", "place_id": "ChIJjY6RMKcadkgR5VWAJPuqjus", "types": ["restaurant", "food", "point_of_interest", "establishment"], "rating": 4.2, "user_ratings_total": 344}, "ChIJscxiL6cadkgRLLkpBBJjY_I": {"geometry": {"location": {"lat": 51.5299234, "lng": -0.1856548}, "viewport": {"northeast": {"lat": 51.5313267802915, "lng": -0.184370469708498}, "southwest": {"lat": 51.5286288197085, "lng": -0.187068430291502}}}, "name": "Ashley Milton Property Agents", "place_id": "ChIJscxiL6cadkgRLLkpBBJjY_I", "types": ["point_of_interest", "establishment"], "rating": 4.8, "user_ratings_total": 76}, "ChIJA6oGJqcadkgR_LD-hByYq30": {"geometry": {"location": {"lat": 51.5299536, "lng": -0.1855482}, "viewport": {"northeast": {"lat": 51.53136303029149, "lng": -0.184271469708498}, "southwest": {"lat": 51.5286650697085, "lng": -0.186969430291502}}}, "name": "KeyNest - Smart Key Exchange", "place_id": "ChIJA6oGJqcadkgR_LD-hByYq30", "types": ["point_of_interest", "store", "establishment"]}, "ChIJydj_JacadkgRS7FAambh3VY": {"geometry": {"location": {"lat": 51.5299688, "lng": -0.1855716}, "viewport": {"northeast": {"lat": 51.5313684802915, "lng": -0.184287869708498}, "southwest": {"lat": 51.5286705197085, "lng": -0.186985830291502}}}, "name": "Supersave Food & Wine", "place_id": "ChIJydj_JacadkgRS7FAambh3VY", "types": ["convenience_store", "grocery_or_supermarket", "food", "point_of_interest", "store", "establishment"], "rating": 4.9, "user_ratings_total": 15}, "ChIJU_8nKKcadkgR6e-kBBFW6ZA": {"geometry": {"location": {"lat": 51.53009789999999, "lng": -0.185204}, "viewport": {"northeast": {"lat": 51.53151193029149, "lng": -0.1839323197084979}, "southwest": {"lat": 51.5288139697085, "lng": -0.186630280291502}}}, "name": "SolidCode LTD", "place_id": "ChIJU_8nKKcadkgR6e-kBBFW6ZA", "types": ["point_of_interest", "establishment"]}, "ChIJMYpRHqcadkgRBbIduTiYuVU": {"geometry": {"location": {"lat": 51.52858680000001, "lng": -0.1844514}, "viewport": {"northeast": {"lat": 51.5299329802915, "lng": -0.183108069708498}, "southwest": {"lat": 51.5272350197085, "lng": -0.185806030291502}}}, "name": "SPARKLEANING", "place_id": "ChIJMYpRHqcadkgRBbIduTiYuVU", "types": ["laundry", "point_of_interest", "establishment"]}, "ChIJCwCkNwkQdkgRZ9gZU0zKKLk": {"geometry": {"location": {"lat": 51.5280043, "lng": -0.18519}, "viewport": {"northeast": {"lat": 51.5293101302915, "lng": -0.183932269708498}, "southwest": {"lat": 51.5266121697085, "lng": -0.186630230291502}}}, "name": "Modeste London", "place_id": "ChIJCwCkNwkQdkgRZ9gZU0zKKLk", "types": ["general_contractor", "point_of_interest", "establishment"], "rating": 5, "user_ratings_total": 1}, "ChIJu7l896YadkgRdAz5fdTwL2Q": {"geometry": {"location": {"lat": 51.5281961, "lng": -0.1844996}, "viewport": {"northeast": {"lat": 51.5296332802915, "lng": -0.1829661697084979}, "southwest": {"lat": 51.5269353197085, "lng": -0.185664130291502}}}, "name": "Jane Wingrove Property Managment", "place_id": "ChIJu7l896YadkgRdAz5fdTwL2Q", "types": ["point_of_interest", "establishment"], "rating": 4.5, "user_ratings_total": 2}, "ChIJ4RdX5KYadkgRKfuSz134Mfw": {"geometry": {"location": {"lat": 51.52885269999999, "lng": -0.18466}, "viewport": {"northeast": {"lat": 51.5301982802915, "lng": -0.183317269708498}, "southwest": {"lat": 51.52750031970851, "lng": -0.186015230291502}}}, "name": "ubitricity Charging Station", "place_id": "ChIJ4RdX5KYadkgRKfuSz134Mfw", "types": ["point_of_interest", "establishment"]}, "ChIJ99kf8aYadkgR5gC5JbPDu84": {"geometry": {"location": {"lat": 51.528424, "lng": -0.184271}, "viewport": {"northeast": {"lat": 51.52977678029149, "lng": -0.182913969708498}, "southwest": {"lat": 51.52707881970849, "lng": -0.185611930291502}}}, "name": "ubitricity Charging Station", "place_id": "ChIJ99kf8aYadkgR5gC5JbPDu84", "types": ["point_of_interest", "establishment"]}, "ChIJ20y8pacadkgRKSSA1mpyyDg": {"geometry": {"location": {"lat": 51.5277179, "lng": -0.1844978}, "viewport": {"northeast": {"lat": 51.5289972302915, "lng": -0.183396869708498}, "southwest": {"lat": 51.5262992697085, "lng": -0.186094830291502}}}, "name": "Lauderdale Road Synagogue", "place_id": "ChIJ20y8pacadkgRKSSA1mpyyDg", "types": ["synagogue", "place_of_worship", "point_of_interest", "establishment"], "rating": 4.8, "user_ratings_total": 8}, "ChIJl9ATVKYadkgRNdNlcicPQ7Y": {"geometry": {"location": {"lat": 51.5277299, "lng": -0.1848909}, "viewport": {"northeast": {"lat": 51.52904568029149, "lng": -0.183627919708498}, "southwest": {"lat": 51.52634771970849, "lng": -0.186325880291502}}}, "name": "Spanish and Portuguese Jews' Synagogue", "place_id": "ChIJl9ATVKYadkgRNdNlcicPQ7Y", "types": ["point_of_interest", "establishment"]}, "ChIJ5RvWdQ8bdkgRP_YeScyQznY": {"geometry": {"location": {"lat": 51.5277179, "lng": -0.1844978}, "viewport": {"northeast": {"lat": 51.5289972302915, "lng": -0.183396869708498}, "southwest": {"lat": 51.5262992697085, "lng": -0.186094830291502}}}, "name": "La Petite Nursery", "place_id": "ChIJ5RvWdQ8bdkgRP_YeScyQznY", "types": ["school", "point_of_interest", "establishment"], "rating": 5, "user_ratings_total": 7}, "ChIJRVrQW6YadkgRW6Mwgs3ZcgE": {"geometry": {"location": {"lat": 51.52764469999999, "lng": -0.1842294}, "viewport": {"northeast": {"lat": 51.52893483029149, "lng": -0.182882519708498}, "southwest": {"lat": 51.5262368697085, "lng": -0.185580480291502}}}, "name": "Greene & Co", "place_id": "ChIJRVrQW6YadkgRW6Mwgs3ZcgE", "types": ["real_estate_agency", "point_of_interest", "establishment"]}, "ChIJ8aOes6AadkgRUcj_ipebD3A": {"geometry": {"location": {"lat": 51.53081413764621, "lng": -0.1871221211306064}, "viewport": {"northeast": {"lat": 51.53216493029149, "lng": -0.185769569708498}, "southwest": {"lat": 51.5294669697085, "lng": -0.188467530291502}}}, "name": "171-203 Randolph Ave", "place_id": "ChIJ8aOes6AadkgRUcj_ipebD3A", "types": ["route"]}, "ChIJsXALMacadkgRbNv1JNUguGk": {"geometry": {"location": {"lat": 51.5303754, "lng": -0.1863827}, "viewport": {"northeast": {"lat": 51.5316878302915, "lng": -0.185099219708498}, "southwest": {"lat": 51.5289898697085, "lng": -0.187797180291502}}}, "name": "Zipcar", "place_id": "ChIJsXALMacadkgRbNv1JNUguGk", "types": ["car_rental", "point_of_interest", "establishment"]}, "ChIJ1WBitaAadkgRy6ZcH2v-jnM": {"geometry": {"location": {"lat": 51.5311032, "lng": -0.1870632}, "viewport": {"northeast": {"lat": 51.5323924302915, "lng": -0.185844319708498}, "southwest": {"lat": 51.52969446970851, "lng": -0.188542280291502}}}, "name": "Maida Vale Photo", "place_id": "ChIJ1WBitaAadkgRy6ZcH2v-jnM", "types": ["point_of_interest", "establishment"]}, "ChIJnV_nSAYQdkgRFnBr1i7Zrxc": {"geometry": {"location": {"lat": 51.5310035, "lng": -0.1870095}, "viewport": {"northeast": {"lat": 51.5323023802915, "lng": -0.185768369708498}, "southwest": {"lat": 51.52960441970851, "lng": -0.188466330291502}}}, "name": "Blinkfairy Eyelash Extensions London - Individual Classic, Hybrid and Russian Eyelashes", "place_id": "ChIJnV_nSAYQdkgRFnBr1i7Zrxc", "types": ["beauty_salon", "hair_care", "point_of_interest", "establishment"], "rating": 4.7, "user_ratings_total": 83}, "ChIJTRugtKAadkgRH_zshqGtNdI": {"geometry": {"location": {"lat": 51.530739, "lng": -0.1868887}, "viewport": {"northeast": {"lat": 51.5320691802915, "lng": -0.185589519708498}, "southwest": {"lat": 51.5293712197085, "lng": -0.188287480291502}}}, "name": "ubitricity Charging Station", "place_id": "ChIJTRugtKAadkgRH_zshqGtNdI", "types": ["point_of_interest", "establishment"]}, "ChIJ17eVv50bdkgR0Uclh6Inxis": {"geometry": {"location": {"lat": 51.5303979, "lng": -0.1860864}, "viewport": {"northeast": {"lat": 51.5317447802915, "lng": -0.1847349197084979}, "southwest": {"lat": 51.5290468197085, "lng": -0.187432880291502}}}, "name": "Motivo", "place_id": "ChIJ17eVv50bdkgR0Uclh6Inxis", "types": ["point_of_interest", "establishment"]}, "ChIJg3ZQ8PMbdkgRn5TK2khixsk": {"geometry": {"location": {"lat": 51.5310717, "lng": -0.1870858}, "viewport": {"northeast": {"lat": 51.5323697802915, "lng": -0.185846469708498}, "southwest": {"lat": 51.5296718197085, "lng": -0.188544430291502}}}, "name": "Nupul", "place_id": "ChIJg3ZQ8PMbdkgRn5TK2khixsk", "types": ["lodging", "point_of_interest", "establishment"]}, "ChIJ33evQKcadkgR_32StRzlz24": {"geometry": {"location": {"lat": 51.52964630062937, "lng": -0.1866234015230821}, "viewport": {"northeast": {"lat": 51.5309952802915, "lng": -0.185274419708498}, "southwest": {"lat": 51.5282973197085, "lng": -0.187972380291502}}}, "name": "282-266 Elgin Ave", "place_id": "ChIJ33evQKcadkgR_32StRzlz24", "types": ["route"]}, "ChIJoyS9O6cadkgR7p-wwBXKIIs": {"geometry": {"location": {"lat": 51.5297023, "lng": -0.1860369}, "viewport": {"northeast": {"lat": 51.5311139302915, "lng": -0.184787619708498}, "southwest": {"lat": 51.5284159697085, "lng": -0.187485580291502}}}, "name": "Elgin Dental Care and Implant Clinic", "place_id": "ChIJoyS9O6cadkgR7p-wwBXKIIs", "types": ["dentist", "health", "point_of_interest", "establishment"], "rating": 4.9, "user_ratings_total": 91}, "ChIJOcL8Q6cadkgRsB4zYUYMVO0": {"geometry": {"location": {"lat": 51.52962360000001, "lng": -0.1872027}, "viewport": {"northeast": {"lat": 51.5308932302915, "lng": -0.185757769708498}, "southwest": {"lat": 51.5281952697085, "lng": -0.188455730291502}}}, "name": "Go-Faster Consultancy Ltd.", "place_id": "ChIJOcL8Q6cadkgRsB4zYUYMVO0", "types": ["point_of_interest", "establishment"], "rating": 3, "user_ratings_total": 1}, "ChIJ--TYRqcadkgR5DGn4iceJPQ": {"geometry": {"location": {"lat": 51.52969909999999, "lng": -0.1868675}, "viewport": {"northeast": {"lat": 51.5309947302915, "lng": -0.185453969708498}, "southwest": {"lat": 51.5282967697085, "lng": -0.188151930291502}}}, "name": "Urban Angels", "place_id": "ChIJ--TYRqcadkgR5DGn4iceJPQ", "types": ["point_of_interest", "store", "establishment"]}, "ChIJ0an7VqcadkgRAeYsKPakwuE": {"geometry": {"location": {"lat": 51.5293257, "lng": -0.1870338}, "viewport": {"northeast": {"lat": 51.53066338029149, "lng": -0.185704819708498}, "southwest": {"lat": 51.52796541970849, "lng": -0.188402780291502}}}, "name": "English Table Tennis Association - Maida Vale", "place_id": "ChIJ0an7VqcadkgRAeYsKPakwuE", "types": ["point_of_interest", "establishment"], "rating": 5, "user_ratings_total": 1}, "ChIJSeCqR6cadkgR7hDlvutWBiY": {"geometry": {"location": {"lat": 51.52996530000001, "lng": -0.1864298}, "viewport": {"northeast": {"lat": 51.5312413802915, "lng": -0.184992619708498}, "southwest": {"lat": 51.52854341970851, "lng": -0.1876905802915021}}}, "name": "The Content Organisation", "place_id": "ChIJSeCqR6cadkgR7hDlvutWBiY", "types": ["point_of_interest", "establishment"]}, "ChIJf9nYOacadkgRzL9N0w_C1Jg": {"geometry": {"location": {"lat": 51.529965, "lng": -0.1864262}, "viewport": {"northeast": {"lat": 51.53124173029151, "lng": -0.184989819708498}, "southwest": {"lat": 51.52854376970851, "lng": -0.187687780291502}}}, "name": "Dr P Milton - Randolph Surgery", "place_id": "ChIJf9nYOacadkgRzL9N0w_C1Jg", "types": ["doctor", "health", "point_of_interest", "establishment"]}, "ChIJUbw9BZcNdkgRjgsMOGL4Qlk": {"geometry": {"location": {"lat": 51.529628, "lng": -0.1860302}, "viewport": {"northeast": {"lat": 51.5310714802915, "lng": -0.184795569708498}, "southwest": {"lat": 51.5283735197085, "lng": -0.187493530291502}}}, "name": "Visiting Specialist Services", "place_id": "ChIJUbw9BZcNdkgRjgsMOGL4Qlk", "types": ["dentist", "health", "point_of_interest", "establishment"]}, "ChIJY1efPKcadkgR_UpIesRbg9A": {"geometry": {"location": {"lat": 51.529628, "lng": -0.1860301}, "viewport": {"northeast": {"lat": 51.5310714802915, "lng": -0.184795469708498}, "southwest": {"lat": 51.5283735197085, "lng": -0.187493430291502}}}, "name": "VSSAcademy", "place_id": "ChIJY1efPKcadkgR_UpIesRbg9A", "types": ["point_of_interest", "establishment"]}, "ChIJSeCqR6cadkgREAhfB47cjtg": {"geometry": {"location": {"lat": 51.529965, "lng": -0.1864262}, "viewport": {"northeast": {"lat": 51.53124173029151, "lng": -0.184989819708498}, "southwest": {"lat": 51.52854376970851, "lng": -0.187687780291502}}}, "name": "Dr H Martin - Randolph Surgery", "place_id": "ChIJSeCqR6cadkgREAhfB47cjtg", "types": ["doctor", "health", "point_of_interest", "establishment"], "rating": 5, "user_ratings_total": 1}, "ChIJwwkHDHgRdkgRF4JzPoPJ2t4": {"geometry": {"location": {"lat": 51.5295079, "lng": -0.1866345}, "viewport": {"northeast": {"lat": 51.53089938029149, "lng": -0.185336969708498}, "southwest": {"lat": 51.52820141970849, "lng": -0.188034930291502}}}, "name": "Floors Doctor", "place_id": "ChIJwwkHDHgRdkgRF4JzPoPJ2t4", "types": ["laundry", "general_contractor", "point_of_interest", "establishment"], "rating": 5, "user_ratings_total": 12}, "ChIJ2QJFmlYbdkgRl8EJPnCiRss": {"geometry": {"location": {"lat": 51.5298386, "lng": -0.1867219}, "viewport": {"northeast": {"lat": 51.53118758029149, "lng": -0.185372919708498}, "southwest": {"lat": 51.52848961970849, "lng": -0.188070880291502}}}, "name": "Leon Kammer Coaching", "place_id": "ChIJ2QJFmlYbdkgRl8EJPnCiRss", "types": ["health", "point_of_interest", "establishment"]}, "ChIJiR_U-OcbdkgRFlOr7QltLcw": {"geometry": {"location": {"lat": 51.52962950000001, "lng": -0.1862901}, "viewport": {"northeast": {"lat": 51.5310336802915, "lng": -0.1850078697084979}, "southwest": {"lat": 51.5283357197085, "lng": -0.187705830291502}}}, "name": "Maida Vale Paving & Driveways", "place_id": "ChIJiR_U-OcbdkgRFlOr7QltLcw", "types": ["general_contractor", "point_of_interest", "establishment"], "rating": 5, "user_ratings_total": 2}, "ChIJs_pzW8kRdkgRKq4wFx32_cU": {"geometry": {"location": {"lat": 51.529837, "lng": -0.1862644}, "viewport": {"northeast": {"lat": 51.5311967302915, "lng": -0.184928469708498}, "southwest": {"lat": 51.5284987697085, "lng": -0.187626430291502}}}, "name": "Stefano Chiriaco | Personal Trainer Maida Vale", "place_id": "ChIJs_pzW8kRdkgRKq4wFx32_cU", "types": ["health", "point_of_interest", "establishment"]}, "ChIJNw-pR6cadkgRTYx-QnQqhrY": {"geometry": {"location": {"lat": 51.529965, "lng": -0.1864262}, "viewport": {"northeast": {"lat": 51.53124173029151, "lng": -0.184989819708498}, "southwest": {"lat": 51.52854376970851, "lng": -0.187687780291502}}}, "name": "Dr A Berger", "place_id": "ChIJNw-pR6cadkgRTYx-QnQqhrY", "types": ["doctor", "health", "point_of_interest", "establishment"]}, "ChIJ4ybZOacadkgRj8JZu6PHopU": {"geometry": {"location": {"lat": 51.529963, "lng": -0.1864264}, "viewport": {"northeast": {"lat": 51.5312403302915, "lng": -0.184990719708498}, "southwest": {"lat": 51.5285423697085, "lng": -0.187688680291502}}}, "name": "Dr A Nessa - The Randolph Surgery", "place_id": "ChIJ4ybZOacadkgRj8JZu6PHopU", "types": ["doctor", "health", "point_of_interest", "establishment"]}, "ChIJ4ybZOacadkgRTJRghJuNtJU": {"geometry": {"location": {"lat": 51.529963, "lng": -0.1864264}, "viewport": {"northeast": {"lat": 51.5312403302915, "lng": -0.184990719708498}, "southwest": {"lat": 51.5285423697085, "lng": -0.187688680291502}}}, "name": "Dr M Tahir - The Randolph Surgery", "place_id": "ChIJ4ybZOacadkgRTJRghJuNtJU", "types": ["doctor", "health", "point_of_interest", "establishment"]}, "ChIJ4ybZOacadkgR8UqX5jX2aIo": {"geometry": {"location": {"lat": 51.529963, "lng": -0.1864264}, "viewport": {"northeast": {"lat": 51.5312403302915, "lng": -0.184990719708498}, "southwest": {"lat": 51.5285423697085, "lng": -0.187688680291502}}}, "name": "Dr Z Toukan - The Randolph Surgery", "place_id": "ChIJ4ybZOacadkgR8UqX5jX2aIo", "types": ["doctor", "health", "point_of_interest", "establishment"]}, "ChIJf9nYOacadkgRVl11-ozH5lg": {"geometry": {"location": {"lat": 51.529965, "lng": -0.1864262}, "viewport": {"northeast": {"lat": 51.53124173029151, "lng": -0.184989819708498}, "southwest": {"lat": 51.52854376970851, "lng": -0.187687780291502}}}, "name": "Dr L Bello - Randolph Surgery", "place_id": "ChIJf9nYOacadkgRVl11-ozH5lg", "types": ["doctor", "health", "point_of_interest", "establishment"]}, "ChIJf9nYOacadkgRWuOGtFTzYoI": {"geometry": {"location": {"lat": 51.529965, "lng": -0.1864262}, "viewport": {"northeast": {"lat": 51.53124173029151, "lng": -0.184989819708498}, "southwest": {"lat": 51.52854376970851, "lng": -0.187687780291502}}}, "name": "Randolph Surgery", "place_id": "ChIJf9nYOacadkgRWuOGtFTzYoI", "types": ["doctor", "health", "point_of_interest", "establishment"], "rating": 4.2, "user_ratings_total": 141}, "ChIJ__-ePKcadkgRZxtuIVD5vVg": {"geometry": {"location": {"lat": 51.52963569999999, "lng": -0.1860407}, "viewport": {"northeast": {"lat": 51.5310751302915, "lng": -0.184801169708498}, "southwest": {"lat": 51.52837716970851, "lng": -0.187499130291502}}}, "name": "SCPI", "place_id": "ChIJ__-ePKcadkgRZxtuIVD5vVg", "types": ["point_of_interest", "establishment"]}, "ChIJ1fTppyAbdkgRQYJjDpDH1vo": {"geometry": {"location": {"lat": 51.5296749, "lng": -0.1860444}, "viewport": {"northeast": {"lat": 51.5311013302915, "lng": -0.184789019708498}, "southwest": {"lat": 51.5284033697085, "lng": -0.187486980291502}}}, "name": "Hiab Hire Maida Vale", "place_id": "ChIJ1fTppyAbdkgRQYJjDpDH1vo", "types": ["point_of_interest", "establishment"]}, "ChIJYVefPKcadkgRqVx2ckdrymw": {"geometry": {"location": {"lat": 51.529628, "lng": -0.1860302}, "viewport": {"northeast": {"lat": 51.5310714802915, "lng": -0.184795569708498}, "southwest": {"lat": 51.5283735197085, "lng": -0.187493530291502}}}, "name": "E K K Ltd", "place_id": "ChIJYVefPKcadkgRqVx2ckdrymw", "types": ["point_of_interest", "establishment"]}, "ChIJ5-9oYg8QdkgRfbeTu7qYnL0": {"geometry": {"location": {"lat": 51.5296944, "lng": -0.1860326}, "viewport": {"northeast": {"lat": 51.5311163302915, "lng": -0.184771819708498}, "southwest": {"lat": 51.5284183697085, "lng": -0.187469780291502}}}, "name": "Energy Strategy & Policy Consulting Ltd", "place_id": "ChIJ5-9oYg8QdkgRfbeTu7qYnL0", "types": ["point_of_interest", "establishment"]}, "ChIJN_XLQqcadkgRs7GcOdc81ic": {"geometry": {"location": {"lat": 51.5294264, "lng": -0.1874766}, "viewport": {"northeast": {"lat": 51.5308129302915, "lng": -0.186060469708498}, "southwest": {"lat": 51.5281149697085, "lng": -0.188758430291502}}}, "name": "Ashworth Mansions", "place_id": "ChIJN_XLQqcadkgRs7GcOdc81ic", "types": ["point_of_interest", "establishment"], "rating": 5, "user_ratings_total": 2}, "ChIJq6pGFKcadkgR-moa1HhZIVk": {"geometry": {"location": {"lat": 51.52909089999999, "lng": -0.1864167}, "viewport": {"northeast": {"lat": 51.53038223029149, "lng": -0.1851874197084979}, "southwest": {"lat": 51.52768426970849, "lng": -0.187885380291502}}}, "name": "London Technology Club Limited", "place_id": "ChIJq6pGFKcadkgR-moa1HhZIVk", "types": ["point_of_interest", "establishment"]}, "ChIJPcVTDqcadkgRJkTTMbk22v4": {"geometry": {"location": {"lat": 51.52853789203802, "lng": -0.186129748071555}, "viewport": {"northeast": {"lat": 51.53000480000006, "lng": -0.18430815}, "southwest": {"lat": 51.52706039999995, "lng": -0.18797155}}}, "name": "1-25 Ashworth Rd", "place_id": "ChIJPcVTDqcadkgRJkTTMbk22v4", "types": ["route"]}, "ChIJ9WZroeQbdkgR6fZsJy5fYzc": {"geometry": {"location": {"lat": 51.5285977, "lng": -0.1865975}, "viewport": {"northeast": {"lat": 51.53000473029149, "lng": -0.1851257197084979}, "southwest": {"lat": 51.5273067697085, "lng": -0.187823680291502}}}, "name": "London Security Systems", "place_id": "ChIJ9WZroeQbdkgR6fZsJy5fYzc", "types": ["point_of_interest", "establishment"]}, "ChIJI415ez4bdkgRg6inlEgd7eQ": {"geometry": {"location": {"lat": 51.5285977, "lng": -0.1865975}, "viewport": {"northeast": {"lat": 51.53000473029149, "lng": -0.1851257197084979}, "southwest": {"lat": 51.5273067697085, "lng": -0.187823680291502}}}, "name": "Concordia Interiors", "place_id": "ChIJI415ez4bdkgRg6inlEgd7eQ", "types": ["general_contractor", "point_of_interest", "establishment"]}, "ChIJQej-dacadkgR0cSUlPslw7g": {"geometry": {"location": {"lat": 51.5280147, "lng": -0.187014}, "viewport": {"northeast": {"lat": 51.52932133029149, "lng": -0.185753519708498}, "southwest": {"lat": 51.5266233697085, "lng": -0.188451480291502}}}, "name": "St Gregory's Foundation", "place_id": "ChIJQej-dacadkgR0cSUlPslw7g", "types": ["point_of_interest", "establishment"]}, "ChIJhbJtYocbdkgRgK0B1S2gYIA": {"geometry": {"location": {"lat": 51.5304934, "lng": -0.1876641}, "viewport": {"northeast": {"lat": 51.5319794802915, "lng": -0.186016519708498}, "southwest": {"lat": 51.5292815197085, "lng": -0.188714480291502}}}, "name": "W9 Carpentry & Building", "place_id": "ChIJhbJtYocbdkgRgK0B1S2gYIA", "types": ["point_of_interest", "establishment"]}, "ChIJC-CYoAkQdkgRogLbvMaFESY": {"geometry": {"location": {"lat": 51.5299092, "lng": -0.1860307}, "viewport": {"northeast": {"lat": 51.53646839825367, "lng": -0.1798539108348075}, "southwest": {"lat": 51.52509817806344, "lng": -0.1949944414629}}}, "name": "Maida Vale", "place_id": "ChIJC-CYoAkQdkgRogLbvMaFESY", "types": ["sublocality_level_1", "sublocality", "political"]}, "ChIJw0OunKYadkgRHkV35s9l4_w": {"geometry": {"location": {"lat": 51.5287663, "lng": -0.1824907}, "viewport": {"northeast": {"lat": 51.5302137302915, "lng": -0.180965469708498}, "southwest": {"lat": 51.5275157697085, "lng": -0.183663430291502}}}, "name": "Blisskinz", "place_id": "ChIJw0OunKYadkgRHkV35s9l4_w", "types": ["real_estate_agency", "point_of_interest", "establishment"], "rating": 4, "user_ratings_total": 1}, "ChIJwVbpfqYadkgRi5AcQEQ0brc": {"geometry": {"location": {"lat": 51.527781, "lng": -0.1824954}, "viewport": {"northeast": {"lat": 51.52913033029149, "lng": -0.181146819708498}, "southwest": {"lat": 51.5264323697085, "lng": -0.183844780291502}}}, "name": "Zipcar", "place_id": "ChIJwVbpfqYadkgRi5AcQEQ0brc", "types": ["car_rental", "point_of_interest", "establishment"]}, "ChIJcTbte6YadkgRjmhu4ly1zno": {"geometry": {"location": {"lat": 51.5277497, "lng": -0.1824927}, "viewport": {"northeast": {"lat": 51.5291210302915, "lng": -0.181172369708498}, "southwest": {"lat": 51.5264230697085, "lng": -0.183870330291502}}}, "name": "Source London Charging Station", "place_id": "ChIJcTbte6YadkgRjmhu4ly1zno", "types": ["point_of_interest", "establishment"]}, "ChIJteqBLqEadkgRlcs0Ma4p1jU": {"geometry": {"location": {"lat": 51.53117080000001, "lng": -0.1843187}, "viewport": {"northeast": {"lat": 51.5324466302915, "lng": -0.183129419708498}, "southwest": {"lat": 51.5297486697085, "lng": -0.185827380291502}}}, "name": "Educating Matters", "place_id": "ChIJteqBLqEadkgRlcs0Ma4p1jU", "types": ["point_of_interest", "establishment"], "rating": 5, "user_ratings_total": 1}, "ChIJgeGBNMIbdkgRB8sibirkLqE": {"geometry": {"location": {"lat": 51.5310229, "lng": -0.1841083}, "viewport": {"northeast": {"lat": 51.5322929802915, "lng": -0.182928969708498}, "southwest": {"lat": 51.5295950197085, "lng": -0.185626930291502}}}, "name": "Health Optimising UK London", "place_id": "ChIJgeGBNMIbdkgRB8sibirkLqE", "types": ["health", "point_of_interest", "establishment"], "rating": 4.3, "user_ratings_total": 9}, "ChIJkf7bM6EadkgRwAPpx4vyi7Q": {"geometry": {"location": {"lat": 51.5310229, "lng": -0.1841083}, "viewport": {"northeast": {"lat": 51.5322929802915, "lng": -0.182928969708498}, "southwest": {"lat": 51.5295950197085, "lng": -0.185626930291502}}}, "name": "Dexter Dr S L", "place_id": "ChIJkf7bM6EadkgRwAPpx4vyi7Q", "types": ["doctor", "health", "point_of_interest", "establishment"]}, "ChIJnWeMM6EadkgRD9g7c9c1rCs": {"geometry": {"location": {"lat": 51.53092119999999, "lng": -0.1840606}, "viewport": {"northeast": {"lat": 51.53225188029149, "lng": -0.182665069708498}, "southwest": {"lat": 51.52955391970849, "lng": -0.185363030291502}}}, "name": "Source London Charging Station", "place_id": "ChIJnWeMM6EadkgRD9g7c9c1rCs", "types": ["point_of_interest", "establishment"]}, "ChIJkwKIw6MadkgReRvY8wncCI8": {"geometry": {"location": {"lat": 51.53116250000001, "lng": -0.1836092}, "viewport": {"northeast": {"lat": 51.5324798802915, "lng": -0.182219069708498}, "southwest": {"lat": 51.5297819197085, "lng": -0.184917030291502}}}, "name": "ubitricity Charging Station", "place_id": "ChIJkwKIw6MadkgReRvY8wncCI8", "types": ["point_of_interest", "establishment"]}, "ChIJraCEy6YadkgRECeM6M2On04": {"geometry": {"location": {"lat": 51.5302942, "lng": -0.1839598}, "viewport": {"northeast": {"lat": 51.53166798029149, "lng": -0.182555669708498}, "southwest": {"lat": 51.5289700197085, "lng": -0.185253630291502}}}, "name": "Elgin Avenue / Maida Vale Station", "place_id": "ChIJraCEy6YadkgRECeM6M2On04", "types": ["transit_station", "point_of_interest", "establishment"]}, "ChIJ2-Q7xqYadkgRRutRdLHzhxQ": {"geometry": {"location": {"lat": 51.529918, "lng": -0.18398}, "viewport": {"northeast": {"lat": 51.5312971302915, "lng": -0.182423019708498}, "southwest": {"lat": 51.5285991697085, "lng": -0.185120980291502}}}, "name": "computer repairs & upgrades", "place_id": "ChIJ2-Q7xqYadkgRRutRdLHzhxQ", "types": ["electronics_store", "point_of_interest", "store", "establishment"], "rating": 5, "user_ratings_total": 1}, "ChIJibkr66YadkgRJC03OQoTkLI": {"geometry": {"location": {"lat": 51.52913805010152, "lng": -0.1837326495748205}, "viewport": {"northeast": {"lat": 51.5304870302915, "lng": -0.182383669708498}, "southwest": {"lat": 51.5277890697085, "lng": -0.185081630291502}}}, "name": "119-127 Lanark Rd", "place_id": "ChIJibkr66YadkgRJC03OQoTkLI", "types": ["route"]}, "ChIJq9l1X6YadkgRW8pMCujBobk": {"geometry": {"location": {"lat": 51.5279394, "lng": -0.1839485}, "viewport": {"northeast": {"lat": 51.52934143029151, "lng": -0.1824886197084979}, "southwest": {"lat": 51.52664346970851, "lng": -0.185186580291502}}}, "name": "Capital Pictures", "place_id": "ChIJq9l1X6YadkgRW8pMCujBobk", "types": ["point_of_interest", "establishment"], "rating": 5, "user_ratings_total": 2}, "ChIJC-CYoAkQdkgRJ1b0Qu3AK44": {"geometry": {"location": {"lat": 51.527928, "lng": -0.183626}, "viewport": {"northeast": {"lat": 51.5292711802915, "lng": -0.182289169708498}, "southwest": {"lat": 51.5265732197085, "lng": -0.184987130291502}}}, "name": "Richard Marshall Tiling", "place_id": "ChIJC-CYoAkQdkgRJ1b0Qu3AK44", "types": ["general_contractor", "point_of_interest", "establishment"]}, "ChIJV68tMYUbdkgRliSjhHmMNNM": {"geometry": {"location": {"lat": 51.5280424, "lng": -0.1839888}, "viewport": {"northeast": {"lat": 51.5294313802915, "lng": -0.1825562197084979}, "southwest": {"lat": 51.5267334197085, "lng": -0.185254180291502}}}, "name": "Sheeba New", "place_id": "ChIJV68tMYUbdkgRliSjhHmMNNM", "types": ["doctor", "health", "point_of_interest", "establishment"]}, "ChIJzRgW-REQdkgRg97GUS_1uOE": {"geometry": {"location": {"lat": 51.527928, "lng": -0.183626}, "viewport": {"northeast": {"lat": 51.5292711802915, "lng": -0.182289169708498}, "southwest": {"lat": 51.5265732197085, "lng": -0.184987130291502}}}, "name": "Blueway Driving School", "place_id": "ChIJzRgW-REQdkgRg97GUS_1uOE", "types": ["point_of_interest", "establishment"], "rating": 4.9, "user_ratings_total": 93}, "ChIJpfIo0aAadkgRRHDTuJo0_w4": {"geometry": {"location": {"lat": 51.531113, "lng": -0.185619}, "viewport": {"northeast": {"lat": 51.5327109802915, "lng": -0.184729469708498}, "southwest": {"lat": 51.5300130197085, "lng": -0.187427430291502}}}, "name": "The Cleaning Services Group ltd", "place_id": "ChIJpfIo0aAadkgRRHDTuJo0_w4", "types": ["point_of_interest", "establishment"], "rating": 5, "user_ratings_total": 1}, "ChIJ5cY8L6cadkgRKPkyQRtZhu4": {"geometry": {"location": {"lat": 51.53014090026184, "lng": -0.185549200625871}, "viewport": {"northeast": {"lat": 51.53148988029151, "lng": -0.184200219708498}, "southwest": {"lat": 51.52879191970851, "lng": -0.186898180291502}}}, "name": "241-253 Elgin Ave", "place_id": "ChIJ5cY8L6cadkgRKPkyQRtZhu4", "types": ["route"]}, "ChIJSReDLKcadkgRLzFZtGseJSY": {"geometry": {"location": {"lat": 51.5304188, "lng": -0.1857957}, "viewport": {"northeast": {"lat": 51.5318411802915, "lng": -0.184289919708498}, "southwest": {"lat": 51.5291432197085, "lng": -0.186987880291502}}}, "name": "El-Gazzar Dr Y", "place_id": "ChIJSReDLKcadkgRLzFZtGseJSY", "types": ["doctor", "health", "point_of_interest", "establishment"], "rating": 2.3, "user_ratings_total": 4}, "ChIJdSpRJKcadkgRn-lfZ-MQ7H8": {"geometry": {"location": {"lat": 51.5298778, "lng": -0.1857278}, "viewport": {"northeast": {"lat": 51.5312451802915, "lng": -0.184458769708498}, "southwest": {"lat": 51.5285472197085, "lng": -0.187156730291502}}}, "name": "Maida Vale", "place_id": "ChIJdSpRJKcadkgRn-lfZ-MQ7H8", "types": ["subway_station", "transit_station", "point_of_interest", "establishment"], "rating": 4.3, "user_ratings_total": 43}, "ChIJa2GqMacadkgRfl62bVg9JMw": {"geometry": {"location": {"lat": 51.530154, "lng": -0.186137}, "viewport": {"northeast": {"lat": 51.5315059802915, "lng": -0.184866569708498}, "southwest": {"lat": 51.5288080197085, "lng": -0.187564530291502}}}, "name": "Starbucks Coffee", "place_id": "ChIJa2GqMacadkgRfl62bVg9JMw", "types": ["cafe", "restaurant", "food", "point_of_interest", "store", "establishment"], "rating": 3.9, "user_ratings_total": 308}, "ChIJLTbdL6cadkgRlah9nopnN7o": {"geometry": {"location": {"lat": 51.530085, "lng": -0.185953}, "viewport": {"northeast": {"lat": 51.5314010302915, "lng": -0.184541919708498}, "southwest": {"lat": 51.52870306970851, "lng": -0.187239880291502}}}, "name": "Thai Rice Maida Vale", "place_id": "ChIJLTbdL6cadkgRlah9nopnN7o", "types": ["restaurant", "food", "point_of_interest", "establishment"], "rating": 3.9, "user_ratings_total": 284}, "ChIJwWPCKKcadkgR82yILl48bzs": {"geometry": {"location": {"lat": 51.5300425, "lng": -0.1854564}, "viewport": {"northeast": {"lat": 51.5314368802915, "lng": -0.184161369708498}, "southwest": {"lat": 51.5287389197085, "lng": -0.186859330291502}}}, "name": "Harlequin Specialist Dry Cleaners", "place_id": "ChIJwWPCKKcadkgR82yILl48bzs", "types": ["laundry", "point_of_interest", "establishment"], "rating": 4.4, "user_ratings_total": 9}, "ChIJq3m3L6cadkgRGuOzpjFNuzg": {"geometry": {"location": {"lat": 51.5301512, "lng": -0.1859163}, "viewport": {"northeast": {"lat": 51.5314462802915, "lng": -0.184489119708498}, "southwest": {"lat": 51.52874831970851, "lng": -0.187187080291502}}}, "name": "Vineyard Pharmacy", "place_id": "ChIJq3m3L6cadkgRGuOzpjFNuzg", "types": ["pharmacy", "health", "point_of_interest", "store", "establishment"], "rating": 3.6, "user_ratings_total": 17}, "ChIJI1l7K6cadkgR3SF5W1bVXoY": {"geometry": {"location": {"lat": 51.5304188, "lng": -0.1857957}, "viewport": {"northeast": {"lat": 51.5318411802915, "lng": -0.184289919708498}, "southwest": {"lat": 51.5291432197085, "lng": -0.186987880291502}}}, "name": "Third Floor Medical Centre", "place_id": "ChIJI1l7K6cadkgR3SF5W1bVXoY", "types": ["doctor", "health", "point_of_interest", "establishment"], "rating": 3.9, "user_ratings_total": 7}, "ChIJ8bI8QsgbdkgRjM-Bz2CB_PQ": {"geometry": {"location": {"lat": 51.5301494, "lng": -0.185906}, "viewport": {"northeast": {"lat": 51.5314424802915, "lng": -0.184490219708498}, "southwest": {"lat": 51.5287445197085, "lng": -0.187188180291502}}}, "name": "Maida Vale Glaziers - Double Glazing Window Repairs", "place_id": "ChIJ8bI8QsgbdkgRjM-Bz2CB_PQ", "types": ["point_of_interest", "establishment"], "rating": 5, "user_ratings_total": 1}, "ChIJ5R8s3v4bdkgRcLWivf5o0Vs": {"geometry": {"location": {"lat": 51.53015, "lng": -0.18591}, "viewport": {"northeast": {"lat": 51.5314421802915, "lng": -0.184493519708498}, "southwest": {"lat": 51.5287442197085, "lng": -0.187191480291502}}}, "name": "Medicspot Clinic Maida Vale", "place_id": "ChIJ5R8s3v4bdkgRcLWivf5o0Vs", "types": ["doctor", "health", "point_of_interest", "establishment"]}, "ChIJ6wnwa8MPdkgRU2rC32UjOck": {"geometry": {"location": {"lat": 51.53018359999999, "lng": -0.1858466}, "viewport": {"northeast": {"lat": 51.53147453029149, "lng": -0.184428269708498}, "southwest": {"lat": 51.5287765697085, "lng": -0.187126230291502}}}, "name": "Knight Chadwick Accountants", "place_id": "ChIJ6wnwa8MPdkgRU2rC32UjOck", "types": ["accounting", "finance", "point_of_interest", "establishment"]}, "ChIJr_FHLqcadkgRHHNNmAYbn-A": {"geometry": {"location": {"lat": 51.5301836, "lng": -0.1858465}, "viewport": {"northeast": {"lat": 51.5314774802915, "lng": -0.184421819708498}, "southwest": {"lat": 51.5287795197085, "lng": -0.187119780291502}}}, "name": "Elgin Blooms Maida Vale", "place_id": "ChIJr_FHLqcadkgRHHNNmAYbn-A", "types": ["florist", "point_of_interest", "store", "establishment"], "rating": 4.9, "user_ratings_total": 29}, "ChIJAQA8LqcadkgR6j9gfZuh1i0": {"geometry": {"location": {"lat": 51.53020079999999, "lng": -0.1858719}, "viewport": {"northeast": {"lat": 51.5314824302915, "lng": -0.184442419708498}, "southwest": {"lat": 51.5287844697085, "lng": -0.187140380291502}}}, "name": "TechNature Ltd", "place_id": "ChIJAQA8LqcadkgR6j9gfZuh1i0", "types": ["point_of_interest", "establishment"]}, "ChIJswYIy88bdkgRAyzIuWruycs": {"geometry": {"location": {"lat": 51.53020079999999, "lng": -0.1858719}, "viewport": {"northeast": {"lat": 51.5314824302915, "lng": -0.184442419708498}, "southwest": {"lat": 51.5287844697085, "lng": -0.187140380291502}}}, "name": "Ronald Fletcher & Co LLP", "place_id": "ChIJswYIy88bdkgRAyzIuWruycs", "types": ["lawyer", "finance", "point_of_interest", "establishment"], "rating": 4.7, "user_ratings_total": 61}, "ChIJr19-0SsbdkgR-fAGBXQraHg": {"geometry": {"location": {"lat": 51.53020569999999, "lng": -0.1859286}, "viewport": {"northeast": {"lat": 51.53147713029148, "lng": -0.184487419708498}, "southwest": {"lat": 51.52877916970849, "lng": -0.187185380291502}}}, "name": "DPD Parcel Shop Location", "place_id": "ChIJr19-0SsbdkgR-fAGBXQraHg", "types": ["point_of_interest", "establishment"]}, "ChIJHwJhLqcadkgRya8gpF_RgSY": {"geometry": {"location": {"lat": 51.5301884, "lng": -0.1857308}, "viewport": {"northeast": {"lat": 51.5314960802915, "lng": -0.184328969708498}, "southwest": {"lat": 51.52879811970851, "lng": -0.187026930291502}}}, "name": "Vale Antiques", "place_id": "ChIJHwJhLqcadkgRya8gpF_RgSY", "types": ["home_goods_store", "point_of_interest", "store", "establishment"], "rating": 4.6, "user_ratings_total": 5}, "ChIJt1i0CwcbdkgR6CRNOblYGt0": {"geometry": {"location": {"lat": 51.5300875, "lng": -0.1860667}, "viewport": {"northeast": {"lat": 51.5313765802915, "lng": -0.184646569708498}, "southwest": {"lat": 51.5286786197085, "lng": -0.187344530291502}}}, "name": "GAIL's Bakery Maida Vale", "place_id": "ChIJt1i0CwcbdkgR6CRNOblYGt0", "types": ["bakery", "meal_delivery", "cafe", "restaurant", "food", "point_of_interest", "store", "establishment"], "rating": 4.1, "user_ratings_total": 164}, "ChIJ5-2OLqcadkgRZSPqmPtSrqY": {"geometry": {"location": {"lat": 51.5302484, "lng": -0.1857068}, "viewport": {"northeast": {"lat": 51.53154078029149, "lng": -0.184285219708498}, "southwest": {"lat": 51.52884281970849, "lng": -0.186983180291502}}}, "name": "Soloman Best Choice Ltd", "place_id": "ChIJ5-2OLqcadkgRZSPqmPtSrqY", "types": ["supermarket", "grocery_or_supermarket", "food", "point_of_interest", "store", "establishment"], "rating": 4.8, "user_ratings_total": 44}, "ChIJg98jvHobdkgRwBD-EgRIy7Q": {"geometry": {"location": {"lat": 51.5302833, "lng": -0.1856423}, "viewport": {"northeast": {"lat": 51.53157218029149, "lng": -0.184221919708498}, "southwest": {"lat": 51.52887421970849, "lng": -0.186919880291502}}}, "name": "Post Office Travel Money", "place_id": "ChIJg98jvHobdkgRwBD-EgRIy7Q", "types": ["finance", "point_of_interest", "establishment"]}, "ChIJq6qmLqcadkgReqIgVRV9F-s": {"geometry": {"location": {"lat": 51.5302833, "lng": -0.1856423}, "viewport": {"northeast": {"lat": 51.53157218029149, "lng": -0.184221919708498}, "southwest": {"lat": 51.52887421970849, "lng": -0.186919880291502}}}, "name": "MoneyGram", "place_id": "ChIJq6qmLqcadkgReqIgVRV9F-s", "types": ["finance", "point_of_interest", "establishment"]}, "ChIJq6qmLqcadkgRYXmXITFOzJU": {"geometry": {"location": {"lat": 51.5302833, "lng": -0.1856423}, "viewport": {"northeast": {"lat": 51.53157218029149, "lng": -0.184221919708498}, "southwest": {"lat": 51.52887421970849, "lng": -0.186919880291502}}}, "name": "Elgin Avenue Post Office", "place_id": "ChIJq6qmLqcadkgRYXmXITFOzJU", "types": ["post_office", "finance", "point_of_interest", "establishment"], "rating": 5, "user_ratings_total": 6}, "ChIJJQNtLqcadkgRPZpBla9ux9g": {"geometry": {"location": {"lat": 51.5302807, "lng": -0.1856369}, "viewport": {"northeast": {"lat": 51.5315712302915, "lng": -0.184218469708498}, "southwest": {"lat": 51.5288732697085, "lng": -0.186916430291502}}}, "name": "Soloman's News", "place_id": "ChIJJQNtLqcadkgRPZpBla9ux9g", "types": ["post_office", "finance", "point_of_interest", "establishment"], "rating": 3.7, "user_ratings_total": 11}, "ChIJn9BXIG0bdkgRGNiayCgJKNY": {"geometry": {"location": {"lat": 51.5299251, "lng": -0.1860709}, "viewport": {"northeast": {"lat": 51.53127208029151, "lng": -0.184701969708498}, "southwest": {"lat": 51.52857411970851, "lng": -0.187399930291502}}}, "name": "Edward Builders", "place_id": "ChIJn9BXIG0bdkgRGNiayCgJKNY", "types": ["point_of_interest", "establishment"]}, "ChIJs7yxRs8bdkgR_oC_UQxaAzE": {"geometry": {"location": {"lat": 51.5301321, "lng": -0.1853449}, "viewport": {"northeast": {"lat": 51.53151433029149, "lng": -0.184035669708498}, "southwest": {"lat": 51.5288163697085, "lng": -0.186733630291502}}}, "name": "Property Accountant Maida Vale", "place_id": "ChIJs7yxRs8bdkgR_oC_UQxaAzE", "types": ["finance", "point_of_interest", "establishment"]}, "ChIJs6UlgqQbdkgRdbFQKaxaLow": {"geometry": {"location": {"lat": 51.5276782, "lng": -0.1859465}, "viewport": {"northeast": {"lat": 51.5289677802915, "lng": -0.184600969708498}, "southwest": {"lat": 51.5262698197085, "lng": -0.187298930291502}}}, "name": "Marie", "place_id": "ChIJs6UlgqQbdkgRdbFQKaxaLow", "types": ["point_of_interest", "establishment"]}, "ChIJa3AxsKAadkgRZcKyxT_Tbrs": {"geometry": {"location": {"lat": 51.5311347, "lng": -0.1873645}, "viewport": {"northeast": {"lat": 51.53246513029149, "lng": -0.186062469708498}, "southwest": {"lat": 51.5297671697085, "lng": -0.188760430291502}}}, "name": "ubitricity Charging Station", "place_id": "ChIJa3AxsKAadkgRZcKyxT_Tbrs", "types": ["point_of_interest", "establishment"]}, "ChIJjUUGZ6cadkgRt0qGbjeDKlg": {"geometry": {"location": {"lat": 51.52915015044881, "lng": -0.1876790510938123}, "viewport": {"northeast": {"lat": 51.5304991302915, "lng": -0.186330069708498}, "southwest": {"lat": 51.5278011697085, "lng": -0.189028030291502}}}, "name": "209-211 Elgin Ave", "place_id": "ChIJjUUGZ6cadkgRt0qGbjeDKlg", "types": ["route"]}, "ChIJr3rpX8AbdkgRO31MYiovi3Q": {"geometry": {"location": {"lat": 51.5289544, "lng": -0.1875923}, "viewport": {"northeast": {"lat": 51.5303785302915, "lng": -0.186334869708498}, "southwest": {"lat": 51.5276805697085, "lng": -0.189032830291502}}}, "name": "myhousevet", "place_id": "ChIJr3rpX8AbdkgRO31MYiovi3Q", "types": ["veterinary_care", "point_of_interest", "establishment"], "rating": 5, "user_ratings_total": 10}, "ChIJVz-UhKcadkgR3TvndrpLnkY": {"geometry": {"location": {"lat": 51.5276055510883, "lng": -0.1875652998516343}, "viewport": {"northeast": {"lat": 51.5289545302915, "lng": -0.186216319708498}, "southwest": {"lat": 51.52625656970851, "lng": -0.188914280291502}}}, "name": "Lauderdale Road", "place_id": "ChIJVz-UhKcadkgR3TvndrpLnkY", "types": ["route"]}, "ChIJv1xzhKcadkgR1eSMp5T5vxQ": {"geometry": {"location": {"lat": 51.527649, "lng": -0.187668}, "viewport": {"northeast": {"lat": 51.5289887302915, "lng": -0.186319669708498}, "southwest": {"lat": 51.5262907697085, "lng": -0.189017630291502}}}, "name": "Supernova IT Solutions Limited", "place_id": "ChIJv1xzhKcadkgR1eSMp5T5vxQ", "types": ["point_of_interest", "establishment"], "rating": 5, "user_ratings_total": 1}, "ChIJdQOng6cadkgRCIJiCDrNJg8": {"geometry": {"location": {"lat": 51.5277829, "lng": -0.1875919}, "viewport": {"northeast": {"lat": 51.52904373029149, "lng": -0.1862489197084979}, "southwest": {"lat": 51.5263457697085, "lng": -0.188946880291502}}}, "name": "Imaginative Book Illustration Society", "place_id": "ChIJdQOng6cadkgRCIJiCDrNJg8", "types": ["point_of_interest", "establishment"]}, "ChIJ_XXrd6cadkgRI1gVXrVXL1Q": {"geometry": {"location": {"lat": 51.528073, "lng": -0.187326}, "viewport": {"northeast": {"lat": 51.5294299302915, "lng": -0.185961569708498}, "southwest": {"lat": 51.52673196970851, "lng": -0.188659530291502}}}, "name": "Source London Charging Station", "place_id": "ChIJ_XXrd6cadkgRI1gVXrVXL1Q", "types": ["point_of_interest", "establishment"]}}}