{"E00023956": {"ChIJI5aOSTUbdkgRxcbHkiR7M3A": {"geometry": {"location": {"lat": 51.51540215000141, "lng": -0.1188683999898155}, "viewport": {"northeast": {"lat": 51.5167511302915, "lng": -0.117519419708498}, "southwest": {"lat": 51.5140531697085, "lng": -0.120217380291502}}}, "name": "28 A4200", "place_id": "ChIJI5aOSTUbdkgRxcbHkiR7M3A", "types": ["route"]}, "ChIJTc_HOjUbdkgR6LooBI9CGs4": {"geometry": {"location": {"lat": 51.515584, "lng": -0.1195585}, "viewport": {"northeast": {"lat": 51.5168873302915, "lng": -0.118178569708498}, "southwest": {"lat": 51.5141893697085, "lng": -0.1208765302915021}}}, "name": "Chayton Capital", "place_id": "ChIJTc_HOjUbdkgR6LooBI9CGs4", "types": ["point_of_interest", "establishment"]}, "ChIJGWkyLjUbdkgRypP2i5hqT98": {"geometry": {"location": {"lat": 51.5155285, "lng": -0.1198762}, "viewport": {"northeast": {"lat": 51.5168190802915, "lng": -0.118416619708498}, "southwest": {"lat": 51.5141211197085, "lng": -0.121114580291502}}}, "name": "Education Development Foundation", "place_id": "ChIJGWkyLjUbdkgRypP2i5hqT98", "types": ["point_of_interest", "establishment"]}, "ChIJ96jSYM4EdkgRksdaTspwDts": {"geometry": {"location": {"lat": 51.515635, "lng": -0.1194313}, "viewport": {"northeast": {"lat": 51.5170118802915, "lng": -0.117978119708498}, "southwest": {"lat": 51.5143139197085, "lng": -0.120676080291502}}}, "name": "Tapjoy Ltd", "place_id": "ChIJ96jSYM4EdkgRksdaTspwDts", "types": ["point_of_interest", "establishment"], "rating": 1.4, "user_ratings_total": 12}, "ChIJ2TSaMTUbdkgRc6Lq8IQ2m4Y": {"geometry": {"location": {"lat": 51.5153428, "lng": -0.119436}, "viewport": {"northeast": {"lat": 51.5167482802915, "lng": -0.117892019708498}, "southwest": {"lat": 51.5140503197085, "lng": -0.120589980291502}}}, "name": "Ambition School Leadership", "place_id": "ChIJ2TSaMTUbdkgRc6Lq8IQ2m4Y", "types": ["point_of_interest", "establishment"], "rating": 5, "user_ratings_total": 2}, "ChIJK4c_MTUbdkgRcPfPSpqb8XY": {"geometry": {"location": {"lat": 51.5153584, "lng": -0.1193644}, "viewport": {"northeast": {"lat": 51.5167560802915, "lng": -0.117855619708498}, "southwest": {"lat": 51.5140581197085, "lng": -0.120553580291502}}}, "name": "Ark Teacher Training", "place_id": "ChIJK4c_MTUbdkgRcPfPSpqb8XY", "types": ["point_of_interest", "establishment"]}, "ChIJK4c_MTUbdkgRo9c8iTTygD8": {"geometry": {"location": {"lat": 51.5153584, "lng": -0.1193644}, "viewport": {"northeast": {"lat": 51.5167560802915, "lng": -0.117855619708498}, "southwest": {"lat": 51.5140581197085, "lng": -0.120553580291502}}}, "name": "AboutHealthClubs.co.uk", "place_id": "ChIJK4c_MTUbdkgRo9c8iTTygD8", "types": ["point_of_interest", "establishment"]}, "ChIJ-ap0MDUbdkgReIQJ8X6mmHw": {"geometry": {"location": {"lat": 51.515584, "lng": -0.1195585}, "viewport": {"northeast": {"lat": 51.5169792302915, "lng": -0.118036769708498}, "southwest": {"lat": 51.5142812697085, "lng": -0.120734730291502}}}, "name": "Dementia Discovery Fund", "place_id": "ChIJ-ap0MDUbdkgReIQJ8X6mmHw", "types": ["finance", "point_of_interest", "establishment"]}, "ChIJqfedMzUbdkgRpGdC7oDg_QU": {"geometry": {"location": {"lat": 51.5154882, "lng": -0.1187494}, "viewport": {"northeast": {"lat": 51.51681568029149, "lng": -0.117475619708498}, "southwest": {"lat": 51.5141177197085, "lng": -0.120173580291502}}}, "name": "Holborn - Keeley St", "place_id": "ChIJqfedMzUbdkgRpGdC7oDg_QU", "types": ["car_rental", "point_of_interest", "establishment"]}, "ChIJ1zSaMTUbdkgRXYX3UQZ46O4": {"geometry": {"location": {"lat": 51.5154933, "lng": -0.1192998}, "viewport": {"northeast": {"lat": 51.5168239802915, "lng": -0.117843169708498}, "southwest": {"lat": 51.5141260197085, "lng": -0.120541130291502}}}, "name": "Eton Kingsway", "place_id": "ChIJ1zSaMTUbdkgRXYX3UQZ46O4", "types": ["point_of_interest", "clothing_store", "store", "establishment"], "rating": 4.4, "user_ratings_total": 19}, "ChIJ9TGvhEobdkgRyyzsUB1_8BU": {"geometry": {"location": {"lat": 51.5149283, "lng": -0.1188828}, "viewport": {"northeast": {"lat": 51.51630358029151, "lng": -0.117445919708498}, "southwest": {"lat": 51.51360561970851, "lng": -0.120143880291502}}}, "name": "CEPA", "place_id": "ChIJ9TGvhEobdkgRyyzsUB1_8BU", "types": ["point_of_interest", "establishment"], "rating": 2.7, "user_ratings_total": 3}, "ChIJTc_HOjUbdkgRdC2ajH7yGd4": {"geometry": {"location": {"lat": 51.515663, "lng": -0.119566}, "viewport": {"northeast": {"lat": 51.51705288029149, "lng": -0.118064169708498}, "southwest": {"lat": 51.5143549197085, "lng": -0.120762130291502}}}, "name": "SV Health Investors LLP and SV Health Managers LLP", "place_id": "ChIJTc_HOjUbdkgRdC2ajH7yGd4", "types": ["finance", "point_of_interest", "establishment"]}, "ChIJCxc4wc0adkgR7JF3vk7YYnA": {"geometry": {"location": {"lat": 51.51571680000001, "lng": -0.1194542}, "viewport": {"northeast": {"lat": 51.51708988029151, "lng": -0.118015219708498}, "southwest": {"lat": 51.51439191970851, "lng": -0.120713180291502}}}, "name": "Nexia International", "place_id": "ChIJCxc4wc0adkgR7JF3vk7YYnA", "types": ["accounting", "finance", "point_of_interest", "establishment"]}, "ChIJKYc_MTUbdkgRb-zSScBLFdQ": {"geometry": {"location": {"lat": 51.5153584, "lng": -0.1193645}, "viewport": {"northeast": {"lat": 51.5167560802915, "lng": -0.117855669708498}, "southwest": {"lat": 51.5140581197085, "lng": -0.120553630291502}}}, "name": "SOHO Coffee Co.", "place_id": "ChIJKYc_MTUbdkgRb-zSScBLFdQ", "types": ["cafe", "food", "point_of_interest", "store", "establishment"], "rating": 3.8, "user_ratings_total": 194}, "ChIJRQCcMTUbdkgRuQ77IGJl-Fk": {"geometry": {"location": {"lat": 51.5153367, "lng": -0.1194887}, "viewport": {"northeast": {"lat": 51.51674573029149, "lng": -0.117924169708498}, "southwest": {"lat": 51.51404776970849, "lng": -0.120622130291502}}}, "name": "Education Partnerships Group", "place_id": "ChIJRQCcMTUbdkgRuQ77IGJl-Fk", "types": ["point_of_interest", "establishment"]}, "ChIJKYc_MTUbdkgR5iVAmNWTK8g": {"geometry": {"location": {"lat": 51.5153367, "lng": -0.1194887}, "viewport": {"northeast": {"lat": 51.51674573029149, "lng": -0.117924169708498}, "southwest": {"lat": 51.51404776970849, "lng": -0.120622130291502}}}, "name": "Interpayment Services Ltd", "place_id": "ChIJKYc_MTUbdkgR5iVAmNWTK8g", "types": ["point_of_interest", "establishment"]}, "ChIJdcybMTUbdkgRnHmqGiYhS4g": {"geometry": {"location": {"lat": 51.51533329999999, "lng": -0.1194996}, "viewport": {"northeast": {"lat": 51.51674388029149, "lng": -0.117929519708498}, "southwest": {"lat": 51.51404591970849, "lng": -0.120627480291502}}}, "name": "Global Schools Forum", "place_id": "ChIJdcybMTUbdkgRnHmqGiYhS4g", "types": ["point_of_interest", "establishment"]}, "ChIJPWLpNjUbdkgRbRK7LdzETCY": {"geometry": {"location": {"lat": 51.51537889999999, "lng": -0.1191752}, "viewport": {"northeast": {"lat": 51.5167663302915, "lng": -0.117777269708498}, "southwest": {"lat": 51.5140683697085, "lng": -0.120475230291502}}}, "name": "Kingly", "place_id": "ChIJPWLpNjUbdkgRbRK7LdzETCY", "types": ["shopping_mall", "point_of_interest", "establishment"]}, "ChIJw2eNMzUbdkgROCug1D5515U": {"geometry": {"location": {"lat": 51.5151881, "lng": -0.1193251}, "viewport": {"northeast": {"lat": 51.5165405802915, "lng": -0.117978519708498}, "southwest": {"lat": 51.5138426197085, "lng": -0.120676480291502}}}, "name": "Zipcar", "place_id": "ChIJw2eNMzUbdkgROCug1D5515U", "types": ["car_rental", "point_of_interest", "establishment"]}, "ChIJofh6OjUbdkgRL81fI5qnRak": {"geometry": {"location": {"lat": 51.515635, "lng": -0.1194313}, "viewport": {"northeast": {"lat": 51.5170118802915, "lng": -0.117978119708498}, "southwest": {"lat": 51.5143139197085, "lng": -0.120676080291502}}}, "name": "Trex Bio Limited", "place_id": "ChIJofh6OjUbdkgRL81fI5qnRak", "types": ["point_of_interest", "establishment"]}, "ChIJofh6OjUbdkgReuDDZHM9Gbw": {"geometry": {"location": {"lat": 51.515635, "lng": -0.1194313}, "viewport": {"northeast": {"lat": 51.5170118802915, "lng": -0.117978119708498}, "southwest": {"lat": 51.5143139197085, "lng": -0.120676080291502}}}, "name": "Ervaxx", "place_id": "ChIJofh6OjUbdkgReuDDZHM9Gbw", "types": ["point_of_interest", "establishment"]}, "ChIJVVVFeDMbdkgRJmk7sv76BnQ": {"geometry": {"location": {"lat": 51.515635, "lng": -0.1194313}, "viewport": {"northeast": {"lat": 51.5170118802915, "lng": -0.117978119708498}, "southwest": {"lat": 51.5143139197085, "lng": -0.120676080291502}}}, "name": "Weatherden Ltd.", "place_id": "ChIJVVVFeDMbdkgRJmk7sv76BnQ", "types": ["point_of_interest", "establishment"], "rating": 5, "user_ratings_total": 1}, "ChIJofh6OjUbdkgRjgKlCzhIMNo": {"geometry": {"location": {"lat": 51.515635, "lng": -0.1194313}, "viewport": {"northeast": {"lat": 51.51698398029151, "lng": -0.118082319708498}, "southwest": {"lat": 51.51428601970851, "lng": -0.120780280291502}}}, "name": "VPS UK Ltd", "place_id": "ChIJofh6OjUbdkgRjgKlCzhIMNo", "types": ["point_of_interest", "establishment"]}, "ChIJabzm3zwbdkgRibUcVeZ-GZg": {"geometry": {"location": {"lat": 51.515635, "lng": -0.1194313}, "viewport": {"northeast": {"lat": 51.5170118802915, "lng": -0.117978119708498}, "southwest": {"lat": 51.5143139197085, "lng": -0.120676080291502}}}, "name": "KMI Brands Ltd", "place_id": "ChIJabzm3zwbdkgRibUcVeZ-GZg", "types": ["point_of_interest", "establishment"], "rating": 5, "user_ratings_total": 2}, "ChIJl_h6OjUbdkgRVd1SHNOHbGA": {"geometry": {"location": {"lat": 51.5156351, "lng": -0.1194312}, "viewport": {"northeast": {"lat": 51.51698408029149, "lng": -0.118082219708498}, "southwest": {"lat": 51.5142861197085, "lng": -0.120780180291502}}}, "name": "VPS Holdings Limited", "place_id": "ChIJl_h6OjUbdkgRVd1SHNOHbGA", "types": ["point_of_interest", "establishment"]}, "ChIJ_ZfTSTUbdkgRNV9IDCKFeuQ": {"geometry": {"location": {"lat": 51.51542749999999, "lng": -0.1188867}, "viewport": {"northeast": {"lat": 51.51677648029149, "lng": -0.117537719708498}, "southwest": {"lat": 51.5140785197085, "lng": -0.120235680291502}}}, "name": "EMEA Legal", "place_id": "ChIJ_ZfTSTUbdkgRNV9IDCKFeuQ", "types": ["point_of_interest", "establishment"]}, "ChIJpfHDSTUbdkgRS3KVRLTl1ms": {"geometry": {"location": {"lat": 51.5153768, "lng": -0.1188501}, "viewport": {"northeast": {"lat": 51.5167257802915, "lng": -0.117501119708498}, "southwest": {"lat": 51.5140278197085, "lng": -0.120199080291502}}}, "name": "NuGen Electrical Contractors Ltd", "place_id": "ChIJpfHDSTUbdkgRS3KVRLTl1ms", "types": ["point_of_interest", "establishment"]}, "ChIJMY7wSjUbdkgRDQYwJf-5WjI": {"geometry": {"location": {"lat": 51.5150848, "lng": -0.1189939}, "viewport": {"northeast": {"lat": 51.5164588302915, "lng": -0.117561019708498}, "southwest": {"lat": 51.51376086970851, "lng": -0.120258980291502}}}, "name": "Civil Aviation Authority", "place_id": "ChIJMY7wSjUbdkgRDQYwJf-5WjI", "types": ["point_of_interest", "establishment"]}, "ChIJpYKv3EMbdkgRkTjZbT-1wUg": {"geometry": {"location": {"lat": 51.5157854, "lng": -0.1195169}, "viewport": {"northeast": {"lat": 51.5171601802915, "lng": -0.118071469708498}, "southwest": {"lat": 51.5144622197085, "lng": -0.120769430291502}}}, "name": "Kingsway Rumble", "place_id": "ChIJpYKv3EMbdkgRkTjZbT-1wUg", "types": ["restaurant", "food", "point_of_interest", "establishment"], "rating": 5, "user_ratings_total": 8}, "ChIJXY4MSDUbdkgRwXs4ClMSx4g": {"geometry": {"location": {"lat": 51.5155927, "lng": -0.1187934}, "viewport": {"northeast": {"lat": 51.51694568029149, "lng": -0.117544519708498}, "southwest": {"lat": 51.5142477197085, "lng": -0.120242480291502}}}, "name": "Victory Hovse", "place_id": "ChIJXY4MSDUbdkgRwXs4ClMSx4g", "types": ["point_of_interest", "establishment"]}, "ChIJMY7wSjUbdkgRlVaS0TxGaI0": {"geometry": {"location": {"lat": 51.5150836, "lng": -0.1187798}, "viewport": {"northeast": {"lat": 51.5164185302915, "lng": -0.117476119708498}, "southwest": {"lat": 51.5137205697085, "lng": -0.120174080291502}}}, "name": "Air Safety Support International Limited", "place_id": "ChIJMY7wSjUbdkgRlVaS0TxGaI0", "types": ["point_of_interest", "establishment"]}, "ChIJ2aRnNzUbdkgRcX1CChKtszI": {"geometry": {"location": {"lat": 51.5153182, "lng": -0.1186408}, "viewport": {"northeast": {"lat": 51.5166477802915, "lng": -0.117361319708498}, "southwest": {"lat": 51.5139498197085, "lng": -0.120059280291502}}}, "name": "London Centre Of International Relations", "place_id": "ChIJ2aRnNzUbdkgRcX1CChKtszI", "types": ["university", "point_of_interest", "establishment"]}, "ChIJn4udjLEbdkgRf1ha7-xyQtQ": {"geometry": {"location": {"lat": 51.5158156, "lng": -0.1194932}, "viewport": {"northeast": {"lat": 51.5171835302915, "lng": -0.118066619708498}, "southwest": {"lat": 51.5144855697085, "lng": -0.120764580291502}}}, "name": "The Z Hotel Holborn", "place_id": "ChIJn4udjLEbdkgRf1ha7-xyQtQ", "types": ["lodging", "point_of_interest", "establishment"], "rating": 4.2, "user_ratings_total": 86}, "ChIJf7fTPbAbdkgRpTQsqzWXU9Y": {"geometry": {"location": {"lat": 51.5158247, "lng": -0.1194824}, "viewport": {"northeast": {"lat": 51.5171925302915, "lng": -0.118063019708498}, "southwest": {"lat": 51.5144945697085, "lng": -0.120760980291502}}}, "name": "London Vape House (Holborn)", "place_id": "ChIJf7fTPbAbdkgRpTQsqzWXU9Y", "types": ["point_of_interest", "store", "establishment"], "rating": 4.9, "user_ratings_total": 11}, "ChIJPzwVhg4bdkgRexOCSBx0AGw": {"geometry": {"location": {"lat": 51.5158446, "lng": -0.119134}, "viewport": {"northeast": {"lat": 51.5171952302915, "lng": -0.1177788197084979}, "southwest": {"lat": 51.5144972697085, "lng": -0.120476780291502}}}, "name": "Resume Examples", "place_id": "ChIJPzwVhg4bdkgRexOCSBx0AGw", "types": ["point_of_interest", "establishment"]}, "ChIJDVk4KDUbdkgRmiqwSvnEDQ8": {"geometry": {"location": {"lat": 51.5157756, "lng": -0.1188967}, "viewport": {"northeast": {"lat": 51.51709838029149, "lng": -0.117649919708498}, "southwest": {"lat": 51.5144004197085, "lng": -0.120347880291502}}}, "name": "Mu\u00e9velo", "place_id": "ChIJDVk4KDUbdkgRmiqwSvnEDQ8", "types": ["point_of_interest", "establishment"], "rating": 5, "user_ratings_total": 1}, "ChIJsfvrzsoEdkgRUC7Wam4XITo": {"geometry": {"location": {"lat": 51.51451299449737, "lng": -0.1194100198778348}, "viewport": {"northeast": {"lat": 51.5158667302915, "lng": -0.118061619708498}, "southwest": {"lat": 51.51316876970851, "lng": -0.120759580291502}}}, "name": "Wild Street", "place_id": "ChIJsfvrzsoEdkgRUC7Wam4XITo", "types": ["route"]}, "ChIJVVUVt8oEdkgRSgjLDkX2oTs": {"geometry": {"location": {"lat": 51.514373, "lng": -0.1186353}, "viewport": {"northeast": {"lat": 51.51575313029149, "lng": -0.117168019708498}, "southwest": {"lat": 51.51305516970849, "lng": -0.119865980291502}}}, "name": "Covent Garden Luxe", "place_id": "ChIJVVUVt8oEdkgRSgjLDkX2oTs", "types": ["lodging", "point_of_interest", "establishment"]}, "ChIJ_QMvzMoEdkgRnkZAf0tumRg": {"geometry": {"location": {"lat": 51.51464800000001, "lng": -0.1194275}, "viewport": {"northeast": {"lat": 51.5159419802915, "lng": -0.117996619708498}, "southwest": {"lat": 51.5132440197085, "lng": -0.120694580291502}}}, "name": "Medical Research Council", "place_id": "ChIJ_QMvzMoEdkgRnkZAf0tumRg", "types": ["point_of_interest", "establishment"], "rating": 5, "user_ratings_total": 4}, "ChIJTWX4K8sEdkgRo-lY_-8yeLk": {"geometry": {"location": {"lat": 51.5142203, "lng": -0.1201967}, "viewport": {"northeast": {"lat": 51.51553153029149, "lng": -0.118753019708498}, "southwest": {"lat": 51.51283356970849, "lng": -0.121450980291502}}}, "name": "Peabody Trust Estate", "place_id": "ChIJTWX4K8sEdkgRo-lY_-8yeLk", "types": ["point_of_interest", "establishment"], "rating": 3.6, "user_ratings_total": 17}, "ChIJF487qTQbdkgROOlw-Meign8": {"geometry": {"location": {"lat": 51.5143512, "lng": -0.1195749}, "viewport": {"northeast": {"lat": 51.5157837802915, "lng": -0.118214919708498}, "southwest": {"lat": 51.5130858197085, "lng": -0.120912880291502}}}, "name": "We Are Casting", "place_id": "ChIJF487qTQbdkgROOlw-Meign8", "types": ["point_of_interest", "establishment"]}, "ChIJ5fJQxsoEdkgRgQ_TCloQnJ0": {"geometry": {"location": {"lat": 51.51434800000001, "lng": -0.119089}, "viewport": {"northeast": {"lat": 51.5156314802915, "lng": -0.117804569708498}, "southwest": {"lat": 51.5129335197085, "lng": -0.120502530291502}}}, "name": "Paul Smith Ltd - Head Office", "place_id": "ChIJ5fJQxsoEdkgRgQ_TCloQnJ0", "types": ["point_of_interest", "clothing_store", "store", "establishment"], "rating": 4.9, "user_ratings_total": 10}, "ChIJ_QMvzMoEdkgRWhHYNn7Im9I": {"geometry": {"location": {"lat": 51.51464800000001, "lng": -0.1194275}, "viewport": {"northeast": {"lat": 51.5159419802915, "lng": -0.117996619708498}, "southwest": {"lat": 51.5132440197085, "lng": -0.120694580291502}}}, "name": "Channel Tunnel Intergovernmental Commission", "place_id": "ChIJ_QMvzMoEdkgRWhHYNn7Im9I", "types": ["point_of_interest", "establishment"], "rating": 4, "user_ratings_total": 1}, "ChIJ9WqktsoEdkgRfwcw0xSk0Pk": {"geometry": {"location": {"lat": 51.514554, "lng": -0.1188478}, "viewport": {"northeast": {"lat": 51.51595383029149, "lng": -0.117547919708498}, "southwest": {"lat": 51.51325586970849, "lng": -0.120245880291502}}}, "name": "I C Sa Blueprint Support Line", "place_id": "ChIJ9WqktsoEdkgRfwcw0xSk0Pk", "types": ["point_of_interest", "establishment"]}, "ChIJbxLtwMoEdkgRv5BTtE40Kfs": {"geometry": {"location": {"lat": 51.5138447, "lng": -0.1190089}, "viewport": {"northeast": {"lat": 51.5152350302915, "lng": -0.117685769708498}, "southwest": {"lat": 51.51253706970851, "lng": -0.120383730291502}}}, "name": "The Hummingbird Trust", "place_id": "ChIJbxLtwMoEdkgRv5BTtE40Kfs", "types": ["point_of_interest", "establishment"]}, "ChIJr_GCusoEdkgRV9XQWMZXfls": {"geometry": {"location": {"lat": 51.5141937, "lng": -0.1185975}, "viewport": {"northeast": {"lat": 51.51558308029151, "lng": -0.117094619708498}, "southwest": {"lat": 51.51288511970851, "lng": -0.119792580291502}}}, "name": "Cannes Lions", "place_id": "ChIJr_GCusoEdkgRV9XQWMZXfls", "types": ["point_of_interest", "establishment"], "rating": 5, "user_ratings_total": 2}, "ChIJK2xp6soEdkgRcz8DmgDRLlA": {"geometry": {"location": {"lat": 51.51391179999999, "lng": -0.1197301}, "viewport": {"northeast": {"lat": 51.5152863302915, "lng": -0.118434569708498}, "southwest": {"lat": 51.5125883697085, "lng": -0.121132530291502}}}, "name": "Centrepoint Bruce House Foyer", "place_id": "ChIJK2xp6soEdkgRcz8DmgDRLlA", "types": ["point_of_interest", "establishment"], "rating": 5, "user_ratings_total": 1}, "ChIJC1R_z8oEdkgRWCeWzqz-cdI": {"geometry": {"location": {"lat": 51.5143095, "lng": -0.1194604}, "viewport": {"northeast": {"lat": 51.51565848029149, "lng": -0.118111419708498}, "southwest": {"lat": 51.51296051970849, "lng": -0.120809380291502}}}, "name": "Street cafe", "place_id": "ChIJC1R_z8oEdkgRWCeWzqz-cdI", "types": ["cafe", "food", "point_of_interest", "establishment"]}, "ChIJC1R_z8oEdkgRkEYk_1jlTLo": {"geometry": {"location": {"lat": 51.5143095, "lng": -0.1194604}, "viewport": {"northeast": {"lat": 51.51565848029149, "lng": -0.118111419708498}, "southwest": {"lat": 51.51296051970849, "lng": -0.120809380291502}}}, "name": "Grafiqs", "place_id": "ChIJC1R_z8oEdkgRkEYk_1jlTLo", "types": ["point_of_interest", "establishment"]}, "ChIJE5nqjIgFdkgR_-F-GWCChR4": {"geometry": {"location": {"lat": 51.51409580000001, "lng": -0.1194711}, "viewport": {"northeast": {"lat": 51.5154767802915, "lng": -0.118198119708498}, "southwest": {"lat": 51.5127788197085, "lng": -0.120896080291502}}}, "name": "Bruce House Centre Peabody", "place_id": "ChIJE5nqjIgFdkgR_-F-GWCChR4", "types": ["point_of_interest", "establishment"], "rating": 4.6, "user_ratings_total": 7}, "ChIJg_w90MoEdkgRMzy_dfVt3Rg": {"geometry": {"location": {"lat": 51.514427, "lng": -0.1195917}, "viewport": {"northeast": {"lat": 51.5158223802915, "lng": -0.118236619708498}, "southwest": {"lat": 51.5131244197085, "lng": -0.120934580291502}}}, "name": "Jack London", "place_id": "ChIJg_w90MoEdkgRMzy_dfVt3Rg", "types": ["point_of_interest", "establishment"]}, "ChIJQdBBL64FdkgReiLeJwWSoPo": {"geometry": {"location": {"lat": 51.514321, "lng": -0.119923}, "viewport": {"northeast": {"lat": 51.5156826302915, "lng": -0.118567219708498}, "southwest": {"lat": 51.5129846697085, "lng": -0.121265180291502}}}, "name": "TRINITY COLLEGE", "place_id": "ChIJQdBBL64FdkgReiLeJwWSoPo", "types": ["school", "point_of_interest", "establishment"]}, "ChIJUV39ycoEdkgR-Zqunj_53ng": {"geometry": {"location": {"lat": 51.51458299999999, "lng": -0.1189146}, "viewport": {"northeast": {"lat": 51.51595813029149, "lng": -0.117599869708498}, "southwest": {"lat": 51.5132601697085, "lng": -0.120297830291502}}}, "name": "Waterman House", "place_id": "ChIJUV39ycoEdkgR-Zqunj_53ng", "types": ["point_of_interest", "establishment"]}, "ChIJw2HXVZ8FdkgRtqaFI8hB71g": {"geometry": {"location": {"lat": 51.5140237, "lng": -0.1188175}, "viewport": {"northeast": {"lat": 51.5153606302915, "lng": -0.117515269708498}, "southwest": {"lat": 51.5126626697085, "lng": -0.120213230291502}}}, "name": "Media And Entertainment Accountants London", "place_id": "ChIJw2HXVZ8FdkgRtqaFI8hB71g", "types": ["accounting", "finance", "point_of_interest", "establishment"]}, "ChIJCaATtsoEdkgR1DQNhhYLq4A": {"geometry": {"location": {"lat": 51.51456289999999, "lng": -0.1188314}, "viewport": {"northeast": {"lat": 51.51596193029149, "lng": -0.117502319708498}, "southwest": {"lat": 51.5132639697085, "lng": -0.120200280291502}}}, "name": "Boardpad", "place_id": "ChIJCaATtsoEdkgR1DQNhhYLq4A", "types": ["point_of_interest", "establishment"]}, "ChIJQw5Lv8oEdkgRpbfmfD3-I8U": {"geometry": {"location": {"lat": 51.513946, "lng": -0.1188591}, "viewport": {"northeast": {"lat": 51.5153044302915, "lng": -0.117477869708498}, "southwest": {"lat": 51.5126064697085, "lng": -0.120175830291502}}}, "name": "HVAC Solutions London", "place_id": "ChIJQw5Lv8oEdkgRpbfmfD3-I8U", "types": ["general_contractor", "point_of_interest", "establishment"]}, "ChIJfb006r8FdkgR0kX_TbiSINc": {"geometry": {"location": {"lat": 51.5147418, "lng": -0.1194177}, "viewport": {"northeast": {"lat": 51.5160097802915, "lng": -0.1179554697084979}, "southwest": {"lat": 51.5133118197085, "lng": -0.120653430291502}}}, "name": "Legal Services Board", "place_id": "ChIJfb006r8FdkgR0kX_TbiSINc", "types": ["point_of_interest", "establishment"]}, "ChIJTQX6TEYFdkgR-KecAAYrgg4": {"geometry": {"location": {"lat": 51.5138447, "lng": -0.1190089}, "viewport": {"northeast": {"lat": 51.5152350302915, "lng": -0.117685769708498}, "southwest": {"lat": 51.51253706970851, "lng": -0.120383730291502}}}, "name": "Bleacher Report", "place_id": "ChIJTQX6TEYFdkgR-KecAAYrgg4", "types": ["point_of_interest", "establishment"]}, "ChIJVwXxsMoEdkgRUsLS36mHUV8": {"geometry": {"location": {"lat": 51.5143431, "lng": -0.1186096}, "viewport": {"northeast": {"lat": 51.5157225302915, "lng": -0.117144569708498}, "southwest": {"lat": 51.5130245697085, "lng": -0.119842530291502}}}, "name": "Bts London Limited", "place_id": "ChIJVwXxsMoEdkgRUsLS36mHUV8", "types": ["point_of_interest", "establishment"]}, "ChIJU7FXt8oEdkgRuThJTEPHQUY": {"geometry": {"location": {"lat": 51.5142973, "lng": -0.1185791}, "viewport": {"northeast": {"lat": 51.5156768302915, "lng": -0.117113819708498}, "southwest": {"lat": 51.5129788697085, "lng": -0.119811780291502}}}, "name": "LIONS", "place_id": "ChIJU7FXt8oEdkgRuThJTEPHQUY", "types": ["point_of_interest", "establishment"]}, "ChIJqzk2wcoEdkgR2OfHO379tRE": {"geometry": {"location": {"lat": 51.5139206, "lng": -0.1192305}, "viewport": {"northeast": {"lat": 51.51528304809228, "lng": -0.1178306382590685}, "southwest": {"lat": 51.51258508750928, "lng": -0.1205285988420725}}}, "name": "Parking lot", "place_id": "ChIJqzk2wcoEdkgR2OfHO379tRE", "types": ["parking", "premise", "point_of_interest", "establishment"]}, "ChIJmY5F2MoEdkgRoh5YIC8H1dg": {"geometry": {"location": {"lat": 51.51409410000001, "lng": -0.1202532}, "viewport": {"northeast": {"lat": 51.51552899361893, "lng": -0.1188949839404972}, "southwest": {"lat": 51.51283103303593, "lng": -0.1215929445235012}}}, "name": "Parking lot", "place_id": "ChIJmY5F2MoEdkgRoh5YIC8H1dg", "types": ["parking", "premise", "point_of_interest", "establishment"]}, "ChIJx2pu6MoEdkgRPZe3tCAWIVo": {"geometry": {"location": {"lat": 51.51352452361784, "lng": -0.1195914627036739}, "viewport": {"northeast": {"lat": 51.51487433029149, "lng": -0.118241269708498}, "southwest": {"lat": 51.5121763697085, "lng": -0.120939230291502}}}, "name": "126-112 Drury Ln", "place_id": "ChIJx2pu6MoEdkgRPZe3tCAWIVo", "types": ["route"]}, "ChIJ-XJYk8oEdkgRAt77L8EWby4": {"geometry": {"location": {"lat": 51.51330300000001, "lng": -0.118854}, "viewport": {"northeast": {"lat": 51.5146337302915, "lng": -0.117438769708498}, "southwest": {"lat": 51.5119357697085, "lng": -0.120136730291502}}}, "name": "Aram Store", "place_id": "ChIJ-XJYk8oEdkgRAt77L8EWby4", "types": ["furniture_store", "home_goods_store", "point_of_interest", "store", "establishment"], "rating": 4.4, "user_ratings_total": 83}, "ChIJtVFJ6soEdkgRFa3NDt6VCiE": {"geometry": {"location": {"lat": 51.513462, "lng": -0.1192726}, "viewport": {"northeast": {"lat": 51.5147943802915, "lng": -0.117940069708498}, "southwest": {"lat": 51.5120964197085, "lng": -0.120638030291502}}}, "name": "St Clement Danes Church of England Primary School", "place_id": "ChIJtVFJ6soEdkgRFa3NDt6VCiE", "types": ["primary_school", "school", "point_of_interest", "establishment"], "rating": 4, "user_ratings_total": 5}, "ChIJ583OXTMbdkgRDJO1viAP2z0": {"geometry": {"location": {"lat": 51.51353049999999, "lng": -0.1192059}, "viewport": {"northeast": {"lat": 51.51482368029149, "lng": -0.117912219708498}, "southwest": {"lat": 51.5121257197085, "lng": -0.120610180291502}}}, "name": "Westminster Amalgamated Charity", "place_id": "ChIJ583OXTMbdkgRDJO1viAP2z0", "types": ["point_of_interest", "establishment"]}, "ChIJnSBNlcoEdkgRtcmUy6MwGGo": {"geometry": {"location": {"lat": 51.51358219999999, "lng": -0.1189027}, "viewport": {"northeast": {"lat": 51.51497283029151, "lng": -0.117391969708498}, "southwest": {"lat": 51.51227486970851, "lng": -0.120089930291502}}}, "name": "Big Energy Race", "place_id": "ChIJnSBNlcoEdkgRtcmUy6MwGGo", "types": ["point_of_interest", "establishment"]}, "ChIJFS5B58oEdkgR1VwLWtexbno": {"geometry": {"location": {"lat": 51.51356289999999, "lng": -0.1199392}, "viewport": {"northeast": {"lat": 51.51494633029149, "lng": -0.118556069708498}, "southwest": {"lat": 51.51224836970849, "lng": -0.121254030291502}}}, "name": "LW Theatres", "place_id": "ChIJFS5B58oEdkgR1VwLWtexbno", "types": ["point_of_interest", "establishment"], "rating": 4.2, "user_ratings_total": 24}, "ChIJ5f1b1tEFdkgRyGdLCpZ0y3k": {"geometry": {"location": {"lat": 51.5132047, "lng": -0.1194238}, "viewport": {"northeast": {"lat": 51.51453168029149, "lng": -0.118006719708498}, "southwest": {"lat": 51.51183371970849, "lng": -0.120704680291502}}}, "name": "Most Central Soho Apertment", "place_id": "ChIJ5f1b1tEFdkgRyGdLCpZ0y3k", "types": ["lodging", "point_of_interest", "establishment"]}, "ChIJL4hItaoFdkgR4N1xx6TiWmc": {"geometry": {"location": {"lat": 51.51317509999999, "lng": -0.1191524}, "viewport": {"northeast": {"lat": 51.51453973029149, "lng": -0.117851969708498}, "southwest": {"lat": 51.51184176970849, "lng": -0.120549930291502}}}, "name": "Aldwych", "place_id": "ChIJL4hItaoFdkgR4N1xx6TiWmc", "types": ["point_of_interest", "establishment"]}, "ChIJhfafSagFdkgRNJsBgX2S6yk": {"geometry": {"location": {"lat": 51.51302419999999, "lng": -0.11954}, "viewport": {"northeast": {"lat": 51.5143564802915, "lng": -0.118135369708498}, "southwest": {"lat": 51.5116585197085, "lng": -0.120833330291502}}}, "name": "antonioac7.com", "place_id": "ChIJhfafSagFdkgRNJsBgX2S6yk", "types": ["point_of_interest", "establishment"]}, "ChIJQ93hHh0FdkgRyQDKu_WMdAw": {"geometry": {"location": {"lat": 51.5133713, "lng": -0.1196623}, "viewport": {"northeast": {"lat": 51.5147856302915, "lng": -0.118248519708498}, "southwest": {"lat": 51.5120876697085, "lng": -0.120946480291502}}}, "name": "Towing Service Integrity", "place_id": "ChIJQ93hHh0FdkgRyQDKu_WMdAw", "types": ["point_of_interest", "establishment"], "rating": 5, "user_ratings_total": 1}, "ChIJcbJe6MoEdkgRdRwIHvbL_mo": {"geometry": {"location": {"lat": 51.51348650000001, "lng": -0.1195281}, "viewport": {"northeast": {"lat": 51.5148185802915, "lng": -0.118195869708498}, "southwest": {"lat": 51.5121206197085, "lng": -0.120893830291502}}}, "name": "Ready Dissertations", "place_id": "ChIJcbJe6MoEdkgRdRwIHvbL_mo", "types": ["point_of_interest", "establishment"]}, "ChIJU6xO41YFdkgRhrSqeMe-sXY": {"geometry": {"location": {"lat": 51.5130794, "lng": -0.1189351}, "viewport": {"northeast": {"lat": 51.5142773302915, "lng": -0.117310419708498}, "southwest": {"lat": 51.5115793697085, "lng": -0.1200083802915021}}}, "name": "Tina", "place_id": "ChIJU6xO41YFdkgRhrSqeMe-sXY", "types": ["point_of_interest", "establishment"], "rating": 4.7, "user_ratings_total": 58}, "ChIJgZpK-HMFdkgR5KT51EcYxTI": {"geometry": {"location": {"lat": 51.5129187, "lng": -0.1197033}, "viewport": {"northeast": {"lat": 51.5142410302915, "lng": -0.118265619708498}, "southwest": {"lat": 51.5115430697085, "lng": -0.120963580291502}}}, "name": "Stirling Court", "place_id": "ChIJgZpK-HMFdkgR5KT51EcYxTI", "types": ["point_of_interest", "establishment"], "rating": 5, "user_ratings_total": 1}, "ChIJh9K6lMoEdkgRpOyvo8bSD_4": {"geometry": {"location": {"lat": 51.5133467, "lng": -0.1188518}, "viewport": {"northeast": {"lat": 51.5146556802915, "lng": -0.117558119708498}, "southwest": {"lat": 51.5119577197085, "lng": -0.120256080291502}}}, "name": "TOLARK", "place_id": "ChIJh9K6lMoEdkgRpOyvo8bSD_4", "types": ["point_of_interest", "establishment"]}, "ChIJgRM2_SQbdkgRz-G64Jtz-FQ": {"geometry": {"location": {"lat": 51.5135769, "lng": -0.1195304}, "viewport": {"northeast": {"lat": 51.5148984302915, "lng": -0.118208619708498}, "southwest": {"lat": 51.5122004697085, "lng": -0.120906580291502}}}, "name": "Hi to London Overseas Student Services", "place_id": "ChIJgRM2_SQbdkgRz-G64Jtz-FQ", "types": ["point_of_interest", "establishment"]}, "ChIJH5zFqaQFdkgR00mITVeUJJE": {"geometry": {"location": {"lat": 51.51351769999999, "lng": -0.119752}, "viewport": {"northeast": {"lat": 51.5148894802915, "lng": -0.118380419708498}, "southwest": {"lat": 51.5121915197085, "lng": -0.121078380291502}}}, "name": "Covent Garden Paving & Driveways", "place_id": "ChIJH5zFqaQFdkgR00mITVeUJJE", "types": ["general_contractor", "point_of_interest", "establishment"]}, "ChIJqxTU1d4FdkgRH416VlEv9fQ": {"geometry": {"location": {"lat": 51.5136072, "lng": -0.1194656}, "viewport": {"northeast": {"lat": 51.51490873029149, "lng": -0.118163669708498}, "southwest": {"lat": 51.5122107697085, "lng": -0.120861630291502}}}, "name": "Kwebblekop the king", "place_id": "ChIJqxTU1d4FdkgRH416VlEv9fQ", "types": ["gym", "health", "point_of_interest", "establishment"]}, "ChIJcbrA48oEdkgRYUMlE5K3k6E": {"geometry": {"location": {"lat": 51.51322500000001, "lng": -0.1201202}, "viewport": {"northeast": {"lat": 51.5145739802915, "lng": -0.118771219708498}, "southwest": {"lat": 51.51187601970851, "lng": -0.121469180291502}}}, "name": "ENG.PETERSON CONSTRUCTION/PRODUCTION FIRM", "place_id": "ChIJcbrA48oEdkgRYUMlE5K3k6E", "types": ["general_contractor", "point_of_interest", "establishment"]}, "ChIJH7SOzjQbdkgRTUZbMpzjcbU": {"geometry": {"location": {"lat": 51.5153489000126, "lng": -0.1213018500441098}, "viewport": {"northeast": {"lat": 51.5166978802915, "lng": -0.119952869708498}, "southwest": {"lat": 51.5139999197085, "lng": -0.122650830291502}}}, "name": "60 B402", "place_id": "ChIJH7SOzjQbdkgRTUZbMpzjcbU", "types": ["route"]}, "ChIJZ4MM0TQbdkgRWOac4RsNLPs": {"geometry": {"location": {"lat": 51.51499999999999, "lng": -0.1211111}, "viewport": {"northeast": {"lat": 51.51644883029149, "lng": -0.119963769708498}, "southwest": {"lat": 51.5137508697085, "lng": -0.122661730291502}}}, "name": "Freemasons Hall", "place_id": "ChIJZ4MM0TQbdkgRWOac4RsNLPs", "types": ["point_of_interest", "establishment"], "rating": 4.7, "user_ratings_total": 760}, "ChIJhQ9d1zQbdkgROua8iUNLDC0": {"geometry": {"location": {"lat": 51.51560019999999, "lng": -0.1205387}, "viewport": {"northeast": {"lat": 51.51702668029149, "lng": -0.119278519708498}, "southwest": {"lat": 51.5143287197085, "lng": -0.121976480291502}}}, "name": "De Vere Grand Connaught Rooms", "place_id": "ChIJhQ9d1zQbdkgROua8iUNLDC0", "types": ["point_of_interest", "establishment"], "rating": 4.1, "user_ratings_total": 1348}, "ChIJd6Wa2DQbdkgR1kza4rSNkUk": {"geometry": {"location": {"lat": 51.515668, "lng": -0.1205362}, "viewport": {"northeast": {"lat": 51.5170389802915, "lng": -0.119310169708498}, "southwest": {"lat": 51.5143410197085, "lng": -0.122008130291502}}}, "name": "Sway Bar", "place_id": "ChIJd6Wa2DQbdkgR1kza4rSNkUk", "types": ["bar", "restaurant", "food", "point_of_interest", "establishment"], "rating": 3.7, "user_ratings_total": 1300}, "ChIJGyCJzTQbdkgR6CCaacKAvGQ": {"geometry": {"location": {"lat": 51.5150276, "lng": -0.1210267}, "viewport": {"northeast": {"lat": 51.5164927802915, "lng": -0.119880819708498}, "southwest": {"lat": 51.5137948197085, "lng": -0.122578780291502}}}, "name": "Museum of Freemasonry", "place_id": "ChIJGyCJzTQbdkgR6CCaacKAvGQ", "types": ["museum", "library", "tourist_attraction", "point_of_interest", "establishment"], "rating": 4.5, "user_ratings_total": 62}, "ChIJgQYssTQbdkgRl4q4KgrJbFU": {"geometry": {"location": {"lat": 51.5156194, "lng": -0.1217856}, "viewport": {"northeast": {"lat": 51.5169067302915, "lng": -0.120437069708498}, "southwest": {"lat": 51.5142087697085, "lng": -0.123135030291502}}}, "name": "NCP London Covent Garden", "place_id": "ChIJgQYssTQbdkgRl4q4KgrJbFU", "types": ["parking", "point_of_interest", "establishment"], "rating": 3.2, "user_ratings_total": 73}, "ChIJp0FRyjQbdkgRNmvCit2Bwgk": {"geometry": {"location": {"lat": 51.515159, "lng": -0.1217448}, "viewport": {"northeast": {"lat": 51.51650798029151, "lng": -0.120395819708498}, "southwest": {"lat": 51.51381001970851, "lng": -0.123093780291502}}}, "name": "Stephen Jones Millinery", "place_id": "ChIJp0FRyjQbdkgRNmvCit2Bwgk", "types": ["point_of_interest", "clothing_store", "store", "establishment"], "rating": 5, "user_ratings_total": 3}, "ChIJZ4MM0TQbdkgRQM7goNcPWIs": {"geometry": {"location": {"lat": 51.5150561, "lng": -0.121158}, "viewport": {"northeast": {"lat": 51.51648693029149, "lng": -0.119974319708498}, "southwest": {"lat": 51.51378896970849, "lng": -0.122672280291502}}}, "name": "JOIN FREEMASONRY", "place_id": "ChIJZ4MM0TQbdkgRQM7goNcPWIs", "types": ["point_of_interest", "establishment"], "rating": 5, "user_ratings_total": 6}, "ChIJ6aua3jQbdkgR-DDDnrsbmGg": {"geometry": {"location": {"lat": 51.515814, "lng": -0.1208741}, "viewport": {"northeast": {"lat": 51.5171245302915, "lng": -0.119459969708498}, "southwest": {"lat": 51.5144265697085, "lng": -0.122157930291502}}}, "name": "The Hercules Pillars", "place_id": "ChIJ6aua3jQbdkgR-DDDnrsbmGg", "types": ["bar", "restaurant", "food", "point_of_interest", "establishment"], "rating": 4, "user_ratings_total": 629}, "ChIJGyCJzTQbdkgRZ9j_rRfkMQQ": {"geometry": {"location": {"lat": 51.51516059999999, "lng": -0.1208723}, "viewport": {"northeast": {"lat": 51.5166192302915, "lng": -0.119715219708498}, "southwest": {"lat": 51.5139212697085, "lng": -0.122413180291502}}}, "name": "The Freemasons Grand Charity", "place_id": "ChIJGyCJzTQbdkgRZ9j_rRfkMQQ", "types": ["point_of_interest", "establishment"], "rating": 4.5, "user_ratings_total": 8}, "ChIJLTTEyjQbdkgRiZddWD62TgE": {"geometry": {"location": {"lat": 51.5150276, "lng": -0.1210267}, "viewport": {"northeast": {"lat": 51.5164927802915, "lng": -0.119880819708498}, "southwest": {"lat": 51.5137948197085, "lng": -0.122578780291502}}}, "name": "The Royal Masonic Benevolent Institution Care Company", "place_id": "ChIJLTTEyjQbdkgRiZddWD62TgE", "types": ["point_of_interest", "establishment"], "rating": 3.7, "user_ratings_total": 7}, "ChIJ8WuTxTQbdkgRKnbAPpiM99o": {"geometry": {"location": {"lat": 51.51560480000001, "lng": -0.1212843}, "viewport": {"northeast": {"lat": 51.51690258029151, "lng": -0.119837819708498}, "southwest": {"lat": 51.51420461970851, "lng": -0.122535780291502}}}, "name": "LEES Accountants inc. Shaw Walker LEES", "place_id": "ChIJ8WuTxTQbdkgRKnbAPpiM99o", "types": ["accounting", "finance", "point_of_interest", "establishment"]}, "ChIJ78Nn0hIOdkgRPA9uxfs8b3E": {"geometry": {"location": {"lat": 51.51537260000001, "lng": -0.1215218}, "viewport": {"northeast": {"lat": 51.5166820802915, "lng": -0.120103619708498}, "southwest": {"lat": 51.5139841197085, "lng": -0.122801580291502}}}, "name": "FCB Health London", "place_id": "ChIJ78Nn0hIOdkgRPA9uxfs8b3E", "types": ["point_of_interest", "establishment"], "rating": 5, "user_ratings_total": 2}, "ChIJgWDw2bIcdkgRKVoLvQjRe9o": {"geometry": {"location": {"lat": 51.5155799, "lng": -0.1212759}, "viewport": {"northeast": {"lat": 51.5169288802915, "lng": -0.119926919708498}, "southwest": {"lat": 51.5142309197085, "lng": -0.122624880291502}}}, "name": "LEES Accountants", "place_id": "ChIJgWDw2bIcdkgRKVoLvQjRe9o", "types": ["accounting", "finance", "point_of_interest", "establishment"], "rating": 5, "user_ratings_total": 2}, "ChIJRUH-zjQbdkgRlrGl00B_QEc": {"geometry": {"location": {"lat": 51.5154325, "lng": -0.1213805}, "viewport": {"northeast": {"lat": 51.51674818029149, "lng": -0.119979669708498}, "southwest": {"lat": 51.5140502197085, "lng": -0.122677630291502}}}, "name": "Bloomsbury Flowers", "place_id": "ChIJRUH-zjQbdkgRlrGl00B_QEc", "types": ["florist", "point_of_interest", "store", "establishment"], "rating": 4.2, "user_ratings_total": 32}, "ChIJb5Ko2jQbdkgRHVf5l0zhiaA": {"geometry": {"location": {"lat": 51.5156505, "lng": -0.121148}, "viewport": {"northeast": {"lat": 51.5169571802915, "lng": -0.1197265697084979}, "southwest": {"lat": 51.5142592197085, "lng": -0.122424530291502}}}, "name": "b-focused ltd", "place_id": "ChIJb5Ko2jQbdkgRHVf5l0zhiaA", "types": ["point_of_interest", "establishment"]}, "ChIJOU4Zd9QEdkgRh3qffy7S0D4": {"geometry": {"location": {"lat": 51.5156505, "lng": -0.121148}, "viewport": {"northeast": {"lat": 51.5169571802915, "lng": -0.1197265697084979}, "southwest": {"lat": 51.5142592197085, "lng": -0.122424530291502}}}, "name": "Maltin PR", "place_id": "ChIJOU4Zd9QEdkgRh3qffy7S0D4", "types": ["point_of_interest", "establishment"]}, "ChIJ0xIKzjQbdkgRVHUnn06y8Fk": {"geometry": {"location": {"lat": 51.5152769, "lng": -0.1211942}, "viewport": {"northeast": {"lat": 51.5166590302915, "lng": -0.119903219708498}, "southwest": {"lat": 51.5139610697085, "lng": -0.122601180291502}}}, "name": "Letchworth's", "place_id": "ChIJ0xIKzjQbdkgRVHUnn06y8Fk", "types": ["book_store", "home_goods_store", "point_of_interest", "store", "establishment"], "rating": 4.6, "user_ratings_total": 45}, "ChIJEYEKzjQbdkgRm6uDP8M-KGU": {"geometry": {"location": {"lat": 51.515275, "lng": -0.121201}, "viewport": {"northeast": {"lat": 51.51664978029149, "lng": -0.119918919708498}, "southwest": {"lat": 51.5139518197085, "lng": -0.122616880291502}}}, "name": "United Grand Lodge of England", "place_id": "ChIJEYEKzjQbdkgRm6uDP8M-KGU", "types": ["point_of_interest", "establishment"], "rating": 4.8, "user_ratings_total": 380}, "ChIJZRda0jQbdkgR6v9CIZauYAE": {"geometry": {"location": {"lat": 51.515133, "lng": -0.120986}, "viewport": {"northeast": {"lat": 51.5165803302915, "lng": -0.119809119708498}, "southwest": {"lat": 51.5138823697085, "lng": -0.122507080291502}}}, "name": "The Lodge of Equity 3692", "place_id": "ChIJZRda0jQbdkgR6v9CIZauYAE", "types": ["point_of_interest", "establishment"]}, "ChIJeyKEzzQbdkgRCWjX5Xa-zLg": {"geometry": {"location": {"lat": 51.5155799, "lng": -0.1212759}, "viewport": {"northeast": {"lat": 51.51688413029149, "lng": -0.119841719708498}, "southwest": {"lat": 51.51418616970849, "lng": -0.122539680291502}}}, "name": "Lifelites", "place_id": "ChIJeyKEzzQbdkgRCWjX5Xa-zLg", "types": ["point_of_interest", "establishment"], "rating": 5, "user_ratings_total": 1}, "ChIJp7dKzjQbdkgR7R7cej5UPU4": {"geometry": {"location": {"lat": 51.5155799, "lng": -0.1212758}, "viewport": {"northeast": {"lat": 51.51688413029149, "lng": -0.119841669708498}, "southwest": {"lat": 51.51418616970849, "lng": -0.122539630291502}}}, "name": "Analytical Consulting", "place_id": "ChIJp7dKzjQbdkgR7R7cej5UPU4", "types": ["point_of_interest", "establishment"]}, "ChIJ957OzTQbdkgRtblr5pEW_bw": {"geometry": {"location": {"lat": 51.5150977, "lng": -0.1208646}, "viewport": {"northeast": {"lat": 51.5165719302915, "lng": -0.1197347697084979}, "southwest": {"lat": 51.5138739697085, "lng": -0.122432730291502}}}, "name": "The Masonic Charitable Foundation", "place_id": "ChIJ957OzTQbdkgRtblr5pEW_bw", "types": ["point_of_interest", "establishment"], "rating": 4.8, "user_ratings_total": 8}, "ChIJgblatTQbdkgRmkRcYSgoVO8": {"geometry": {"location": {"lat": 51.515256, "lng": -0.1216019}, "viewport": {"northeast": {"lat": 51.5165807802915, "lng": -0.120204069708498}, "southwest": {"lat": 51.5138828197085, "lng": -0.122902030291502}}}, "name": "Ted's Grooming Room", "place_id": "ChIJgblatTQbdkgRmkRcYSgoVO8", "types": ["hair_care", "health", "point_of_interest", "establishment"], "rating": 4.5, "user_ratings_total": 240}, "ChIJiQF_yTQbdkgRQmqIK5l4P7E": {"geometry": {"location": {"lat": 51.515239, "lng": -0.1216159}, "viewport": {"northeast": {"lat": 51.5165879802915, "lng": -0.120266919708498}, "southwest": {"lat": 51.5138900197085, "lng": -0.122964880291502}}}, "name": "The Black Penny Covent Garden", "place_id": "ChIJiQF_yTQbdkgRQmqIK5l4P7E", "types": ["cafe", "food", "point_of_interest", "store", "establishment"], "rating": 4.3, "user_ratings_total": 703}, "ChIJAzBizjQbdkgR4P8PCJ-A2VE": {"geometry": {"location": {"lat": 51.51501519999999, "lng": -0.1210856}, "viewport": {"northeast": {"lat": 51.51646493029149, "lng": -0.119940119708498}, "southwest": {"lat": 51.51376696970849, "lng": -0.122638080291502}}}, "name": "Covent Garden Speakers Toastmasters Club", "place_id": "ChIJAzBizjQbdkgR4P8PCJ-A2VE", "types": ["point_of_interest", "establishment"], "rating": 5, "user_ratings_total": 1}, "ChIJCaNfvkIFdkgR5sNMXmk-SF0": {"geometry": {"location": {"lat": 51.5156255, "lng": -0.1215939}, "viewport": {"northeast": {"lat": 51.5170103302915, "lng": -0.120318619708498}, "southwest": {"lat": 51.5143123697085, "lng": -0.123016580291502}}}, "name": "The Storytellers", "place_id": "ChIJCaNfvkIFdkgR5sNMXmk-SF0", "types": ["point_of_interest", "establishment"], "rating": 5, "user_ratings_total": 2}, "ChIJyzHZ3QEQdkgRWoAHWPvrOLc": {"geometry": {"location": {"lat": 51.5156757, "lng": -0.1214884}, "viewport": {"northeast": {"lat": 51.5169274302915, "lng": -0.119954269708498}, "southwest": {"lat": 51.5142294697085, "lng": -0.122652230291502}}}, "name": "TurnbullRipley", "place_id": "ChIJyzHZ3QEQdkgRWoAHWPvrOLc", "types": ["point_of_interest", "establishment"], "rating": 5, "user_ratings_total": 2}, "ChIJMZEuyjQbdkgRuvgWlWkcb24": {"geometry": {"location": {"lat": 51.5152462, "lng": -0.1216975}, "viewport": {"northeast": {"lat": 51.5165951802915, "lng": -0.120348519708498}, "southwest": {"lat": 51.5138972197085, "lng": -0.123046480291502}}}, "name": "Fork & Blade Group Ltd.", "place_id": "ChIJMZEuyjQbdkgRuvgWlWkcb24", "types": ["finance", "point_of_interest", "establishment"], "rating": 5, "user_ratings_total": 1}, "ChIJMZEuyjQbdkgRVEaKW08sTpY": {"geometry": {"location": {"lat": 51.5152462, "lng": -0.1216975}, "viewport": {"northeast": {"lat": 51.5165583802915, "lng": -0.120274219708498}, "southwest": {"lat": 51.5138604197085, "lng": -0.122972180291502}}}, "name": "NYO Chartered Accountants", "place_id": "ChIJMZEuyjQbdkgRVEaKW08sTpY", "types": ["accounting", "finance", "point_of_interest", "establishment"]}, "ChIJAQDcxTQbdkgR9EgGfBOXmhA": {"geometry": {"location": {"lat": 51.51567590000001, "lng": -0.12135}, "viewport": {"northeast": {"lat": 51.5169487802915, "lng": -0.119856169708498}, "southwest": {"lat": 51.5142508197085, "lng": -0.122554130291502}}}, "name": "LEES GRANT AUDIT SPECIALISTS", "place_id": "ChIJAQDcxTQbdkgR9EgGfBOXmhA", "types": ["accounting", "finance", "point_of_interest", "establishment"]}, "ChIJdSNGyjQbdkgR9dD1o283w70": {"geometry": {"location": {"lat": 51.515192, "lng": -0.121702}, "viewport": {"northeast": {"lat": 51.5165137802915, "lng": -0.120298869708498}, "southwest": {"lat": 51.5138158197085, "lng": -0.122996830291502}}}, "name": "Shoryu Ramen Covent Garden", "place_id": "ChIJdSNGyjQbdkgR9dD1o283w70", "types": ["restaurant", "food", "point_of_interest", "establishment"], "rating": 4.3, "user_ratings_total": 847}, "ChIJVVXixTQbdkgRsTSGfSMQ3CM": {"geometry": {"location": {"lat": 51.51565300000001, "lng": -0.121477}, "viewport": {"northeast": {"lat": 51.5169111802915, "lng": -0.119955169708498}, "southwest": {"lat": 51.5142132197085, "lng": -0.122653130291502}}}, "name": "Vantastic Removals", "place_id": "ChIJVVXixTQbdkgRsTSGfSMQ3CM", "types": ["moving_company", "point_of_interest", "establishment"], "rating": 5, "user_ratings_total": 1}, "ChIJAQDcxTQbdkgRaHkTNOkonCk": {"geometry": {"location": {"lat": 51.5157047, "lng": -0.121466}, "viewport": {"northeast": {"lat": 51.51695383029151, "lng": -0.119926919708498}, "southwest": {"lat": 51.51425586970851, "lng": -0.1226248802915021}}}, "name": "Marble Arch Research", "place_id": "ChIJAQDcxTQbdkgRaHkTNOkonCk", "types": ["point_of_interest", "establishment"]}, "ChIJS91OsjQbdkgRluOC3-MD2tk": {"geometry": {"location": {"lat": 51.51556069999999, "lng": -0.1217181}, "viewport": {"northeast": {"lat": 51.5169390802915, "lng": -0.120429569708498}, "southwest": {"lat": 51.5142411197085, "lng": -0.123127530291502}}}, "name": "Zipcar UK - Parker St", "place_id": "ChIJS91OsjQbdkgRluOC3-MD2tk", "types": ["point_of_interest", "establishment"]}, "ChIJUyjro80EdkgReZyUTT6ae2A": {"geometry": {"location": {"lat": 51.5156652, "lng": -0.1216489}, "viewport": {"northeast": {"lat": 51.5170342302915, "lng": -0.1203410697084979}, "southwest": {"lat": 51.5143362697085, "lng": -0.123039030291502}}}, "name": "White Label UK", "place_id": "ChIJUyjro80EdkgReZyUTT6ae2A", "types": ["point_of_interest", "establishment"], "rating": 4.7, "user_ratings_total": 3}, "ChIJp0FRyjQbdkgRvlGGygsWehs": {"geometry": {"location": {"lat": 51.5151917, "lng": -0.1218666}, "viewport": {"northeast": {"lat": 51.51649113029149, "lng": -0.120409919708498}, "southwest": {"lat": 51.51379316970849, "lng": -0.123107880291502}}}, "name": "The Corner Shop Public Relations Ltd", "place_id": "ChIJp0FRyjQbdkgRvlGGygsWehs", "types": ["point_of_interest", "establishment"]}, "ChIJI90DzzQbdkgRtk_hVJQaoWo": {"geometry": {"location": {"lat": 51.51548200000001, "lng": -0.12137}, "viewport": {"northeast": {"lat": 51.51678923029151, "lng": -0.119951069708498}, "southwest": {"lat": 51.51409126970852, "lng": -0.122649030291502}}}, "name": "Charles Worthington", "place_id": "ChIJI90DzzQbdkgRtk_hVJQaoWo", "types": ["beauty_salon", "hair_care", "health", "point_of_interest", "establishment"], "rating": 4.5, "user_ratings_total": 42}, "ChIJR7yZgkcDdkgREtkWTcO0A3o": {"geometry": {"location": {"lat": 51.515645, "lng": -0.120532}, "viewport": {"northeast": {"lat": 51.5170486802915, "lng": -0.119275719708498}, "southwest": {"lat": 51.5143507197085, "lng": -0.121973680291502}}}, "name": "Banking Horizon", "place_id": "ChIJR7yZgkcDdkgREtkWTcO0A3o", "types": ["point_of_interest", "establishment"]}, "ChIJxSZ42TQbdkgR0KTksDfxnzU": {"geometry": {"location": {"lat": 51.5157737, "lng": -0.1207093}, "viewport": {"northeast": {"lat": 51.5171377302915, "lng": -0.119385819708498}, "southwest": {"lat": 51.5144397697085, "lng": -0.122083780291502}}}, "name": "The Gifted Academy", "place_id": "ChIJxSZ42TQbdkgR0KTksDfxnzU", "types": ["point_of_interest", "establishment"]}, "ChIJdS6btTQbdkgRHYBV6CbAQYQ": {"geometry": {"location": {"lat": 51.5150619, "lng": -0.1218752}, "viewport": {"northeast": {"lat": 51.5163854802915, "lng": -0.120461519708498}, "southwest": {"lat": 51.5136875197085, "lng": -0.123159480291502}}}, "name": "Walker Slater Ladieswear", "place_id": "ChIJdS6btTQbdkgRHYBV6CbAQYQ", "types": ["point_of_interest", "clothing_store", "store", "establishment"], "rating": 4.6, "user_ratings_total": 89}, "ChIJdXX2yjQbdkgR37ajAGi2QmU": {"geometry": {"location": {"lat": 51.5151096, "lng": -0.1218095}, "viewport": {"northeast": {"lat": 51.5164320302915, "lng": -0.120402819708498}, "southwest": {"lat": 51.5137340697085, "lng": -0.123100780291502}}}, "name": "Bhatti", "place_id": "ChIJdXX2yjQbdkgR37ajAGi2QmU", "types": ["restaurant", "food", "point_of_interest", "establishment"], "rating": 3.4, "user_ratings_total": 199}, "ChIJ89R6tTQbdkgRQbfEZBQO2eI": {"geometry": {"location": {"lat": 51.5150683, "lng": -0.1218892}, "viewport": {"northeast": {"lat": 51.5163883302915, "lng": -0.120468919708498}, "southwest": {"lat": 51.51369036970851, "lng": -0.123166880291502}}}, "name": "Industrial Clairvoyants Ltd", "place_id": "ChIJ89R6tTQbdkgRQbfEZBQO2eI", "types": ["point_of_interest", "establishment"]}, "ChIJGyCJzTQbdkgRjcr93BNzNOo": {"geometry": {"location": {"lat": 51.5151611, "lng": -0.1211366}, "viewport": {"northeast": {"lat": 51.51657858029149, "lng": -0.119907719708498}, "southwest": {"lat": 51.5138806197085, "lng": -0.122605680291502}}}, "name": "Royal Masonic Trust for Girls and Boys", "place_id": "ChIJGyCJzTQbdkgRjcr93BNzNOo", "types": ["point_of_interest", "establishment"], "rating": 5, "user_ratings_total": 5}, "ChIJRUH-zjQbdkgRziKxeYWu_z0": {"geometry": {"location": {"lat": 51.5154443, "lng": -0.1213985}, "viewport": {"northeast": {"lat": 51.51675648029151, "lng": -0.119985119708498}, "southwest": {"lat": 51.51405851970851, "lng": -0.122683080291502}}}, "name": "Breakfast Of Champions", "place_id": "ChIJRUH-zjQbdkgRziKxeYWu_z0", "types": ["point_of_interest", "establishment"]}, "ChIJ8WuTxTQbdkgREMy45uheHhc": {"geometry": {"location": {"lat": 51.5155799, "lng": -0.1212759}, "viewport": {"northeast": {"lat": 51.51688413029149, "lng": -0.119841719708498}, "southwest": {"lat": 51.51418616970849, "lng": -0.122539680291502}}}, "name": "Brimelow McSweeney", "place_id": "ChIJ8WuTxTQbdkgREMy45uheHhc", "types": ["point_of_interest", "establishment"], "rating": 5, "user_ratings_total": 1}, "ChIJeROhzjQbdkgRAkJxefv0z6c": {"geometry": {"location": {"lat": 51.5154028, "lng": -0.1214833}, "viewport": {"northeast": {"lat": 51.5167113302915, "lng": -0.120063519708498}, "southwest": {"lat": 51.5140133697085, "lng": -0.122761480291502}}}, "name": "FCB Inferno", "place_id": "ChIJeROhzjQbdkgRAkJxefv0z6c", "types": ["point_of_interest", "establishment"], "rating": 4.6, "user_ratings_total": 25}, "ChIJTTeFs0obdkgRzoVxhqAeP9o": {"geometry": {"location": {"lat": 51.5153244, "lng": -0.1211031}, "viewport": {"northeast": {"lat": 51.51667338029149, "lng": -0.1197541197084979}, "southwest": {"lat": 51.51397541970849, "lng": -0.122452080291502}}}, "name": "Duke of Edinburgh Lodge No. 1259", "place_id": "ChIJTTeFs0obdkgRzoVxhqAeP9o", "types": ["point_of_interest", "establishment"]}, "ChIJVVVVYiCy2EcRcNU75tvXzMI": {"geometry": {"location": {"lat": 51.51519159999999, "lng": -0.1212111}, "viewport": {"northeast": {"lat": 51.51659058029149, "lng": -0.119949769708498}, "southwest": {"lat": 51.51389261970849, "lng": -0.122647730291502}}}, "name": "Perfect Ashlar Lodge No. 1178", "place_id": "ChIJVVVVYiCy2EcRcNU75tvXzMI", "types": ["point_of_interest", "establishment"]}, "ChIJp8hsO6QbdkgRXGCS7NSkIQg": {"geometry": {"location": {"lat": 51.5151867, "lng": -0.121209}, "viewport": {"northeast": {"lat": 51.51658713029151, "lng": -0.119950169708498}, "southwest": {"lat": 51.51388916970851, "lng": -0.122648130291502}}}, "name": "Early Birds Speakers", "place_id": "ChIJp8hsO6QbdkgRXGCS7NSkIQg", "types": ["point_of_interest", "establishment"]}, "ChIJAaXA37EbdkgRF0pc6im7SjQ": {"geometry": {"location": {"lat": 51.5154942, "lng": -0.1210984}, "viewport": {"northeast": {"lat": 51.5168248302915, "lng": -0.119716769708498}, "southwest": {"lat": 51.5141268697085, "lng": -0.122414730291502}}}, "name": "24/7 Electricians", "place_id": "ChIJAaXA37EbdkgRF0pc6im7SjQ", "types": ["electrician", "point_of_interest", "establishment"]}, "ChIJGyCJzTQbdkgRjceWrKufGkE": {"geometry": {"location": {"lat": 51.5151611, "lng": -0.1211365}, "viewport": {"northeast": {"lat": 51.51657858029149, "lng": -0.119907619708498}, "southwest": {"lat": 51.5138806197085, "lng": -0.122605580291502}}}, "name": "Gray's Inn Lodge", "place_id": "ChIJGyCJzTQbdkgRjceWrKufGkE", "types": ["lodging", "point_of_interest", "establishment"]}, "ChIJPxQJzzQbdkgRK9L80a8tZIc": {"geometry": {"location": {"lat": 51.5154934, "lng": -0.1213205}, "viewport": {"northeast": {"lat": 51.5168087802915, "lng": -0.119907569708498}, "southwest": {"lat": 51.5141108197085, "lng": -0.122605530291502}}}, "name": "Steen Associates", "place_id": "ChIJPxQJzzQbdkgRK9L80a8tZIc", "types": ["point_of_interest", "establishment"]}, "ChIJd2jJzjQbdkgRXs5DcgjWF30": {"geometry": {"location": {"lat": 51.5153706, "lng": -0.1214616}, "viewport": {"northeast": {"lat": 51.51668988029149, "lng": -0.120060569708498}, "southwest": {"lat": 51.5139919197085, "lng": -0.122758530291502}}}, "name": "Bar & Italian Kitchen", "place_id": "ChIJd2jJzjQbdkgRXs5DcgjWF30", "types": ["point_of_interest", "establishment"]}, "ChIJVRZa0jQbdkgRH0_-CxG97No": {"geometry": {"location": {"lat": 51.5151335, "lng": -0.1209863}, "viewport": {"northeast": {"lat": 51.5165806802915, "lng": -0.119809119708498}, "southwest": {"lat": 51.5138827197085, "lng": -0.122507080291502}}}, "name": "PEACE & FRIENDSHIP LODGE 7414", "place_id": "ChIJVRZa0jQbdkgRH0_-CxG97No", "types": ["lodging", "point_of_interest", "establishment"]}, "ChIJZ4MM0TQbdkgR74YQ1O7aOkA": {"geometry": {"location": {"lat": 51.5151334, "lng": -0.1209864}, "viewport": {"northeast": {"lat": 51.5165805802915, "lng": -0.119809269708498}, "southwest": {"lat": 51.5138826197085, "lng": -0.122507230291502}}}, "name": "Pyramid Lodge", "place_id": "ChIJZ4MM0TQbdkgR74YQ1O7aOkA", "types": ["point_of_interest", "establishment"]}, "ChIJ__9P0hIOdkgRUv5ZxQkSrIU": {"geometry": {"location": {"lat": 51.51537260000001, "lng": -0.1215218}, "viewport": {"northeast": {"lat": 51.5166820802915, "lng": -0.120103619708498}, "southwest": {"lat": 51.5139841197085, "lng": -0.122801580291502}}}, "name": "FCB Health London", "place_id": "ChIJ__9P0hIOdkgRUv5ZxQkSrIU", "types": ["point_of_interest", "establishment"]}, "ChIJZ1e59PgbdkgRlwUOb_jeR9w": {"geometry": {"location": {"lat": 51.5153099, "lng": -0.1215322}, "viewport": {"northeast": {"lat": 51.51663208029149, "lng": -0.120136369708498}, "southwest": {"lat": 51.51393411970849, "lng": -0.122834330291502}}}, "name": "Lockes - Covent Garden", "place_id": "ChIJZ1e59PgbdkgRlwUOb_jeR9w", "types": ["bar", "point_of_interest", "establishment"], "rating": 4.7, "user_ratings_total": 65}, "ChIJge1x0DQbdkgRCFaHDO9DhqY": {"geometry": {"location": {"lat": 51.5155659, "lng": -0.1210031}, "viewport": {"northeast": {"lat": 51.5168945802915, "lng": -0.119615469708498}, "southwest": {"lat": 51.5141966197085, "lng": -0.122313430291502}}}, "name": "The Lodge of Unity No. 69", "place_id": "ChIJge1x0DQbdkgRCFaHDO9DhqY", "types": ["lodging", "point_of_interest", "establishment"]}, "ChIJF8doOssEdkgRvN-3gpdy7Gs": {"geometry": {"location": {"lat": 51.51423894012356, "lng": -0.1212935603091804}, "viewport": {"northeast": {"lat": 51.5155879302915, "lng": -0.119944569708498}, "southwest": {"lat": 51.5128899697085, "lng": -0.122642530291502}}}, "name": "145-141 Drury Ln", "place_id": "ChIJF8doOssEdkgRvN-3gpdy7Gs", "types": ["route"]}, "ChIJeyJsMcsEdkgR1eXvOZhYozw": {"geometry": {"location": {"lat": 51.5144659, "lng": -0.1210528}, "viewport": {"northeast": {"lat": 51.5157193802915, "lng": -0.119866219708498}, "southwest": {"lat": 51.5130214197085, "lng": -0.122564180291502}}}, "name": "LSE Grosvenor House Studios", "place_id": "ChIJeyJsMcsEdkgR1eXvOZhYozw", "types": ["lodging", "point_of_interest", "establishment"], "rating": 4, "user_ratings_total": 115}, "ChIJ49lj680EdkgRz9NtEhChPaQ": {"geometry": {"location": {"lat": 51.514585, "lng": -0.1217669}, "viewport": {"northeast": {"lat": 51.51589078029149, "lng": -0.120471369708498}, "southwest": {"lat": 51.51319281970849, "lng": -0.123169330291502}}}, "name": "Soho Comedy Club", "place_id": "ChIJ49lj680EdkgRz9NtEhChPaQ", "types": ["point_of_interest", "establishment"], "rating": 4.3, "user_ratings_total": 46}, "ChIJOfJ0N8sEdkgRrcKMHNb-X5U": {"geometry": {"location": {"lat": 51.51433060000001, "lng": -0.1212696}, "viewport": {"northeast": {"lat": 51.5156450302915, "lng": -0.119958919708498}, "southwest": {"lat": 51.5129470697085, "lng": -0.122656880291502}}}, "name": "SUCCESS MOTIVATION", "place_id": "ChIJOfJ0N8sEdkgRrcKMHNb-X5U", "types": ["point_of_interest", "establishment"]}, "ChIJ1WYJN8sEdkgR6884HDEFhVM": {"geometry": {"location": {"lat": 51.51439169999999, "lng": -0.1216506}, "viewport": {"northeast": {"lat": 51.51574068029149, "lng": -0.120301619708498}, "southwest": {"lat": 51.51304271970849, "lng": -0.122999580291502}}}, "name": "Phone Signal Booster", "place_id": "ChIJ1WYJN8sEdkgR6884HDEFhVM", "types": ["point_of_interest", "establishment"]}, "ChIJeyJsMcsEdkgRGLhJS8iYzU4": {"geometry": {"location": {"lat": 51.51463709999999, "lng": -0.1213236}, "viewport": {"northeast": {"lat": 51.51605353029149, "lng": -0.1199168197084979}, "southwest": {"lat": 51.51335556970849, "lng": -0.122614780291502}}}, "name": "Nhumbi Fashion Store London", "place_id": "ChIJeyJsMcsEdkgRGLhJS8iYzU4", "types": ["jewelry_store", "point_of_interest", "store", "establishment"], "rating": 5, "user_ratings_total": 1}, "ChIJG7-2I8sEdkgRCqrtckfMWp8": {"geometry": {"location": {"lat": 51.51382090000001, "lng": -0.1208559}, "viewport": {"northeast": {"lat": 51.51525173029151, "lng": -0.119421469708498}, "southwest": {"lat": 51.51255376970851, "lng": -0.122119430291502}}}, "name": "Acorn Media Group", "place_id": "ChIJG7-2I8sEdkgRCqrtckfMWp8", "types": ["movie_rental", "point_of_interest", "store", "establishment"], "rating": 4.3, "user_ratings_total": 3}, "ChIJhazlIssEdkgRy9pIAl4sWAM": {"geometry": {"location": {"lat": 51.5137643, "lng": -0.1209883}, "viewport": {"northeast": {"lat": 51.5152338802915, "lng": -0.119513519708498}, "southwest": {"lat": 51.5125359197085, "lng": -0.122211480291502}}}, "name": "Sly Fox Productions", "place_id": "ChIJhazlIssEdkgRy9pIAl4sWAM", "types": ["point_of_interest", "establishment"]}, "ChIJhazlIssEdkgRHutDKuha1XY": {"geometry": {"location": {"lat": 51.5137643, "lng": -0.1209883}, "viewport": {"northeast": {"lat": 51.5152338802915, "lng": -0.119513519708498}, "southwest": {"lat": 51.5125359197085, "lng": -0.122211480291502}}}, "name": "ANDREW KIDD", "place_id": "ChIJhazlIssEdkgRHutDKuha1XY", "types": ["lawyer", "point_of_interest", "establishment"]}, "ChIJNSHsxc4EdkgRJc9kU1Bb2is": {"geometry": {"location": {"lat": 51.5146183, "lng": -0.1217084}, "viewport": {"northeast": {"lat": 51.51596728029151, "lng": -0.120359419708498}, "southwest": {"lat": 51.51326931970851, "lng": -0.123057380291502}}}, "name": "The Covent Garden Comedy Club", "place_id": "ChIJNSHsxc4EdkgRJc9kU1Bb2is", "types": ["point_of_interest", "establishment"], "rating": 4.8, "user_ratings_total": 233}, "ChIJJZpuN8sEdkgRcc5BiOT85AA": {"geometry": {"location": {"lat": 51.51392939999999, "lng": -0.1207687}, "viewport": {"northeast": {"lat": 51.51530968029149, "lng": -0.119387069708498}, "southwest": {"lat": 51.5126117197085, "lng": -0.122085030291502}}}, "name": "Clintons", "place_id": "ChIJJZpuN8sEdkgRcc5BiOT85AA", "types": ["point_of_interest", "establishment"], "rating": 4.1, "user_ratings_total": 8}, "ChIJTboeMMsEdkgRw70eJw_49hg": {"geometry": {"location": {"lat": 51.5143533, "lng": -0.1211351}, "viewport": {"northeast": {"lat": 51.5156404302915, "lng": -0.119854469708498}, "southwest": {"lat": 51.51294246970851, "lng": -0.122552430291502}}}, "name": "Sportsworld Media Group Plc", "place_id": "ChIJTboeMMsEdkgRw70eJw_49hg", "types": ["point_of_interest", "establishment"]}, "ChIJU_BGD4AFdkgRDZIMnp4F5dA": {"geometry": {"location": {"lat": 51.5143747, "lng": -0.1212374}, "viewport": {"northeast": {"lat": 51.5159115302915, "lng": -0.119808369708498}, "southwest": {"lat": 51.5132135697085, "lng": -0.122506330291502}}}, "name": "Vehicle Delivery Camden", "place_id": "ChIJU_BGD4AFdkgRDZIMnp4F5dA", "types": ["point_of_interest", "establishment"]}, "ChIJiU0HO8sEdkgRaruQ16tWiCo": {"geometry": {"location": {"lat": 51.51406219999999, "lng": -0.1213211}, "viewport": {"northeast": {"lat": 51.5154087802915, "lng": -0.119779819708498}, "southwest": {"lat": 51.5127108197085, "lng": -0.122477780291502}}}, "name": "Forensic Animation London", "place_id": "ChIJiU0HO8sEdkgRaruQ16tWiCo", "types": ["point_of_interest", "establishment"]}, "ChIJ6dNhOcsEdkgRmmzWBswgldE": {"geometry": {"location": {"lat": 51.5140529, "lng": -0.1214836}, "viewport": {"northeast": {"lat": 51.5154926302915, "lng": -0.120034319708498}, "southwest": {"lat": 51.5127946697085, "lng": -0.122732280291502}}}, "name": "Bush house conferencia Londres", "place_id": "ChIJ6dNhOcsEdkgRmmzWBswgldE", "types": ["point_of_interest", "establishment"]}, "ChIJy061OcsEdkgR97Vdi6bDOQU": {"geometry": {"location": {"lat": 51.5142018, "lng": -0.1216643}, "viewport": {"northeast": {"lat": 51.5156457302915, "lng": -0.120377569708498}, "southwest": {"lat": 51.5129477697085, "lng": -0.123075530291502}}}, "name": "London Tours", "place_id": "ChIJy061OcsEdkgR97Vdi6bDOQU", "types": ["travel_agency", "point_of_interest", "establishment"], "rating": 5, "user_ratings_total": 10}, "ChIJQYXLI54FdkgRJE8PH0KveHU": {"geometry": {"location": {"lat": 51.51439169999999, "lng": -0.1216506}, "viewport": {"northeast": {"lat": 51.51574068029149, "lng": -0.120301619708498}, "southwest": {"lat": 51.51304271970849, "lng": -0.122999580291502}}}, "name": "Saucy Pizza", "place_id": "ChIJQYXLI54FdkgRJE8PH0KveHU", "types": ["meal_takeaway", "restaurant", "food", "point_of_interest", "establishment"]}, "ChIJ1WYJN8sEdkgRmmZtFtf7kGg": {"geometry": {"location": {"lat": 51.51439169999999, "lng": -0.1216506}, "viewport": {"northeast": {"lat": 51.51574068029149, "lng": -0.120301619708498}, "southwest": {"lat": 51.51304271970849, "lng": -0.122999580291502}}}, "name": "Ego Electrical Services", "place_id": "ChIJ1WYJN8sEdkgRmmZtFtf7kGg", "types": ["electrician", "point_of_interest", "establishment"]}, "ChIJ1WYJN8sEdkgRWvU4lxvDXoA": {"geometry": {"location": {"lat": 51.51439169999999, "lng": -0.1216506}, "viewport": {"northeast": {"lat": 51.51574068029149, "lng": -0.120301619708498}, "southwest": {"lat": 51.51304271970849, "lng": -0.122999580291502}}}, "name": "5 Live Projects", "place_id": "ChIJ1WYJN8sEdkgRWvU4lxvDXoA", "types": ["point_of_interest", "establishment"]}, "ChIJs-b3O8sEdkgRjJyOhIvs67g": {"geometry": {"location": {"lat": 51.5138978, "lng": -0.1214582}, "viewport": {"northeast": {"lat": 51.51524678029149, "lng": -0.120109219708498}, "southwest": {"lat": 51.51254881970849, "lng": -0.122807180291502}}}, "name": "Design A La Source", "place_id": "ChIJs-b3O8sEdkgRjJyOhIvs67g", "types": ["general_contractor", "point_of_interest", "establishment"]}, "ChIJIdF0MssEdkgRaPOryLHa7Lo": {"geometry": {"location": {"lat": 51.5147008, "lng": -0.1211304}, "viewport": {"northeast": {"lat": 51.5160738302915, "lng": -0.119771169708498}, "southwest": {"lat": 51.5133758697085, "lng": -0.1224691302915021}}}, "name": "Omar Nassra Arabic Courses London", "place_id": "ChIJIdF0MssEdkgRaPOryLHa7Lo", "types": ["point_of_interest", "establishment"], "rating": 4.4, "user_ratings_total": 19}, "ChIJQZSxoJgFdkgRxl8lpkJBc0E": {"geometry": {"location": {"lat": 51.5147008, "lng": -0.1211304}, "viewport": {"northeast": {"lat": 51.5160738302915, "lng": -0.119771169708498}, "southwest": {"lat": 51.5133758697085, "lng": -0.1224691302915021}}}, "name": "LSE Nursery", "place_id": "ChIJQZSxoJgFdkgRxl8lpkJBc0E", "types": ["school", "point_of_interest", "establishment"]}, "ChIJ7wctIcsEdkgRM5jGTdZercQ": {"geometry": {"location": {"lat": 51.5139502, "lng": -0.1205998}, "viewport": {"northeast": {"lat": 51.5153255802915, "lng": -0.119223269708498}, "southwest": {"lat": 51.5126276197085, "lng": -0.121921230291502}}}, "name": "Dissertation Boss", "place_id": "ChIJ7wctIcsEdkgRM5jGTdZercQ", "types": ["point_of_interest", "establishment"], "rating": 5, "user_ratings_total": 1}, "ChIJ05ipQssEdkgRFQa0UBb-vpQ": {"geometry": {"location": {"lat": 51.5143296, "lng": -0.1218929}, "viewport": {"northeast": {"lat": 51.5157101302915, "lng": -0.120465469708498}, "southwest": {"lat": 51.5130121697085, "lng": -0.123163430291502}}}, "name": "Barrafina", "place_id": "ChIJ05ipQssEdkgRFQa0UBb-vpQ", "types": ["restaurant", "food", "point_of_interest", "establishment"], "rating": 4.5, "user_ratings_total": 777}, "ChIJbRgKSMsEdkgRiWPB8poikaM": {"geometry": {"location": {"lat": 51.5143348, "lng": -0.1219055}, "viewport": {"northeast": {"lat": 51.51573998029151, "lng": -0.120487019708498}, "southwest": {"lat": 51.51304201970851, "lng": -0.123184980291502}}}, "name": "Wavex - Award winning IT services", "place_id": "ChIJbRgKSMsEdkgRiWPB8poikaM", "types": ["point_of_interest", "establishment"], "rating": 3.5, "user_ratings_total": 2}, "ChIJYfzsJssEdkgRsbiyB87UpsA": {"geometry": {"location": {"lat": 51.51475540000001, "lng": -0.1211077}, "viewport": {"northeast": {"lat": 51.51613483029151, "lng": -0.119745769708498}, "southwest": {"lat": 51.51343686970851, "lng": -0.122443730291502}}}, "name": "Wildstreet Productions Ltd", "place_id": "ChIJYfzsJssEdkgRsbiyB87UpsA", "types": ["point_of_interest", "establishment"], "rating": 5, "user_ratings_total": 1}, "ChIJ_UjdR8sEdkgRlsNDiZCt_P0": {"geometry": {"location": {"lat": 51.5142483, "lng": -0.1219469}, "viewport": {"northeast": {"lat": 51.5156507302915, "lng": -0.120451469708498}, "southwest": {"lat": 51.5129527697085, "lng": -0.123149430291502}}}, "name": "Bernard Barrett Associates Ltd.", "place_id": "ChIJ_UjdR8sEdkgRlsNDiZCt_P0", "types": ["point_of_interest", "establishment"]}, "ChIJUfPlIssEdkgR9pFjdKveNIw": {"geometry": {"location": {"lat": 51.5137669, "lng": -0.1209771}, "viewport": {"northeast": {"lat": 51.5152755302915, "lng": -0.119697619708498}, "southwest": {"lat": 51.5125775697085, "lng": -0.122395580291502}}}, "name": "Entertainment Media Research Ltd", "place_id": "ChIJUfPlIssEdkgR9pFjdKveNIw", "types": ["point_of_interest", "establishment"], "rating": 4.5, "user_ratings_total": 2}, "ChIJaRsk8isFdkgRytZZKJMiplY": {"geometry": {"location": {"lat": 51.5137643, "lng": -0.1209883}, "viewport": {"northeast": {"lat": 51.5152338802915, "lng": -0.119513519708498}, "southwest": {"lat": 51.5125359197085, "lng": -0.122211480291502}}}, "name": "Amius", "place_id": "ChIJaRsk8isFdkgRytZZKJMiplY", "types": ["finance", "point_of_interest", "establishment"]}, "ChIJ_Yf6IssEdkgR1GsJ-v9P7l4": {"geometry": {"location": {"lat": 51.51375709999999, "lng": -0.1209639}, "viewport": {"northeast": {"lat": 51.51522578029149, "lng": -0.119490119708498}, "southwest": {"lat": 51.5125278197085, "lng": -0.122188080291502}}}, "name": "Grosvenor Waterside Residents Company Limited", "place_id": "ChIJ_Yf6IssEdkgR1GsJ-v9P7l4", "types": ["point_of_interest", "establishment"]}, "ChIJ_Yf6IssEdkgRwDkCOS7Z1RU": {"geometry": {"location": {"lat": 51.51375709999999, "lng": -0.1209639}, "viewport": {"northeast": {"lat": 51.51522578029149, "lng": -0.119490119708498}, "southwest": {"lat": 51.5125278197085, "lng": -0.122188080291502}}}, "name": "HOLOCAUST LEARNING UK", "place_id": "ChIJ_Yf6IssEdkgRwDkCOS7Z1RU", "types": ["point_of_interest", "establishment"]}, "ChIJ_Yf6IssEdkgRn6X6O42bD4k": {"geometry": {"location": {"lat": 51.51375709999999, "lng": -0.1209639}, "viewport": {"northeast": {"lat": 51.51522578029149, "lng": -0.119490119708498}, "southwest": {"lat": 51.5125278197085, "lng": -0.122188080291502}}}, "name": "The Swimathon Foundation", "place_id": "ChIJ_Yf6IssEdkgRn6X6O42bD4k", "types": ["point_of_interest", "establishment"]}, "ChIJ_Yf6IssEdkgRYTzC3LGrVPg": {"geometry": {"location": {"lat": 51.51375709999999, "lng": -0.1209639}, "viewport": {"northeast": {"lat": 51.51522578029149, "lng": -0.119490119708498}, "southwest": {"lat": 51.5125278197085, "lng": -0.122188080291502}}}, "name": "Ellustria Limited", "place_id": "ChIJ_Yf6IssEdkgRYTzC3LGrVPg", "types": ["point_of_interest", "establishment"]}, "ChIJ_Yf6IssEdkgRdSEt3hUdbDA": {"geometry": {"location": {"lat": 51.51375709999999, "lng": -0.1209639}, "viewport": {"northeast": {"lat": 51.51522578029149, "lng": -0.119490119708498}, "southwest": {"lat": 51.5125278197085, "lng": -0.122188080291502}}}, "name": "Perachem Limited", "place_id": "ChIJ_Yf6IssEdkgRdSEt3hUdbDA", "types": ["point_of_interest", "establishment"]}, "ChIJ_Yf6IssEdkgRFmu-pkGA-Qo": {"geometry": {"location": {"lat": 51.51375709999999, "lng": -0.1209639}, "viewport": {"northeast": {"lat": 51.51522578029149, "lng": -0.119490119708498}, "southwest": {"lat": 51.5125278197085, "lng": -0.122188080291502}}}, "name": "Aristotle International", "place_id": "ChIJ_Yf6IssEdkgRFmu-pkGA-Qo", "types": ["point_of_interest", "establishment"]}, "ChIJD3C_IcsEdkgR7XRXm6I_BQI": {"geometry": {"location": {"lat": 51.5135906, "lng": -0.1206989}, "viewport": {"northeast": {"lat": 51.51501843044502, "lng": -0.1193282806295806}, "southwest": {"lat": 51.51232046986203, "lng": -0.1220262412125846}}}, "name": "Drury Lane Gardens", "place_id": "ChIJD3C_IcsEdkgR7XRXm6I_BQI", "types": ["park", "premise", "point_of_interest", "establishment"]}, "ChIJM632DcsEdkgRGX6rHuGb47c": {"geometry": {"location": {"lat": 51.51301492797722, "lng": -0.121617249784449}, "viewport": {"northeast": {"lat": 51.51436418029149, "lng": -0.120267669708498}, "southwest": {"lat": 51.5116662197085, "lng": -0.122965630291502}}}, "name": "36 Bow St", "place_id": "ChIJM632DcsEdkgRGX6rHuGb47c", "types": ["route"]}, "ChIJtVNpD8sEdkgRW_kxR_77yN4": {"geometry": {"location": {"lat": 51.5128356, "lng": -0.1212734}, "viewport": {"northeast": {"lat": 51.5141601802915, "lng": -0.119938069708498}, "southwest": {"lat": 51.5114622197085, "lng": -0.122636030291502}}}, "name": "Marquess of Anglesey", "place_id": "ChIJtVNpD8sEdkgRW_kxR_77yN4", "types": ["bar", "point_of_interest", "establishment"], "rating": 3.9, "user_ratings_total": 1159}, "ChIJsQRsHMsEdkgRe3PnQS1c1uY": {"geometry": {"location": {"lat": 51.5132724, "lng": -0.1206646}, "viewport": {"northeast": {"lat": 51.5145891802915, "lng": -0.119234969708498}, "southwest": {"lat": 51.5118912197085, "lng": -0.121932930291502}}}, "name": "Fortune Theatre", "place_id": "ChIJsQRsHMsEdkgRe3PnQS1c1uY", "types": ["point_of_interest", "establishment"], "rating": 4.4, "user_ratings_total": 1005}, "ChIJVXhRY80EdkgR0Xq6jRK9QoA": {"geometry": {"location": {"lat": 51.5132202, "lng": -0.1215713}, "viewport": {"northeast": {"lat": 51.5145270802915, "lng": -0.120316519708498}, "southwest": {"lat": 51.5118291197085, "lng": -0.123014480291502}}}, "name": "MBAstack", "place_id": "ChIJVXhRY80EdkgR0Xq6jRK9QoA", "types": ["point_of_interest", "establishment"], "rating": 5, "user_ratings_total": 2}, "ChIJjd8uDssEdkgR--0HGFBDxZI": {"geometry": {"location": {"lat": 51.5129487, "lng": -0.1213276}, "viewport": {"northeast": {"lat": 51.51426628029149, "lng": -0.120047269708498}, "southwest": {"lat": 51.51156831970849, "lng": -0.122745230291502}}}, "name": "Bow Street Tavern", "place_id": "ChIJjd8uDssEdkgR--0HGFBDxZI", "types": ["bar", "point_of_interest", "establishment"], "rating": 4.3, "user_ratings_total": 517}, "ChIJ84LQZskEdkgRNaVuDDWW_Nk": {"geometry": {"location": {"lat": 51.51319540000001, "lng": -0.1215818}, "viewport": {"northeast": {"lat": 51.5145625302915, "lng": -0.120356069708498}, "southwest": {"lat": 51.5118645697085, "lng": -0.123054030291502}}}, "name": "Sizmek", "place_id": "ChIJ84LQZskEdkgRNaVuDDWW_Nk", "types": ["point_of_interest", "establishment"], "rating": 4.5, "user_ratings_total": 6}, "ChIJtxPYBMsEdkgR0Wi8msZ0Mu8": {"geometry": {"location": {"lat": 51.5129574, "lng": -0.1209054}, "viewport": {"northeast": {"lat": 51.51430888029149, "lng": -0.119466719708498}, "southwest": {"lat": 51.5116109197085, "lng": -0.122164680291502}}}, "name": "Be At One - Russell Street", "place_id": "ChIJtxPYBMsEdkgR0Wi8msZ0Mu8", "types": ["bar", "point_of_interest", "establishment"], "rating": 4.1, "user_ratings_total": 648}, "ChIJjRTSCMsEdkgR3fL1GSo7fEI": {"geometry": {"location": {"lat": 51.5132572, "lng": -0.1206498}, "viewport": {"northeast": {"lat": 51.5146205302915, "lng": -0.119224469708498}, "southwest": {"lat": 51.5119225697085, "lng": -0.121922430291502}}}, "name": "Fortune Theatre Box Office", "place_id": "ChIJjRTSCMsEdkgR3fL1GSo7fEI", "types": ["point_of_interest", "establishment"], "rating": 4.9, "user_ratings_total": 8}, "ChIJBUagAssEdkgRd4vJcXgFREw": {"geometry": {"location": {"lat": 51.5129807, "lng": -0.120619}, "viewport": {"northeast": {"lat": 51.5143363802915, "lng": -0.119289769708498}, "southwest": {"lat": 51.5116384197085, "lng": -0.121987730291502}}}, "name": "CCF", "place_id": "ChIJBUagAssEdkgRd4vJcXgFREw", "types": ["point_of_interest", "establishment"], "rating": 3.3, "user_ratings_total": 3}, "ChIJH1ebqDwhe0gRAGHVTnvHFWE": {"geometry": {"location": {"lat": 51.51303069999999, "lng": -0.1205428}, "viewport": {"northeast": {"lat": 51.5143947802915, "lng": -0.119238419708498}, "southwest": {"lat": 51.5116968197085, "lng": -0.121936380291502}}}, "name": "Traveline", "place_id": "ChIJH1ebqDwhe0gRAGHVTnvHFWE", "types": ["point_of_interest", "establishment"], "rating": 3.8, "user_ratings_total": 17}, "ChIJSzYwFssEdkgRo0koNJ-j-pA": {"geometry": {"location": {"lat": 51.5136147, "lng": -0.1212695}, "viewport": {"northeast": {"lat": 51.51477828029149, "lng": -0.120211969708498}, "southwest": {"lat": 51.5120803197085, "lng": -0.122909930291502}}}, "name": "Sideways 6", "place_id": "ChIJSzYwFssEdkgRo0koNJ-j-pA", "types": ["point_of_interest", "establishment"]}, "ChIJwX1xVcoEdkgRjhEj7q7rmz8": {"geometry": {"location": {"lat": 51.5128421, "lng": -0.1207356}, "viewport": {"northeast": {"lat": 51.5140459802915, "lng": -0.118903269708498}, "southwest": {"lat": 51.5113480197085, "lng": -0.121601230291502}}}, "name": "Paget PR", "place_id": "ChIJwX1xVcoEdkgRjhEj7q7rmz8", "types": ["point_of_interest", "establishment"]}, "ChIJw27ybssEdkgRnx9Jz130OOs": {"geometry": {"location": {"lat": 51.5129831, "lng": -0.1218277}, "viewport": {"northeast": {"lat": 51.5142359802915, "lng": -0.1208838}, "southwest": {"lat": 51.5115380197085, "lng": -0.1246594}}}, "name": "Linbury Theatre", "place_id": "ChIJw27ybssEdkgRnx9Jz130OOs", "types": ["point_of_interest", "establishment"], "rating": 4.7, "user_ratings_total": 79}, "ChIJS25RUcsEdkgRUvUxAojcLCk": {"geometry": {"location": {"lat": 51.5129816, "lng": -0.1218307}, "viewport": {"northeast": {"lat": 51.5142359802915, "lng": -0.1208883}, "southwest": {"lat": 51.5115380197085, "lng": -0.1246579}}}, "name": "Clore Studio", "place_id": "ChIJS25RUcsEdkgRUvUxAojcLCk", "types": ["point_of_interest", "establishment"], "rating": 5, "user_ratings_total": 2}, "ChIJXS_mIssEdkgRMaXgjEKvUjM": {"geometry": {"location": {"lat": 51.5132653, "lng": -0.1207694}, "viewport": {"northeast": {"lat": 51.5145729302915, "lng": -0.119298469708498}, "southwest": {"lat": 51.5118749697085, "lng": -0.121996430291502}}}, "name": "Crown Court Church", "place_id": "ChIJXS_mIssEdkgRMaXgjEKvUjM", "types": ["church", "place_of_worship", "point_of_interest", "establishment"], "rating": 4.6, "user_ratings_total": 12}, "ChIJIWNeD8sEdkgRUn2qEx45-zw": {"geometry": {"location": {"lat": 51.512845, "lng": -0.1210133}, "viewport": {"northeast": {"lat": 51.5141672802915, "lng": -0.119635119708498}, "southwest": {"lat": 51.5114693197085, "lng": -0.122333080291502}}}, "name": "Betfred", "place_id": "ChIJIWNeD8sEdkgRUn2qEx45-zw", "types": ["point_of_interest", "establishment"], "rating": 3, "user_ratings_total": 6}, "ChIJT8jjEcsEdkgRZJinIiKhIwk": {"geometry": {"location": {"lat": 51.5130111, "lng": -0.1214278}, "viewport": {"northeast": {"lat": 51.5143232302915, "lng": -0.120127819708498}, "southwest": {"lat": 51.5116252697085, "lng": -0.122825780291502}}}, "name": "Wildwood", "place_id": "ChIJT8jjEcsEdkgRZJinIiKhIwk", "types": ["bar", "restaurant", "food", "point_of_interest", "store", "establishment"], "rating": 4, "user_ratings_total": 700}, "ChIJsWfhEcsEdkgRWC0kLbRXU_c": {"geometry": {"location": {"lat": 51.5129888, "lng": -0.1214059}, "viewport": {"northeast": {"lat": 51.5143109802915, "lng": -0.120115519708498}, "southwest": {"lat": 51.5116130197085, "lng": -0.122813480291502}}}, "name": "Festival Republic", "place_id": "ChIJsWfhEcsEdkgRWC0kLbRXU_c", "types": ["point_of_interest", "establishment"]}, "ChIJdSJQjEYFdkgRt6i_0ZlvK00": {"geometry": {"location": {"lat": 51.5129888, "lng": -0.1214059}, "viewport": {"northeast": {"lat": 51.5143109802915, "lng": -0.120115519708498}, "southwest": {"lat": 51.5116130197085, "lng": -0.122813480291502}}}, "name": "Live Nation Entertainment", "place_id": "ChIJdSJQjEYFdkgRt6i_0ZlvK00", "types": ["point_of_interest", "establishment"]}, "ChIJc0q4EpMEdkgRDaj1qYi6hl4": {"geometry": {"location": {"lat": 51.5132202, "lng": -0.1215713}, "viewport": {"northeast": {"lat": 51.5145270802915, "lng": -0.120316519708498}, "southwest": {"lat": 51.5118291197085, "lng": -0.123014480291502}}}, "name": "Freemavens", "place_id": "ChIJc0q4EpMEdkgRDaj1qYi6hl4", "types": ["point_of_interest", "establishment"], "rating": 5, "user_ratings_total": 1}, "ChIJTXVrrjIFdkgRBSVBXZlUDPY": {"geometry": {"location": {"lat": 51.51317889999999, "lng": -0.1206865}, "viewport": {"northeast": {"lat": 51.5145072802915, "lng": -0.119276719708498}, "southwest": {"lat": 51.5118093197085, "lng": -0.121974680291502}}}, "name": "BKH Pilates", "place_id": "ChIJTXVrrjIFdkgRBSVBXZlUDPY", "types": ["gym", "health", "point_of_interest", "establishment"], "rating": 5, "user_ratings_total": 2}, "ChIJ522V2_wFdkgRbYNuPW8Br0E": {"geometry": {"location": {"lat": 51.5130587, "lng": -0.121549}, "viewport": {"northeast": {"lat": 51.51446998029149, "lng": -0.120311469708498}, "southwest": {"lat": 51.51177201970849, "lng": -0.123009430291502}}}, "name": "Side Hustle", "place_id": "ChIJ522V2_wFdkgRbYNuPW8Br0E", "types": ["restaurant", "bar", "food", "point_of_interest", "establishment"], "rating": 5, "user_ratings_total": 7}, "ChIJCUn1EssEdkgRlfqYoklSJAs": {"geometry": {"location": {"lat": 51.5130571, "lng": -0.1216671}, "viewport": {"northeast": {"lat": 51.5143874302915, "lng": -0.120358919708498}, "southwest": {"lat": 51.5116894697085, "lng": -0.123056880291502}}}, "name": "Sydell Group", "place_id": "ChIJCUn1EssEdkgRlfqYoklSJAs", "types": ["point_of_interest", "establishment"]}, "ChIJueLkPS4FdkgRdvCZe5FdovE": {"geometry": {"location": {"lat": 51.5136055, "lng": -0.1211892}, "viewport": {"northeast": {"lat": 51.5151948302915, "lng": -0.119774119708498}, "southwest": {"lat": 51.51249686970851, "lng": -0.122472080291502}}}, "name": "CharterHouse", "place_id": "ChIJueLkPS4FdkgRdvCZe5FdovE", "types": ["point_of_interest", "establishment"]}, "ChIJHakfO6QFdkgRxQw6cmUR4W4": {"geometry": {"location": {"lat": 51.513082, "lng": -0.121815}, "viewport": {"northeast": {"lat": 51.5144473302915, "lng": -0.120429519708498}, "southwest": {"lat": 51.5117493697085, "lng": -0.123127480291502}}}, "name": "Fresh Direct Local", "place_id": "ChIJHakfO6QFdkgRxQw6cmUR4W4", "types": ["food", "point_of_interest", "store", "establishment"]}, "ChIJ8X9iessEdkgRLgf5DUmaRA8": {"geometry": {"location": {"lat": 51.51290400000001, "lng": -0.1225428}, "viewport": {"northeast": {"lat": 51.5143106802915, "lng": -0.121597369708498}, "southwest": {"lat": 51.5116127197085, "lng": -0.124295330291502}}}, "name": "Royal Opera House", "place_id": "ChIJ8X9iessEdkgRLgf5DUmaRA8", "types": ["premise", "point_of_interest", "establishment"]}, "ChIJ5Z_6qzQbdkgRs2fVSAO-dPs": {"geometry": {"location": {"lat": 51.51523100004581, "lng": -0.1229968998482319}, "viewport": {"northeast": {"lat": 51.5165799802915, "lng": -0.121647919708498}, "southwest": {"lat": 51.5138820197085, "lng": -0.1243458802915021}}}, "name": "169-167 Drury Ln", "place_id": "ChIJ5Z_6qzQbdkgRs2fVSAO-dPs", "types": ["route"]}, "ChIJLzHPqzQbdkgRjkG_F2CreN4": {"geometry": {"location": {"lat": 51.515159, "lng": -0.123135}, "viewport": {"northeast": {"lat": 51.5165450802915, "lng": -0.121718669708498}, "southwest": {"lat": 51.5138471197085, "lng": -0.124416630291502}}}, "name": "Oxfam Covent Garden", "place_id": "ChIJLzHPqzQbdkgRjkG_F2CreN4", "types": ["book_store", "point_of_interest", "clothing_store", "store", "establishment"], "rating": 3.6, "user_ratings_total": 57}, "ChIJbd_9rjQbdkgR-1dV5JLqXEM": {"geometry": {"location": {"lat": 51.5153194, "lng": -0.1228278}, "viewport": {"northeast": {"lat": 51.5166206802915, "lng": -0.121557869708498}, "southwest": {"lat": 51.5139227197085, "lng": -0.124255830291502}}}, "name": "Dancia International", "place_id": "ChIJbd_9rjQbdkgR-1dV5JLqXEM", "types": ["point_of_interest", "store", "establishment"], "rating": 4.4, "user_ratings_total": 138}, "ChIJ7eA75soEdkgRZXtgpYnGHYI": {"geometry": {"location": {"lat": 51.5152673, "lng": -0.1226493}, "viewport": {"northeast": {"lat": 51.5165860302915, "lng": -0.121144819708498}, "southwest": {"lat": 51.51388806970851, "lng": -0.123842780291502}}}, "name": "Gillian Lynne Theatre", "place_id": "ChIJ7eA75soEdkgRZXtgpYnGHYI", "types": ["point_of_interest", "establishment"], "rating": 4.7, "user_ratings_total": 3515}, "ChIJ6zivZswEdkgR8Vd0G2Df5KE": {"geometry": {"location": {"lat": 51.5153647, "lng": -0.1230321}, "viewport": {"northeast": {"lat": 51.5167031302915, "lng": -0.121752969708498}, "southwest": {"lat": 51.5140051697085, "lng": -0.124450930291502}}}, "name": "The Top Secret Comedy Club", "place_id": "ChIJ6zivZswEdkgR8Vd0G2Df5KE", "types": ["point_of_interest", "establishment"], "rating": 4.7, "user_ratings_total": 3388}, "ChIJEVS_qjQbdkgRXRKXfQL0Kpc": {"geometry": {"location": {"lat": 51.515247, "lng": -0.123224}, "viewport": {"northeast": {"lat": 51.5166272302915, "lng": -0.121822519708498}, "southwest": {"lat": 51.51392926970851, "lng": -0.124520480291502}}}, "name": "The Sun Pub", "place_id": "ChIJEVS_qjQbdkgRXRKXfQL0Kpc", "types": ["bar", "restaurant", "food", "point_of_interest", "establishment"], "rating": 4.2, "user_ratings_total": 217}, "ChIJA2CPqzQbdkgRUCDFNT4-Ttw": {"geometry": {"location": {"lat": 51.515072, "lng": -0.1231103}, "viewport": {"northeast": {"lat": 51.5164757302915, "lng": -0.121666069708498}, "southwest": {"lat": 51.5137777697085, "lng": -0.124364030291502}}}, "name": "Majestic Wine", "place_id": "ChIJA2CPqzQbdkgRUCDFNT4-Ttw", "types": ["home_goods_store", "liquor_store", "food", "point_of_interest", "store", "establishment"], "rating": 4.4, "user_ratings_total": 74}, "ChIJ4SgGqDIbdkgRkvHRllSB2yM": {"geometry": {"location": {"lat": 51.5154185, "lng": -0.1227206}, "viewport": {"northeast": {"lat": 51.5166790802915, "lng": -0.121518119708498}, "southwest": {"lat": 51.5139811197085, "lng": -0.124216080291502}}}, "name": "Jubilee Hair Salon", "place_id": "ChIJ4SgGqDIbdkgRkvHRllSB2yM", "types": ["hair_care", "point_of_interest", "establishment"], "rating": 4.4, "user_ratings_total": 215}, "ChIJkWDeujQbdkgRj8XPnaoKQwE": {"geometry": {"location": {"lat": 51.51586750000001, "lng": -0.1228449}, "viewport": {"northeast": {"lat": 51.5171859302915, "lng": -0.121449819708498}, "southwest": {"lat": 51.5144879697085, "lng": -0.124147780291502}}}, "name": "Maxim Printing Services", "place_id": "ChIJkWDeujQbdkgRj8XPnaoKQwE", "types": ["point_of_interest", "establishment"], "rating": 5, "user_ratings_total": 12}, "ChIJa2q_pDQbdkgRX6QuVJSZxbo": {"geometry": {"location": {"lat": 51.515825, "lng": -0.122527}, "viewport": {"northeast": {"lat": 51.51720408029149, "lng": -0.121223469708498}, "southwest": {"lat": 51.5145061197085, "lng": -0.123921430291502}}}, "name": "Models 1", "place_id": "ChIJa2q_pDQbdkgRX6QuVJSZxbo", "types": ["point_of_interest", "establishment"], "rating": 4.3, "user_ratings_total": 55}, "ChIJHVKgpDQbdkgRr9_QH0fVrUI": {"geometry": {"location": {"lat": 51.515857, "lng": -0.12285}, "viewport": {"northeast": {"lat": 51.5171727302915, "lng": -0.121464869708498}, "southwest": {"lat": 51.5144747697085, "lng": -0.124162830291502}}}, "name": "Cyclefit - Custom Bicycles and Bike Fitting", "place_id": "ChIJHVKgpDQbdkgRr9_QH0fVrUI", "types": ["bicycle_store", "point_of_interest", "store", "establishment"], "rating": 4.9, "user_ratings_total": 95}, "ChIJl9RNrjQbdkgRQ294OZyGbNI": {"geometry": {"location": {"lat": 51.5152669, "lng": -0.1227865}, "viewport": {"northeast": {"lat": 51.51657448029151, "lng": -0.121506119708498}, "southwest": {"lat": 51.51387651970851, "lng": -0.124204080291502}}}, "name": "BungaTINI", "place_id": "ChIJl9RNrjQbdkgRQ294OZyGbNI", "types": ["meal_takeaway", "bar", "restaurant", "food", "point_of_interest", "establishment"], "rating": 4.4, "user_ratings_total": 269}, "ChIJbXvewKwEdkgRHANsLodAecM": {"geometry": {"location": {"lat": 51.5154305, "lng": -0.1227973}, "viewport": {"northeast": {"lat": 51.51670008029151, "lng": -0.121579869708498}, "southwest": {"lat": 51.51400211970851, "lng": -0.124277830291502}}}, "name": "Open Door Media Publishing Ltd", "place_id": "ChIJbXvewKwEdkgRHANsLodAecM", "types": ["point_of_interest", "establishment"], "rating": 5, "user_ratings_total": 1}, "ChIJqSGyqTQbdkgRvKWkokmavOI": {"geometry": {"location": {"lat": 51.51535440000001, "lng": -0.1226818}, "viewport": {"northeast": {"lat": 51.5166244802915, "lng": -0.121463569708498}, "southwest": {"lat": 51.51392651970851, "lng": -0.124161530291502}}}, "name": "zintro inc", "place_id": "ChIJqSGyqTQbdkgRvKWkokmavOI", "types": ["point_of_interest", "establishment"]}, "ChIJkQhKHeAEdkgRtWGYK_Nx5E4": {"geometry": {"location": {"lat": 51.5152327, "lng": -0.1228138}, "viewport": {"northeast": {"lat": 51.5165527802915, "lng": -0.121512669708498}, "southwest": {"lat": 51.5138548197085, "lng": -0.124210630291502}}}, "name": "Inception Group", "place_id": "ChIJkQhKHeAEdkgRtWGYK_Nx5E4", "types": ["point_of_interest", "establishment"], "rating": 5, "user_ratings_total": 3}, "ChIJcSnUUzMbdkgRe6K919kcNvA": {"geometry": {"location": {"lat": 51.51537069999999, "lng": -0.1230309}, "viewport": {"northeast": {"lat": 51.5166913802915, "lng": -0.121729469708498}, "southwest": {"lat": 51.5139934197085, "lng": -0.124427430291502}}}, "name": "Global", "place_id": "ChIJcSnUUzMbdkgRe6K919kcNvA", "types": ["point_of_interest", "establishment"], "rating": 5, "user_ratings_total": 1}, "ChIJF487qTQbdkgRCQ6qiMzoCRQ": {"geometry": {"location": {"lat": 51.51538179999999, "lng": -0.1230247}, "viewport": {"northeast": {"lat": 51.51669888029149, "lng": -0.121729369708498}, "southwest": {"lat": 51.51400091970849, "lng": -0.124427330291502}}}, "name": "Freshwater Group of Companies", "place_id": "ChIJF487qTQbdkgRCQ6qiMzoCRQ", "types": ["point_of_interest", "establishment"]}, "ChIJ2_gjqDQbdkgRhO6dYDaWSj4": {"geometry": {"location": {"lat": 51.51538179999999, "lng": -0.1230247}, "viewport": {"northeast": {"lat": 51.51669888029149, "lng": -0.121729369708498}, "southwest": {"lat": 51.51400091970849, "lng": -0.124427330291502}}}, "name": "The Independent London Cleaner", "place_id": "ChIJ2_gjqDQbdkgRhO6dYDaWSj4", "types": ["point_of_interest", "establishment"]}, "ChIJwbFVL9EEdkgRry2OQgMvlVI": {"geometry": {"location": {"lat": 51.5151587, "lng": -0.123005}, "viewport": {"northeast": {"lat": 51.51652403029151, "lng": -0.121631369708498}, "southwest": {"lat": 51.51382606970851, "lng": -0.124329330291502}}}, "name": "NYMAVERSE", "place_id": "ChIJwbFVL9EEdkgRry2OQgMvlVI", "types": ["point_of_interest", "establishment"]}, "ChIJqfovq8wEdkgRROhxybrpR4M": {"geometry": {"location": {"lat": 51.51515560000001, "lng": -0.1226886}, "viewport": {"northeast": {"lat": 51.51647538029151, "lng": -0.121388719708498}, "southwest": {"lat": 51.51377741970851, "lng": -0.124086680291502}}}, "name": "Genie", "place_id": "ChIJqfovq8wEdkgRROhxybrpR4M", "types": ["home_goods_store", "point_of_interest", "store", "establishment"]}, "ChIJv-GKJVcxcEERfAEHywNzTgo": {"geometry": {"location": {"lat": 51.5154693, "lng": -0.1231561}, "viewport": {"northeast": {"lat": 51.5168451302915, "lng": -0.121847719708498}, "southwest": {"lat": 51.5141471697085, "lng": -0.124545680291502}}}, "name": "Time Out", "place_id": "ChIJv-GKJVcxcEERfAEHywNzTgo", "types": ["point_of_interest", "establishment"], "rating": 3.6, "user_ratings_total": 50}, "ChIJqbceq8wEdkgRRm0_QUPOsSc": {"geometry": {"location": {"lat": 51.5152683, "lng": -0.1232136}, "viewport": {"northeast": {"lat": 51.51663963029149, "lng": -0.121900519708498}, "southwest": {"lat": 51.51394166970849, "lng": -0.124598480291502}}}, "name": "Vroomo", "place_id": "ChIJqbceq8wEdkgRRm0_QUPOsSc", "types": ["car_dealer", "point_of_interest", "store", "establishment"]}, "ChIJayVvrDQbdkgRjOEMicnozG8": {"geometry": {"location": {"lat": 51.5150945, "lng": -0.12289}, "viewport": {"northeast": {"lat": 51.51631063029149, "lng": -0.121780869708498}, "southwest": {"lat": 51.51361266970849, "lng": -0.124478830291502}}}, "name": "Crime and Society Foundation", "place_id": "ChIJayVvrDQbdkgRjOEMicnozG8", "types": ["point_of_interest", "establishment"]}, "ChIJo04kq8wEdkgReHkN4J9-iXY": {"geometry": {"location": {"lat": 51.515114, "lng": -0.1226224}, "viewport": {"northeast": {"lat": 51.51643728029151, "lng": -0.121219269708498}, "southwest": {"lat": 51.51373931970851, "lng": -0.123917230291502}}}, "name": "The International Society for Neglected Tropical Diseases", "place_id": "ChIJo04kq8wEdkgReHkN4J9-iXY", "types": ["point_of_interest", "establishment"]}, "ChIJqbceq8wEdkgR5InFN9GSE94": {"geometry": {"location": {"lat": 51.515216, "lng": -0.1224707}, "viewport": {"northeast": {"lat": 51.5165434802915, "lng": -0.121076069708498}, "southwest": {"lat": 51.5138455197085, "lng": -0.123774030291502}}}, "name": "Desevens", "place_id": "ChIJqbceq8wEdkgR5InFN9GSE94", "types": ["point_of_interest", "establishment"]}, "ChIJ502EqswEdkgRZJNTCGbUSBM": {"geometry": {"location": {"lat": 51.515059, "lng": -0.122951}, "viewport": {"northeast": {"lat": 51.5164465802915, "lng": -0.121549869708498}, "southwest": {"lat": 51.5137486197085, "lng": -0.124247830291502}}}, "name": "Fly My Cloud", "place_id": "ChIJ502EqswEdkgRZJNTCGbUSBM", "types": ["point_of_interest", "establishment"], "rating": 5, "user_ratings_total": 1}, "ChIJyyxlsTQbdkgRX_njqtHaNtw": {"geometry": {"location": {"lat": 51.515305, "lng": -0.12236}, "viewport": {"northeast": {"lat": 51.5166328802915, "lng": -0.120966169708498}, "southwest": {"lat": 51.5139349197085, "lng": -0.123664130291502}}}, "name": "Tropicana Beach Club", "place_id": "ChIJyyxlsTQbdkgRX_njqtHaNtw", "types": ["night_club", "point_of_interest", "establishment"], "rating": 3.7, "user_ratings_total": 347}, "ChIJqbceq8wEdkgRa7n00KpjCDM": {"geometry": {"location": {"lat": 51.5150179, "lng": -0.1228045}, "viewport": {"northeast": {"lat": 51.51642603029151, "lng": -0.121511969708498}, "southwest": {"lat": 51.51372806970851, "lng": -0.124209930291502}}}, "name": "Diavita LLP", "place_id": "ChIJqbceq8wEdkgRa7n00KpjCDM", "types": ["point_of_interest", "establishment"]}, "ChIJWSMEucwEdkgRwO59nR0QD0s": {"geometry": {"location": {"lat": 51.5154007, "lng": -0.1223439}, "viewport": {"northeast": {"lat": 51.5166009802915, "lng": -0.121042519708498}, "southwest": {"lat": 51.5139030197085, "lng": -0.123740480291502}}}, "name": "NCP London Covent Garden", "place_id": "ChIJWSMEucwEdkgRwO59nR0QD0s", "types": ["parking", "point_of_interest", "establishment"], "rating": 2.8, "user_ratings_total": 120}, "ChIJkWDeujQbdkgRRz9bmcVcX9o": {"geometry": {"location": {"lat": 51.51567559999999, "lng": -0.1225732}, "viewport": {"northeast": {"lat": 51.51708723029149, "lng": -0.121318719708498}, "southwest": {"lat": 51.5143892697085, "lng": -0.124016680291502}}}, "name": "Rockabox Media Ltd", "place_id": "ChIJkWDeujQbdkgRRz9bmcVcX9o", "types": ["point_of_interest", "establishment"]}, "ChIJeSnrVzMbdkgRVYrY3k-GywQ": {"geometry": {"location": {"lat": 51.5155776, "lng": -0.1232899}, "viewport": {"northeast": {"lat": 51.51691543029151, "lng": -0.121897169708498}, "southwest": {"lat": 51.51421746970851, "lng": -0.124595130291502}}}, "name": "Fresh and Organic Cafe", "place_id": "ChIJeSnrVzMbdkgRVYrY3k-GywQ", "types": ["cafe", "restaurant", "food", "point_of_interest", "store", "establishment"], "rating": 4.7, "user_ratings_total": 83}, "ChIJbUkkq8wEdkgRxc8mwXt4CaQ": {"geometry": {"location": {"lat": 51.5155426, "lng": -0.1233358}, "viewport": {"northeast": {"lat": 51.51688533029151, "lng": -0.121944669708498}, "southwest": {"lat": 51.51418736970851, "lng": -0.124642630291502}}}, "name": "Cute Nutrition", "place_id": "ChIJbUkkq8wEdkgRxc8mwXt4CaQ", "types": ["point_of_interest", "establishment"], "rating": 4.2, "user_ratings_total": 9}, "ChIJ4eKwpDQbdkgRb201rXzmFAc": {"geometry": {"location": {"lat": 51.51567559999999, "lng": -0.1225732}, "viewport": {"northeast": {"lat": 51.51708723029149, "lng": -0.121318719708498}, "southwest": {"lat": 51.5143892697085, "lng": -0.124016680291502}}}, "name": "Innovision Events", "place_id": "ChIJ4eKwpDQbdkgRb201rXzmFAc", "types": ["point_of_interest", "establishment"]}, "ChIJmU4kq8wEdkgRlax0x1SnutU": {"geometry": {"location": {"lat": 51.5150837, "lng": -0.1223598}, "viewport": {"northeast": {"lat": 51.51641463029149, "lng": -0.121069819708498}, "southwest": {"lat": 51.5137166697085, "lng": -0.123767780291502}}}, "name": "EEE Lex Ltd", "place_id": "ChIJmU4kq8wEdkgRlax0x1SnutU", "types": ["health", "point_of_interest", "establishment"]}, "ChIJG7-2I8sEdkgRHEcmVhQqthQ": {"geometry": {"location": {"lat": 51.51499709999999, "lng": -0.122468}, "viewport": {"northeast": {"lat": 51.5163648802915, "lng": -0.121158669708498}, "southwest": {"lat": 51.5136669197085, "lng": -0.123856630291502}}}, "name": "Agatha Christie Limited", "place_id": "ChIJG7-2I8sEdkgRHEcmVhQqthQ", "types": ["point_of_interest", "establishment"], "rating": 5, "user_ratings_total": 1}, "ChIJMTbEsjQbdkgRYE4GBnWGFhk": {"geometry": {"location": {"lat": 51.51499709999999, "lng": -0.122468}, "viewport": {"northeast": {"lat": 51.5163648802915, "lng": -0.121158669708498}, "southwest": {"lat": 51.5136669197085, "lng": -0.123856630291502}}}, "name": "cannonandball.com", "place_id": "ChIJMTbEsjQbdkgRYE4GBnWGFhk", "types": ["point_of_interest", "establishment"]}, "ChIJqcLHqjQbdkgRKX8RS0vcWsA": {"geometry": {"location": {"lat": 51.51498689999999, "lng": -0.1232257}, "viewport": {"northeast": {"lat": 51.5162153802915, "lng": -0.121945719708498}, "southwest": {"lat": 51.5135174197085, "lng": -0.124643680291502}}}, "name": "Naked Label Ltd", "place_id": "ChIJqcLHqjQbdkgRKX8RS0vcWsA", "types": ["clothing_store", "point_of_interest", "store", "establishment"]}, "ChIJJzborDQbdkgRcWnHrE2A8Y0": {"geometry": {"location": {"lat": 51.5149123, "lng": -0.123006}, "viewport": {"northeast": {"lat": 51.51631063029149, "lng": -0.121782919708498}, "southwest": {"lat": 51.51361266970849, "lng": -0.124480880291502}}}, "name": "Centre for E-research", "place_id": "ChIJJzborDQbdkgRcWnHrE2A8Y0", "types": ["point_of_interest", "establishment"]}, "ChIJU0NarswEdkgRtYjziMHW-Gk": {"geometry": {"location": {"lat": 51.5151091, "lng": -0.1234702}, "viewport": {"northeast": {"lat": 51.5164826802915, "lng": -0.122157119708498}, "southwest": {"lat": 51.5137847197085, "lng": -0.124855080291502}}}, "name": "Tixo Creative ltd", "place_id": "ChIJU0NarswEdkgRtYjziMHW-Gk", "types": ["point_of_interest", "establishment"]}, "ChIJBbwwVTMbdkgR9Rw5wl2pHmc": {"geometry": {"location": {"lat": 51.5150866, "lng": -0.1234497}, "viewport": {"northeast": {"lat": 51.51646993029149, "lng": -0.122153469708498}, "southwest": {"lat": 51.51377196970849, "lng": -0.124851430291502}}}, "name": "Covent Garden Wedding Shop", "place_id": "ChIJBbwwVTMbdkgR9Rw5wl2pHmc", "types": ["point_of_interest", "establishment"]}, "ChIJBbwwVTMbdkgRD3R9ckRorjM": {"geometry": {"location": {"lat": 51.5150973, "lng": -0.1234625}, "viewport": {"northeast": {"lat": 51.5164462802915, "lng": -0.122113519708498}, "southwest": {"lat": 51.5137483197085, "lng": -0.124811480291502}}}, "name": "Magenta Media", "place_id": "ChIJBbwwVTMbdkgRD3R9ckRorjM", "types": ["point_of_interest", "establishment"]}, "ChIJkWe0qjQbdkgRQLKKYy7dS2o": {"geometry": {"location": {"lat": 51.5149555, "lng": -0.1232488}, "viewport": {"northeast": {"lat": 51.51620248029151, "lng": -0.121963619708498}, "southwest": {"lat": 51.51350451970851, "lng": -0.124661580291502}}}, "name": "Selflessme Ltd", "place_id": "ChIJkWe0qjQbdkgRQLKKYy7dS2o", "types": ["point_of_interest", "establishment"]}, "ChIJVYfZqswEdkgRj9Iv5b4HpRY": {"geometry": {"location": {"lat": 51.5151023, "lng": -0.1234816}, "viewport": {"northeast": {"lat": 51.5164759802915, "lng": -0.122168669708498}, "southwest": {"lat": 51.5137780197085, "lng": -0.124866630291502}}}, "name": "LAND DESIGNS", "place_id": "ChIJVYfZqswEdkgRj9Iv5b4HpRY", "types": ["general_contractor", "point_of_interest", "establishment"]}, "ChIJ4wRjuzQbdkgRg0cSuNOKWKg": {"geometry": {"location": {"lat": 51.51574280000001, "lng": -0.1224132}, "viewport": {"northeast": {"lat": 51.5171613802915, "lng": -0.121169269708498}, "southwest": {"lat": 51.51446341970851, "lng": -0.123867230291502}}}, "name": "Meridian Osteopathy", "place_id": "ChIJ4wRjuzQbdkgRg0cSuNOKWKg", "types": ["health", "point_of_interest", "establishment"]}, "ChIJ78G4sKe5dkgRy5CYZ2pwhCg": {"geometry": {"location": {"lat": 51.5149661, "lng": -0.1233712}, "viewport": {"northeast": {"lat": 51.5163150802915, "lng": -0.122022219708498}, "southwest": {"lat": 51.5136171197085, "lng": -0.124720180291502}}}, "name": "BENZIN LITHO", "place_id": "ChIJ78G4sKe5dkgRy5CYZ2pwhCg", "types": ["point_of_interest", "establishment"]}, "ChIJHROWVTMbdkgRIGtIX79d4c8": {"geometry": {"location": {"lat": 51.5151304, "lng": -0.1233984}, "viewport": {"northeast": {"lat": 51.5164793802915, "lng": -0.122049419708498}, "southwest": {"lat": 51.5137814197085, "lng": -0.124747380291502}}}, "name": "City Centre Dry Cleaners", "place_id": "ChIJHROWVTMbdkgRIGtIX79d4c8", "types": ["laundry", "point_of_interest", "establishment"], "rating": 3.7, "user_ratings_total": 19}, "ChIJbd_9rjQbdkgRpeh1OTDMP9A": {"geometry": {"location": {"lat": 51.51533440000001, "lng": -0.122969}, "viewport": {"northeast": {"lat": 51.5166540802915, "lng": -0.121668869708498}, "southwest": {"lat": 51.5139561197085, "lng": -0.124366830291502}}}, "name": "Essentials London", "place_id": "ChIJbd_9rjQbdkgRpeh1OTDMP9A", "types": ["pharmacy", "beauty_salon", "spa", "doctor", "health", "point_of_interest", "store", "establishment"], "rating": 4.1, "user_ratings_total": 77}, "ChIJT18upDQbdkgRuvW2A95Q8bo": {"geometry": {"location": {"lat": 51.51584199999999, "lng": -0.122875}, "viewport": {"northeast": {"lat": 51.5171625302915, "lng": -0.121483119708498}, "southwest": {"lat": 51.5144645697085, "lng": -0.124181080291502}}}, "name": "London Residential Management Ltd", "place_id": "ChIJT18upDQbdkgRuvW2A95Q8bo", "types": ["point_of_interest", "establishment"], "rating": 2.9, "user_ratings_total": 93}, "ChIJjY3-ojYbdkgRG9jIfMx5rvI": {"geometry": {"location": {"lat": 51.5149123, "lng": -0.1233318}, "viewport": {"northeast": {"lat": 51.5161780802915, "lng": -0.122000069708498}, "southwest": {"lat": 51.5134801197085, "lng": -0.124698030291502}}}, "name": "Cedarcube", "place_id": "ChIJjY3-ojYbdkgRG9jIfMx5rvI", "types": ["health", "point_of_interest", "establishment"], "rating": 4.5, "user_ratings_total": 2}, "ChIJB_Avq8wEdkgR4LOXDNPTfhk": {"geometry": {"location": {"lat": 51.514923, "lng": -0.1223229}, "viewport": {"northeast": {"lat": 51.51624213029149, "lng": -0.121021819708498}, "southwest": {"lat": 51.51354416970849, "lng": -0.123719780291502}}}, "name": "Essex Weather Centre", "place_id": "ChIJB_Avq8wEdkgR4LOXDNPTfhk", "types": ["home_goods_store", "point_of_interest", "store", "establishment"], "rating": 3.6, "user_ratings_total": 10}, "ChIJ-_HWTMsEdkgR_R7utq3dnlA": {"geometry": {"location": {"lat": 51.51497079999999, "lng": -0.1223157},