{"E00023602": {"ChIJFYKv-QgQdkgRCJbASZrJ2i0": {"geometry": {"location": {"lat": 51.52737239657721, "lng": -0.1915042862189321}, "viewport": {"northeast": {"lat": 51.5287214302915, "lng": -0.190155369708498}, "southwest": {"lat": 51.5260234697085, "lng": -0.192853330291502}}}, "name": "162-156 Elgin Ave", "place_id": "ChIJFYKv-QgQdkgRCJbASZrJ2i0", "types": ["route"]}, "ChIJKRFeWwgQdkgR7rwkWuEisTw": {"geometry": {"location": {"lat": 51.527027, "lng": -0.190426}, "viewport": {"northeast": {"lat": 51.52843103029151, "lng": -0.189181619708498}, "southwest": {"lat": 51.52573306970851, "lng": -0.191879580291502}}}, "name": "Paddington Bowls Club", "place_id": "ChIJKRFeWwgQdkgR7rwkWuEisTw", "types": ["point_of_interest", "establishment"]}, "ChIJrfSW8QgQdkgRlPtHaZ4C24g": {"geometry": {"location": {"lat": 51.5271553, "lng": -0.1916224}, "viewport": {"northeast": {"lat": 51.5285563302915, "lng": -0.190336869708498}, "southwest": {"lat": 51.5258583697085, "lng": -0.193034830291502}}}, "name": "Cunnell Mary", "place_id": "ChIJrfSW8QgQdkgRlPtHaZ4C24g", "types": ["health", "point_of_interest", "establishment"]}, "ChIJv3fmYQgQdkgRKuxOBq1VECE": {"geometry": {"location": {"lat": 51.526414, "lng": -0.191032}, "viewport": {"northeast": {"lat": 51.52775258029149, "lng": -0.189695119708498}, "southwest": {"lat": 51.5250546197085, "lng": -0.192393080291502}}}, "name": "ubitricity Charging Station", "place_id": "ChIJv3fmYQgQdkgRKuxOBq1VECE", "types": ["point_of_interest", "establishment"]}, "ChIJRWK7UAgQdkgRvS_zQslaejM": {"geometry": {"location": {"lat": 51.527353, "lng": -0.19053}, "viewport": {"northeast": {"lat": 51.5287498802915, "lng": -0.189117269708498}, "southwest": {"lat": 51.5260519197085, "lng": -0.191815230291502}}}, "name": "Compton Reeback Estate Agents", "place_id": "ChIJRWK7UAgQdkgRvS_zQslaejM", "types": ["real_estate_agency", "point_of_interest", "establishment"], "rating": 4.9, "user_ratings_total": 151}, "ChIJCzeXUAgQdkgRvsr3YZcZqs8": {"geometry": {"location": {"lat": 51.52740000000001, "lng": -0.1907}, "viewport": {"northeast": {"lat": 51.5286837302915, "lng": -0.189227569708498}, "southwest": {"lat": 51.52598576970851, "lng": -0.191925530291502}}}, "name": "Castellain Road Post Office", "place_id": "ChIJCzeXUAgQdkgRvsr3YZcZqs8", "types": ["post_office", "convenience_store", "finance", "food", "point_of_interest", "store", "establishment"], "rating": 1.3, "user_ratings_total": 12}, "ChIJIYo3TnoRdkgRNIsd0Dxvmrg": {"geometry": {"location": {"lat": 51.5273206, "lng": -0.1904582}, "viewport": {"northeast": {"lat": 51.5286669802915, "lng": -0.189104419708498}, "southwest": {"lat": 51.5259690197085, "lng": -0.191802380291502}}}, "name": "Cheapest Online Conveyancing", "place_id": "ChIJIYo3TnoRdkgRNIsd0Dxvmrg", "types": ["lawyer", "point_of_interest", "establishment"]}, "ChIJsxG5WggQdkgRSxvyATQDaS0": {"geometry": {"location": {"lat": 51.5273206, "lng": -0.1904582}, "viewport": {"northeast": {"lat": 51.5287019302915, "lng": -0.189055519708498}, "southwest": {"lat": 51.5260039697085, "lng": -0.191753480291502}}}, "name": "Bon Appetit", "place_id": "ChIJsxG5WggQdkgRSxvyATQDaS0", "types": ["food", "point_of_interest", "store", "establishment"], "rating": 4.5, "user_ratings_total": 41}, "ChIJvzAxWQgQdkgR3hf5I2QgObI": {"geometry": {"location": {"lat": 51.5270506, "lng": -0.190844}, "viewport": {"northeast": {"lat": 51.52838579890636, "lng": -0.1894744978212501}, "southwest": {"lat": 51.52568783832336, "lng": -0.1921724584042541}}}, "name": "Parking lot", "place_id": "ChIJvzAxWQgQdkgR3hf5I2QgObI", "types": ["parking", "premise", "point_of_interest", "establishment"]}, "ChIJV7SFmQgQdkgRD-4cQj4Ozes": {"geometry": {"location": {"lat": 51.52588903670456, "lng": -0.192199939017512}, "viewport": {"northeast": {"lat": 51.5272377302915, "lng": -0.1905297}, "southwest": {"lat": 51.5245397697085, "lng": -0.1938709}}}, "name": "80-112 B413", "place_id": "ChIJV7SFmQgQdkgRD-4cQj4Ozes", "types": ["route"]}, "ChIJw8itYwgQdkgR8EXRUie8_Go": {"geometry": {"location": {"lat": 51.5261871, "lng": -0.1909735}, "viewport": {"northeast": {"lat": 51.5275952802915, "lng": -0.189610219708498}, "southwest": {"lat": 51.52489731970851, "lng": -0.192308180291502}}}, "name": "BBC Maida Vale Studios", "place_id": "ChIJw8itYwgQdkgR8EXRUie8_Go", "types": ["electronics_store", "home_goods_store", "point_of_interest", "store", "establishment"], "rating": 4.4, "user_ratings_total": 229}, "ChIJRU9lodUEdkgRpf4DhngDkWs": {"geometry": {"location": {"lat": 51.525526, "lng": -0.190849}, "viewport": {"northeast": {"lat": 51.5267845302915, "lng": -0.189613419708498}, "southwest": {"lat": 51.5240865697085, "lng": -0.192311380291502}}}, "name": "The Green Gate Practice", "place_id": "ChIJRU9lodUEdkgRpf4DhngDkWs", "types": ["health", "point_of_interest", "establishment"]}, "ChIJWyH-kysFdkgRj2oLfi5dWwE": {"geometry": {"location": {"lat": 51.525388, "lng": -0.190908}, "viewport": {"northeast": {"lat": 51.5266983302915, "lng": -0.189607469708498}, "southwest": {"lat": 51.5240003697085, "lng": -0.192305430291502}}}, "name": "Shirland Ventures Limited", "place_id": "ChIJWyH-kysFdkgRj2oLfi5dWwE", "types": ["point_of_interest", "establishment"]}, "ChIJq7GpfwgQdkgRaET40DHJ8Jo": {"geometry": {"location": {"lat": 51.5258553, "lng": -0.1916744}, "viewport": {"northeast": {"lat": 51.5271366802915, "lng": -0.190413419708498}, "southwest": {"lat": 51.5244387197085, "lng": -0.193111380291502}}}, "name": "LM Services", "place_id": "ChIJq7GpfwgQdkgRaET40DHJ8Jo", "types": ["accounting", "finance", "university", "point_of_interest", "establishment"]}, "ChIJ5SCEfwgQdkgRLofPZzW7IKI": {"geometry": {"location": {"lat": 51.52538759999999, "lng": -0.1909084}, "viewport": {"northeast": {"lat": 51.5266981302915, "lng": -0.189607619708498}, "southwest": {"lat": 51.5240001697085, "lng": -0.192305580291502}}}, "name": "Soleil Relocation", "place_id": "ChIJ5SCEfwgQdkgRLofPZzW7IKI", "types": ["moving_company", "storage", "point_of_interest", "establishment"]}, "ChIJF3YGgwgQdkgR2TiGcayMHqE": {"geometry": {"location": {"lat": 51.525564, "lng": -0.191639}, "viewport": {"northeast": {"lat": 51.52692173029151, "lng": -0.190279169708498}, "southwest": {"lat": 51.52422376970851, "lng": -0.192977130291502}}}, "name": "ubitricity Charging Station", "place_id": "ChIJF3YGgwgQdkgR2TiGcayMHqE", "types": ["point_of_interest", "establishment"]}, "ChIJjdCEKgYQdkgRndP3qiodlHY": {"geometry": {"location": {"lat": 51.52533700000001, "lng": -0.191203}, "viewport": {"northeast": {"lat": 51.52670753029151, "lng": -0.1898265197084979}, "southwest": {"lat": 51.52400956970851, "lng": -0.192524480291502}}}, "name": "ubitricity Charging Station", "place_id": "ChIJjdCEKgYQdkgRndP3qiodlHY", "types": ["point_of_interest", "establishment"]}, "ChIJL9DAzgcQdkgRFBnzDcvexE8": {"geometry": {"location": {"lat": 51.52448063594285, "lng": -0.1905032757479291}, "viewport": {"northeast": {"lat": 51.5258270802915, "lng": -0.18912815}, "southwest": {"lat": 51.5231291197085, "lng": -0.19187355}}}, "name": "68-84 Sutherland Ave", "place_id": "ChIJL9DAzgcQdkgRFBnzDcvexE8", "types": ["route"]}, "ChIJnWfMzAcQdkgRzzN7-fKyJXs": {"geometry": {"location": {"lat": 51.52457440000001, "lng": -0.1906411}, "viewport": {"northeast": {"lat": 51.5258686802915, "lng": -0.189240619708498}, "southwest": {"lat": 51.5231707197085, "lng": -0.191938580291502}}}, "name": "captured by Juliana", "place_id": "ChIJnWfMzAcQdkgRzzN7-fKyJXs", "types": ["point_of_interest", "establishment"], "rating": 5, "user_ratings_total": 3}, "ChIJSc-Ctg8QdkgRi-qyBkEFw8E": {"geometry": {"location": {"lat": 51.52465830000001, "lng": -0.1904119}, "viewport": {"northeast": {"lat": 51.5261383802915, "lng": -0.189044169708498}, "southwest": {"lat": 51.5234404197085, "lng": -0.191742130291502}}}, "name": "Body Back Up Osteopath Healthcare", "place_id": "ChIJSc-Ctg8QdkgRi-qyBkEFw8E", "types": ["health", "point_of_interest", "establishment"], "rating": 4.8, "user_ratings_total": 6}, "ChIJa40SLgYQdkgRaZCQy-CRxEQ": {"geometry": {"location": {"lat": 51.5247826, "lng": -0.1914781}, "viewport": {"northeast": {"lat": 51.52616958029149, "lng": -0.190052569708498}, "southwest": {"lat": 51.52347161970849, "lng": -0.192750530291502}}}, "name": "Hurrah Pictures Limited", "place_id": "ChIJa40SLgYQdkgRaZCQy-CRxEQ", "types": ["point_of_interest", "establishment"]}, "ChIJeWak1g8QdkgR5Z7dxcnnweM": {"geometry": {"location": {"lat": 51.52465830000001, "lng": -0.1904119}, "viewport": {"northeast": {"lat": 51.5261383802915, "lng": -0.189044169708498}, "southwest": {"lat": 51.5234404197085, "lng": -0.191742130291502}}}, "name": "Bodybackup", "place_id": "ChIJeWak1g8QdkgR5Z7dxcnnweM", "types": ["health", "point_of_interest", "store", "establishment"], "rating": 5, "user_ratings_total": 4}, "ChIJBaxu_qcadkgRqk8lGm1L0BA": {"geometry": {"location": {"lat": 51.52465830000001, "lng": -0.1904119}, "viewport": {"northeast": {"lat": 51.52613788029149, "lng": -0.189048569708498}, "southwest": {"lat": 51.52343991970849, "lng": -0.191746530291502}}}, "name": "Maida Vale Library", "place_id": "ChIJBaxu_qcadkgRqk8lGm1L0BA", "types": ["library", "point_of_interest", "establishment"], "rating": 4.4, "user_ratings_total": 34}, "ChIJSVgvNEIRdkgRZvPu50i7JbI": {"geometry": {"location": {"lat": 51.52491, "lng": -0.1906588}, "viewport": {"northeast": {"lat": 51.5263309802915, "lng": -0.189219369708498}, "southwest": {"lat": 51.5236330197085, "lng": -0.191917330291502}}}, "name": "Super International Removals London", "place_id": "ChIJSVgvNEIRdkgRZvPu50i7JbI", "types": ["moving_company", "point_of_interest", "establishment"]}, "ChIJa40SLgYQdkgRHql7OyoL6LM": {"geometry": {"location": {"lat": 51.5247826, "lng": -0.1914781}, "viewport": {"northeast": {"lat": 51.52616958029149, "lng": -0.190052569708498}, "southwest": {"lat": 51.52347161970849, "lng": -0.192750530291502}}}, "name": "Rhapsody Opera", "place_id": "ChIJa40SLgYQdkgRHql7OyoL6LM", "types": ["point_of_interest", "establishment"]}, "ChIJpwCPywcQdkgRDQsozFx6bxI": {"geometry": {"location": {"lat": 51.5244644, "lng": -0.1906853}, "viewport": {"northeast": {"lat": 51.5257814302915, "lng": -0.189312369708498}, "southwest": {"lat": 51.5230834697085, "lng": -0.192010330291502}}}, "name": "ubitricity Charging Station", "place_id": "ChIJpwCPywcQdkgRDQsozFx6bxI", "types": ["point_of_interest", "establishment"]}, "ChIJx1wP6FURdkgRtI9j8keC7DY": {"geometry": {"location": {"lat": 51.5243867, "lng": -0.1911871}, "viewport": {"northeast": {"lat": 51.5256780802915, "lng": -0.189780769708498}, "southwest": {"lat": 51.5229801197085, "lng": -0.192478730291502}}}, "name": "All Out Service", "place_id": "ChIJx1wP6FURdkgRtI9j8keC7DY", "types": ["finance", "point_of_interest", "establishment"]}, "ChIJx4clN48RdkgRoQf3hcNVH4A": {"geometry": {"location": {"lat": 51.5243867, "lng": -0.1911871}, "viewport": {"northeast": {"lat": 51.5256767302915, "lng": -0.1897825697084979}, "southwest": {"lat": 51.5229787697085, "lng": -0.192480530291502}}}, "name": "Rasa Medic", "place_id": "ChIJx4clN48RdkgRoQf3hcNVH4A", "types": ["point_of_interest", "establishment"]}, "ChIJx0CW1QcQdkgR_Mp3AdPYcb0": {"geometry": {"location": {"lat": 51.52529, "lng": -0.190816}, "viewport": {"northeast": {"lat": 51.5266195802915, "lng": -0.189491519708498}, "southwest": {"lat": 51.52392161970851, "lng": -0.192189480291502}}}, "name": "ubitricity Charging Station", "place_id": "ChIJx0CW1QcQdkgR_Mp3AdPYcb0", "types": ["point_of_interest", "establishment"]}, "ChIJW7g82gcQdkgRlehmT5wwTfU": {"geometry": {"location": {"lat": 51.5249949, "lng": -0.190214}, "viewport": {"northeast": {"lat": 51.5263220802915, "lng": -0.188891169708498}, "southwest": {"lat": 51.5236241197085, "lng": -0.191589130291502}}}, "name": "ubitricity Charging Station", "place_id": "ChIJW7g82gcQdkgRlehmT5wwTfU", "types": ["point_of_interest", "establishment"]}, "ChIJ2Xd0SAYQdkgR5Mp-z0t1X3k": {"geometry": {"location": {"lat": 51.52408176929793, "lng": -0.1914143866751406}, "viewport": {"northeast": {"lat": 51.5254300302915, "lng": -0.1900647697084979}, "southwest": {"lat": 51.5227320697085, "lng": -0.192762730291502}}}, "name": "71-67 Sutherland Ave", "place_id": "ChIJ2Xd0SAYQdkgR5Mp-z0t1X3k", "types": ["route"]}, "ChIJC9-4wAgQdkgRyjeoVvgQCK4": {"geometry": {"location": {"lat": 51.52671435043105, "lng": -0.1929274510102914}, "viewport": {"northeast": {"lat": 51.52806333029149, "lng": -0.191578469708498}, "southwest": {"lat": 51.5253653697085, "lng": -0.194276430291502}}}, "name": "138-130 Elgin Ave", "place_id": "ChIJC9-4wAgQdkgRyjeoVvgQCK4", "types": ["route"]}, "ChIJHTqBvggQdkgRVzPZeZ31Byk": {"geometry": {"location": {"lat": 51.5264909, "lng": -0.1929783}, "viewport": {"northeast": {"lat": 51.5279052802915, "lng": -0.191705969708498}, "southwest": {"lat": 51.5252073197085, "lng": -0.194403930291502}}}, "name": "Pines and Needles", "place_id": "ChIJHTqBvggQdkgRVzPZeZ31Byk", "types": ["point_of_interest", "store", "establishment"], "rating": 4.8, "user_ratings_total": 360}, "ChIJXzuBvggQdkgRCY2Ml5KuTzo": {"geometry": {"location": {"lat": 51.5264979, "lng": -0.1930732}, "viewport": {"northeast": {"lat": 51.5279171802915, "lng": -0.191689369708498}, "southwest": {"lat": 51.5252192197085, "lng": -0.194387330291502}}}, "name": "123 Cleaners", "place_id": "ChIJXzuBvggQdkgRCY2Ml5KuTzo", "types": ["laundry", "point_of_interest", "establishment"], "rating": 3.7, "user_ratings_total": 158}, "ChIJGxtNwAgQdkgRmjxaR_wdY1E": {"geometry": {"location": {"lat": 51.526816, "lng": -0.1929155}, "viewport": {"northeast": {"lat": 51.5281339802915, "lng": -0.191528819708498}, "southwest": {"lat": 51.5254360197085, "lng": -0.194226780291502}}}, "name": "ubitricity Charging Station", "place_id": "ChIJGxtNwAgQdkgRmjxaR_wdY1E", "types": ["point_of_interest", "establishment"]}, "ChIJxURtPcARdkgRE0Rcb-dvlH8": {"geometry": {"location": {"lat": 51.5267759, "lng": -0.1928941}, "viewport": {"northeast": {"lat": 51.5281201302915, "lng": -0.191539569708498}, "southwest": {"lat": 51.5254221697085, "lng": -0.194237530291502}}}, "name": "Casa Ale Inglaterra", "place_id": "ChIJxURtPcARdkgRE0Rcb-dvlH8", "types": ["lodging", "point_of_interest", "establishment"]}, "ChIJsyy8xggQdkgR7hdfusqBTCM": {"geometry": {"location": {"lat": 51.5269459, "lng": -0.1929948}, "viewport": {"northeast": {"lat": 51.5282948802915, "lng": -0.191645819708498}, "southwest": {"lat": 51.52559691970851, "lng": -0.194343780291502}}}, "name": "Westside Court", "place_id": "ChIJsyy8xggQdkgR7hdfusqBTCM", "types": ["point_of_interest", "establishment"]}, "ChIJ35K4wAgQdkgRzKZkwsBkG44": {"geometry": {"location": {"lat": 51.52670479999999, "lng": -0.1927959}, "viewport": {"northeast": {"lat": 51.52807578029149, "lng": -0.191474669708498}, "southwest": {"lat": 51.5253778197085, "lng": -0.194172630291502}}}, "name": "ubitricity Charging Station", "place_id": "ChIJ35K4wAgQdkgRzKZkwsBkG44", "types": ["point_of_interest", "establishment"]}, "ChIJ23RtjeYRdkgRoYiqd5zwuBs": {"geometry": {"location": {"lat": 51.5271418, "lng": -0.192729}, "viewport": {"northeast": {"lat": 51.52846368029149, "lng": -0.191405319708498}, "southwest": {"lat": 51.5257657197085, "lng": -0.194103280291502}}}, "name": "Lead LDN", "place_id": "ChIJ23RtjeYRdkgRoYiqd5zwuBs", "types": ["point_of_interest", "establishment"], "rating": 5, "user_ratings_total": 1}, "ChIJg4xMwAgQdkgRqzLoOsEGaCo": {"geometry": {"location": {"lat": 51.5267041, "lng": -0.1925144}, "viewport": {"northeast": {"lat": 51.52811773029151, "lng": -0.191241019708498}, "southwest": {"lat": 51.52541976970851, "lng": -0.193938980291502}}}, "name": "Ontologik Limited", "place_id": "ChIJg4xMwAgQdkgRqzLoOsEGaCo", "types": ["point_of_interest", "establishment"]}, "ChIJDUZYtIwRdkgRExuw8Iqk0o4": {"geometry": {"location": {"lat": 51.5266291, "lng": -0.1926694}, "viewport": {"northeast": {"lat": 51.5280441302915, "lng": -0.191397819708498}, "southwest": {"lat": 51.52534616970851, "lng": -0.194095780291502}}}, "name": "Maida Hill Double Glazing Windows", "place_id": "ChIJDUZYtIwRdkgRExuw8Iqk0o4", "types": ["point_of_interest", "establishment"]}, "ChIJM2jG9a0RdkgRGXVkV-_aoto": {"geometry": {"location": {"lat": 51.5265905, "lng": -0.1927621}, "viewport": {"northeast": {"lat": 51.5280045802915, "lng": -0.191489269708498}, "southwest": {"lat": 51.5253066197085, "lng": -0.194187230291502}}}, "name": "Ceraudo", "place_id": "ChIJM2jG9a0RdkgRGXVkV-_aoto", "types": ["point_of_interest", "establishment"]}, "ChIJ_0818aoRdkgR0zu6jrVnmTE": {"geometry": {"location": {"lat": 51.52689030000001, "lng": -0.192229}, "viewport": {"northeast": {"lat": 51.5282643802915, "lng": -0.190849619708498}, "southwest": {"lat": 51.5255664197085, "lng": -0.193547580291502}}}, "name": "AgendaWallet", "place_id": "ChIJ_0818aoRdkgR0zu6jrVnmTE", "types": ["point_of_interest", "establishment"]}, "ChIJnZeM2XQRdkgRiqoMC_UvZX4": {"geometry": {"location": {"lat": 51.5265751, "lng": -0.1928769}, "viewport": {"northeast": {"lat": 51.5279770302915, "lng": -0.191589969708498}, "southwest": {"lat": 51.5252790697085, "lng": -0.194287930291502}}}, "name": "Edward Ardizzone Blue Plaque", "place_id": "ChIJnZeM2XQRdkgRiqoMC_UvZX4", "types": ["point_of_interest", "establishment"], "rating": 5, "user_ratings_total": 1}, "ChIJP9dLuQgQdkgRRLcDrip3CnA": {"geometry": {"location": {"lat": 51.52641860000001, "lng": -0.1929326}, "viewport": {"northeast": {"lat": 51.5277121802915, "lng": -0.191651619708498}, "southwest": {"lat": 51.5250142197085, "lng": -0.194349580291502}}}, "name": "2 airports", "place_id": "ChIJP9dLuQgQdkgRRLcDrip3CnA", "types": ["point_of_interest", "establishment"]}, "ChIJuU1QuQgQdkgR1CuPHlNkvnE": {"geometry": {"location": {"lat": 51.5263925, "lng": -0.1929414}, "viewport": {"northeast": {"lat": 51.5277414802915, "lng": -0.191592419708498}, "southwest": {"lat": 51.5250435197085, "lng": -0.194290380291502}}}, "name": "CV Building Services (UK) Ltd", "place_id": "ChIJuU1QuQgQdkgR1CuPHlNkvnE", "types": ["point_of_interest", "establishment"]}, "ChIJ75sQEJARdkgRVQLNrU67pCw": {"geometry": {"location": {"lat": 51.52638169999999, "lng": -0.1928663}, "viewport": {"northeast": {"lat": 51.52767198029149, "lng": -0.191573119708498}, "southwest": {"lat": 51.52497401970849, "lng": -0.194271080291502}}}, "name": "WEZA", "place_id": "ChIJ75sQEJARdkgRVQLNrU67pCw", "types": ["restaurant", "food", "point_of_interest", "establishment"], "rating": 4.8, "user_ratings_total": 89}, "ChIJV9xLvAgQdkgR2Qz_imlMxT0": {"geometry": {"location": {"lat": 51.5263682, "lng": -0.1927281}, "viewport": {"northeast": {"lat": 51.5276490802915, "lng": -0.191470419708498}, "southwest": {"lat": 51.5249511197085, "lng": -0.194168380291502}}}, "name": "Darren Scott Salon", "place_id": "ChIJV9xLvAgQdkgR2Qz_imlMxT0", "types": ["hair_care", "health", "point_of_interest", "store", "establishment"], "rating": 4.3, "user_ratings_total": 73}, "ChIJBcNvaNkRdkgRvcTfS-ZwQJw": {"geometry": {"location": {"lat": 51.5273997, "lng": -0.1930823}, "viewport": {"northeast": {"lat": 51.5286970302915, "lng": -0.191779569708498}, "southwest": {"lat": 51.5259990697085, "lng": -0.194477530291502}}}, "name": "Southwold Mansions", "place_id": "ChIJBcNvaNkRdkgRvcTfS-ZwQJw", "types": ["point_of_interest", "establishment"]}, "ChIJTzqBvggQdkgRnMlGrPTnVQU": {"geometry": {"location": {"lat": 51.5262761, "lng": -0.1926}, "viewport": {"northeast": {"lat": 51.52762508029149, "lng": -0.191251019708498}, "southwest": {"lat": 51.52492711970849, "lng": -0.193948980291502}}}, "name": "Properties Actually", "place_id": "ChIJTzqBvggQdkgRnMlGrPTnVQU", "types": ["real_estate_agency", "point_of_interest", "establishment"], "rating": 2.8, "user_ratings_total": 16}, "ChIJkZCDlhACdkgReq7ZIODc6ng": {"geometry": {"location": {"lat": 51.52582149999999, "lng": -0.1924405}, "viewport": {"northeast": {"lat": 51.5272277802915, "lng": -0.191019919708498}, "southwest": {"lat": 51.5245298197085, "lng": -0.193717880291502}}}, "name": "Dashee La MaQuilleuse - Professional Makeup Artist London", "place_id": "ChIJkZCDlhACdkgReq7ZIODc6ng", "types": ["point_of_interest", "establishment"], "rating": 3, "user_ratings_total": 2}, "ChIJZfT4oggQdkgRkRtE-gU8RcE": {"geometry": {"location": {"lat": 51.52586429999999, "lng": -0.1925994}, "viewport": {"northeast": {"lat": 51.5272811802915, "lng": -0.191165619708498}, "southwest": {"lat": 51.5245832197085, "lng": -0.193863580291502}}}, "name": "Thinking Man", "place_id": "ChIJZfT4oggQdkgRkRtE-gU8RcE", "types": ["clothing_store", "point_of_interest", "store", "establishment"], "rating": 3.5, "user_ratings_total": 2}, "ChIJ7aPmuggQdkgRwsMaZl3jwzI": {"geometry": {"location": {"lat": 51.5261212, "lng": -0.1931203}, "viewport": {"northeast": {"lat": 51.52753638029149, "lng": -0.1916889697084979}, "southwest": {"lat": 51.5248384197085, "lng": -0.194386930291502}}}, "name": "Rosine Jozef Perelberg", "place_id": "ChIJ7aPmuggQdkgRwsMaZl3jwzI", "types": ["health", "point_of_interest", "establishment"]}, "ChIJX-5Pb_ERdkgRFUo_Sfa78Aw": {"geometry": {"location": {"lat": 51.52585130000001, "lng": -0.192602}, "viewport": {"northeast": {"lat": 51.52720028029151, "lng": -0.191253019708498}, "southwest": {"lat": 51.52450231970851, "lng": -0.1939509802915021}}}, "name": "Skip Hire Maida Vale", "place_id": "ChIJX-5Pb_ERdkgRFUo_Sfa78Aw", "types": ["point_of_interest", "establishment"]}, "ChIJvXeWvAgQdkgRTnEyFDaQdno": {"geometry": {"location": {"lat": 51.5261, "lng": -0.192814}, "viewport": {"northeast": {"lat": 51.5274757302915, "lng": -0.191431769708498}, "southwest": {"lat": 51.52477776970851, "lng": -0.194129730291502}}}, "name": "Elgin Avenue (Stop MK)", "place_id": "ChIJvXeWvAgQdkgRTnEyFDaQdno", "types": ["transit_station", "point_of_interest", "establishment"]}, "ChIJh3RivAgQdkgRfW_mhI3uf4M": {"geometry": {"location": {"lat": 51.526186, "lng": -0.1928465}, "viewport": {"northeast": {"lat": 51.5275194802915, "lng": -0.191516819708498}, "southwest": {"lat": 51.5248215197085, "lng": -0.194214780291502}}}, "name": "Elgin Avenue Shirland Road", "place_id": "ChIJh3RivAgQdkgRfW_mhI3uf4M", "types": ["transit_station", "point_of_interest", "establishment"]}, "ChIJaxnuqQgQdkgRP0JKxNFb-HM": {"geometry": {"location": {"lat": 51.52558310000001, "lng": -0.1929485}, "viewport": {"northeast": {"lat": 51.52689128029151, "lng": -0.191649219708498}, "southwest": {"lat": 51.52419331970851, "lng": -0.194347180291502}}}, "name": "ERH", "place_id": "ChIJaxnuqQgQdkgRP0JKxNFb-HM", "types": ["point_of_interest", "establishment"]}, "ChIJcd8FupgRdkgRQ0qDwuNfKTw": {"geometry": {"location": {"lat": 51.5261212, "lng": -0.1931203}, "viewport": {"northeast": {"lat": 51.52753638029149, "lng": -0.1916889697084979}, "southwest": {"lat": 51.5248384197085, "lng": -0.194386930291502}}}, "name": "Amal Building Services ltd", "place_id": "ChIJcd8FupgRdkgRQ0qDwuNfKTw", "types": ["point_of_interest", "establishment"], "rating": 4.9, "user_ratings_total": 38}, "ChIJ7aPmuggQdkgROIE68s-1W54": {"geometry": {"location": {"lat": 51.5261212, "lng": -0.1931203}, "viewport": {"northeast": {"lat": 51.52753638029149, "lng": -0.1916889697084979}, "southwest": {"lat": 51.5248384197085, "lng": -0.194386930291502}}}, "name": "Instute of Psychanalysis", "place_id": "ChIJ7aPmuggQdkgROIE68s-1W54", "types": ["place_of_worship", "point_of_interest", "establishment"]}, "ChIJg_VAtjMRdkgRLmCrEeAr1WI": {"geometry": {"location": {"lat": 51.5261507, "lng": -0.1931179}, "viewport": {"northeast": {"lat": 51.52755628029149, "lng": -0.191698519708498}, "southwest": {"lat": 51.5248583197085, "lng": -0.194396480291502}}}, "name": "Tree House", "place_id": "ChIJg_VAtjMRdkgRLmCrEeAr1WI", "types": ["lodging", "point_of_interest", "establishment"], "rating": 5, "user_ratings_total": 2}, "ChIJf47EFOoRdkgRXfnzlat16ZE": {"geometry": {"location": {"lat": 51.52623209999999, "lng": -0.1926129}, "viewport": {"northeast": {"lat": 51.5275362302915, "lng": -0.191319719708498}, "southwest": {"lat": 51.5248382697085, "lng": -0.194017680291502}}}, "name": "Beachcroft House Care Home", "place_id": "ChIJf47EFOoRdkgRXfnzlat16ZE", "types": ["point_of_interest", "establishment"]}, "ChIJFQMcoAgQdkgRkQNH65pW1Lo": {"geometry": {"location": {"lat": 51.5254245, "lng": -0.1925562}, "viewport": {"northeast": {"lat": 51.5267245802915, "lng": -0.1912781197084979}, "southwest": {"lat": 51.5240266197085, "lng": -0.193976080291502}}}, "name": "Even Flow Lifestyle Fitness", "place_id": "ChIJFQMcoAgQdkgRkQNH65pW1Lo", "types": ["gym", "health", "point_of_interest", "establishment"]}, "ChIJr1S9fzcRdkgR2EI0c1OXv3Y": {"geometry": {"location": {"lat": 51.5260516, "lng": -0.1921485}, "viewport": {"northeast": {"lat": 51.5273421302915, "lng": -0.190872519708498}, "southwest": {"lat": 51.5246441697085, "lng": -0.193570480291502}}}, "name": "The Masefield", "place_id": "ChIJr1S9fzcRdkgR2EI0c1OXv3Y", "types": ["point_of_interest", "establishment"]}, "ChIJJ00rE3ERdkgRyD-tk9xJbjU": {"geometry": {"location": {"lat": 51.52628869999999, "lng": -0.1926565}, "viewport": {"northeast": {"lat": 51.5275816802915, "lng": -0.1913771697084979}, "southwest": {"lat": 51.5248837197085, "lng": -0.194075130291502}}}, "name": "NOKA PROPERTY SERVICES LTD", "place_id": "ChIJJ00rE3ERdkgRyD-tk9xJbjU", "types": ["point_of_interest", "establishment"]}, "ChIJoSnhuwgQdkgR7DQ8sgKgrBE": {"geometry": {"location": {"lat": 51.526306, "lng": -0.192864}, "viewport": {"northeast": {"lat": 51.52762478029149, "lng": -0.191552569708498}, "southwest": {"lat": 51.5249268197085, "lng": -0.194250530291502}}}, "name": "Elgin Avenue (Stop MF)", "place_id": "ChIJoSnhuwgQdkgR7DQ8sgKgrBE", "types": ["transit_station", "point_of_interest", "establishment"], "rating": 4.5, "user_ratings_total": 2}, "ChIJ6b2FsAgQdkgR-RKujMFHuYE": {"geometry": {"location": {"lat": 51.5262112, "lng": -0.1933174}, "viewport": {"northeast": {"lat": 51.5276280302915, "lng": -0.1918851697084979}, "southwest": {"lat": 51.5249300697085, "lng": -0.194583130291502}}}, "name": "DanteVino Ltd", "place_id": "ChIJ6b2FsAgQdkgR-RKujMFHuYE", "types": ["point_of_interest", "establishment"]}, "ChIJUSLxDgYQdkgRQQKmo1h4FOM": {"geometry": {"location": {"lat": 51.52448482207051, "lng": -0.1934600952141952}, "viewport": {"northeast": {"lat": 51.52583488029149, "lng": -0.192116819708498}, "southwest": {"lat": 51.52313691970849, "lng": -0.194814780291502}}}, "name": "51 Marylands Rd", "place_id": "ChIJUSLxDgYQdkgRQQKmo1h4FOM", "types": ["route"]}, "ChIJh_xYGAYQdkgRoeZVTzEqcbQ": {"geometry": {"location": {"lat": 51.5248617, "lng": -0.1926561}, "viewport": {"northeast": {"lat": 51.5261996302915, "lng": -0.191294219708498}, "southwest": {"lat": 51.5235016697085, "lng": -0.193992180291502}}}, "name": "Dancing Tao", "place_id": "ChIJh_xYGAYQdkgRoeZVTzEqcbQ", "types": ["point_of_interest", "establishment"]}, "ChIJLbqnaCzyd0gRe2g3CKtzoHk": {"geometry": {"location": {"lat": 51.5248617, "lng": -0.1926561}, "viewport": {"northeast": {"lat": 51.5261996302915, "lng": -0.191294219708498}, "southwest": {"lat": 51.5235016697085, "lng": -0.193992180291502}}}, "name": "United Teaching", "place_id": "ChIJLbqnaCzyd0gRe2g3CKtzoHk", "types": ["point_of_interest", "establishment"]}, "ChIJweb2GQYQdkgRif2tw1ijrGA": {"geometry": {"location": {"lat": 51.524759, "lng": -0.192883}, "viewport": {"northeast": {"lat": 51.52609683029149, "lng": -0.191521019708498}, "southwest": {"lat": 51.52339886970849, "lng": -0.194218980291502}}}, "name": "Caramelo Latin Dance", "place_id": "ChIJweb2GQYQdkgRif2tw1ijrGA", "types": ["point_of_interest", "establishment"], "rating": 4.4, "user_ratings_total": 81}, "ChIJ-eAoBkwRdkgRbLM5234JIg0": {"geometry": {"location": {"lat": 51.5248617, "lng": -0.1926561}, "viewport": {"northeast": {"lat": 51.5261996302915, "lng": -0.191294219708498}, "southwest": {"lat": 51.5235016697085, "lng": -0.193992180291502}}}, "name": "Bluebirds Ballet School", "place_id": "ChIJ-eAoBkwRdkgRbLM5234JIg0", "types": ["point_of_interest", "establishment"]}, "ChIJ9a9lxIgRdkgRJa2p4LHImHI": {"geometry": {"location": {"lat": 51.52462200000001, "lng": -0.1924624}, "viewport": {"northeast": {"lat": 51.52605243029151, "lng": -0.190939419708498}, "southwest": {"lat": 51.52335446970851, "lng": -0.193637380291502}}}, "name": "SA GLOBAL ENGINEERING", "place_id": "ChIJ9a9lxIgRdkgRJa2p4LHImHI", "types": ["plumber", "point_of_interest", "establishment"]}, "ChIJmbkPRkMRdkgRqMIIEHhG9hc": {"geometry": {"location": {"lat": 51.5246197, "lng": -0.1931123}, "viewport": {"northeast": {"lat": 51.5259774802915, "lng": -0.191774169708498}, "southwest": {"lat": 51.5232795197085, "lng": -0.194472130291502}}}, "name": "Central London Teaching School Hub", "place_id": "ChIJmbkPRkMRdkgRqMIIEHhG9hc", "types": ["point_of_interest", "establishment"]}, "ChIJvyMaujYRdkgRo5nP7cP5378": {"geometry": {"location": {"lat": 51.5244197, "lng": -0.1927177}, "viewport": {"northeast": {"lat": 51.52573383029149, "lng": -0.191447619708498}, "southwest": {"lat": 51.52303586970849, "lng": -0.194145580291502}}}, "name": "methodist church", "place_id": "ChIJvyMaujYRdkgRo5nP7cP5378", "types": ["church", "place_of_worship", "point_of_interest", "establishment"]}, "ChIJ65mG1R0RdkgR-I5w_lhDfnk": {"geometry": {"location": {"lat": 51.5242714, "lng": -0.1926344}, "viewport": {"northeast": {"lat": 51.5255985802915, "lng": -0.191333969708498}, "southwest": {"lat": 51.5229006197085, "lng": -0.194031930291502}}}, "name": "Ficticity", "place_id": "ChIJ65mG1R0RdkgR-I5w_lhDfnk", "types": ["point_of_interest", "establishment"]}, "ChIJBV_TOw8QdkgRb3dZ-6Ph9yw": {"geometry": {"location": {"lat": 51.5270094650371, "lng": -0.1949015876891385}, "viewport": {"northeast": {"lat": 51.5283578302915, "lng": -0.193553169708498}, "southwest": {"lat": 51.5256598697085, "lng": -0.196251130291502}}}, "name": "169-151 B413", "place_id": "ChIJBV_TOw8QdkgRb3dZ-6Ph9yw", "types": ["route"]}, "ChIJV6wQNw8QdkgRsgZRuGq5tC4": {"geometry": {"location": {"lat": 51.5269, "lng": -0.194619}, "viewport": {"northeast": {"lat": 51.5282282302915, "lng": -0.1932890697084979}, "southwest": {"lat": 51.5255302697085, "lng": -0.195987030291502}}}, "name": "Cathleen Fox Hypnotherapy", "place_id": "ChIJV6wQNw8QdkgRsgZRuGq5tC4", "types": ["health", "point_of_interest", "establishment"]}, "ChIJeTcCFw8QdkgRw8ZFXHseP6o": {"geometry": {"location": {"lat": 51.52695259999999, "lng": -0.1942376}, "viewport": {"northeast": {"lat": 51.5282348302915, "lng": -0.1929507697084979}, "southwest": {"lat": 51.5255368697085, "lng": -0.195648730291502}}}, "name": "THe Hype Bureau", "place_id": "ChIJeTcCFw8QdkgRw8ZFXHseP6o", "types": ["point_of_interest", "establishment"]}, "ChIJ-d_QOw8QdkgRzJe6b-u8EMQ": {"geometry": {"location": {"lat": 51.527085, "lng": -0.1949207999999999}, "viewport": {"northeast": {"lat": 51.5284094302915, "lng": -0.193594069708498}, "southwest": {"lat": 51.5257114697085, "lng": -0.196292030291502}}}, "name": "Aware Alive Awake Professional Services", "place_id": "ChIJ-d_QOw8QdkgRzJe6b-u8EMQ", "types": ["electronics_store", "health", "point_of_interest", "store", "establishment"]}, "ChIJ3TZbzQgQdkgRE4EMXJGCAys": {"geometry": {"location": {"lat": 51.5272938, "lng": -0.1939592}, "viewport": {"northeast": {"lat": 51.5287475302915, "lng": -0.192516419708498}, "southwest": {"lat": 51.5260495697085, "lng": -0.195214380291502}}}, "name": "RBM Architects", "place_id": "ChIJ3TZbzQgQdkgRE4EMXJGCAys", "types": ["point_of_interest", "establishment"]}, "ChIJFxax0QgQdkgRbUe_0s2ph70": {"geometry": {"location": {"lat": 51.5273023, "lng": -0.1939409}, "viewport": {"northeast": {"lat": 51.5287503302915, "lng": -0.192503169708498}, "southwest": {"lat": 51.5260523697085, "lng": -0.195201130291502}}}, "name": "Cristina Codina Alexander Technique Maida Vale", "place_id": "ChIJFxax0QgQdkgRbUe_0s2ph70", "types": ["health", "point_of_interest", "establishment"]}, "ChIJJ3FazggQdkgRFZJYM2hbWpo": {"geometry": {"location": {"lat": 51.5272923, "lng": -0.1939295}, "viewport": {"northeast": {"lat": 51.52874268029149, "lng": -0.192489719708498}, "southwest": {"lat": 51.52604471970849, "lng": -0.195187680291502}}}, "name": "Froggle Parties Ltd", "place_id": "ChIJJ3FazggQdkgRFZJYM2hbWpo", "types": ["point_of_interest", "establishment"], "rating": 5, "user_ratings_total": 7}, "ChIJZ032oggQdkgRiZFf4QJsaHE": {"geometry": {"location": {"lat": 51.5266282, "lng": -0.1944091}, "viewport": {"northeast": {"lat": 51.5279087302915, "lng": -0.193120019708498}, "southwest": {"lat": 51.5252107697085, "lng": -0.195817980291502}}}, "name": "The Institute of Psychoanalysis", "place_id": "ChIJZ032oggQdkgRiZFf4QJsaHE", "types": ["health", "point_of_interest", "establishment"], "rating": 4, "user_ratings_total": 4}, "ChIJ4dr-tAgQdkgRw-yqSSR_ASs": {"geometry": {"location": {"lat": 51.5267811, "lng": -0.1946631}, "viewport": {"northeast": {"lat": 51.5281114302915, "lng": -0.193270219708498}, "southwest": {"lat": 51.5254134697085, "lng": -0.195968180291502}}}, "name": "Welford & Sons Dairy Chief Office", "place_id": "ChIJ4dr-tAgQdkgRw-yqSSR_ASs", "types": ["point_of_interest", "establishment"]}, "ChIJPQN00kMRdkgR7d_VOIhEVEU": {"geometry": {"location": {"lat": 51.5267423, "lng": -0.1945425}, "viewport": {"northeast": {"lat": 51.5281444302915, "lng": -0.193144069708498}, "southwest": {"lat": 51.5254464697085, "lng": -0.195842030291502}}}, "name": "Welford House", "place_id": "ChIJPQN00kMRdkgR7d_VOIhEVEU", "types": ["point_of_interest", "establishment"]}, "ChIJVVXRNA8QdkgR0ppg8i6Trds": {"geometry": {"location": {"lat": 51.5268606, "lng": -0.1940414}, "viewport": {"northeast": {"lat": 51.5281501802915, "lng": -0.192747219708498}, "southwest": {"lat": 51.5254522197085, "lng": -0.195445180291502}}}, "name": "Molly Ayton Upholstery", "place_id": "ChIJVVXRNA8QdkgR0ppg8i6Trds", "types": ["furniture_store", "home_goods_store", "point_of_interest", "store", "establishment"], "rating": 5, "user_ratings_total": 1}, "ChIJVf0JjFIRdkgRFjn5C9gYfAM": {"geometry": {"location": {"lat": 51.5269064, "lng": -0.1948962}, "viewport": {"northeast": {"lat": 51.5282934802915, "lng": -0.193512169708498}, "southwest": {"lat": 51.5255955197085, "lng": -0.196210130291502}}}, "name": "Buy To Let Property Tax Advisors", "place_id": "ChIJVf0JjFIRdkgRFjn5C9gYfAM", "types": ["lawyer", "point_of_interest", "establishment"]}, "ChIJG_n7cysRdkgRqUxXa2h_o8g": {"geometry": {"location": {"lat": 51.5266679, "lng": -0.1946392}, "viewport": {"northeast": {"lat": 51.5281109302915, "lng": -0.193202669708498}, "southwest": {"lat": 51.5254129697085, "lng": -0.195900630291502}}}, "name": "Dr William Badenhorst", "place_id": "ChIJG_n7cysRdkgRqUxXa2h_o8g", "types": ["doctor", "health", "point_of_interest", "establishment"]}, "ChIJy8vwSQ8QdkgRHnKeNU4eHDM": {"geometry": {"location": {"lat": 51.5266282, "lng": -0.1944091}, "viewport": {"northeast": {"lat": 51.5279087302915, "lng": -0.193120019708498}, "southwest": {"lat": 51.5252107697085, "lng": -0.195817980291502}}}, "name": "Stephen Grosz", "place_id": "ChIJy8vwSQ8QdkgRHnKeNU4eHDM", "types": ["health", "point_of_interest", "establishment"]}, "ChIJMYxVtQgQdkgRtGP9eIrqpDM": {"geometry": {"location": {"lat": 51.5267685, "lng": -0.1940297}, "viewport": {"northeast": {"lat": 51.52809173029149, "lng": -0.192705069708498}, "southwest": {"lat": 51.5253937697085, "lng": -0.195403030291502}}}, "name": "ubitricity Charging Station", "place_id": "ChIJMYxVtQgQdkgRtGP9eIrqpDM", "types": ["point_of_interest", "establishment"]}, "ChIJVVUZOQ8QdkgRbj2PoK0lq-g": {"geometry": {"location": {"lat": 51.52685899999999, "lng": -0.1950079}, "viewport": {"northeast": {"lat": 51.5281345802915, "lng": -0.1937299197084979}, "southwest": {"lat": 51.5254366197085, "lng": -0.196427880291502}}}, "name": "London School Of Journalism", "place_id": "ChIJVVUZOQ8QdkgRbj2PoK0lq-g", "types": ["point_of_interest", "establishment"]}, "ChIJNRGpUQURdkgRB23KtpPnpr8": {"geometry": {"location": {"lat": 51.52685899999999, "lng": -0.1950079}, "viewport": {"northeast": {"lat": 51.5281345802915, "lng": -0.1937299197084979}, "southwest": {"lat": 51.5254366197085, "lng": -0.196427880291502}}}, "name": "Promised Land", "place_id": "ChIJNRGpUQURdkgRB23KtpPnpr8", "types": ["electronics_store", "home_goods_store", "point_of_interest", "store", "establishment"]}, "ChIJVVUZOQ8QdkgR9NjrGwLShTM": {"geometry": {"location": {"lat": 51.52685899999999, "lng": -0.1950079}, "viewport": {"northeast": {"lat": 51.5281345802915, "lng": -0.1937299197084979}, "southwest": {"lat": 51.5254366197085, "lng": -0.196427880291502}}}, "name": "The London School of Journalism", "place_id": "ChIJVVUZOQ8QdkgR9NjrGwLShTM", "types": ["point_of_interest", "establishment"]}, "ChIJ6wDUOw8QdkgRmRwEY2b3_mM": {"geometry": {"location": {"lat": 51.5269941, "lng": -0.195042}, "viewport": {"northeast": {"lat": 51.52836818029149, "lng": -0.193672069708498}, "southwest": {"lat": 51.52567021970849, "lng": -0.196370030291502}}}, "name": "ubitricity Charging Station", "place_id": "ChIJ6wDUOw8QdkgRmRwEY2b3_mM", "types": ["point_of_interest", "establishment"]}, "ChIJB66a8CoRdkgRtlrZ7P7iPoY": {"geometry": {"location": {"lat": 51.52688750000001, "lng": -0.1950686}, "viewport": {"northeast": {"lat": 51.5281564302915, "lng": -0.193780569708498}, "southwest": {"lat": 51.5254584697085, "lng": -0.196478530291502}}}, "name": "k1channelconsulting", "place_id": "ChIJB66a8CoRdkgRtlrZ7P7iPoY", "types": ["point_of_interest", "establishment"]}, "ChIJcfA6OQ8QdkgROebB5_mcck0": {"geometry": {"location": {"lat": 51.52688750000001, "lng": -0.1950686}, "viewport": {"northeast": {"lat": 51.5281564302915, "lng": -0.193780569708498}, "southwest": {"lat": 51.5254584697085, "lng": -0.196478530291502}}}, "name": "Capperi", "place_id": "ChIJcfA6OQ8QdkgROebB5_mcck0", "types": ["point_of_interest", "establishment"]}, "ChIJeTcCFw8QdkgRxLqzwg2P3HA": {"geometry": {"location": {"lat": 51.5265727, "lng": -0.1942695}, "viewport": {"northeast": {"lat": 51.52785918029151, "lng": -0.192985819708498}, "southwest": {"lat": 51.52516121970851, "lng": -0.195683780291502}}}, "name": "Bird Of Prey Productions", "place_id": "ChIJeTcCFw8QdkgRxLqzwg2P3HA", "types": ["point_of_interest", "establishment"]}, "ChIJK-mLOw8QdkgRUpt1jQ_vf_I": {"geometry": {"location": {"lat": 51.5271606, "lng": -0.1951209}, "viewport": {"northeast": {"lat": 51.5284817802915, "lng": -0.193798019708498}, "southwest": {"lat": 51.5257838197085, "lng": -0.196495980291502}}}, "name": "ubitricity Charging Station", "place_id": "ChIJK-mLOw8QdkgRUpt1jQ_vf_I", "types": ["point_of_interest", "establishment"]}, "ChIJ3TZbzQgQdkgRjVE9PjZkosM": {"geometry": {"location": {"lat": 51.5272923, "lng": -0.1939295}, "viewport": {"northeast": {"lat": 51.52874268029149, "lng": -0.192489719708498}, "southwest": {"lat": 51.52604471970849, "lng": -0.195187680291502}}}, "name": "CP. Air-Con Services", "place_id": "ChIJ3TZbzQgQdkgRjVE9PjZkosM", "types": ["electrician", "plumber", "general_contractor", "point_of_interest", "establishment"], "rating": 5, "user_ratings_total": 1}, "ChIJmaWhKVARdkgRpR1x9AWW9wA": {"geometry": {"location": {"lat": 51.5273327, "lng": -0.19395}, "viewport": {"northeast": {"lat": 51.52877033029151, "lng": -0.192521619708498}, "southwest": {"lat": 51.52607236970851, "lng": -0.1952195802915021}}}, "name": "Legacy Tees London", "place_id": "ChIJmaWhKVARdkgRpR1x9AWW9wA", "types": ["point_of_interest", "clothing_store", "store", "establishment"]}, "ChIJE5vemPgRdkgRMeBffXiIVPs": {"geometry": {"location": {"lat": 51.5273327, "lng": -0.19395}, "viewport": {"northeast": {"lat": 51.5287703802915, "lng": -0.192521569708498}, "southwest": {"lat": 51.5260724197085, "lng": -0.195219530291502}}}, "name": "Josh Cawthorn - Director", "place_id": "ChIJE5vemPgRdkgRMeBffXiIVPs", "types": ["point_of_interest", "establishment"], "rating": 5, "user_ratings_total": 3}, "ChIJwTHiPQ8QdkgRPcKCM8sGILc": {"geometry": {"location": {"lat": 51.5269304, "lng": -0.195273}, "viewport": {"northeast": {"lat": 51.5281778802915, "lng": -0.193856669708498}, "southwest": {"lat": 51.5254799197085, "lng": -0.196554630291502}}}, "name": "Bare Natural Beauty", "place_id": "ChIJwTHiPQ8QdkgRPcKCM8sGILc", "types": ["beauty_salon", "point_of_interest", "establishment"]}, "ChIJZ2z0tQgQdkgRFu4JzjWScCw": {"geometry": {"location": {"lat": 51.52676479999999, "lng": -0.1936581}, "viewport": {"northeast": {"lat": 51.52803908029149, "lng": -0.192378869708498}, "southwest": {"lat": 51.5253411197085, "lng": -0.1950768302915021}}}, "name": "Medimpex UK Ltd", "place_id": "ChIJZ2z0tQgQdkgRFu4JzjWScCw", "types": ["health", "point_of_interest", "establishment"]}, "ChIJZ2z0tQgQdkgRu5Mckpw7nK0": {"geometry": {"location": {"lat": 51.52676479999999, "lng": -0.1936581}, "viewport": {"northeast": {"lat": 51.52803908029149, "lng": -0.192378869708498}, "southwest": {"lat": 51.5253411197085, "lng": -0.1950768302915021}}}, "name": "Gedeon Richter UK Ltd", "place_id": "ChIJZ2z0tQgQdkgRu5Mckpw7nK0", "types": ["health", "point_of_interest", "establishment"], "rating": 1, "user_ratings_total": 1}, "ChIJRxFlSA8QdkgROK2E4HEw_z8": {"geometry": {"location": {"lat": 51.5266332, "lng": -0.1948912}, "viewport": {"northeast": {"lat": 51.52789370025705, "lng": -0.1933501844084902}, "southwest": {"lat": 51.52519573967405, "lng": -0.1960481449914942}}}, "name": "Parking lot", "place_id": "ChIJRxFlSA8QdkgROK2E4HEw_z8", "types": ["parking", "premise", "point_of_interest", "establishment"]}, "ChIJSRP3TA8QdkgR3ROhy9AW-3g": {"geometry": {"location": {"lat": 51.52613175370337, "lng": -0.1944487750007839}, "viewport": {"northeast": {"lat": 51.5274830802915, "lng": -0.193101819708498}, "southwest": {"lat": 51.5247851197085, "lng": -0.195799780291502}}}, "name": "118-98 Elgin Ave", "place_id": "ChIJSRP3TA8QdkgR3ROhy9AW-3g", "types": ["route"]}, "ChIJq74fUg8QdkgRnqZHzNTkp0A": {"geometry": {"location": {"lat": 51.5258099, "lng": -0.1947442}, "viewport": {"northeast": {"lat": 51.5272470802915, "lng": -0.193469769708498}, "southwest": {"lat": 51.5245491197085, "lng": -0.196167730291502}}}, "name": "End Road Rage Ltd", "place_id": "ChIJq74fUg8QdkgRnqZHzNTkp0A", "types": ["health", "point_of_interest", "establishment"]}, "ChIJqbLQUwgQdkgRPoo-9sVwEgs": {"geometry": {"location": {"lat": 51.5259995, "lng": -0.1943522000000001}, "viewport": {"northeast": {"lat": 51.5274127302915, "lng": -0.193057269708498}, "southwest": {"lat": 51.5247147697085, "lng": -0.195755230291502}}}, "name": "Joana Senkute Photography", "place_id": "ChIJqbLQUwgQdkgRPoo-9sVwEgs", "types": ["point_of_interest", "establishment"], "rating": 5, "user_ratings_total": 2}, "ChIJ3R7YWg8QdkgRX7Mj-MgorZ8": {"geometry": {"location": {"lat": 51.52597499999999, "lng": -0.1949278}, "viewport": {"northeast": {"lat": 51.52732398029148, "lng": -0.193578819708498}, "southwest": {"lat": 51.52462601970849, "lng": -0.196276780291502}}}, "name": "Soul Vibes Bed n Break", "place_id": "ChIJ3R7YWg8QdkgRX7Mj-MgorZ8", "types": ["lodging", "point_of_interest", "establishment"]}, "ChIJQduVTw8QdkgRk4WLBg4v6-Y": {"geometry": {"location": {"lat": 51.52613880000001, "lng": -0.1946862}, "viewport": {"northeast": {"lat": 51.5274550302915, "lng": -0.193307769708498}, "southwest": {"lat": 51.52475706970851, "lng": -0.196005730291502}}}, "name": "ubitricity Charging Station", "place_id": "ChIJQduVTw8QdkgRk4WLBg4v6-Y", "types": ["point_of_interest", "establishment"]}, "ChIJYfIuTEERdkgRlBq1qvHkVxA": {"geometry": {"location": {"lat": 51.5262439, "lng": -0.1948417}, "viewport": {"northeast": {"lat": 51.52749858029151, "lng": -0.193413019708498}, "southwest": {"lat": 51.52480061970851, "lng": -0.196110980291502}}}, "name": "Elgin Avenue", "place_id": "ChIJYfIuTEERdkgRlBq1qvHkVxA", "types": ["point_of_interest", "establishment"]}, "ChIJOXdKXA8QdkgRl17Bl1971Uo": {"geometry": {"location": {"lat": 51.5257163, "lng": -0.1952396}, "viewport": {"northeast": {"lat": 51.52712803029149, "lng": -0.193941919708498}, "southwest": {"lat": 51.52443006970849, "lng": -0.196639880291502}}}, "name": "Alex Young Recruitment Limited", "place_id": "ChIJOXdKXA8QdkgRl17Bl1971Uo", "types": ["point_of_interest", "establishment"]}, "ChIJ87oT-AUQdkgRMzCbthr7MLo": {"geometry": {"location": {"lat": 51.5253192, "lng": -0.194698}, "viewport": {"northeast": {"lat": 51.52664610529206, "lng": -0.1933178775452158}, "southwest": {"lat": 51.52394814470906, "lng": -0.1960158381282198}}}, "name": "Parking lot", "place_id": "ChIJ87oT-AUQdkgRMzCbthr7MLo", "types": ["parking", "premise", "point_of_interest", "establishment"]}, "ChIJS0pC_AUQdkgRa2_DpgUuLZk": {"geometry": {"location": {"lat": 51.52507171857035, "lng": -0.1945862140749344}, "viewport": {"northeast": {"lat": 51.5264232302915, "lng": -0.193234119708498}, "southwest": {"lat": 51.5237252697085, "lng": -0.195932080291502}}}, "name": "8-42 Oakington Rd", "place_id": "ChIJS0pC_AUQdkgRa2_DpgUuLZk", "types": ["route"]}, "ChIJTbnsCQYQdkgRVgbJ7LhdStU": {"geometry": {"location": {"lat": 51.5243655, "lng": -0.1939435}, "viewport": {"northeast": {"lat": 51.52565998029151, "lng": -0.192478819708498}, "southwest": {"lat": 51.52296201970851, "lng": -0.195176780291502}}}, "name": "Theta2Change", "place_id": "ChIJTbnsCQYQdkgRVgbJ7LhdStU", "types": ["bank", "finance", "point_of_interest", "establishment"]}, "ChIJGbaQgj8RdkgRCu5ICnu4a4M": {"geometry": {"location": {"lat": 51.524809, "lng": -0.194274}, "viewport": {"northeast": {"lat": 51.52619583029151, "lng": -0.192879769708498}, "southwest": {"lat": 51.52349786970851, "lng": -0.195577730291502}}}, "name": "SCHOOL", "place_id": "ChIJGbaQgj8RdkgRCu5ICnu4a4M", "types": ["school", "point_of_interest", "establishment"]}, "ChIJrar3_AUQdkgRRpeFEQeUw0k": {"geometry": {"location": {"lat": 51.52485229999999, "lng": -0.1942444}, "viewport": {"northeast": {"lat": 51.52621998029149, "lng": -0.192870319708498}, "southwest": {"lat": 51.52352201970849, "lng": -0.195568280291502}}}, "name": "ubitricity Charging Station", "place_id": "ChIJrar3_AUQdkgRRpeFEQeUw0k", "types": ["point_of_interest", "establishment"]}, "ChIJu4Jk9wUQdkgRnxFLJmRz84g": {"geometry": {"location": {"lat": 51.52514419999999, "lng": -0.1948726}, "viewport": {"northeast": {"lat": 51.52651343029149, "lng": -0.1934999697084979}, "southwest": {"lat": 51.5238154697085, "lng": -0.196197930291502}}}, "name": "ubitricity Charging Station", "place_id": "ChIJu4Jk9wUQdkgRnxFLJmRz84g", "types": ["point_of_interest", "establishment"]}, "ChIJtdbqG10RdkgR52HM08yu-TM": {"geometry": {"location": {"lat": 51.5251939, "lng": -0.1948448}, "viewport": {"northeast": {"lat": 51.5265679802915, "lng": -0.193465219708498}, "southwest": {"lat": 51.5238700197085, "lng": -0.196163180291502}}}, "name": "Matrix", "place_id": "ChIJtdbqG10RdkgR52HM08yu-TM", "types": ["point_of_interest", "establishment"]}, "ChIJ_R-oOw0RdkgRoQ_IJq_4pbI": {"geometry": {"location": {"lat": 51.52433980000001, "lng": -0.19397}, "viewport": {"northeast": {"lat": 51.52563498029151, "lng": -0.192506819708498}, "southwest": {"lat": 51.52293701970851, "lng": -0.195204780291502}}}, "name": "hot male masseur", "place_id": "ChIJ_R-oOw0RdkgRoQ_IJq_4pbI", "types": ["point_of_interest", "establishment"]}, "ChIJA0rI7AUQdkgR_PlPez25Q14": {"geometry": {"location": {"lat": 51.5244556, "lng": -0.1953823}, "viewport": {"northeast": {"lat": 51.52582037923237, "lng": -0.194056260479099}, "southwest": {"lat": 51.52312241864938, "lng": -0.1967542210621031}}}, "name": "Edbrooke Road Gardens", "place_id": "ChIJA0rI7AUQdkgR_PlPez25Q14", "types": ["park", "premise", "point_of_interest", "establishment"]}, "ChIJw7Ro4AUQdkgRhOnNKSHkmM0": {"geometry": {"location": {"lat": 51.5240479, "lng": -0.1942805}, "viewport": {"northeast": {"lat": 51.5253500802915, "lng": -0.1928373697084979}, "southwest": {"lat": 51.5226521197085, "lng": -0.195535330291502}}}, "name": "Pimpernel Press Ltd", "place_id": "ChIJw7Ro4AUQdkgRhOnNKSHkmM0", "types": ["point_of_interest", "establishment"]}, "ChIJ5Z1Ut1ARdkgRXNfiP7wQuG4": {"geometry": {"location": {"lat": 51.52408440000001, "lng": -0.1939182}, "viewport": {"northeast": {"lat": 51.52543338029152, "lng": -0.192569219708498}, "southwest": {"lat": 51.52273541970852, "lng": -0.195267180291502}}}, "name": "Progether", "place_id": "ChIJ5Z1Ut1ARdkgRXNfiP7wQuG4", "types": ["general_contractor", "point_of_interest", "establishment"], "rating": 5, "user_ratings_total": 1}, "ChIJYWhdqnoRdkgReXDGh__PVjM": {"geometry": {"location": {"lat": 51.5270073, "lng": -0.1954013}, "viewport": {"northeast": {"lat": 51.52842373029151, "lng": -0.193991169708498}, "southwest": {"lat": 51.52572576970851, "lng": -0.196689130291502}}}, "name": "catalysta.biz", "place_id": "ChIJYWhdqnoRdkgReXDGh__PVjM", "types": ["finance", "point_of_interest", "establishment"]}, "ChIJ129kVwgQdkgRCMrXbp2HPsg": {"geometry": {"location": {"lat": 51.5274296, "lng": -0.1905877000000001}, "viewport": {"northeast": {"lat": 51.52880338029149, "lng": -0.189132819708498}, "southwest": {"lat": 51.52610541970849, "lng": -0.1918307802915021}}}, "name": "Wanderlust Nail Lounge", "place_id": "ChIJ129kVwgQdkgRCMrXbp2HPsg", "types": ["beauty_salon", "point_of_interest", "establishment"], "rating": 4.7, "user_ratings_total": 57}, "ChIJwbBWctcRdkgRpiTOvE2hUlM": {"geometry": {"location": {"lat": 51.5273913, "lng": -0.190479}, "viewport": {"northeast": {"lat": 51.52877273029149, "lng": -0.189064319708498}, "southwest": {"lat": 51.52607476970849, "lng": -0.191762280291502}}}, "name": "Iona, Lara and Brill\u2019s Pad", "place_id": "ChIJwbBWctcRdkgRpiTOvE2hUlM", "types": ["point_of_interest", "establishment"]}, "ChIJHbx-gZ4RdkgR8y_ESgDaLzQ": {"geometry": {"location": {"lat": 51.5274167, "lng": -0.1905369}, "viewport": {"northeast": {"lat": 51.5287965802915, "lng": -0.189112469708498}, "southwest": {"lat": 51.5260986197085, "lng": -0.191810430291502}}}, "name": "Maida Vale London - catherine", "place_id": "ChIJHbx-gZ4RdkgR8y_ESgDaLzQ", "types": ["lodging", "point_of_interest", "establishment"]}, "ChIJRWK7UAgQdkgRMb4tMxDTpmY": {"geometry": {"location": {"lat": 51.52742659999999, "lng": -0.1905796}, "viewport": {"northeast": {"lat": 51.5288015302915, "lng": -0.189128569708498}, "southwest": {"lat": 51.5261035697085, "lng": -0.191826530291502}}}, "name": "Hamish 2", "place_id": "ChIJRWK7UAgQdkgRMb4tMxDTpmY", "types": ["convenience_store", "food", "point_of_interest", "store", "establishment"], "rating": 3, "user_ratings_total": 29}, "ChIJL6Z38i0RdkgRxl-gBZ9X2ss": {"geometry": {"location": {"lat": 51.5273854, "lng": -0.1905957}, "viewport": {"northeast": {"lat": 51.5287809302915, "lng": -0.189136619708498}, "southwest": {"lat": 51.5260829697085, "lng": -0.191834580291502}}}, "name": "Post Office Travel Money", "place_id": "ChIJL6Z38i0RdkgRxl-gBZ9X2ss", "types": ["finance", "point_of_interest", "establishment"]}, "ChIJy0og9JoRdkgRqdSt9D1dSu0": {"geometry": {"location": {"lat": 51.5273854, "lng": -0.1905957}, "viewport": {"northeast": {"lat": 51.5287809302915, "lng": -0.189136619708498}, "southwest": {"lat": 51.5260829697085, "lng": -0.191834580291502}}}, "name": "MoneyGram", "place_id": "ChIJy0og9JoRdkgRqdSt9D1dSu0", "types": ["finance", "point_of_interest", "establishment"]}, "ChIJO7LDUQgQdkgRoUwkaMaft0I": {"geometry": {"location": {"lat": 51.52746189999999, "lng": -0.1906561}, "viewport": {"northeast": {"lat": 51.52881088029149, "lng": -0.189307119708498}, "southwest": {"lat": 51.5261129197085, "lng": -0.192005080291502}}}, "name": "Petit Caf\u00e9", "place_id": "ChIJO7LDUQgQdkgRoUwkaMaft0I", "types": ["cafe", "food", "point_of_interest", "store", "establishment"], "rating": 3.9, "user_ratings_total": 132}, "ChIJnSA-cAgQdkgRATokB9GPoZM": {"geometry": {"location": {"lat": 51.52602439398794, "lng": -0.1902900012055541}, "viewport": {"northeast": {"lat": 51.52742295000004, "lng": -0.1871738999999999}, "southwest": {"lat": 51.52460954999993, "lng": -0.1934287}}}, "name": "170 Delaware Rd", "place_id": "ChIJnSA-cAgQdkgRATokB9GPoZM", "types": ["route"]}, "ChIJE1L6_pIRdkgRNEBWjcIYeOU": {"geometry": {"location": {"lat": 51.526332, "lng": -0.190494}, "viewport": {"northeast": {"lat": 51.52761043029151, "lng": -0.189228569708498}, "southwest": {"lat": 51.52491246970851, "lng": -0.191926530291502}}}, "name": "Wear & Tear", "place_id": "ChIJE1L6_pIRdkgRNEBWjcIYeOU", "types": ["point_of_interest", "establishment"]}, "ChIJiwxR2gcQdkgRZ71f2s67Psk": {"geometry": {"location": {"lat": 51.52490405010153, "lng": -0.1901685497466281}, "viewport": {"northeast": {"lat": 51.52625303029149, "lng": -0.188819569708498}, "southwest": {"lat": 51.52355506970849, "lng": -0.191517530291502}}}, "name": "62 B413", "place_id": "ChIJiwxR2gcQdkgRZ71f2s67Psk", "types": ["route"]}, "ChIJRU9lodUEdkgREBrj-elY6Bw": {"geometry": {"location": {"lat": 51.5251443, "lng": -0.1902155}, "viewport": {"northeast": {"lat": 51.5264256302915, "lng": -0.188951519708498}, "southwest": {"lat": 51.5237276697085, "lng": -0.191649480291502}}}, "name": "Andreas Lind", "place_id": "ChIJRU9lodUEdkgREBrj-elY6Bw", "types": ["health", "point_of_interest", "establishment"]}, "ChIJZe0CgAgQdkgRxY5WLFv-WDs": {"geometry": {"location": {"lat": 51.5251151, "lng": -0.1902767}, "viewport": {"northeast": {"lat": 51.5264147302915, "lng": -0.188989669708498}, "southwest": {"lat": 51.5237167697085, "lng": -0.191687630291502}}}, "name": "North London Counselling", "place_id": "ChIJZe0CgAgQdkgRxY5WLFv-WDs", "types": ["health", "point_of_interest", "establishment"]}, "ChIJgXPUzgcQdkgR3nwSmINLWyY": {"geometry": {"location": {"lat": 51.52442603153056, "lng": -0.1904471796958388}, "viewport": {"northeast": {"lat": 51.5257760802915, "lng": -0.18902165}, "southwest": {"lat": 51.52307811970851, "lng": -0.19187465}}}, "name": "101-75 Sutherland Ave", "place_id": "ChIJgXPUzgcQdkgR3nwSmINLWyY", "types": ["route"]}, "ChIJ63ZH-ggQdkgRSZOMPReoTUM": {"geometry": {"location": {"lat": 51.527449, "lng": -0.191541}, "viewport": {"northeast": {"lat": 51.5287677802915, "lng": -0.190156069708498}, "southwest": {"lat": 51.5260698197085, "lng": -0.192854030291502}}}, "name": "ubitricity Charging Station", "place_id": "ChIJ63ZH-ggQdkgRSZOMPReoTUM", "types": ["point_of_interest", "establishment"]}, "ChIJf-0X8AgQdkgRU5pEelxpHuY": {"geometry": {"location": {"lat": 51.52724240000001, "lng": -0.1920019}, "viewport": {"northeast": {"lat": 51.52856593029151, "lng": -0.190598619708498}, "southwest": {"lat": 51.52586796970851, "lng": -0.193296580291502}}}, "name": "ubitricity Charging Station", "place_id": "ChIJf-0X8AgQdkgRU5pEelxpHuY", "types": ["point_of_interest", "establishment"]}, "ChIJVVWljggQdkgR8V-iGeubnXA": {"geometry": {"location": {"lat": 51.52631030000001, "lng": -0.1914833000000001}, "viewport": {"northeast": {"lat": 51.5277426802915, "lng": -0.190040119708498}, "southwest": {"lat": 51.5250447197085, "lng": -0.1927380802915021}}}, "name": "Rayne House", "place_id": "ChIJVVWljggQdkgR8V-iGeubnXA", "types": ["point_of_interest", "establishment"]}, "ChIJDXgCKAYQdkgR09mS5moO8l4": {"geometry": {"location": {"lat": 51.525365, "lng": -0.191767}, "viewport": {"northeast": {"lat": 51.5266935302915, "lng": -0.190389569708498}, "southwest": {"lat": 51.5239955697085, "lng": -0.193087530291502}}}, "name": "ubitricity Charging Station", "place_id": "ChIJDXgCKAYQdkgR09mS5moO8l4", "types": ["point_of_interest", "establishment"]}, "ChIJd9xZNgYQdkgRlpc8DSm2uvk": {"geometry": {"location": {"lat": 51.5241847, "lng": -0.1916858}, "viewport": {"northeast": {"lat": 51.5254823302915, "lng": -0.190289019708498}, "southwest": {"lat": 51.52278436970851, "lng": -0.192986980291502}}}, "name": "The Marriage Development Company Ltd.", "place_id": "ChIJd9xZNgYQdkgRlpc8DSm2uvk", "types": ["point_of_interest", "establishment"]}, "ChIJjaTwLwYQdkgRsvLlgcTJWeI": {"geometry": {"location": {"lat": 51.5247532, "lng": -0.1918704}, "viewport": {"northeast": {"lat": 51.52607143029149, "lng": -0.190587119708498}, "southwest": {"lat": 51.5233734697085, "lng": -0.193285080291502}}}, "name": "CaseCheck Employment Lawyers London", "place_id": "ChIJjaTwLwYQdkgRsvLlgcTJWeI", "types": ["lawyer", "point_of_interest", "establishment"]}, "ChIJ9SJ20CIRdkgRR2fifuy2oKw": {"geometry": {"location": {"lat": 51.52421030000001, "lng": -0.1919577}, "viewport": {"northeast": {"lat": 51.5254616302915, "lng": -0.190517869708498}, "southwest": {"lat": 51.52276366970851, "lng": -0.193215830291502}}}, "name": "MUSIC GEMS LTD", "place_id": "ChIJ9SJ20CIRdkgRR2fifuy2oKw", "types": ["point_of_interest", "establishment"]}, "ChIJeVr_OAYQdkgRRrRvcCU9xWU": {"geometry": {"location": {"lat": 51.5241603, "lng": -0.1917672}, "viewport": {"northeast": {"lat": 51.5254560802915, "lng": -0.1903687197084979}, "southwest": {"lat": 51.5227581197085, "lng": -0.193066680291502}}}, "name": "Mint Kitchens", "place_id": "ChIJeVr_OAYQdkgRRrRvcCU9xWU", "types": ["home_goods_store", "general_contractor", "point_of_interest", "store", "establishment"], "rating": 5, "user_ratings_total": 2}, "ChIJjaTwLwYQdkgRz_NuGg87-hc": {"geometry": {"location": {"lat": 51.52443029999999, "lng": -0.1920341}, "viewport": {"northeast": {"lat": 51.5258313302915, "lng": -0.1905738697084979}, "southwest": {"lat": 51.5231333697085, "lng": -0.193271830291502}}}, "name": "Loft King Ltd", "place_id": "ChIJjaTwLwYQdkgRz_NuGg87-hc", "types": ["general_contractor", "point_of_interest", "establishment"], "rating": 2, "user_ratings_total": 3}, "ChIJlUYk0ggQdkgR0NsGxR8ZxIU": {"geometry": {"location": {"lat": 51.52743448919131, "lng": -0.1935732266244814}, "viewport": {"northeast": {"lat": 51.52876303029149, "lng": -0.1915704}, "southwest": {"lat": 51.5260650697085, "lng": -0.1956311999999999}}}, "name": "17-61 Widley Rd", "place_id": "ChIJlUYk0ggQdkgR0NsGxR8ZxIU", "types": ["route"]}, "ChIJP1UN2wgQdkgRNGP9GP6h7w8": {"geometry": {"location": {"lat": 51.5274582, "lng": -0.1930103}, "viewport": {"northeast": {"lat": 51.5287236802915, "lng": -0.191736119708498}, "southwest": {"lat": 51.52602571970851, "lng": -0.194434080291502}}}, "name": "Rooster Advertising Ltd", "place_id": "ChIJP1UN2wgQdkgRNGP9GP6h7w8", "types": ["point_of_interest", "establishment"]}, "ChIJ4VNF0ggQdkgRcL3Hcm4Fq2Y": {"geometry": {"location": {"lat": 51.527455, "lng": -0.193791}, "viewport": {"northeast": {"lat": 51.5288184802915, "lng": -0.192429069708498}, "southwest": {"lat": 51.5261205197085, "lng": -0.195127030291502}}}, "name": "ubitricity Charging Station", "place_id": "ChIJ4VNF0ggQdkgRcL3Hcm4Fq2Y", "types": ["point_of_interest", "establishment"]}, "ChIJq6r6MAYGdkgR6lkRuyZda9c": {"geometry": {"location": {"lat": 51.5274582, "lng": -0.1930103}, "viewport": {"northeast": {"lat": 51.5287236802915, "lng": -0.191736119708498}, "southwest": {"lat": 51.52602571970851, "lng": -0.194434080291502}}}, "name": "Xvavi\u00ae", "place_id": "ChIJq6r6MAYGdkgR6lkRuyZda9c", "types": ["point_of_interest", "establishment"], "rating": 5, "user_ratings_total": 8}, "ChIJSRP3TA8QdkgRKFfIIZly7Q0": {"geometry": {"location": {"lat": 51.52638772556207, "lng": -0.1937052541851028}, "viewport": {"northeast": {"lat": 51.5277370302915, "lng": -0.192356569708498}, "southwest": {"lat": 51.5250390697085, "lng": -0.195054530291502}}}, "name": "128-120 Elgin Ave", "place_id": "ChIJSRP3TA8QdkgRKFfIIZly7Q0", "types": ["route"]}, "ChIJ-U8zSQ8QdkgRkRSDQinOh4o": {"geometry": {"location": {"lat": 51.526491, "lng": -0.1939467}, "viewport": {"northeast": {"lat": 51.52776863029149, "lng": -0.192532869708498}, "southwest": {"lat": 51.5250706697085, "lng": -0.195230830291502}}}, "name": "Alexandra Soveral Limited", "place_id": "ChIJ-U8zSQ8QdkgRkRSDQinOh4o", "types": ["health", "point_of_interest", "store", "establishment"]}, "ChIJNyJkswgQdkgRR_eh6iQLXas": {"geometry": {"location": {"lat": 51.52632120000001, "lng": -0.1938978}, "viewport": {"northeast": {"lat": 51.5276422802915, "lng": -0.192523419708498}, "southwest": {"lat": 51.5249443197085, "lng": -0.195221380291502}}}, "name": "W9design", "place_id": "ChIJNyJkswgQdkgRR_eh6iQLXas", "types": ["general_contractor", "point_of_interest", "establishment"]}, "ChIJ-U8zSQ8QdkgRZq4OCJtiG4g": {"geometry": {"location": {"lat": 51.5264631, "lng": -0.1938972}, "viewport": {"northeast": {"lat": 51.52777103029149, "lng": -0.192479669708498}, "southwest": {"lat": 51.52507306970849, "lng": -0.195177630291502}}}, "name": "Elgin Food & Wine", "place_id": "ChIJ-U8zSQ8QdkgRZq4OCJtiG4g", "types": ["grocery_or_supermarket", "food", "point_of_interest", "store", "establishment"], "rating": 4, "user_ratings_total": 38}, "ChIJg0UnsQgQdkgRn9zi3OEwUb4": {"geometry": {"location": {"lat": 51.52628920000001, "lng": -0.1934657}, "viewport": {"northeast": {"lat": 51.52770743029151, "lng": -0.1921802697084979}, "southwest": {"lat": 51.52500946970851, "lng": -0.194878230291502}}}, "name": "Man with Van Maida Vale Ltd.", "place_id": "ChIJg0UnsQgQdkgRn9zi3OEwUb4", "types": ["moving_company", "point_of_interest", "establishment"], "rating": 2, "user_ratings_total": 1}, "ChIJadfHsAgQdkgR01HLtwIw7OI": {"geometry": {"location": {"lat": 51.52630600000001, "lng": -0.193379}, "viewport": {"northeast": {"lat": 51.5277294802915, "lng": -0.192098419708498}, "southwest": {"lat": 51.52503151970851, "lng": -0.194796380291502}}}, "name": "DAY TRUE", "place_id": "ChIJadfHsAgQdkgR01HLtwIw7OI", "types": ["furniture_store", "home_goods_store", "general_contractor", "point_of_interest", "store", "establishment"], "rating": 5, "user_ratings_total": 11}, "ChIJGxapqVURdkgRvQqXjS-plMM": {"geometry": {"location": {"lat": 51.5262749, "lng": -0.193924}, "viewport": {"northeast": {"lat": 51.5276235802915, "lng": -0.192574669708498}, "southwest": {"lat": 51.5249256197085, "lng": -0.195272630291502}}}, "name": "Van Recovery Maida Hill", "place_id": "ChIJGxapqVURdkgRvQqXjS-plMM", "types": ["car_repair", "point_of_interest", "establishment"]}, "ChIJabl_Sw8QdkgRuKJAFXN8AFo": {"geometry": {"location": {"lat": 51.526491, "lng": -0.1939467}, "viewport": {"northeast": {"lat": 51.52776863029149, "lng": -0.192532869708498}, "southwest": {"lat": 51.5250706697085, "lng": -0.195230830291502}}}, "name": "Slumberfleece Ltd", "place_id": "ChIJabl_Sw8QdkgRuKJAFXN8AFo", "types": ["home_goods_store", "point_of_interest", "store", "establishment"]}, "ChIJEZI6tggQdkgRjRmXqdy6BRU": {"geometry": {"location": {"lat": 51.526628, "lng": -0.193515}, "viewport": {"northeast": {"lat": 51.52793398029149, "lng": -0.192207069708498}, "southwest": {"lat": 51.52523601970849, "lng": -0.194905030291502}}}, "name": "Dexters", "place_id": "ChIJEZI6tggQdkgRjRmXqdy6BRU", "types": ["point_of_interest", "establishment"]}, "ChIJ3TP9B5wRdkgRHh0dCSirvoU": {"geometry": {"location": {"lat": 51.52669160000001, "lng": -0.1936617}, "viewport": {"northeast": {"lat": 51.52799373029151, "lng": -0.192356469708498}, "southwest": {"lat": 51.52529576970851, "lng": -0.195054430291502}}}, "name": "Commercial Truck Jump Start Maida Hill", "place_id": "ChIJ3TP9B5wRdkgRHh0dCSirvoU", "types": ["car_repair", "point_of_interest", "establishment"]}, "ChIJgTtUJwYQdkgRlwYF0odeAs8": {"geometry": {"location": {"lat": 51.5252039, "lng": -0.1936398}, "viewport": {"northeast": {"lat": 51.5263824802915, "lng": -0.191821719708498}, "southwest": {"lat": 51.5236845197085, "lng": -0.194519680291502}}}, "name": "Paddington Academy", "place_id": "ChIJgTtUJwYQdkgRlwYF0odeAs8", "types": ["school", "point_of_interest", "establishment"], "rating": 2.7, "user_ratings_total": 70}, "ChIJL1KWCwYQdkgRmsnaHDhTel4": {"geometry": {"location": {"lat": 51.5243162500975, "lng": -0.1936393504139184}, "viewport": {"northeast": {"lat": 51.52566523029149, "lng": -0.192290369708498}, "southwest": {"lat": 51.5229672697085, "lng": -0.194988330291502}}}, "name": "49-41 Marylands Rd", "place_id": "ChIJL1KWCwYQdkgRmsnaHDhTel4", "types": ["route"]}, "ChIJb0ZUDgYQdkgROAqfWVrrSeI": {"geometry": {"location": {"lat": 51.524427, "lng": -0.1938108}, "viewport": {"northeast": {"lat": 51.52573013029149, "lng": -0.192364519708498}, "southwest": {"lat": 51.52303216970849, "lng": -0.195062480291502}}}, "name": "Lava Services", "place_id": "ChIJb0ZUDgYQdkgROAqfWVrrSeI", "types": ["point_of_interest", "establishment"]}, "ChIJG3GHuwgQdkgRoYPn6qE1BE0": {"geometry": {"location": {"lat": 51.5270322, "lng": -0.1953369}, "viewport": {"northeast": {"lat": 51.5284306302915, "lng": -0.193943119708498}, "southwest": {"lat": 51.5257326697085, "lng": -0.196641080291502}}}, "name": "Moving Day Ltd", "place_id": "ChIJG3GHuwgQdkgRoYPn6qE1BE0", "types": ["moving_company", "storage", "point_of_interest", "establishment"], "rating": 3, "user_ratings_total": 1}, "ChIJEzZX39oRdkgR44YeRn033i8": {"geometry": {"location": {"lat": 51.5273614, "lng": -0.1954141}, "viewport": {"northeast": {"lat": 51.5286475802915, "lng": -0.194123369708498}, "southwest": {"lat": 51.5259496197085, "lng": -0.196821330291502}}}, "name": "TandGo Web Development, Web Design, Graphic Design", "place_id": "ChIJEzZX39oRdkgR44YeRn033i8", "types": ["point_of_interest", "establishment"], "rating": 5, "user_ratings_total": 1}, "ChIJbUr3XA8QdkgRKMl-3mTS55I": {"geometry": {"location": {"lat": 51.52590665019221, "lng": -0.195140450319212}, "viewport": {"northeast": {"lat": 51.5272556302915, "lng": -0.193791469708498}, "southwest": {"lat": 51.5245576697085, "lng": -0.196489430291502}}}, "name": "98-86 Elgin Ave", "place_id": "ChIJbUr3XA8QdkgRKMl-3mTS55I", "types": ["route"]}, "ChIJuaRMQQ8QdkgRXKw_xSRjpio": {"geometry": {"location": {"lat": 51.5264046, "lng": -0.1951237}, "viewport": {"northeast": {"lat": 51.5277152802915, "lng": -0.193829319708498}, "southwest": {"lat": 51.5250173197085, "lng": -0.196527280291502}}}, "name": "Byron Court", "place_id": "ChIJuaRMQQ8QdkgRXKw_xSRjpio", "types": ["primary_school", "school", "point_of_interest", "establishment"], "rating": 5, "user_ratings_total": 2}, "ChIJMRaYaQ8QdkgRTlmqw2rJ6NQ": {"geometry": {"location": {"lat": 51.5252768, "lng": -0.1953943}, "viewport": {"northeast": {"lat": 51.52667548029149, "lng": -0.193955319708498}, "southwest": {"lat": 51.5239775197085, "lng": -0.196653280291502}}}, "name": "Kamilian Creative Design Agency", "place_id": "ChIJMRaYaQ8QdkgRTlmqw2rJ6NQ", "types": ["point_of_interest", "establishment"]}, "ChIJq0ob6gUQdkgRrrb3CqYEtig": {"geometry": {"location": {"lat": 51.52408639999999, "lng": -0.1951323}, "viewport": {"northeast": {"lat": 51.5253894302915, "lng": -0.193828919708498}, "southwest": {"lat": 51.5226914697085, "lng": -0.196526880291502}}}, "name": "Elmfield House", "place_id": "ChIJq0ob6gUQdkgRrrb3CqYEtig", "types": ["lodging", "point_of_interest", "establishment"], "rating": 4, "user_ratings_total": 2}}}