{"E00024100": {"ChIJIZIwi2URdkgRgi4kY9Ql_Nk": {"geometry": {"location": {"lat": 51.5233793, "lng": -0.1902631}, "viewport": {"northeast": {"lat": 51.5247212302915, "lng": -0.188912569708498}, "southwest": {"lat": 51.52202326970851, "lng": -0.191610530291502}}}, "name": "Downtime Studios", "place_id": "ChIJIZIwi2URdkgRgi4kY9Ql_Nk", "types": ["point_of_interest", "establishment"], "rating": 5, "user_ratings_total": 3}, "ChIJpWLFpAcQdkgRMAmKs0KQ9G4": {"geometry": {"location": {"lat": 51.5233552, "lng": -0.1900741}, "viewport": {"northeast": {"lat": 51.5247360302915, "lng": -0.188732669708498}, "southwest": {"lat": 51.5220380697085, "lng": -0.191430630291502}}}, "name": "Maia Management Consulting Ltd", "place_id": "ChIJpWLFpAcQdkgRMAmKs0KQ9G4", "types": ["point_of_interest", "establishment"]}, "ChIJs6otrgcQdkgRH1KOmcjs2rQ": {"geometry": {"location": {"lat": 51.5233752, "lng": -0.1904738}, "viewport": {"northeast": {"lat": 51.52471386760202, "lng": -0.1891595109559283}, "southwest": {"lat": 51.52201590701902, "lng": -0.1918574715389323}}}, "name": "Parking lot", "place_id": "ChIJs6otrgcQdkgRH1KOmcjs2rQ", "types": ["parking", "premise", "point_of_interest", "establishment"]}, "ChIJiYNhrgcQdkgRA8F4njJdHRo": {"geometry": {"location": {"lat": 51.52330443626915, "lng": -0.1905943057141544}, "viewport": {"northeast": {"lat": 51.52459338029149, "lng": -0.1890694}, "southwest": {"lat": 51.5218954197085, "lng": -0.1920709999999999}}}, "name": "31 Aldsworth Cl", "place_id": "ChIJiYNhrgcQdkgRA8F4njJdHRo", "types": ["route"]}, "ChIJ2WxrJMYRdkgRBbtEH5kt4KY": {"geometry": {"location": {"lat": 51.5224213, "lng": -0.1906266}, "viewport": {"northeast": {"lat": 51.52377603029149, "lng": -0.189374769708498}, "southwest": {"lat": 51.5210780697085, "lng": -0.192072730291502}}}, "name": "Max Effect Builders", "place_id": "ChIJ2WxrJMYRdkgRBbtEH5kt4KY", "types": ["point_of_interest", "establishment"]}, "ChIJm05SAQcQdkgRL_jTZL-68Ks": {"geometry": {"location": {"lat": 51.5224506, "lng": -0.1908126}, "viewport": {"northeast": {"lat": 51.5237908565549, "lng": -0.1893408289381164}, "southwest": {"lat": 51.5210928959719, "lng": -0.1920387895211204}}}, "name": "Parking lot", "place_id": "ChIJm05SAQcQdkgRL_jTZL-68Ks", "types": ["parking", "premise", "point_of_interest", "establishment"]}, "ChIJKVSwFAcQdkgR6zGBkkCCjFo": {"geometry": {"location": {"lat": 51.52171316536639, "lng": -0.1896062680137244}, "viewport": {"northeast": {"lat": 51.5230527802915, "lng": -0.188252019708498}, "southwest": {"lat": 51.5203548197085, "lng": -0.190949980291502}}}, "name": "Senior Street", "place_id": "ChIJKVSwFAcQdkgR6zGBkkCCjFo", "types": ["route"]}, "ChIJX7Q4EwcQdkgRDw2Kkf_0aQY": {"geometry": {"location": {"lat": 51.5217981, "lng": -0.189617}, "viewport": {"northeast": {"lat": 51.52310668029149, "lng": -0.188250469708498}, "southwest": {"lat": 51.52040871970849, "lng": -0.190948430291502}}}, "name": "Westminster Society for People With Learning Disabilities", "place_id": "ChIJX7Q4EwcQdkgRDw2Kkf_0aQY", "types": ["point_of_interest", "establishment"], "rating": 3, "user_ratings_total": 2}, "ChIJ_2mV4AYQdkgRyuspERR8_9o": {"geometry": {"location": {"lat": 51.5218814, "lng": -0.1911236}, "viewport": {"northeast": {"lat": 51.5231048802915, "lng": -0.189807769708498}, "southwest": {"lat": 51.5204069197085, "lng": -0.192505730291502}}}, "name": "Forrester Court - Care UK", "place_id": "ChIJ_2mV4AYQdkgRyuspERR8_9o", "types": ["health", "point_of_interest", "establishment"], "rating": 4.5, "user_ratings_total": 12}, "ChIJ5z5VFwcQdkgRda_4KPSqFqI": {"geometry": {"location": {"lat": 51.52174900000001, "lng": -0.190295}, "viewport": {"northeast": {"lat": 51.52309298029149, "lng": -0.188965969708498}, "southwest": {"lat": 51.52039501970849, "lng": -0.191663930291502}}}, "name": "ubitricity Charging Station", "place_id": "ChIJ5z5VFwcQdkgRda_4KPSqFqI", "types": ["point_of_interest", "establishment"]}, "ChIJwfaaIQcQdkgRrE482XpH8bc": {"geometry": {"location": {"lat": 51.521294, "lng": -0.190723}, "viewport": {"northeast": {"lat": 51.5226461802915, "lng": -0.189344419708498}, "southwest": {"lat": 51.5199482197085, "lng": -0.192042380291502}}}, "name": "ubitricity Charging Station", "place_id": "ChIJwfaaIQcQdkgRrE482XpH8bc", "types": ["point_of_interest", "establishment"]}, "ChIJX7Q4EwcQdkgRXB9iqi4wPQM": {"geometry": {"location": {"lat": 51.5218406, "lng": -0.1896343}, "viewport": {"northeast": {"lat": 51.52312798029151, "lng": -0.188258569708498}, "southwest": {"lat": 51.52043001970851, "lng": -0.190956530291502}}}, "name": "SVA", "place_id": "ChIJX7Q4EwcQdkgRXB9iqi4wPQM", "types": ["jewelry_store", "point_of_interest", "store", "establishment"]}, "ChIJIe8HPQcQdkgRA3N_Asw8ZjA": {"geometry": {"location": {"lat": 51.5213017, "lng": -0.1901606}, "viewport": {"northeast": {"lat": 51.52264757669293, "lng": -0.1887784333235202}, "southwest": {"lat": 51.51994961610993, "lng": -0.1914763939065242}}}, "name": "Parking lot", "place_id": "ChIJIe8HPQcQdkgRA3N_Asw8ZjA", "types": ["parking", "premise", "point_of_interest", "establishment"]}, "ChIJidWwfFAxcEERcsAewbqOyxY": {"geometry": {"location": {"lat": 51.520882, "lng": -0.190864}, "viewport": {"northeast": {"lat": 51.5222829802915, "lng": -0.1895317197084979}, "southwest": {"lat": 51.5195850197085, "lng": -0.192229680291502}}}, "name": "Easyhajj", "place_id": "ChIJidWwfFAxcEERcsAewbqOyxY", "types": ["travel_agency", "point_of_interest", "establishment"], "rating": 3.3, "user_ratings_total": 30}, "ChIJsTjrJwcQdkgR07p2WFPhpzs": {"geometry": {"location": {"lat": 51.52088209999999, "lng": -0.190865}, "viewport": {"northeast": {"lat": 51.5222830302915, "lng": -0.189532219708498}, "southwest": {"lat": 51.5195850697085, "lng": -0.192230180291502}}}, "name": "Uk & European Disabled Hajj Mission", "place_id": "ChIJsTjrJwcQdkgR07p2WFPhpzs", "types": ["point_of_interest", "establishment"]}, "ChIJB0iyJwcQdkgRu7oYzEptROw": {"geometry": {"location": {"lat": 51.52088209999999, "lng": -0.190865}, "viewport": {"northeast": {"lat": 51.5222830302915, "lng": -0.189532219708498}, "southwest": {"lat": 51.5195850697085, "lng": -0.192230180291502}}}, "name": "Easy Umrah", "place_id": "ChIJB0iyJwcQdkgRu7oYzEptROw", "types": ["travel_agency", "point_of_interest", "establishment"], "rating": 5, "user_ratings_total": 1}, "ChIJsTjrJwcQdkgRFNIfFJgQYDU": {"geometry": {"location": {"lat": 51.5208333, "lng": -0.1911111}, "viewport": {"northeast": {"lat": 51.5222356802915, "lng": -0.189791519708498}, "southwest": {"lat": 51.5195377197085, "lng": -0.192489480291502}}}, "name": "Ariana", "place_id": "ChIJsTjrJwcQdkgRFNIfFJgQYDU", "types": ["restaurant", "food", "point_of_interest", "establishment"], "rating": 3.6, "user_ratings_total": 47}, "ChIJCcDeJwcQdkgRN-Twpq1uPmI": {"geometry": {"location": {"lat": 51.5208549, "lng": -0.1908168}, "viewport": {"northeast": {"lat": 51.5221651302915, "lng": -0.189436769708498}, "southwest": {"lat": 51.5194671697085, "lng": -0.192134730291502}}}, "name": "Westbourne Rehearsal Studios", "place_id": "ChIJCcDeJwcQdkgRN-Twpq1uPmI", "types": ["electronics_store", "home_goods_store", "point_of_interest", "store", "establishment"], "rating": 4.6, "user_ratings_total": 87}, "ChIJf4roJwcQdkgRueLKWjosn9A": {"geometry": {"location": {"lat": 51.5208988, "lng": -0.1907145}, "viewport": {"northeast": {"lat": 51.5222045302915, "lng": -0.189329419708498}, "southwest": {"lat": 51.5195065697085, "lng": -0.1920273802915021}}}, "name": "Drummercise drumming tuition, held at", "place_id": "ChIJf4roJwcQdkgRueLKWjosn9A", "types": ["point_of_interest", "establishment"]}, "ChIJsTjrJwcQdkgRf0lX28Cusz4": {"geometry": {"location": {"lat": 51.5209015, "lng": -0.1907285}, "viewport": {"northeast": {"lat": 51.52230103029149, "lng": -0.189395269708498}, "southwest": {"lat": 51.5196030697085, "lng": -0.192093230291502}}}, "name": "Kunduz Supermarket", "place_id": "ChIJsTjrJwcQdkgRf0lX28Cusz4", "types": ["supermarket", "convenience_store", "grocery_or_supermarket", "food", "point_of_interest", "store", "establishment"], "rating": 5, "user_ratings_total": 1}, "ChIJHyTtof4PdkgRvTi1Ae-n1gs": {"geometry": {"location": {"lat": 51.5208911, "lng": -0.1907937}, "viewport": {"northeast": {"lat": 51.5222918802915, "lng": -0.189460819708498}, "southwest": {"lat": 51.5195939197085, "lng": -0.192158780291502}}}, "name": "Supreme W 2 Carpets", "place_id": "ChIJHyTtof4PdkgRvTi1Ae-n1gs", "types": ["furniture_store", "home_goods_store", "point_of_interest", "store", "establishment"], "rating": 5, "user_ratings_total": 2}, "ChIJB0iyJwcQdkgRBpSR8k1vGqk": {"geometry": {"location": {"lat": 51.52088209999999, "lng": -0.190865}, "viewport": {"northeast": {"lat": 51.5222830302915, "lng": -0.189532219708498}, "southwest": {"lat": 51.5195850697085, "lng": -0.192230180291502}}}, "name": "Stone Home Services Ltd", "place_id": "ChIJB0iyJwcQdkgRBpSR8k1vGqk", "types": ["lodging", "point_of_interest", "establishment"]}, "ChIJjd6_JwcQdkgRBuogBZdX6wI": {"geometry": {"location": {"lat": 51.52085450000001, "lng": -0.1909386}, "viewport": {"northeast": {"lat": 51.5222628802915, "lng": -0.189615419708498}, "southwest": {"lat": 51.5195649197085, "lng": -0.192313380291502}}}, "name": "W2 Caribbean Cafe and Roti Shop", "place_id": "ChIJjd6_JwcQdkgRBuogBZdX6wI", "types": ["restaurant", "food", "point_of_interest", "establishment"], "rating": 4.1, "user_ratings_total": 24}, "ChIJUecXOgcQdkgRLNrcofFR2r4": {"geometry": {"location": {"lat": 51.5208916, "lng": -0.1897897}, "viewport": {"northeast": {"lat": 51.52219773553636, "lng": -0.1886300327797935}, "southwest": {"lat": 51.51949977495336, "lng": -0.1913279933627975}}}, "name": "Parking lot", "place_id": "ChIJUecXOgcQdkgRLNrcofFR2r4", "types": ["parking", "premise", "point_of_interest", "establishment"]}, "ChIJrXGy3gYQdkgRx3qf_ERB_PM": {"geometry": {"location": {"lat": 51.52097149999999, "lng": -0.1911706}, "viewport": {"northeast": {"lat": 51.52245687040852, "lng": -0.1900042645909869}, "southwest": {"lat": 51.51975890982552, "lng": -0.1927022251739909}}}, "name": "Parking lot", "place_id": "ChIJrXGy3gYQdkgRx3qf_ERB_PM", "types": ["parking", "premise", "point_of_interest", "establishment"]}, "ChIJ2Xd0SAYQdkgRyWcyEbWgQWU": {"geometry": {"location": {"lat": 51.52392225052817, "lng": -0.1918644009726711}, "viewport": {"northeast": {"lat": 51.5252712302915, "lng": -0.190515419708498}, "southwest": {"lat": 51.5225732697085, "lng": -0.193213380291502}}}, "name": "65-49 Sutherland Ave", "place_id": "ChIJ2Xd0SAYQdkgRyWcyEbWgQWU", "types": ["route"]}, "ChIJd9xZNgYQdkgRlpc8DSm2uvk": {"geometry": {"location": {"lat": 51.5241847, "lng": -0.1916858}, "viewport": {"northeast": {"lat": 51.5254823302915, "lng": -0.190289019708498}, "southwest": {"lat": 51.52278436970851, "lng": -0.192986980291502}}}, "name": "The Marriage Development Company Ltd.", "place_id": "ChIJd9xZNgYQdkgRlpc8DSm2uvk", "types": ["point_of_interest", "establishment"]}, "ChIJ60RjQQYQdkgR5LAmdvroHyM": {"geometry": {"location": {"lat": 51.523739, "lng": -0.19229}, "viewport": {"northeast": {"lat": 51.52509683029151, "lng": -0.190952719708498}, "southwest": {"lat": 51.52239886970851, "lng": -0.193650680291502}}}, "name": "Chargemaster Charging Station", "place_id": "ChIJ60RjQQYQdkgR5LAmdvroHyM", "types": ["point_of_interest", "establishment"]}, "ChIJc4GVRwYQdkgR9AZMpj84e-4": {"geometry": {"location": {"lat": 51.52396950000001, "lng": -0.1918937}, "viewport": {"northeast": {"lat": 51.5253468802915, "lng": -0.190571169708498}, "southwest": {"lat": 51.52264891970851, "lng": -0.193269130291502}}}, "name": "ubitricity Charging Station", "place_id": "ChIJc4GVRwYQdkgR9AZMpj84e-4", "types": ["point_of_interest", "establishment"]}, "ChIJP2nNo7gRdkgRLlGAf0rjKhA": {"geometry": {"location": {"lat": 51.52366439999999, "lng": -0.1925066}, "viewport": {"northeast": {"lat": 51.5250026302915, "lng": -0.191147519708498}, "southwest": {"lat": 51.5223046697085, "lng": -0.193845480291502}}}, "name": "Samuel Grayson Ltd", "place_id": "ChIJP2nNo7gRdkgRLlGAf0rjKhA", "types": ["general_contractor", "point_of_interest", "establishment"]}, "ChIJPf-PagYQdkgRfkvbamcmGsw": {"geometry": {"location": {"lat": 51.52392529999999, "lng": -0.1925718}, "viewport": {"northeast": {"lat": 51.5252005302915, "lng": -0.191154119708498}, "southwest": {"lat": 51.5225025697085, "lng": -0.193852080291502}}}, "name": "SCL Consultancy", "place_id": "ChIJPf-PagYQdkgRfkvbamcmGsw", "types": ["point_of_interest", "establishment"]}, "ChIJxamlvm0RdkgRtVjgQGCNcX8": {"geometry": {"location": {"lat": 51.5238837, "lng": -0.1915979}, "viewport": {"northeast": {"lat": 51.52528293029149, "lng": -0.190295219708498}, "southwest": {"lat": 51.52258496970849, "lng": -0.192993180291502}}}, "name": "Private Yoga London", "place_id": "ChIJxamlvm0RdkgRtVjgQGCNcX8", "types": ["school", "point_of_interest", "establishment"], "rating": 5, "user_ratings_total": 1}, "ChIJ7fiHQgYQdkgRCOPsR3tzLko": {"geometry": {"location": {"lat": 51.5235564, "lng": -0.1924786999999999}, "viewport": {"northeast": {"lat": 51.5249575302915, "lng": -0.191178919708498}, "southwest": {"lat": 51.5222595697085, "lng": -0.193876880291502}}}, "name": "London Hostess Agency Limited", "place_id": "ChIJ7fiHQgYQdkgRCOPsR3tzLko", "types": ["point_of_interest", "establishment"], "rating": 1, "user_ratings_total": 1}, "ChIJ9SJ20CIRdkgRR2fifuy2oKw": {"geometry": {"location": {"lat": 51.52421030000001, "lng": -0.1919577}, "viewport": {"northeast": {"lat": 51.5254616302915, "lng": -0.190517869708498}, "southwest": {"lat": 51.52276366970851, "lng": -0.193215830291502}}}, "name": "MUSIC GEMS LTD", "place_id": "ChIJ9SJ20CIRdkgRR2fifuy2oKw", "types": ["point_of_interest", "establishment"]}, "ChIJeVr_OAYQdkgRRrRvcCU9xWU": {"geometry": {"location": {"lat": 51.5241603, "lng": -0.1917672}, "viewport": {"northeast": {"lat": 51.5254560802915, "lng": -0.1903687197084979}, "southwest": {"lat": 51.5227581197085, "lng": -0.193066680291502}}}, "name": "Mint Kitchens", "place_id": "ChIJeVr_OAYQdkgRRrRvcCU9xWU", "types": ["home_goods_store", "general_contractor", "point_of_interest", "store", "establishment"], "rating": 5, "user_ratings_total": 2}, "ChIJWVUYXgYQdkgRAdICP-o58S8": {"geometry": {"location": {"lat": 51.5230228678722, "lng": -0.1924576674127585}, "viewport": {"northeast": {"lat": 51.52435883029149, "lng": -0.19051355}, "southwest": {"lat": 51.52166086970849, "lng": -0.19438055}}}, "name": "82-78 Amberley Rd", "place_id": "ChIJWVUYXgYQdkgRAdICP-o58S8", "types": ["route"]}, "ChIJrYY6WgYQdkgRZqbAS7FuFP4": {"geometry": {"location": {"lat": 51.52304029999999, "lng": -0.1918499999999999}, "viewport": {"northeast": {"lat": 51.52445618029149, "lng": -0.1905526197084979}, "southwest": {"lat": 51.5217582197085, "lng": -0.193250580291502}}}, "name": "Westminster Adult Education Service", "place_id": "ChIJrYY6WgYQdkgRZqbAS7FuFP4", "types": ["university", "point_of_interest", "establishment"], "rating": 4.8, "user_ratings_total": 4}, "ChIJSc6kHRcQdkgR0OaVEcc7rBo": {"geometry": {"location": {"lat": 51.52303190000001, "lng": -0.1920013}, "viewport": {"northeast": {"lat": 51.5244328302915, "lng": -0.190692419708498}, "southwest": {"lat": 51.5217348697085, "lng": -0.193390380291502}}}, "name": "ARK Atwood Primary Academy", "place_id": "ChIJSc6kHRcQdkgR0OaVEcc7rBo", "types": ["school", "point_of_interest", "establishment"], "rating": 4.5, "user_ratings_total": 18}, "ChIJW0h5zUkRdkgR9hVG21Q-BwE": {"geometry": {"location": {"lat": 51.5227313, "lng": -0.1920895}, "viewport": {"northeast": {"lat": 51.52408028029151, "lng": -0.190740519708498}, "southwest": {"lat": 51.52138231970851, "lng": -0.1934384802915021}}}, "name": "Mentorink Limited", "place_id": "ChIJW0h5zUkRdkgR9hVG21Q-BwE", "types": ["point_of_interest", "establishment"]}, "ChIJ-fTmdgMRdkgRoVxADnzneIU": {"geometry": {"location": {"lat": 51.5227328, "lng": -0.1919898}, "viewport": {"northeast": {"lat": 51.5242566802915, "lng": -0.190775719708498}, "southwest": {"lat": 51.5215587197085, "lng": -0.193473680291502}}}, "name": "Boat 25 October 2020", "place_id": "ChIJ-fTmdgMRdkgRoVxADnzneIU", "types": ["lodging", "point_of_interest", "establishment"]}, "ChIJf9xzWc8RdkgRErBLIvKkB2U": {"geometry": {"location": {"lat": 51.52279590000001, "lng": -0.1918397000000001}, "viewport": {"northeast": {"lat": 51.5243123802915, "lng": -0.190619869708498}, "southwest": {"lat": 51.5216144197085, "lng": -0.193317830291502}}}, "name": "Waterfront Apartments", "place_id": "ChIJf9xzWc8RdkgRErBLIvKkB2U", "types": ["lodging", "point_of_interest", "establishment"], "rating": 5, "user_ratings_total": 1}, "ChIJZ-U5rqQRdkgRNCzk43AO2GE": {"geometry": {"location": {"lat": 51.52260259999999, "lng": -0.1924146}, "viewport": {"northeast": {"lat": 51.52412033029149, "lng": -0.191211269708498}, "southwest": {"lat": 51.52142236970849, "lng": -0.193909230291502}}}, "name": "Litter Art", "place_id": "ChIJZ-U5rqQRdkgRNCzk43AO2GE", "types": ["tourist_attraction", "point_of_interest", "establishment"]}, "ChIJjyUR7gYQdkgRw1b5wlLFbag": {"geometry": {"location": {"lat": 51.5221204, "lng": -0.1918226}, "viewport": {"northeast": {"lat": 51.52337478328703, "lng": -0.1906797659896768}, "southwest": {"lat": 51.52067682270403, "lng": -0.1933777265726808}}}, "name": "Parking lot", "place_id": "ChIJjyUR7gYQdkgRw1b5wlLFbag", "types": ["parking", "premise", "point_of_interest", "establishment"]}, "ChIJn4vrvwYQdkgR62Xa-D1uP-Y": {"geometry": {"location": {"lat": 51.52132402676045, "lng": -0.1925332071746493}, "viewport": {"northeast": {"lat": 51.52267363029149, "lng": -0.191183119708498}, "southwest": {"lat": 51.51997566970849, "lng": -0.193881080291502}}}, "name": "255 Harrow Rd", "place_id": "ChIJn4vrvwYQdkgR62Xa-D1uP-Y", "types": ["route"]}, "ChIJ1QwjmpAadkgR2luVD7Ts2Xs": {"geometry": {"location": {"lat": 51.521417, "lng": -0.1915909}, "viewport": {"northeast": {"lat": 51.52274353029151, "lng": -0.190296619708498}, "southwest": {"lat": 51.52004556970851, "lng": -0.192994580291502}}}, "name": "Lebanese Maronite Catholic Church", "place_id": "ChIJ1QwjmpAadkgR2luVD7Ts2Xs", "types": ["church", "place_of_worship", "point_of_interest", "establishment"], "rating": 4.7, "user_ratings_total": 19}, "ChIJgQetxgYQdkgRFRuw6f3QBAc": {"geometry": {"location": {"lat": 51.52123, "lng": -0.191976}, "viewport": {"northeast": {"lat": 51.52260718029149, "lng": -0.1905750697084979}, "southwest": {"lat": 51.5199092197085, "lng": -0.193273030291502}}}, "name": "West End Locksmith", "place_id": "ChIJgQetxgYQdkgRFRuw6f3QBAc", "types": ["locksmith", "point_of_interest", "establishment"], "rating": 3.7, "user_ratings_total": 6}, "ChIJ6xuJ5wYQdkgRZC9mrM8X5_A": {"geometry": {"location": {"lat": 51.5213583, "lng": -0.1915388}, "viewport": {"northeast": {"lat": 51.52268928029149, "lng": -0.190245769708498}, "southwest": {"lat": 51.5199913197085, "lng": -0.192943730291502}}}, "name": "Our Lady of Sorrows", "place_id": "ChIJ6xuJ5wYQdkgRZC9mrM8X5_A", "types": ["church", "place_of_worship", "point_of_interest", "establishment"], "rating": 4.9, "user_ratings_total": 14}, "ChIJ___DZgMQdkgR2NkpPoB6ONo": {"geometry": {"location": {"lat": 51.52192169999999, "lng": -0.1928491}, "viewport": {"northeast": {"lat": 51.52319083029149, "lng": -0.191649219708498}, "southwest": {"lat": 51.52049286970849, "lng": -0.194347180291502}}}, "name": "Open Age Westbourne Hub", "place_id": "ChIJ___DZgMQdkgR2NkpPoB6ONo", "types": ["point_of_interest", "establishment"], "rating": 5, "user_ratings_total": 2}, "ChIJiZUB2wYQdkgR3Q7ne3hNoQM": {"geometry": {"location": {"lat": 51.52124130000001, "lng": -0.1920776}, "viewport": {"northeast": {"lat": 51.5226314302915, "lng": -0.190651969708498}, "southwest": {"lat": 51.5199334697085, "lng": -0.193349930291502}}}, "name": "Paddington Glass Co Ltd", "place_id": "ChIJiZUB2wYQdkgR3Q7ne3hNoQM", "types": ["point_of_interest", "establishment"], "rating": 4.3, "user_ratings_total": 9}, "ChIJkcGV4AYQdkgRRzokG3lNZYI": {"geometry": {"location": {"lat": 51.5215127, "lng": -0.1913036}, "viewport": {"northeast": {"lat": 51.52289658029149, "lng": -0.189979119708498}, "southwest": {"lat": 51.5201986197085, "lng": -0.192677080291502}}}, "name": "Care UK Community Partnership Plc", "place_id": "ChIJkcGV4AYQdkgRRzokG3lNZYI", "types": ["health", "point_of_interest", "establishment"]}, "ChIJ2-uxkQYQdkgRdVRQey9Ma2o": {"geometry": {"location": {"lat": 51.52188830000001, "lng": -0.1921159}, "viewport": {"northeast": {"lat": 51.52296628029151, "lng": -0.190811519708498}, "southwest": {"lat": 51.52026831970851, "lng": -0.193509480291502}}}, "name": "Wilmcote House 1", "place_id": "ChIJ2-uxkQYQdkgRdVRQey9Ma2o", "types": ["lodging", "point_of_interest", "establishment"], "rating": 4.1, "user_ratings_total": 7}, "ChIJx0Wjo34RdkgR6XxGTeGmeEM": {"geometry": {"location": {"lat": 51.5219556, "lng": -0.1920976}, "viewport": {"northeast": {"lat": 51.52320683029149, "lng": -0.1907491197084979}, "southwest": {"lat": 51.52050886970849, "lng": -0.193447080291502}}}, "name": "Nawaz Solicitor", "place_id": "ChIJx0Wjo34RdkgR6XxGTeGmeEM", "types": ["point_of_interest", "establishment"]}, "ChIJXWSb6gYQdkgRt08JODOE89s": {"geometry": {"location": {"lat": 51.5214434, "lng": -0.1923779}, "viewport": {"northeast": {"lat": 51.52274243029149, "lng": -0.191120269708498}, "southwest": {"lat": 51.52004446970849, "lng": -0.193818230291502}}}, "name": "Leyf Nurseries", "place_id": "ChIJXWSb6gYQdkgRt08JODOE89s", "types": ["point_of_interest", "establishment"]}, "ChIJRSwl5QYQdkgRg-oV8x0tukM": {"geometry": {"location": {"lat": 51.52203, "lng": -0.191637}, "viewport": {"northeast": {"lat": 51.5233733302915, "lng": -0.190272469708498}, "southwest": {"lat": 51.5206753697085, "lng": -0.192970430291502}}}, "name": "ubitricity Charging Station", "place_id": "ChIJRSwl5QYQdkgRg-oV8x0tukM", "types": ["point_of_interest", "establishment"]}, "ChIJpT9TwQYQdkgRRMBXqJ1Ha0M": {"geometry": {"location": {"lat": 51.52119010000001, "lng": -0.1919638}, "viewport": {"northeast": {"lat": 51.52257403029149, "lng": -0.190550469708498}, "southwest": {"lat": 51.51987606970849, "lng": -0.193248430291502}}}, "name": "Millennium Launderette", "place_id": "ChIJpT9TwQYQdkgRRMBXqJ1Ha0M", "types": ["laundry", "point_of_interest", "establishment"], "rating": 3.9, "user_ratings_total": 28}, "ChIJT3OcwwYQdkgR0vNx3WnC7Lk": {"geometry": {"location": {"lat": 51.5211823, "lng": -0.1919733}, "viewport": {"northeast": {"lat": 51.5225693802915, "lng": -0.190554169708498}, "southwest": {"lat": 51.5198714197085, "lng": -0.193252130291502}}}, "name": "Arts Salon", "place_id": "ChIJT3OcwwYQdkgR0vNx3WnC7Lk", "types": ["hair_care", "health", "point_of_interest", "establishment"], "rating": 4.7, "user_ratings_total": 50}, "ChIJeZO1ET4RdkgRy6ps2hNihMY": {"geometry": {"location": {"lat": 51.5219503, "lng": -0.1928317}, "viewport": {"northeast": {"lat": 51.5232992802915, "lng": -0.191482719708498}, "southwest": {"lat": 51.5206013197085, "lng": -0.194180680291502}}}, "name": "Warwick community hall", "place_id": "ChIJeZO1ET4RdkgRy6ps2hNihMY", "types": ["point_of_interest", "establishment"], "rating": 4.4, "user_ratings_total": 5}, "ChIJVVobxQYQdkgRggYa6H8mQls": {"geometry": {"location": {"lat": 51.52096675211945, "lng": -0.1920006080594914}, "viewport": {"northeast": {"lat": 51.52231568029149, "lng": -0.190651719708498}, "southwest": {"lat": 51.5196177197085, "lng": -0.193349680291502}}}, "name": "290-272 Harrow Rd", "place_id": "ChIJVVobxQYQdkgRggYa6H8mQls", "types": ["route"]}, "ChIJN1is0AYQdkgR57K9vpPC7zM": {"geometry": {"location": {"lat": 51.52078700000001, "lng": -0.191423}, "viewport": {"northeast": {"lat": 51.5222057802915, "lng": -0.190030069708498}, "southwest": {"lat": 51.51950781970851, "lng": -0.192728030291502}}}, "name": "Little Venice Fish Bar", "place_id": "ChIJN1is0AYQdkgR57K9vpPC7zM", "types": ["meal_delivery", "meal_takeaway", "restaurant", "food", "point_of_interest", "establishment"], "rating": 4, "user_ratings_total": 98}, "ChIJsYA72wYQdkgRO3oTb3s27rc": {"geometry": {"location": {"lat": 51.5209809, "lng": -0.1916653}, "viewport": {"northeast": {"lat": 51.5223658302915, "lng": -0.190253719708498}, "southwest": {"lat": 51.5196678697085, "lng": -0.192951680291502}}}, "name": "Bleglot Amusement Industry t/a Barefoot Marathon Running Series", "place_id": "ChIJsYA72wYQdkgRO3oTb3s27rc", "types": ["point_of_interest", "establishment"]}, "ChIJiZUB2wYQdkgR108Lk3GaTZI": {"geometry": {"location": {"lat": 51.52086019999999, "lng": -0.1914591}, "viewport": {"northeast": {"lat": 51.5222474802915, "lng": -0.190061069708498}, "southwest": {"lat": 51.5195495197085, "lng": -0.192759030291502}}}, "name": "Blue Nile Bakery", "place_id": "ChIJiZUB2wYQdkgR108Lk3GaTZI", "types": ["bakery", "food", "point_of_interest", "store", "establishment"], "rating": 4.2, "user_ratings_total": 62}, "ChIJYRdUxAYQdkgRh3Cbs9cIuc8": {"geometry": {"location": {"lat": 51.520947, "lng": -0.1919709}, "viewport": {"northeast": {"lat": 51.5223170302915, "lng": -0.190584969708498}, "southwest": {"lat": 51.5196190697085, "lng": -0.193282930291502}}}, "name": "Westminster Academy Cirencester St", "place_id": "ChIJYRdUxAYQdkgRh3Cbs9cIuc8", "types": ["transit_station", "point_of_interest", "establishment"]}, "ChIJ08sqxAYQdkgRvgu5qXetov4": {"geometry": {"location": {"lat": 51.5209614, "lng": -0.1921674}, "viewport": {"northeast": {"lat": 51.5223374302915, "lng": -0.190770969708498}, "southwest": {"lat": 51.5196394697085, "lng": -0.193468930291502}}}, "name": "Westminster Academy Cirencester Street (Stop RE)", "place_id": "ChIJ08sqxAYQdkgRvgu5qXetov4", "types": ["bus_station", "transit_station", "point_of_interest", "establishment"], "rating": 5, "user_ratings_total": 1}, "ChIJT6biwAYQdkgRBp2DdMLwl44": {"geometry": {"location": {"lat": 51.5210338, "lng": -0.1918001}, "viewport": {"northeast": {"lat": 51.52234608029149, "lng": -0.190541069708498}, "southwest": {"lat": 51.51964811970849, "lng": -0.193239030291502}}}, "name": "Costcutter", "place_id": "ChIJT6biwAYQdkgRBp2DdMLwl44", "types": ["supermarket", "grocery_or_supermarket", "food", "point_of_interest", "store", "establishment"], "rating": 3.5, "user_ratings_total": 86}, "ChIJSYxhxAYQdkgR2JBEglmxQnY": {"geometry": {"location": {"lat": 51.5209065, "lng": -0.191746}, "viewport": {"northeast": {"lat": 51.5222297802915, "lng": -0.1904421697084979}, "southwest": {"lat": 51.5195318197085, "lng": -0.193140130291502}}}, "name": "Westminster Academy / Cirencester Street (Stop RB)", "place_id": "ChIJSYxhxAYQdkgR2JBEglmxQnY", "types": ["transit_station", "point_of_interest", "establishment"]}, "ChIJIT9MuAYQdkgRwd-mwZos4So": {"geometry": {"location": {"lat": 51.5209953, "lng": -0.1923118}, "viewport": {"northeast": {"lat": 51.5223859802915, "lng": -0.190889669708498}, "southwest": {"lat": 51.5196880197085, "lng": -0.193587630291502}}}, "name": "The Sir Naim Dangoor Centre", "place_id": "ChIJIT9MuAYQdkgRwd-mwZos4So", "types": ["school", "point_of_interest", "establishment"], "rating": 5, "user_ratings_total": 1}, "ChIJ9wTT0ToRdkgRtZg8-rMaIh8": {"geometry": {"location": {"lat": 51.5209187, "lng": -0.1916246}, "viewport": {"northeast": {"lat": 51.5223116302915, "lng": -0.190199069708498}, "southwest": {"lat": 51.51961366970851, "lng": -0.192897030291502}}}, "name": "English Tea House", "place_id": "ChIJ9wTT0ToRdkgRtZg8-rMaIh8", "types": ["cafe", "food", "point_of_interest", "establishment"], "rating": 2, "user_ratings_total": 1}, "ChIJEyFLxQYQdkgR49fVoMiIUNk": {"geometry": {"location": {"lat": 51.5208771, "lng": -0.1915577}, "viewport": {"northeast": {"lat": 51.5222715802915, "lng": -0.190135569708498}, "southwest": {"lat": 51.5195736197085, "lng": -0.192833530291502}}}, "name": "Habaybna Supermarket - \u062d\u0628\u0627\u064a\u0628\u0646\u0627 \u0633\u0648\u0628\u0631\u0645\u0627\u0631\u0643\u062a", "place_id": "ChIJEyFLxQYQdkgR49fVoMiIUNk", "types": ["supermarket", "grocery_or_supermarket", "food", "point_of_interest", "store", "establishment"], "rating": 4.3, "user_ratings_total": 4}, "ChIJUUY4GF4RdkgRs2I8J3j2M9Q": {"geometry": {"location": {"lat": 51.5209577, "lng": -0.1916702}, "viewport": {"northeast": {"lat": 51.5223487302915, "lng": -0.190247969708498}, "southwest": {"lat": 51.5196507697085, "lng": -0.192945930291502}}}, "name": "Maceam Alwadi London", "place_id": "ChIJUUY4GF4RdkgRs2I8J3j2M9Q", "types": ["point_of_interest", "establishment"]}, "ChIJsYA72wYQdkgR1c808a0qprg": {"geometry": {"location": {"lat": 51.5209809, "lng": -0.1916653}, "viewport": {"northeast": {"lat": 51.5223658302915, "lng": -0.190253719708498}, "southwest": {"lat": 51.5196678697085, "lng": -0.192951680291502}}}, "name": "Westminster Council Estates' Residents (WCER) Group", "place_id": "ChIJsYA72wYQdkgR1c808a0qprg", "types": ["point_of_interest", "establishment"]}, "ChIJN783MHoRdkgRZvj5X95nYXY": {"geometry": {"location": {"lat": 51.5210338, "lng": -0.1918001}, "viewport": {"northeast": {"lat": 51.5223402302915, "lng": -0.190532519708498}, "southwest": {"lat": 51.51964226970851, "lng": -0.193230480291502}}}, "name": "Hermes ParcelShop", "place_id": "ChIJN783MHoRdkgRZvj5X95nYXY", "types": ["point_of_interest", "establishment"], "rating": 5, "user_ratings_total": 1}, "ChIJlZ6zxAYQdkgRSl98amG6-M8": {"geometry": {"location": {"lat": 51.5210362, "lng": -0.1917817}, "viewport": {"northeast": {"lat": 51.5223380302915, "lng": -0.190520069708498}, "southwest": {"lat": 51.5196400697085, "lng": -0.193218030291502}}}, "name": "KeyNest - Smart Key Exchange", "place_id": "ChIJlZ6zxAYQdkgRSl98amG6-M8", "types": ["point_of_interest", "store", "establishment"]}, "ChIJrSgv3QYQdkgR0kPCuIECPDg": {"geometry": {"location": {"lat": 51.52102199999999, "lng": -0.1916886}, "viewport": {"northeast": {"lat": 51.52240108029149, "lng": -0.190287169708498}, "southwest": {"lat": 51.5197031197085, "lng": -0.192985130291502}}}, "name": "Leaflet distribution london", "place_id": "ChIJrSgv3QYQdkgR0kPCuIECPDg", "types": ["point_of_interest", "establishment"]}, "ChIJYVIu2wYQdkgRVAcUIMf2ARE": {"geometry": {"location": {"lat": 51.5210286, "lng": -0.1916939}, "viewport": {"northeast": {"lat": 51.5224069802915, "lng": -0.190293669708498}, "southwest": {"lat": 51.5197090197085, "lng": -0.192991630291502}}}, "name": "Benson Pharmacy", "place_id": "ChIJYVIu2wYQdkgRVAcUIMf2ARE", "types": ["pharmacy", "health", "point_of_interest", "store", "establishment"], "rating": 4.9, "user_ratings_total": 16}, "ChIJ74EUegYQdkgR7EDOSJSy0WA": {"geometry": {"location": {"lat": 51.52333405055811, "lng": -0.193531551036433}, "viewport": {"northeast": {"lat": 51.5246830302915, "lng": -0.192182569708498}, "southwest": {"lat": 51.5219850697085, "lng": -0.194880530291502}}}, "name": "25-9 Sutherland Ave", "place_id": "ChIJ74EUegYQdkgR7EDOSJSy0WA", "types": ["route"]}, "ChIJw7Ro4AUQdkgRhOnNKSHkmM0": {"geometry": {"location": {"lat": 51.5240479, "lng": -0.1942805}, "viewport": {"northeast": {"lat": 51.5253500802915, "lng": -0.1928373697084979}, "southwest": {"lat": 51.5226521197085, "lng": -0.195535330291502}}}, "name": "Pimpernel Press Ltd", "place_id": "ChIJw7Ro4AUQdkgRhOnNKSHkmM0", "types": ["point_of_interest", "establishment"]}, "ChIJT9e_1gUQdkgRtzHGKDng_Zo": {"geometry": {"location": {"lat": 51.5233783, "lng": -0.1937128}, "viewport": {"northeast": {"lat": 51.5246862802915, "lng": -0.192325719708498}, "southwest": {"lat": 51.52198831970851, "lng": -0.195023680291502}}}, "name": "Zipcar", "place_id": "ChIJT9e_1gUQdkgRtzHGKDng_Zo", "types": ["car_rental", "point_of_interest", "establishment"], "rating": 1, "user_ratings_total": 1}, "ChIJ12Y9dgYQdkgRRIhBI4DaUyI": {"geometry": {"location": {"lat": 51.5236351, "lng": -0.1939434}, "viewport": {"northeast": {"lat": 51.5248157302915, "lng": -0.192438119708498}, "southwest": {"lat": 51.5221177697085, "lng": -0.195136080291502}}}, "name": "Lina Minimarket", "place_id": "ChIJ12Y9dgYQdkgRRIhBI4DaUyI", "types": ["store", "point_of_interest", "establishment"]}, "ChIJ5Z1Ut1ARdkgRXNfiP7wQuG4": {"geometry": {"location": {"lat": 51.52408440000001, "lng": -0.1939182}, "viewport": {"northeast": {"lat": 51.52543338029152, "lng": -0.192569219708498}, "southwest": {"lat": 51.52273541970852, "lng": -0.195267180291502}}}, "name": "Progether", "place_id": "ChIJ5Z1Ut1ARdkgRXNfiP7wQuG4", "types": ["general_contractor", "point_of_interest", "establishment"], "rating": 5, "user_ratings_total": 1}, "ChIJWePp2wUQdkgRwb99pny0Q8Q": {"geometry": {"location": {"lat": 51.523637, "lng": -0.19443}, "viewport": {"northeast": {"lat": 51.52499993029149, "lng": -0.193099869708498}, "southwest": {"lat": 51.52230196970849, "lng": -0.195797830291502}}}, "name": "ubitricity Charging Station", "place_id": "ChIJWePp2wUQdkgRwb99pny0Q8Q", "types": ["point_of_interest", "establishment"]}, "ChIJjeczE_kFdkgRfSVwyHuLj2c": {"geometry": {"location": {"lat": 51.52362239999999, "lng": -0.1932405}, "viewport": {"northeast": {"lat": 51.5249280302915, "lng": -0.191816669708498}, "southwest": {"lat": 51.5222300697085, "lng": -0.194514630291502}}}, "name": "Your Mortgage Experts", "place_id": "ChIJjeczE_kFdkgRfSVwyHuLj2c", "types": ["finance", "point_of_interest", "establishment"], "rating": 5, "user_ratings_total": 33}, "ChIJZerIjOERdkgRhtwzkZMWqJ8": {"geometry": {"location": {"lat": 51.5233504, "lng": -0.1939155}, "viewport": {"northeast": {"lat": 51.5246415302915, "lng": -0.192512769708498}, "southwest": {"lat": 51.5219435697085, "lng": -0.195210730291502}}}, "name": "Camilla Boniek Events", "place_id": "ChIJZerIjOERdkgRhtwzkZMWqJ8", "types": ["point_of_interest", "establishment"]}, "ChIJI9xsegYQdkgRpzzbI11KFWI": {"geometry": {"location": {"lat": 51.523352, "lng": -0.1935651999999999}, "viewport": {"northeast": {"lat": 51.5246925302915, "lng": -0.1922024197084979}, "southwest": {"lat": 51.5219945697085, "lng": -0.194900380291502}}}, "name": "ubitricity Charging Station", "place_id": "ChIJI9xsegYQdkgRpzzbI11KFWI", "types": ["point_of_interest", "establishment"]}, "ChIJO1lO2gUQdkgRGr0roWgyjOw": {"geometry": {"location": {"lat": 51.5235263, "lng": -0.1944908}, "viewport": {"northeast": {"lat": 51.5249041302915, "lng": -0.1931956697084979}, "southwest": {"lat": 51.5222061697085, "lng": -0.195893630291502}}}, "name": "Moreno Wines", "place_id": "ChIJO1lO2gUQdkgRGr0roWgyjOw", "types": ["point_of_interest", "establishment"]}, "ChIJWQABwBYRdkgRJ-QZREmS8EA": {"geometry": {"location": {"lat": 51.5235263, "lng": -0.1944908}, "viewport": {"northeast": {"lat": 51.5249041302915, "lng": -0.1931956697084979}, "southwest": {"lat": 51.5222061697085, "lng": -0.195893630291502}}}, "name": "Flora Fine Wines", "place_id": "ChIJWQABwBYRdkgRJ-QZREmS8EA", "types": ["bar", "food", "point_of_interest", "establishment"], "rating": 4.9, "user_ratings_total": 21}, "ChIJ_R-oOw0RdkgRoQ_IJq_4pbI": {"geometry": {"location": {"lat": 51.52433980000001, "lng": -0.19397}, "viewport": {"northeast": {"lat": 51.52563498029151, "lng": -0.192506819708498}, "southwest": {"lat": 51.52293701970851, "lng": -0.195204780291502}}}, "name": "hot male masseur", "place_id": "ChIJ_R-oOw0RdkgRoQ_IJq_4pbI", "types": ["point_of_interest", "establishment"]}, "ChIJmcr-bgYQdkgRW5mpmaKL37A": {"geometry": {"location": {"lat": 51.5235907, "lng": -0.1930709}, "viewport": {"northeast": {"lat": 51.5249363302915, "lng": -0.191719269708498}, "southwest": {"lat": 51.5222383697085, "lng": -0.194417230291502}}}, "name": "ubitricity Charging Station", "place_id": "ChIJmcr-bgYQdkgRW5mpmaKL37A", "types": ["point_of_interest", "establishment"]}, "ChIJF7u-gQYQdkgRTBJ6b54SkC4": {"geometry": {"location": {"lat": 51.52249630000509, "lng": -0.1938703499691077}, "viewport": {"northeast": {"lat": 51.5238452802915, "lng": -0.192521369708498}, "southwest": {"lat": 51.5211473197085, "lng": -0.195219330291502}}}, "name": "Harrow Road", "place_id": "ChIJF7u-gQYQdkgRTBJ6b54SkC4", "types": ["route"]}, "ChIJcyrIgAYQdkgRF7z9muZydWE": {"geometry": {"location": {"lat": 51.5226853, "lng": -0.1936334}, "viewport": {"northeast": {"lat": 51.5240191802915, "lng": -0.192271069708498}, "southwest": {"lat": 51.5213212197085, "lng": -0.194969030291502}}}, "name": "John Spary Associates (JSA)", "place_id": "ChIJcyrIgAYQdkgRF7z9muZydWE", "types": ["point_of_interest", "establishment"]}, "ChIJH-06fAYQdkgR3sqQd2WpmYA": {"geometry": {"location": {"lat": 51.5229757, "lng": -0.1935818}, "viewport": {"northeast": {"lat": 51.52431458029149, "lng": -0.192260319708498}, "southwest": {"lat": 51.52161661970849, "lng": -0.194958280291502}}}, "name": "Ocean to Ocean Property Management", "place_id": "ChIJH-06fAYQdkgR3sqQd2WpmYA", "types": ["real_estate_agency", "point_of_interest", "establishment"]}, "ChIJ8zWPgAYQdkgRqxhoZWpSwiU": {"geometry": {"location": {"lat": 51.52288439999999, "lng": -0.194147}, "viewport": {"northeast": {"lat": 51.52418783029149, "lng": -0.192861969708498}, "southwest": {"lat": 51.52148986970849, "lng": -0.195559930291502}}}, "name": "Betfred", "place_id": "ChIJ8zWPgAYQdkgRqxhoZWpSwiU", "types": ["point_of_interest", "establishment"], "rating": 3, "user_ratings_total": 1}, "ChIJt56kfQYQdkgRSXSDfCuqeLA": {"geometry": {"location": {"lat": 51.5228843, "lng": -0.1934984}, "viewport": {"northeast": {"lat": 51.5242240802915, "lng": -0.192174519708498}, "southwest": {"lat": 51.5215261197085, "lng": -0.1948724802915021}}}, "name": "Re.Sustain Ltd", "place_id": "ChIJt56kfQYQdkgRSXSDfCuqeLA", "types": ["point_of_interest", "establishment"]}, "ChIJKS_61QUQdkgRhisExRkGM8A": {"geometry": {"location": {"lat": 51.5230369, "lng": -0.1939646}, "viewport": {"northeast": {"lat": 51.5244418302915, "lng": -0.192663419708498}, "southwest": {"lat": 51.5217438697085, "lng": -0.195361380291502}}}, "name": "Ruqyah London", "place_id": "ChIJKS_61QUQdkgRhisExRkGM8A", "types": ["mosque", "place_of_worship", "health", "point_of_interest", "establishment"], "rating": 4.2, "user_ratings_total": 10}, "ChIJGRC2eAYQdkgRFfhWqrnGTz0": {"geometry": {"location": {"lat": 51.5230286, "lng": -0.1940163}, "viewport": {"northeast": {"lat": 51.52427103029149, "lng": -0.192816969708498}, "southwest": {"lat": 51.5215730697085, "lng": -0.195514930291502}}}, "name": "Fix Our Boiler", "place_id": "ChIJGRC2eAYQdkgRFfhWqrnGTz0", "types": ["plumber", "general_contractor", "point_of_interest", "establishment"], "rating": 5, "user_ratings_total": 25}, "ChIJmx1EN7YcdkgRo-gMljuLoeo": {"geometry": {"location": {"lat": 51.5228843, "lng": -0.1934984}, "viewport": {"northeast": {"lat": 51.5242240802915, "lng": -0.192174519708498}, "southwest": {"lat": 51.5215261197085, "lng": -0.1948724802915021}}}, "name": "Oh Baby London", "place_id": "ChIJmx1EN7YcdkgRo-gMljuLoeo", "types": ["point_of_interest", "clothing_store", "store", "establishment"], "rating": 5, "user_ratings_total": 1}, "ChIJTTNmeQYQdkgRRs7mFsUk_m4": {"geometry": {"location": {"lat": 51.523114, "lng": -0.1935311}, "viewport": {"northeast": {"lat": 51.5245455302915, "lng": -0.192258769708498}, "southwest": {"lat": 51.5218475697085, "lng": -0.194956730291502}}}, "name": "M.W Air Conditioning & Refrigeration", "place_id": "ChIJTTNmeQYQdkgRRs7mFsUk_m4", "types": ["general_contractor", "point_of_interest", "establishment"], "rating": 5, "user_ratings_total": 2}, "ChIJ-zWPgAYQdkgRLXCBAKYEMU0": {"geometry": {"location": {"lat": 51.5226948, "lng": -0.1938649}, "viewport": {"northeast": {"lat": 51.52400988029151, "lng": -0.192588769708498}, "southwest": {"lat": 51.52131191970851, "lng": -0.195286730291502}}}, "name": "Bento by Gourmet Oriental", "place_id": "ChIJ-zWPgAYQdkgRLXCBAKYEMU0", "types": ["meal_takeaway", "restaurant", "food", "point_of_interest", "establishment"], "rating": 3.6, "user_ratings_total": 75}, "ChIJ8z6BgwYQdkgR3Fd3tYG7lVw": {"geometry": {"location": {"lat": 51.52229639999999, "lng": -0.193504}, "viewport": {"northeast": {"lat": 51.52362123029149, "lng": -0.192227069708498}, "southwest": {"lat": 51.52092326970849, "lng": -0.194925030291502}}}, "name": "My English Class Online", "place_id": "ChIJ8z6BgwYQdkgR3Fd3tYG7lVw", "types": ["point_of_interest", "establishment"]}, "ChIJMSplRbEadkgRxKsQQblbnq8": {"geometry": {"location": {"lat": 51.5224242, "lng": -0.1935708}, "viewport": {"northeast": {"lat": 51.5237432802915, "lng": -0.192310919708498}, "southwest": {"lat": 51.52104531970851, "lng": -0.195008880291502}}}, "name": "Chicken Valley", "place_id": "ChIJMSplRbEadkgRxKsQQblbnq8", "types": ["meal_takeaway", "restaurant", "food", "point_of_interest", "establishment"], "rating": 3.6, "user_ratings_total": 69}, "ChIJcyrIgAYQdkgR76n9tRbMndg": {"geometry": {"location": {"lat": 51.52276010000001, "lng": -0.193648}, "viewport": {"northeast": {"lat": 51.5240570802915, "lng": -0.192253119708498}, "southwest": {"lat": 51.5213591197085, "lng": -0.194951080291502}}}, "name": "Mad Cow Films", "place_id": "ChIJcyrIgAYQdkgR76n9tRbMndg", "types": ["point_of_interest", "establishment"], "rating": 5, "user_ratings_total": 1}, "ChIJ-zWPgAYQdkgRKbK3PowmTpg": {"geometry": {"location": {"lat": 51.522381, "lng": -0.193596}, "viewport": {"northeast": {"lat": 51.5237082302915, "lng": -0.1923118197084979}, "southwest": {"lat": 51.5210102697085, "lng": -0.195009780291502}}}, "name": "Blue Ginger", "place_id": "ChIJ-zWPgAYQdkgRKbK3PowmTpg", "types": ["meal_takeaway", "restaurant", "food", "point_of_interest", "establishment"], "rating": 3.4, "user_ratings_total": 84}, "ChIJ6_Dp1AUQdkgRAyeSsg7vb1M": {"geometry": {"location": {"lat": 51.5228175, "lng": -0.1942415}, "viewport": {"northeast": {"lat": 51.52416618029149, "lng": -0.192892919708498}, "southwest": {"lat": 51.5214682197085, "lng": -0.195590880291502}}}, "name": "Sutherland Avenue Harrow Rd", "place_id": "ChIJ6_Dp1AUQdkgRAyeSsg7vb1M", "types": ["transit_station", "point_of_interest", "establishment"]}, "ChIJxcgOgAYQdkgRf1GZZzT2PLk": {"geometry": {"location": {"lat": 51.5227128, "lng": -0.1939441}, "viewport": {"northeast": {"lat": 51.5240519802915, "lng": -0.1926619197084979}, "southwest": {"lat": 51.5213540197085, "lng": -0.195359880291502}}}, "name": "Sumer Health Ltd", "place_id": "ChIJxcgOgAYQdkgRf1GZZzT2PLk", "types": ["pharmacy", "health", "point_of_interest", "store", "establishment"], "rating": 3.9, "user_ratings_total": 11}, "ChIJvbY93toRdkgRa_AXKuCuSMc": {"geometry": {"location": {"lat": 51.5226613, "lng": -0.1937936}, "viewport": {"northeast": {"lat": 51.52397553029149, "lng": -0.192527419708498}, "southwest": {"lat": 51.5212775697085, "lng": -0.195225380291502}}}, "name": "Velvet Wax", "place_id": "ChIJvbY93toRdkgRa_AXKuCuSMc", "types": ["beauty_salon", "hair_care", "point_of_interest", "establishment"], "rating": 4.7, "user_ratings_total": 28}, "ChIJffTDdbkRdkgRk8qPJB-JRFM": {"geometry": {"location": {"lat": 51.5226613, "lng": -0.1937935}, "viewport": {"northeast": {"lat": 51.52397553029149, "lng": -0.192527369708498}, "southwest": {"lat": 51.5212775697085, "lng": -0.195225330291502}}}, "name": "Universal IT Services", "place_id": "ChIJffTDdbkRdkgRk8qPJB-JRFM", "types": ["point_of_interest", "establishment"]}, "ChIJ5Q5rgAYQdkgRWN58Qjrl9-o": {"geometry": {"location": {"lat": 51.522657, "lng": -0.1938051}, "viewport": {"northeast": {"lat": 51.5239733802915, "lng": -0.192533169708498}, "southwest": {"lat": 51.5212754197085, "lng": -0.195231130291502}}}, "name": "Kranepeg Ltd", "place_id": "ChIJ5Q5rgAYQdkgRWN58Qjrl9-o", "types": ["finance", "point_of_interest", "establishment"]}, "ChIJ56ZYgAYQdkgRCM7XgjbhQG8": {"geometry": {"location": {"lat": 51.522657, "lng": -0.1938051}, "viewport": {"northeast": {"lat": 51.5239733802915, "lng": -0.192533169708498}, "southwest": {"lat": 51.5212754197085, "lng": -0.195231130291502}}}, "name": "Regal", "place_id": "ChIJ56ZYgAYQdkgRCM7XgjbhQG8", "types": ["point_of_interest", "establishment"]}, "ChIJjVw3-PERdkgRn7JzsXx2gJ8": {"geometry": {"location": {"lat": 51.52281359999999, "lng": -0.1940242}, "viewport": {"northeast": {"lat": 51.52410983029149, "lng": -0.1927265697084979}, "southwest": {"lat": 51.52141186970849, "lng": -0.195424530291502}}}, "name": "Vale cafe", "place_id": "ChIJjVw3-PERdkgRn7JzsXx2gJ8", "types": ["cafe", "food", "point_of_interest", "establishment"], "rating": 4.5, "user_ratings_total": 26}, "ChIJR6Jh1QUQdkgR5IG6SKO2B0g": {"geometry": {"location": {"lat": 51.522766, "lng": -0.194099}, "viewport": {"northeast": {"lat": 51.5241005802915, "lng": -0.192775369708498}, "southwest": {"lat": 51.5214026197085, "lng": -0.195473330291502}}}, "name": "Sutherland Avenue Westbourne Green (Stop RA)", "place_id": "ChIJR6Jh1QUQdkgR5IG6SKO2B0g", "types": ["transit_station", "point_of_interest", "establishment"], "rating": 5, "user_ratings_total": 1}, "ChIJAQAAAAUQdkgRXaseyP-IHbk": {"geometry": {"location": {"lat": 51.5228529, "lng": -0.1940913}, "viewport": {"northeast": {"lat": 51.5241479802915, "lng": -0.192787319708498}, "southwest": {"lat": 51.5214500197085, "lng": -0.195485280291502}}}, "name": "Smart Beauty Salon", "place_id": "ChIJAQAAAAUQdkgRXaseyP-IHbk", "types": ["hair_care", "point_of_interest", "establishment"], "rating": 4.4, "user_ratings_total": 52}, "ChIJY0JBLxwRdkgRGVWVuUrtvEg": {"geometry": {"location": {"lat": 51.522544, "lng": -0.193648}, "viewport": {"northeast": {"lat": 51.52385908029151, "lng": -0.192401619708498}, "southwest": {"lat": 51.52116111970851, "lng": -0.195099580291502}}}, "name": "\u0645\u0637\u0639\u0645 \u062a\u0646\u0648\u0631\u064a\u0646", "place_id": "ChIJY0JBLxwRdkgRGVWVuUrtvEg", "types": ["restaurant", "food", "point_of_interest", "establishment"], "rating": 4.7, "user_ratings_total": 3}, "ChIJgak6C_URdkgRkTwnCeXCZQY": {"geometry": {"location": {"lat": 51.5225287, "lng": -0.1936908}, "viewport": {"northeast": {"lat": 51.5239089302915, "lng": -0.192369319708498}, "southwest": {"lat": 51.5212109697085, "lng": -0.195067280291502}}}, "name": "School", "place_id": "ChIJgak6C_URdkgRkTwnCeXCZQY", "types": ["school", "point_of_interest", "establishment"]}, "ChIJTc-QfgYQdkgRIhZoBSud5C0": {"geometry": {"location": {"lat": 51.52292449999999, "lng": -0.1935419}, "viewport": {"northeast": {"lat": 51.52424188029149, "lng": -0.192172169708498}, "southwest": {"lat": 51.52154391970849, "lng": -0.194870130291502}}}, "name": "Mantis World", "place_id": "ChIJTc-QfgYQdkgRIhZoBSud5C0", "types": ["point_of_interest", "establishment"], "rating": 4.7, "user_ratings_total": 3}, "ChIJoVGuHbIRdkgRsxehsUON4aw": {"geometry": {"location": {"lat": 51.5225167, "lng": -0.1936923}, "viewport": {"northeast": {"lat": 51.5238404802915, "lng": -0.1924195697084979}, "southwest": {"lat": 51.5211425197085, "lng": -0.195117530291502}}}, "name": "Tannourine Lebanese Restaurant", "place_id": "ChIJoVGuHbIRdkgRsxehsUON4aw", "types": ["restaurant", "food", "point_of_interest", "establishment"], "rating": 4.5, "user_ratings_total": 47}, "ChIJp2w6gQYQdkgRnU6uECQt_Oc": {"geometry": {"location": {"lat": 51.5225128, "lng": -0.1936703}, "viewport": {"northeast": {"lat": 51.5239018302915, "lng": -0.192356669708498}, "southwest": {"lat": 51.52120386970851, "lng": -0.195054630291502}}}, "name": "Sara Foods", "place_id": "ChIJp2w6gQYQdkgRnU6uECQt_Oc", "types": ["restaurant", "food", "point_of_interest", "establishment"]}, "ChIJl5b51AUQdkgRRz6u8tF1L-o": {"geometry": {"location": {"lat": 51.522885, "lng": -0.1942076}, "viewport": {"northeast": {"lat": 51.5242058302915, "lng": -0.192917819708498}, "southwest": {"lat": 51.5215078697085, "lng": -0.195615780291502}}}, "name": "Asian Muslim Cultural Centre", "place_id": "ChIJl5b51AUQdkgRRz6u8tF1L-o", "types": ["mosque", "place_of_worship", "point_of_interest", "establishment"], "rating": 4.8, "user_ratings_total": 49}, "ChIJPeoFhwYQdkgRYw6F6bKLZK8": {"geometry": {"location": {"lat": 51.5226058, "lng": -0.1934641}, "viewport": {"northeast": {"lat": 51.52398618029149, "lng": -0.192142819708498}, "southwest": {"lat": 51.5212882197085, "lng": -0.194840780291502}}}, "name": "Westway Lodge", "place_id": "ChIJPeoFhwYQdkgRYw6F6bKLZK8", "types": ["point_of_interest", "establishment"], "rating": 4, "user_ratings_total": 2}, "ChIJZ-MBfwYQdkgRADfuxGiq5lw": {"geometry": {"location": {"lat": 51.5229064, "lng": -0.1942068}, "viewport": {"northeast": {"lat": 51.5242128302915, "lng": -0.192917569708498}, "southwest": {"lat": 51.5215148697085, "lng": -0.195615530291502}}}, "name": "A I B Fashion", "place_id": "ChIJZ-MBfwYQdkgRADfuxGiq5lw", "types": ["clothing_store", "point_of_interest", "store", "establishment"]}, "ChIJD-D81QUQdkgRhk4SmMAl1l4": {"geometry": {"location": {"lat": 51.52291530000001, "lng": -0.1942251}, "viewport": {"northeast": {"lat": 51.5242220302915, "lng": -0.192935469708498}, "southwest": {"lat": 51.52152406970851, "lng": -0.195633430291502}}}, "name": "Masjid Khalil", "place_id": "ChIJD-D81QUQdkgRhk4SmMAl1l4", "types": ["mosque", "place_of_worship", "point_of_interest", "establishment"], "rating": 5, "user_ratings_total": 25}, "ChIJKS_61QUQdkgRzNL_7JjpCSk": {"geometry": {"location": {"lat": 51.5230369, "lng": -0.1939646}, "viewport": {"northeast": {"lat": 51.5244418302915, "lng": -0.192663419708498}, "southwest": {"lat": 51.5217438697085, "lng": -0.195361380291502}}}, "name": "Alruqya Healing", "place_id": "ChIJKS_61QUQdkgRzNL_7JjpCSk", "types": ["health", "point_of_interest", "establishment"]}, "ChIJ05lFgQYQdkgR4XUcEFaSHtA": {"geometry": {"location": {"lat": 51.5224857, "lng": -0.1936173}, "viewport": {"northeast": {"lat": 51.5237998802915, "lng": -0.192357569708498}, "southwest": {"lat": 51.5211019197085, "lng": -0.195055530291502}}}, "name": "Best Buy Supermarket", "place_id": "ChIJ05lFgQYQdkgR4XUcEFaSHtA", "types": ["meal_takeaway", "restaurant", "food", "point_of_interest", "establishment"], "rating": 3.3, "user_ratings_total": 3}, "ChIJXWlCzCQRdkgRA7shkRQBwMY": {"geometry": {"location": {"lat": 51.5224807, "lng": -0.193634}, "viewport": {"northeast": {"lat": 51.52379793029149, "lng": -0.192366469708498}, "southwest": {"lat": 51.5210999697085, "lng": -0.195064430291502}}}, "name": "UPS Access Point", "place_id": "ChIJXWlCzCQRdkgRA7shkRQBwMY", "types": ["point_of_interest", "establishment"]}, "ChIJKS_61QUQdkgRLTmkz_IK2FE": {"geometry": {"location": {"lat": 51.5230286, "lng": -0.1940163}, "viewport": {"northeast": {"lat": 51.52427103029149, "lng": -0.192816969708498}, "southwest": {"lat": 51.5215730697085, "lng": -0.195514930291502}}}, "name": "Audley Metal Limited", "place_id": "ChIJKS_61QUQdkgRLTmkz_IK2FE", "types": ["point_of_interest", "establishment"]}, "ChIJKS_61QUQdkgRbAaPqYZ4N0E": {"geometry": {"location": {"lat": 51.5230286, "lng": -0.1940163}, "viewport": {"northeast": {"lat": 51.52427103029149, "lng": -0.192816969708498}, "southwest": {"lat": 51.5215730697085, "lng": -0.195514930291502}}}, "name": "Pronto Cars London Ltd", "place_id": "ChIJKS_61QUQdkgRbAaPqYZ4N0E", "types": ["point_of_interest", "establishment"], "rating": 4.7, "user_ratings_total": 59}, "ChIJSVhH06UadkgR-lI4RW0abrg": {"geometry": {"location": {"lat": 51.522992, "lng": -0.1941207}, "viewport": {"northeast": {"lat": 51.52439843029149, "lng": -0.192804819708498}, "southwest": {"lat": 51.52170046970849, "lng": -0.195502780291502}}}, "name": "Cafe Nour", "place_id": "ChIJSVhH06UadkgR-lI4RW0abrg", "types": ["cafe", "food", "point_of_interest", "establishment"], "rating": 4.2, "user_ratings_total": 27}, "ChIJq17v1QUQdkgRKBTj2lIrHcA": {"geometry": {"location": {"lat": 51.523019, "lng": -0.1940563}, "viewport": {"northeast": {"lat": 51.5242702802915, "lng": -0.192844519708498}, "southwest": {"lat": 51.5215723197085, "lng": -0.195542480291502}}}, "name": "Key Partners International Limited", "place_id": "ChIJq17v1QUQdkgRKBTj2lIrHcA", "types": ["real_estate_agency", "point_of_interest", "establishment"]}, "ChIJO8sa1QUQdkgRvjdIi8KizVw": {"geometry": {"location": {"lat": 51.5230899, "lng": -0.1939239}, "viewport": {"northeast": {"lat": 51.5244799302915, "lng": -0.192607919708498}, "southwest": {"lat": 51.5217819697085, "lng": -0.195305880291502}}}, "name": "Rasheed Supermarket", "place_id": "ChIJO8sa1QUQdkgRvjdIi8KizVw", "types": ["supermarket", "grocery_or_supermarket", "food", "point_of_interest", "store", "establishment"], "rating": 4.5, "user_ratings_total": 15}, "ChIJ-zWPgAYQdkgRhKtW_W2VUaY": {"geometry": {"location": {"lat": 51.5229526, "lng": -0.1943192}, "viewport": {"northeast": {"lat": 51.5242593802915, "lng": -0.193019219708498}, "southwest": {"lat": 51.5215614197085, "lng": -0.195717180291502}}}, "name": "West Nine Food & Wine", "place_id": "ChIJ-zWPgAYQdkgRhKtW_W2VUaY", "types": ["convenience_store", "food", "point_of_interest", "store", "establishment"], "rating": 3.8, "user_ratings_total": 8}, "ChIJGRDmxLURdkgReIs_F5qpdB0": {"geometry": {"location": {"lat": 51.5224242, "lng": -0.1935708}, "viewport": {"northeast": {"lat": 51.5237432802915, "lng": -0.192310919708498}, "southwest": {"lat": 51.52104531970851, "lng": -0.195008880291502}}}, "name": "Chicken valley harrow road", "place_id": "ChIJGRDmxLURdkgReIs_F5qpdB0", "types": ["restaurant", "food", "point_of_interest", "establishment"], "rating": 3, "user_ratings_total": 2}, "ChIJc-_CRgQQdkgR0Vm4zNFNnJk": {"geometry": {"location": {"lat": 51.522583, "lng": -0.1943985}, "viewport": {"northeast": {"lat": 51.5237710302915, "lng": -0.1931592697084979}, "southwest": {"lat": 51.52107306970851, "lng": -0.195857230291502}}}, "name": "Carlton Gate Marketing Co Ltd", "place_id": "ChIJc-_CRgQQdkgR0Vm4zNFNnJk", "types": ["real_estate_agency", "point_of_interest", "establishment"], "rating": 4.1, "user_ratings_total": 28}, "ChIJV8F4M7sRdkgRE6MWjN_FeEg": {"geometry": {"location": {"lat": 51.52238319999999, "lng": -0.1935476}, "viewport": {"northeast": {"lat": 51.52370388029149, "lng": -0.192282919708498}, "southwest": {"lat": 51.5210059197085, "lng": -0.194980880291502}}}, "name": "Rapid Skip Hire Maida Hill", "place_id": "ChIJV8F4M7sRdkgRE6MWjN_FeEg", "types": ["point_of_interest", "establishment"]}, "ChIJyfUh0wUQdkgRjQVyl4r50Ko": {"geometry": {"location": {"lat": 51.52286099999999, "lng": -0.194528}, "viewport": {"northeast": {"lat": 51.5242219302915, "lng": -0.193165169708498}, "southwest": {"lat": 51.5215239697085, "lng": -0.195863130291502}}}, "name": "Sutherland Avenue Westbourne Green (Stop RF)", "place_id": "ChIJyfUh0wUQdkgRjQVyl4r50Ko", "types": ["transit_station", "point_of_interest", "establishment"]}, "ChIJO7tshAYQdkgRmuokeZMGFPQ": {"geometry": {"location": {"lat": 51.52231949999999, "lng": -0.1935527}, "viewport": {"northeast": {"lat": 51.5236480302915, "lng": -0.192264669708498}, "southwest": {"lat": 51.5209500697085, "lng": -0.194962630291502}}}, "name": "Cafe Limo", "place_id": "ChIJO7tshAYQdkgRmuokeZMGFPQ", "types": ["cafe", "food", "point_of_interest", "establishment"]}, "ChIJS-gcLQQQdkgRA4vObb4O1AE": {"geometry": {"location": {"lat": 51.5226142, "lng": -0.1945561}, "viewport": {"northeast": {"lat": 51.5237866302915, "lng": -0.1932380697084979}, "southwest": {"lat": 51.5210886697085, "lng": -0.195936030291502}}}, "name": "Home of Dissertations - Trusted Dissertation Help & Essay Help Assignment Writing Service, PhD Proposal & Thesis Proofreading", "place_id": "ChIJS-gcLQQQdkgRA4vObb4O1AE", "types": ["point_of_interest", "establishment"], "rating": 4.8, "user_ratings_total": 30}, "ChIJ__9ahAYQdkgRh8jl65YNGzk": {"geometry": {"location": {"lat": 51.5222717, "lng": -0.1934917}, "viewport": {"northeast": {"lat": 51.52362068029149, "lng": -0.192142719708498}, "southwest": {"lat": 51.52092271970849, "lng": -0.194840680291502}}}, "name": "JACK BENNETT", "place_id": "ChIJ__9ahAYQdkgRh8jl65YNGzk", "types": ["point_of_interest", "establishment"]}, "ChIJ__9ahAYQdkgRtLZdfP1ndec": {"geometry": {"location": {"lat": 51.5222717, "lng": -0.1934917}, "viewport": {"northeast": {"lat": 51.5235976802915, "lng": -0.192211269708498}, "southwest": {"lat": 51.5208997197085, "lng": -0.194909230291502}}}, "name": "TOM CROOKE", "place_id": "ChIJ__9ahAYQdkgRtLZdfP1ndec", "types": ["point_of_interest", "establishment"]}, "ChIJyXzzmgYQdkgRLqhvGe7Zy34": {"geometry": {"location": {"lat": 51.52192195001023, "lng": -0.1933473499525541}, "viewport": {"northeast": {"lat": 51.5232709302915, "lng": -0.191998369708498}, "southwest": {"lat": 51.5205729697085, "lng": -0.194696330291502}}}, "name": "Harrow Road", "place_id": "ChIJyXzzmgYQdkgRLqhvGe7Zy34", "types": ["route"]}, "ChIJm9U5nwYQdkgRdvcl5lYPv9M": {"geometry": {"location": {"lat": 51.5215123, "lng": -0.1936593}, "viewport": {"northeast": {"lat": 51.5227802802915, "lng": -0.1923933697084979}, "southwest": {"lat": 51.5200823197085, "lng": -0.195091330291502}}}, "name": "MH CONTRACTORS LTD", "place_id": "ChIJm9U5nwYQdkgRdvcl5lYPv9M", "types": ["point_of_interest", "establishment"]}, "ChIJfyYfjEURdkgR6C3YBIP189Y": {"geometry": {"location": {"lat": 51.5215123, "lng": -0.1936593}, "viewport": {"northeast": {"lat": 51.5228619302915, "lng": -0.1921814697084979}, "southwest": {"lat": 51.5201639697085, "lng": -0.194879430291502}}}, "name": "Vakantiehuis Fijn appartement in Londen vlak bij het centrum", "place_id": "ChIJfyYfjEURdkgR6C3YBIP189Y", "types": ["real_estate_agency", "lodging", "travel_agency", "point_of_interest", "establishment"]}, "ChIJ0d5unZQRdkgRwNcQUEPVEko": {"geometry": {"location": {"lat": 51.5215123, "lng": -0.1936593}, "viewport": {"northeast": {"lat": 51.5227802802915, "lng": -0.1923933697084979}, "southwest": {"lat": 51.5200823197085, "lng": -0.195091330291502}}}, "name": "Stronics", "place_id": "ChIJ0d5unZQRdkgRwNcQUEPVEko", "types": ["electronics_store", "point_of_interest", "clothing_store", "store", "establishment"], "rating": 3.8, "user_ratings_total": 8}, "ChIJaQ84N5ERdkgRS5QaQ0ACGTY": {"geometry": {"location": {"lat": 51.5215123, "lng": -0.1936593}, "viewport": {"northeast": {"lat": 51.5227802802915, "lng": -0.1923933697084979}, "southwest": {"lat": 51.5200823197085, "lng": -0.195091330291502}}}, "name": "Fam Vegan", "place_id": "ChIJaQ84N5ERdkgRS5QaQ0ACGTY", "types": ["meal_delivery", "restaurant", "food", "point_of_interest", "establishment"], "rating": 5, "user_ratings_total": 1}, "ChIJk5L-mAYQdkgRqWgYuKTJ-DY": {"geometry": {"location": {"lat": 51.5215428, "lng": -0.1933832}, "viewport": {"northeast": {"lat": 51.52291967810449, "lng": -0.1920981201469167}, "southwest": {"lat": 51.52022171752149, "lng": -0.1947960807299207}}}, "name": "Parking lot", "place_id": "ChIJk5L-mAYQdkgRqWgYuKTJ-DY", "types": ["parking", "premise", "point_of_interest", "establishment"]}, "ChIJSzq6HwQQdkgRL-Ob0VeHa-U": {"geometry": {"location": {"lat": 51.5212952, "lng": -0.1941177}, "viewport": {"northeast": {"lat": 51.52264970887307, "lng": -0.1928602084037132}, "southwest": {"lat": 51.51995174829007, "lng": -0.1955581689867172}}}, "name": "Parking lot", "place_id": "ChIJSzq6HwQQdkgRL-Ob0VeHa-U", "types": ["parking", "premise", "point_of_interest", "establishment"]}, "ChIJCZ4oHQQQdkgRWd_x3j9XVsg": {"geometry": {"location": {"lat": 51.5208435, "lng": -0.1940685999999999}, "viewport": {"northeast": {"lat": 51.5223344302915, "lng": -0.1928018197084979}, "southwest": {"lat": 51.5196364697085, "lng": -0.195499780291502}}}, "name": "Next Generation Club - Carlton", "place_id": "ChIJCZ4oHQQQdkgRWd_x3j9XVsg", "types": ["point_of_interest", "establishment"], "rating": 5, "user_ratings_total": 1}, "ChIJKbZiHgQQdkgRUl5QmhNy-YE": {"geometry": {"location": {"lat": 51.5208435, "lng": -0.1940685999999999}, "viewport": {"northeast": {"lat": 51.52233468029149, "lng": -0.1928006697084979}, "southwest": {"lat": 51.51963671970849, "lng": -0.195498630291502}}}, "name": "Yoga Nini", "place_id": "ChIJKbZiHgQQdkgRUl5QmhNy-YE", "types": ["school", "point_of_interest", "establishment"]}, "ChIJEYjDwQUQdkgRyc7nhkfXAUQ": {"geometry": {"location": {"lat": 51.52389732627776, "lng": -0.1950089032732771}, "viewport": {"northeast": {"lat": 51.5252436302915, "lng": -0.193663119708498}, "southwest": {"lat": 51.5225456697085, "lng": -0.1963610802915021}}}, "name": "2-20 Goldney Rd", "place_id": "ChIJEYjDwQUQdkgRyc7nhkfXAUQ", "types": ["route"]}, "ChIJYT7G4OIRdkgRnkiU3F55Ihc": {"geometry": {"location": {"lat": 51.52343609999999, "lng": -0.1952685}, "viewport": {"northeast": {"lat": 51.52482283029149, "lng": -0.193904619708498}, "southwest": {"lat": 51.5221248697085, "lng": -0.196602580291502}}}, "name": "M C Stone Ltd", "place_id": "ChIJYT7G4OIRdkgRnkiU3F55Ihc", "types": ["furniture_store", "home_goods_store", "point_of_interest", "store", "establishment"], "rating": 3.7, "user_ratings_total": 7}, "ChIJSUSmxQUQdkgRfKMgteyB_Bk": {"geometry": {"location": {"lat": 51.52350980000001, "lng": -0.1949288}, "viewport": {"northeast": {"lat": 51.52482183029149, "lng": -0.193503019708498}, "southwest": {"lat": 51.5221238697085, "lng": -0.196200980291502}}}, "name": "Venice Gondola", "place_id": "ChIJSUSmxQUQdkgRfKMgteyB_Bk", "types": ["travel_agency", "point_of_interest", "establishment"]}, "ChIJBwgMwQUQdkgRqJOkeCQ94us": {"geometry": {"location": {"lat": 51.52386019999999, "lng": -0.1952141}, "viewport": {"northeast": {"lat": 51.52525178029149, "lng": -0.193815519708498}, "southwest": {"lat": 51.52255381970849, "lng": -0.196513480291502}}}, "name": "Rexstone Ltd", "place_id": "ChIJBwgMwQUQdkgRqJOkeCQ94us", "types": ["point_of_interest", "establishment"]}, "ChIJq0ob6gUQdkgRrrb3CqYEtig": {"geometry": {"location": {"lat": 51.52408639999999, "lng": -0.1951323}, "viewport": {"northeast": {"lat": 51.5253894302915, "lng": -0.193828919708498}, "southwest": {"lat": 51.5226914697085, "lng": -0.196526880291502}}}, "name": "Elmfield House", "place_id": "ChIJq0ob6gUQdkgRrrb3CqYEtig", "types": ["lodging", "point_of_interest", "establishment"], "rating": 4, "user_ratings_total": 2}, "ChIJ-7t4G98PdkgR2wmXhUS_Rks": {"geometry": {"location": {"lat": 51.5235821, "lng": -0.1950117}, "viewport": {"northeast": {"lat": 51.5248814302915, "lng": -0.1936823197084979}, "southwest": {"lat": 51.5221834697085, "lng": -0.196380280291502}}}, "name": "Ebony Steelband Trust", "place_id": "ChIJ-7t4G98PdkgR2wmXhUS_Rks", "types": ["point_of_interest", "establishment"], "rating": 5, "user_ratings_total": 3}, "ChIJedcIMMgRdkgRP4g_quCm18g": {"geometry": {"location": {"lat": 51.5235424, "lng": -0.1949962}, "viewport": {"northeast": {"lat": 51.52485943029149, "lng": -0.193660419708498}, "southwest": {"lat": 51.5221614697085, "lng": -0.196358380291502}}}, "name": "Perform Maida Vale", "place_id": "ChIJedcIMMgRdkgRP4g_quCm18g", "types": ["university", "point_of_interest", "establishment"]}, "ChIJjbZMxAUQdkgR_e68yifLJ3A": {"geometry": {"location": {"lat": 51.5235542, "lng": -0.1949799}, "viewport": {"northeast": {"lat": 51.5248645302915, "lng": -0.193646969708498}, "southwest": {"lat": 51.5221665697085, "lng": -0.196344930291502}}}, "name": "Rumshop Cultural Club", "place_id": "ChIJjbZMxAUQdkgR_e68yifLJ3A", "types": ["point_of_interest", "establishment"]}, "ChIJjbZMxAUQdkgRTtnybgZ2-wQ": {"geometry": {"location": {"lat": 51.5235542, "lng": -0.1949799}, "viewport": {"northeast": {"lat": 51.5248645302915, "lng": -0.193646969708498}, "southwest": {"lat": 51.5221665697085, "lng": -0.196344930291502}}}, "name": "THE IMPROV!SATION ACADEMY", "place_id": "ChIJjbZMxAUQdkgRTtnybgZ2-wQ", "types": ["point_of_interest", "establishment"]}, "ChIJSUSmxQUQdkgR5d2ofnSvtTQ": {"geometry": {"location": {"lat": 51.52342520000001, "lng": -0.1951017}, "viewport": {"northeast": {"lat": 51.5247270302915, "lng": -0.193654719708498}, "southwest": {"lat": 51.52202906970851, "lng": -0.1963526802915021}}}, "name": "The Ravenous Pizza & Fish Bar", "place_id": "ChIJSUSmxQUQdkgR5d2ofnSvtTQ", "types": ["meal_takeaway", "restaurant", "food", "point_of_interest", "establishment"], "rating": 4.1, "user_ratings_total": 70}, "ChIJm6jeEwQQdkgRYNma1v28J5c": {"geometry": {"location": {"lat": 51.520988, "lng": -0.195104}, "viewport": {"northeast": {"lat": 51.5223259302915, "lng": -0.193749869708498}, "southwest": {"lat": 51.5196279697085, "lng": -0.196447830291502}}}, "name": "ubitricity Charging Station", "place_id": "ChIJm6jeEwQQdkgRYNma1v28J5c", "types": ["point_of_interest", "establishment"]}, "ChIJb0SgDAcQdkgRNfi5PqPUSxc": {"geometry": {"location": {"lat": 51.5222881, "lng": -0.1897071}, "viewport": {"northeast": {"lat": 51.5233612802915, "lng": -0.188238319708498}, "southwest": {"lat": 51.5206633197085, "lng": -0.190936280291502}}}, "name": "St Mary Magdalene's Church of England Primary School, Paddington", "place_id": "ChIJb0SgDAcQdkgRNfi5PqPUSxc", "types": ["primary_school", "school", "point_of_interest", "establishment"], "rating": 5, "user_ratings_total": 1}, "ChIJGegfOQcQdkgRgCLAB556hLs": {"geometry": {"location": {"lat": 51.52103295026556, "lng": -0.1897166502637218}, "viewport": {"northeast": {"lat": 51.52238193029149, "lng": -0.188367669708498}, "southwest": {"lat": 51.5196839697085, "lng": -0.191065630291502}}}, "name": "157-159 Bourne Terrace", "place_id": "ChIJGegfOQcQdkgRgCLAB556hLs", "types": ["route"]}, "ChIJ81oR4wYQdkgR7Iwxg2LE_9w": {"geometry": {"location": {"lat": 51.52209962316942, "lng": -0.1912938449618717}, "viewport": {"northeast": {"lat": 51.52343523029149, "lng": -0.1899342197084979}, "southwest": {"lat": 51.5207372697085, "lng": -0.192632180291502}}}, "name": "Woodchester Square", "place_id": "ChIJ81oR4wYQdkgR7Iwxg2LE_9w", "types": ["route"]}, "ChIJkcGV4AYQdkgRdb50OjFx1Xs": {"geometry": {"location": {"lat": 51.5212828, "lng": -0.1914681}, "viewport": {"northeast": {"lat": 51.5226670802915, "lng": -0.190210069708498}, "southwest": {"lat": 51.5199691197085, "lng": -0.1929080302915021}}}, "name": "Our Lady of Dolours R C School", "place_id": "ChIJkcGV4AYQdkgRdb50OjFx1Xs", "types": ["school", "point_of_interest", "establishment"], "rating": 4.4, "user_ratings_total": 11}, "ChIJ75prwwYQdkgRyqoIgZu5dlg": {"geometry": {"location": {"lat": 51.5211632, "lng": -0.1918818}, "viewport": {"northeast": {"lat": 51.5225402802915, "lng": -0.1904810197084979}, "southwest": {"lat": 51.5198423197085, "lng": -0.193178980291502}}}, "name": "Landmark Legal LLP", "place_id": "ChIJ75prwwYQdkgRyqoIgZu5dlg", "types": ["lawyer", "point_of_interest", "establishment"], "rating": 3.7, "user_ratings_total": 3}, "ChIJUdPWwgkRdkgRIvrmKsE5Fv8": {"geometry": {"location": {"lat": 51.52106819999999, "lng": -0.1917305}, "viewport": {"northeast": {"lat": 51.52235218029149, "lng": -0.190495619708498}, "southwest": {"lat": 51.51965421970849, "lng": -0.193193580291502}}}, "name": "ATM (Costcutter)", "place_id": "ChIJUdPWwgkRdkgRIvrmKsE5Fv8", "types": ["atm", "finance", "point_of_interest", "establishment"], "rating": 3, "user_ratings_total": 1}, "ChIJJxycxAYQdkgR_EyVEYlhTxY": {"geometry": {"location": {"lat": 51.5211176, "lng": -0.1918565}, "viewport": {"northeast": {"lat": 51.5225006802915, "lng": -0.190444769708498}, "southwest": {"lat": 51.5198027197085, "lng": -0.193142730291502}}}, "name": "MBG Design & Print", "place_id": "ChIJJxycxAYQdkgR_EyVEYlhTxY", "types": ["point_of_interest", "store", "establishment"], "rating": 4.4, "user_ratings_total": 11}, "ChIJ65mG1R0RdkgR-I5w_lhDfnk": {"geometry": {"location": {"lat": 51.5242714, "lng": -0.1926344}, "viewport": {"northeast": {"lat": 51.5255985802915, "lng": -0.191333969708498}, "southwest": {"lat": 51.5229006197085, "lng": -0.194031930291502}}}, "name": "Ficticity", "place_id": "ChIJ65mG1R0RdkgR-I5w_lhDfnk", "types": ["point_of_interest", "establishment"]}, "ChIJ9a11aQYQdkgROmDzKpg2sBY": {"geometry": {"location": {"lat": 51.52363304207664, "lng": -0.1928358679463774}, "viewport": {"northeast": {"lat": 51.5249662302915, "lng": -0.191463369708498}, "southwest": {"lat": 51.5222682697085, "lng": -0.194161330291502}}}, "name": "Sutherland Avenue", "place_id": "ChIJ9a11aQYQdkgROmDzKpg2sBY", "types": ["route"]}, "ChIJq6pqbwYQdkgR9w6iGzSmO6M": {"geometry": {"location": {"lat": 51.5234738, "lng": -0.1929824}, "viewport": {"northeast": {"lat": 51.5248235802915, "lng": -0.191634219708498}, "southwest": {"lat": 51.5221256197085, "lng": -0.194332180291502}}}, "name": "HIWINE", "place_id": "ChIJq6pqbwYQdkgR9w6iGzSmO6M", "types": ["liquor_store", "food", "point_of_interest", "store", "establishment"]}, "ChIJCajVegYQdkgRjk7WK-vm5KA": {"geometry": {"location": {"lat": 51.5232347, "lng": -0.1932686}, "viewport": {"northeast": {"lat": 51.5246563802915, "lng": -0.191987119708498}, "southwest": {"lat": 51.5219584197085, "lng": -0.194685080291502}}}, "name": "Nicolacorp", "place_id": "ChIJCajVegYQdkgRjk7WK-vm5KA", "types": ["point_of_interest", "establishment"]}, "ChIJ8ZQLdwYQdkgRz7T8NFUyaOM": {"geometry": {"location": {"lat": 51.5235006, "lng": -0.193133}, "viewport": {"northeast": {"lat": 51.5248329802915, "lng": -0.191741019708498}, "southwest": {"lat": 51.5221350197085, "lng": -0.194438980291502}}}, "name": "Afflick Photos", "place_id": "ChIJ8ZQLdwYQdkgRz7T8NFUyaOM", "types": ["point_of_interest", "establishment"]}, "ChIJhfTMhAYQdkgR8v_cSWLDV0Q": {"geometry": {"location": {"lat": 51.5220826203233, "lng": -0.1935094433646265}, "viewport": {"northeast": {"lat": 51.52343383029149, "lng": -0.192154069708498}, "southwest": {"lat": 51.5207358697085, "lng": -0.194852030291502}}}, "name": "Harrow Road", "place_id": "ChIJhfTMhAYQdkgR8v_cSWLDV0Q", "types": ["route"]}, "ChIJwyKs9Xin2EcRfrxRqBtMgU4": {"geometry": {"location": {"lat": 51.5222476, "lng": -0.1935072}, "viewport": {"northeast": {"lat": 51.5235783302915, "lng": -0.192212669708498}, "southwest": {"lat": 51.5208803697085, "lng": -0.194910630291502}}}, "name": "City Pumps Ltd", "place_id": "ChIJwyKs9Xin2EcRfrxRqBtMgU4", "types": ["point_of_interest", "establishment"]}, "ChIJDeQzzQYQdkgRM_QbphrMxZM": {"geometry": {"location": {"lat": 51.5210083, "lng": -0.1928378}, "viewport": {"northeast": {"lat": 51.52247703029149, "lng": -0.191282019708498}, "southwest": {"lat": 51.5197790697085, "lng": -0.193979980291502}}}, "name": "Top Corner Paddington", "place_id": "ChIJDeQzzQYQdkgRM_QbphrMxZM", "types": ["point_of_interest", "establishment"]}, "ChIJww3kuwYQdkgRUOuNAWvA9p4": {"geometry": {"location": {"lat": 51.5210343, "lng": -0.192899}, "viewport": {"northeast": {"lat": 51.5225028302915, "lng": -0.191331419708498}, "southwest": {"lat": 51.5198048697085, "lng": -0.194029380291502}}}, "name": "LCLC", "place_id": "ChIJww3kuwYQdkgRUOuNAWvA9p4", "types": ["point_of_interest", "establishment"], "rating": 1, "user_ratings_total": 1}, "ChIJtRvsuwYQdkgR6fls9r5wPLs": {"geometry": {"location": {"lat": 51.52137949999999, "lng": -0.192905}, "viewport": {"northeast": {"lat": 51.52277293029149, "lng": -0.191470919708498}, "southwest": {"lat": 51.52007496970849, "lng": -0.194168880291502}}}, "name": "Westminster Academy", "place_id": "ChIJtRvsuwYQdkgR6fls9r5wPLs", "types": ["school", "point_of_interest", "establishment"], "rating": 3.3, "user_ratings_total": 75}, "ChIJSy3nwjQRdkgRtY3ARWMyCHg": {"geometry": {"location": {"lat": 51.5211182, "lng": -0.192935}, "viewport": {"northeast": {"lat": 51.5225687302915, "lng": -0.191818019708498}, "southwest": {"lat": 51.5198707697085, "lng": -0.194515980291502}}}, "name": "Leap Parkour Park", "place_id": "ChIJSy3nwjQRdkgRtY3ARWMyCHg", "types": ["gym", "health", "point_of_interest", "establishment"], "rating": 4, "user_ratings_total": 2}, "ChIJs_JlvgYQdkgR6kh6CZe-0ko": {"geometry": {"location": {"lat": 51.5210436, "lng": -0.1928013}, "viewport": {"northeast": {"lat": 51.5224984802915, "lng": -0.191269419708498}, "southwest": {"lat": 51.5198005197085, "lng": -0.193967380291502}}}, "name": "Martial art / San-Da Kung-fu: Chugarkwon Academy", "place_id": "ChIJs_JlvgYQdkgR6kh6CZe-0ko", "types": ["health", "point_of_interest", "establishment"], "rating": 5, "user_ratings_total": 1}, "ChIJew064QUQdkgRzP_RHVskdwE": {"geometry": {"location": {"lat": 51.52427965077285, "lng": -0.1943445981716548}, "viewport": {"northeast": {"lat": 51.52562863029151, "lng": -0.192995619708498}, "southwest": {"lat": 51.52293066970851, "lng": -0.195693580291502}}}, "name": "1-11 Edbrooke Rd", "place_id": "ChIJew064QUQdkgRzP_RHVskdwE", "types": ["route"]}, "ChIJTbnsCQYQdkgRVgbJ7LhdStU": {"geometry": {"location": {"lat": 51.5243655, "lng": -0.1939435}, "viewport": {"northeast": {"lat": 51.52565998029151, "lng": -0.192478819708498}, "southwest": {"lat": 51.52296201970851, "lng": -0.195176780291502}}}, "name": "Theta2Change", "place_id": "ChIJTbnsCQYQdkgRVgbJ7LhdStU", "types": ["bank", "finance", "point_of_interest", "establishment"]}, "ChIJ2RTTzQUQdkgRl7uIc3OrEOQ": {"geometry": {"location": {"lat": 51.52299145005676, "lng": -0.1947466499201968}, "viewport": {"northeast": {"lat": 51.5243404302915, "lng": -0.193397669708498}, "southwest": {"lat": 51.5216424697085, "lng": -0.196095630291502}}}, "name": "Harrow Road", "place_id": "ChIJ2RTTzQUQdkgRl7uIc3OrEOQ", "types": ["route"]}, "ChIJY_IjzgUQdkgRBJcjQR3cypU": {"geometry": {"location": {"lat": 51.523126, "lng": -0.1946481}, "viewport": {"northeast": {"lat": 51.52440723029149, "lng": -0.193346719708498}, "southwest": {"lat": 51.5217092697085, "lng": -0.196044680291502}}}, "name": "Champers Wine", "place_id": "ChIJY_IjzgUQdkgRBJcjQR3cypU", "types": ["liquor_store", "point_of_interest", "store", "establishment"], "rating": 4.1, "user_ratings_total": 7}, "ChIJ8ZQLdwYQdkgRhB7flNJEpz8": {"geometry": {"location": {"lat": 51.5232998, "lng": -0.1942654}, "viewport": {"northeast": {"lat": 51.5245634802915, "lng": -0.192843719708498}, "southwest": {"lat": 51.5218655197085, "lng": -0.195541680291502}}}, "name": "Glauca Rossi School of Make Up", "place_id": "ChIJ8ZQLdwYQdkgRhB7flNJEpz8", "types": ["point_of_interest", "establishment"], "rating": 4.4, "user_ratings_total": 39}, "ChIJ0SEpdwYQdkgRmRpfV-DO3x4": {"geometry": {"location": {"lat": 51.5232543, "lng": -0.1942663}, "viewport": {"northeast": {"lat": 51.5245322302915, "lng": -0.192869569708498}, "southwest": {"lat": 51.5218342697085, "lng": -0.195567530291502}}}, "name": "The Real Art Estate Ltd", "place_id": "ChIJ0SEpdwYQdkgRmRpfV-DO3x4", "types": ["point_of_interest", "establishment"]}, "ChIJr_FHLqcadkgRHv8vFe7i-7U": {"geometry": {"location": {"lat": 51.52314519999999, "lng": -0.1947449}, "viewport": {"northeast": {"lat": 51.52442773029149, "lng": -0.193435169708498}, "southwest": {"lat": 51.52172976970849, "lng": -0.196133130291502}}}, "name": "One 2 One Cars", "place_id": "ChIJr_FHLqcadkgRHv8vFe7i-7U", "types": ["point_of_interest", "establishment"], "rating": 4.3, "user_ratings_total": 57}, "ChIJd7r70QUQdkgRb2Q8jbskwEM": {"geometry": {"location": {"lat": 51.5231529, "lng": -0.1948728}, "viewport": {"northeast": {"lat": 51.5244422802915, "lng": -0.193526369708498}, "southwest": {"lat": 51.5217443197085, "lng": -0.196224330291502}}}, "name": "Papa John's Pizza", "place_id": "ChIJd7r70QUQdkgRb2Q8jbskwEM", "types": ["restaurant", "food", "point_of_interest", "establishment"], "rating": 3.8, "user_ratings_total": 147}, "ChIJtXqmVrAddkgRtw2du2oWVSA": {"geometry": {"location": {"lat": 51.5234642, "lng": -0.1945084}, "viewport": {"northeast": {"lat": 51.5248482302915, "lng": -0.193225819708498}, "southwest": {"lat": 51.5221502697085, "lng": -0.195923780291502}}}, "name": "High End Kitchen", "place_id": "ChIJtXqmVrAddkgRtw2du2oWVSA", "types": ["furniture_store", "home_goods_store", "general_contractor", "point_of_interest", "store", "establishment"], "rating": 5, "user_ratings_total": 3}, "ChIJi_R2dQYQdkgRrzGzFUDgrSE": {"geometry": {"location": {"lat": 51.523397, "lng": -0.194675}, "viewport": {"northeast": {"lat": 51.52476953029149, "lng": -0.193370669708498}, "southwest": {"lat": 51.52207156970849, "lng": -0.196068630291502}}}, "name": "Tsiakkos & Charcoal", "place_id": "ChIJi_R2dQYQdkgRrzGzFUDgrSE", "types": ["restaurant", "food", "point_of_interest", "establishment"], "rating": 4.6, "user_ratings_total": 269}, "ChIJ0SEpdwYQdkgRJG02eoPxWrE": {"geometry": {"location": {"lat": 51.52324549999999, "lng": -0.1944304}, "viewport": {"northeast": {"lat": 51.52450913029149, "lng": -0.193008669708498}, "southwest": {"lat": 51.52181116970849, "lng": -0.195706630291502}}}, "name": "Sparrow Dry Cleaners London", "place_id": "ChIJ0SEpdwYQdkgRJG02eoPxWrE", "types": ["laundry", "point_of_interest", "establishment"], "rating": 4.9, "user_ratings_total": 30}, "ChIJY_IjzgUQdkgRs3NG2c-ZQUg": {"geometry": {"location": {"lat": 51.523124, "lng": -0.194677}, "viewport": {"northeast": {"lat": 51.5244065802915, "lng": -0.193362369708498}, "southwest": {"lat": 51.5217086197085, "lng": -0.196060330291502}}}, "name": "Golden Scissors", "place_id": "ChIJY_IjzgUQdkgRs3NG2c-ZQUg", "types": ["hair_care", "health", "point_of_interest", "establishment"], "rating": 4.7, "user_ratings_total": 190}, "ChIJw2XmjxoQdkgRarKUO8nzbPQ": {"geometry": {"location": {"lat": 51.52336420000001, "lng": -0.1948462}, "viewport": {"northeast": {"lat": 51.52470608029149, "lng": -0.1934814697084979}, "southwest": {"lat": 51.5220081197085, "lng": -0.196179430291502}}}, "name": "Katryan Property Services Ltd", "place_id": "ChIJw2XmjxoQdkgRarKUO8nzbPQ", "types": ["real_estate_agency", "point_of_interest", "establishment"], "rating": 3.3, "user_ratings_total": 4}, "ChIJmSBjmE8RdkgRVcYX2dGTh0Y": {"geometry": {"location": {"lat": 51.52317310000001, "lng": -0.1947635}, "viewport": {"northeast": {"lat": 51.5244471302915, "lng": -0.193464369708498}, "southwest": {"lat": 51.52174916970851, "lng": -0.196162330291502}}}, "name": "Direct Airport Cars", "place_id": "ChIJmSBjmE8RdkgRVcYX2dGTh0Y", "types": ["point_of_interest", "establishment"], "rating": 5, "user_ratings_total": 1}, "ChIJnRDKOscRdkgRDTDOuq7P3WM": {"geometry": {"location": {"lat": 51.52317310000001, "lng": -0.1947635}, "viewport": {"northeast": {"lat": 51.5244471302915, "lng": -0.193464369708498}, "southwest": {"lat": 51.52174916970851, "lng": -0.196162330291502}}}, "name": "Open House Maida Vale", "place_id": "ChIJnRDKOscRdkgRDTDOuq7P3WM", "types": ["point_of_interest", "establishment"], "rating": 4.6, "user_ratings_total": 9}, "ChIJayLQqWIRdkgRfx-dG74Q_m8": {"geometry": {"location": {"lat": 51.52339929999999, "lng": -0.1946041}, "viewport": {"northeast": {"lat": 51.52478668029149, "lng": -0.193326869708498}, "southwest": {"lat": 51.5220887197085, "lng": -0.196024830291502}}}, "name": "Paddington Glass", "place_id": "ChIJayLQqWIRdkgRfx-dG74Q_m8", "types": ["point_of_interest", "establishment"]}, "ChIJzbf2G8YRdkgR89b5R5j1FhY": {"geometry": {"location": {"lat": 51.523221, "lng": -0.1945127}, "viewport": {"northeast": {"lat": 51.52448358029149, "lng": -0.193090119708498}, "southwest": {"lat": 51.5217856197085, "lng": -0.195788080291502}}}, "name": "London Laser Clinic Maida Vale", "place_id": "ChIJzbf2G8YRdkgR89b5R5j1FhY", "types": ["beauty_salon", "hair_care", "spa", "health", "point_of_interest", "establishment"], "rating": 5, "user_ratings_total": 3}, "ChIJea0fzgUQdkgRy3pl94c11QA": {"geometry": {"location": {"lat": 51.52313269999999, "lng": -0.1947375}, "viewport": {"northeast": {"lat": 51.5244213302915, "lng": -0.193430919708498}, "southwest": {"lat": 51.5217233697085, "lng": -0.196128880291502}}}, "name": "World Band Event Catering", "place_id": "ChIJea0fzgUQdkgRy3pl94c11QA", "types": ["point_of_interest", "establishment"]}, "ChIJx6j2DSARdkgR6b21b7TcsyE": {"geometry": {"location": {"lat": 51.5231933, "lng": -0.1949478}, "viewport": {"northeast": {"lat": 51.52447893029151, "lng": -0.193640919708498}, "southwest": {"lat": 51.52178096970851, "lng": -0.196338880291502}}}, "name": "Large Skip Hire", "place_id": "ChIJx6j2DSARdkgR6b21b7TcsyE", "types": ["point_of_interest", "establishment"]}, "ChIJezZBt8ARdkgRzMVWT0KBdv4": {"geometry": {"location": {"lat": 51.52346319999999, "lng": -0.1945898}, "viewport": {"northeast": {"lat": 51.52483498029149, "lng": -0.193284569708498}, "southwest": {"lat": 51.5221370197085, "lng": -0.195982530291502}}}, "name": "Dream Home", "place_id": "ChIJezZBt8ARdkgRzMVWT0KBdv4", "types": ["general_contractor", "point_of_interest", "establishment"]}, "ChIJq6OOxQUQdkgRIjOZM04x-O8": {"geometry": {"location": {"lat": 51.5234134, "lng": -0.1949817}, "viewport": {"northeast": {"lat": 51.5247364802915, "lng": -0.193575669708498}, "southwest": {"lat": 51.5220385197085, "lng": -0.196273630291502}}}, "name": "Nicky Clarke", "place_id": "ChIJq6OOxQUQdkgRIjOZM04x-O8", "types": ["point_of_interest", "establishment"]}, "ChIJq6OOxQUQdkgRVSdgikAA71M": {"geometry": {"location": {"lat": 51.5234134, "lng": -0.1949817}, "viewport": {"northeast": {"lat": 51.5247364802915, "lng": -0.193575669708498}, "southwest": {"lat": 51.5220385197085, "lng": -0.196273630291502}}}, "name": "Andy's Barber", "place_id": "ChIJq6OOxQUQdkgRVSdgikAA71M", "types": ["hair_care", "health", "point_of_interest", "establishment"], "rating": 4.2, "user_ratings_total": 15}, "ChIJCwE5mQsRdkgRap1J1AWCDG4": {"geometry": {"location": {"lat": 51.52310610000001, "lng": -0.1945213}, "viewport": {"northeast": {"lat": 51.5244122802915, "lng": -0.1931357697084979}, "southwest": {"lat": 51.5217143197085, "lng": -0.195833730291502}}}, "name": "Beauty touch", "place_id": "ChIJCwE5mQsRdkgRap1J1AWCDG4", "types": ["beauty_salon", "point_of_interest", "establishment"], "rating": 4.5, "user_ratings_total": 2}, "ChIJn-b-eQUQdkgRJBJ3wiJgAY0": {"geometry": {"location": {"lat": 51.52340879999999, "lng": -0.1950758}, "viewport": {"northeast": {"lat": 51.52471758029149, "lng": -0.193643269708498}, "southwest": {"lat": 51.52201961970849, "lng": -0.196341230291502}}}, "name": "Shu Jun Healthcare", "place_id": "ChIJn-b-eQUQdkgRJBJ3wiJgAY0", "types": ["health", "point_of_interest", "establishment"], "rating": 4.2, "user_ratings_total": 20}, "ChIJZawnmIARdkgRBlktUWOGsmU": {"geometry": {"location": {"lat": 51.5232995, "lng": -0.1941405}, "viewport": {"northeast": {"lat": 51.5245810302915, "lng": -0.192727469708498}, "southwest": {"lat": 51.5218830697085, "lng": -0.195425430291502}}}, "name": "Gents Grooming", "place_id": "ChIJZawnmIARdkgRBlktUWOGsmU", "types": ["hair_care", "health", "point_of_interest", "establishment"], "rating": 5, "user_ratings_total": 13}, "ChIJ8WFTJQQQdkgRDbnKXxO3BkE": {"geometry": {"location": {"lat": 51.52203349999999, "lng": -0.1946751}, "viewport": {"northeast": {"lat": 51.52346848029149, "lng": -0.193384219708498}, "southwest": {"lat": 51.52077051970849, "lng": -0.196082180291502}}}, "name": "CRM Ltd", "place_id": "ChIJ8WFTJQQQdkgRDbnKXxO3BkE", "types": ["lodging", "point_of_interest", "establishment"], "rating": 5, "user_ratings_total": 1}, "ChIJkWDeujQbdkgRDcvDrMO19no": {"geometry": {"location": {"lat": 51.5220464, "lng": -0.194695}, "viewport": {"northeast": {"lat": 51.5234736802915, "lng": -0.193398919708498}, "southwest": {"lat": 51.5207757197085, "lng": -0.196096880291502}}}, "name": "blue20 Hair", "place_id": "ChIJkWDeujQbdkgRDcvDrMO19no", "types": ["hair_care", "health", "point_of_interest", "establishment"], "rating": 5, "user_ratings_total": 5}, "ChIJD1LQLwQQdkgR2azx2Qx6bg4": {"geometry": {"location": {"lat": 51.522207, "lng": -0.194685}, "viewport": {"northeast": {"lat": 51.52354933029149, "lng": -0.193331519708498}, "southwest": {"lat": 51.5208513697085, "lng": -0.196029480291502}}}, "name": "Weddings By Bespoke", "place_id": "ChIJD1LQLwQQdkgR2azx2Qx6bg4", "types": ["point_of_interest", "establishment"], "rating": 5, "user_ratings_total": 12}, "ChIJQeiZHQQQdkgR6Oq0LTL7z2c": {"geometry": {"location": {"lat": 51.521124, "lng": -0.194064}, "viewport": {"northeast": {"lat": 51.5224837302915, "lng": -0.192624919708498}, "southwest": {"lat": 51.5197857697085, "lng": -0.195322880291502}}}, "name": "Harbour Club Notting Hill", "place_id": "ChIJQeiZHQQQdkgR6Oq0LTL7z2c", "types": ["gym", "spa", "school", "health", "point_of_interest", "establishment"], "rating": 4.1, "user_ratings_total": 72}, "ChIJH28J5F0RdkgRUipiiK3WJGs": {"geometry": {"location": {"lat": 51.5212083, "lng": -0.1948657}, "viewport": {"northeast": {"lat": 51.5225029802915, "lng": -0.193575369708498}, "southwest": {"lat": 51.51980501970851, "lng": -0.196273330291502}}}, "name": "REDCOS", "place_id": "ChIJH28J5F0RdkgRUipiiK3WJGs", "types": ["point_of_interest", "store", "establishment"], "rating": 5, "user_ratings_total": 6}, "ChIJbwJFGQQQdkgRYhL-lhPZOTQ": {"geometry": {"location": {"lat": 51.521139, "lng": -0.194404}, "viewport": {"northeast": {"lat": 51.5224656302915, "lng": -0.193044619708498}, "southwest": {"lat": 51.5197676697085, "lng": -0.195742580291502}}}, "name": "ubitricity Charging Station", "place_id": "ChIJbwJFGQQQdkgRYhL-lhPZOTQ", "types": ["point_of_interest", "establishment"]}}}