{"E00023836": {"ChIJw0_Ie84adkgRCvQoIjmhfV0": {"geometry": {"location": {"lat": 51.52057184451695, "lng": -0.1551768698251182}, "viewport": {"northeast": {"lat": 51.5219063802915, "lng": -0.153823069708498}, "southwest": {"lat": 51.5192084197085, "lng": -0.156521030291502}}}, "name": "Paddington Street", "place_id": "ChIJw0_Ie84adkgRCvQoIjmhfV0", "types": ["route"]}, "ChIJf6XIkM4adkgRbbcgrCzpsXA": {"geometry": {"location": {"lat": 51.5210546, "lng": -0.1560781}, "viewport": {"northeast": {"lat": 51.5224180802915, "lng": -0.154646519708498}, "southwest": {"lat": 51.5197201197085, "lng": -0.1573444802915021}}}, "name": "Holmes Hotel London", "place_id": "ChIJf6XIkM4adkgRbbcgrCzpsXA", "types": ["spa", "lodging", "gym", "health", "point_of_interest", "establishment"], "rating": 4.3, "user_ratings_total": 513}, "ChIJ4Yo1is4adkgR9Wfxv0lXSKc": {"geometry": {"location": {"lat": 51.52119159999999, "lng": -0.15586}, "viewport": {"northeast": {"lat": 51.5225320302915, "lng": -0.154556519708498}, "southwest": {"lat": 51.5198340697085, "lng": -0.157254480291502}}}, "name": "Blandford Hotel", "place_id": "ChIJ4Yo1is4adkgR9Wfxv0lXSKc", "types": ["lodging", "point_of_interest", "establishment"], "rating": 4.1, "user_ratings_total": 167}, "ChIJYV0de84adkgRtEWLrOPHQBk": {"geometry": {"location": {"lat": 51.52085049999999, "lng": -0.1553803}, "viewport": {"northeast": {"lat": 51.5220545302915, "lng": -0.153958719708498}, "southwest": {"lat": 51.5193565697085, "lng": -0.156656680291502}}}, "name": "Fucina", "place_id": "ChIJYV0de84adkgRtEWLrOPHQBk", "types": ["restaurant", "food", "point_of_interest", "establishment"], "rating": 4.2, "user_ratings_total": 374}, "ChIJj3n4fM4adkgRG3dKSq5acos": {"geometry": {"location": {"lat": 51.5208913, "lng": -0.1553786}, "viewport": {"northeast": {"lat": 51.52207688029149, "lng": -0.153947769708498}, "southwest": {"lat": 51.51937891970849, "lng": -0.156645730291502}}}, "name": "BXR", "place_id": "ChIJj3n4fM4adkgRG3dKSq5acos", "types": ["gym", "health", "point_of_interest", "establishment"], "rating": 4.1, "user_ratings_total": 109}, "ChIJz5jEh84adkgRiP4u1gkUxC0": {"geometry": {"location": {"lat": 51.5207716, "lng": -0.1558234}, "viewport": {"northeast": {"lat": 51.52212058029149, "lng": -0.154474369708498}, "southwest": {"lat": 51.5194226197085, "lng": -0.157172330291502}}}, "name": "Axis Group UK", "place_id": "ChIJz5jEh84adkgRiP4u1gkUxC0", "types": ["point_of_interest", "establishment"]}, "ChIJXVzYhs4adkgRZzOJ7j8avGA": {"geometry": {"location": {"lat": 51.5205713, "lng": -0.1558294}, "viewport": {"northeast": {"lat": 51.5218659302915, "lng": -0.154456969708498}, "southwest": {"lat": 51.5191679697085, "lng": -0.157154930291502}}}, "name": "Mouki", "place_id": "ChIJXVzYhs4adkgRZzOJ7j8avGA", "types": ["jewelry_store", "point_of_interest", "clothing_store", "store", "establishment"], "rating": 4, "user_ratings_total": 3}, "ChIJ96cuhs4adkgRTmWDY5zmboc": {"geometry": {"location": {"lat": 51.52076399999999, "lng": -0.1559384}, "viewport": {"northeast": {"lat": 51.5221269802915, "lng": -0.154510269708498}, "southwest": {"lat": 51.5194290197085, "lng": -0.157208230291502}}}, "name": "BNBcompliance", "place_id": "ChIJ96cuhs4adkgRTmWDY5zmboc", "types": ["point_of_interest", "establishment"]}, "ChIJow_Chs4adkgRb_JqnD-r8Aw": {"geometry": {"location": {"lat": 51.5205417, "lng": -0.1558929}, "viewport": {"northeast": {"lat": 51.5218447802915, "lng": -0.154526719708498}, "southwest": {"lat": 51.5191468197085, "lng": -0.157224680291502}}}, "name": "Bupa Dental Care Marylebone", "place_id": "ChIJow_Chs4adkgRb_JqnD-r8Aw", "types": ["dentist", "health", "point_of_interest", "establishment"], "rating": 4.7, "user_ratings_total": 93}, "ChIJp9TSeM4adkgRx_huiEi6E94": {"geometry": {"location": {"lat": 51.52039770000001, "lng": -0.1550861}, "viewport": {"northeast": {"lat": 51.52170073029151, "lng": -0.153967819708498}, "southwest": {"lat": 51.51900276970851, "lng": -0.156665780291502}}}, "name": "Chiltern Place", "place_id": "ChIJp9TSeM4adkgRx_huiEi6E94", "types": ["point_of_interest", "establishment"], "rating": 4.3, "user_ratings_total": 26}, "ChIJhcikhs4adkgR8gcQt4bFejM": {"geometry": {"location": {"lat": 51.5205173, "lng": -0.1559651}, "viewport": {"northeast": {"lat": 51.5218275302915, "lng": -0.154592919708498}, "southwest": {"lat": 51.5191295697085, "lng": -0.157290880291502}}}, "name": "Honest Burgers Baker Street", "place_id": "ChIJhcikhs4adkgR8gcQt4bFejM", "types": ["restaurant", "food", "point_of_interest", "establishment"], "rating": 4.4, "user_ratings_total": 810}, "ChIJUcNSDMwadkgRpFgkPRzcPMQ": {"geometry": {"location": {"lat": 51.52066379999999, "lng": -0.1547448}, "viewport": {"northeast": {"lat": 51.5220071802915, "lng": -0.153395169708498}, "southwest": {"lat": 51.5193092197085, "lng": -0.156093130291502}}}, "name": "Live UK Events Ltd", "place_id": "ChIJUcNSDMwadkgRpFgkPRzcPMQ", "types": ["point_of_interest", "establishment"], "rating": 1, "user_ratings_total": 1}, "ChIJCfbzic4adkgR-BRpT3L0pTk": {"geometry": {"location": {"lat": 51.5211261, "lng": -0.1557821}, "viewport": {"northeast": {"lat": 51.5224628802915, "lng": -0.154502619708498}, "southwest": {"lat": 51.5197649197085, "lng": -0.157200580291502}}}, "name": "Baco Design", "place_id": "ChIJCfbzic4adkgR-BRpT3L0pTk", "types": ["point_of_interest", "establishment"]}, "ChIJM5p-0s0adkgRLoCcnlaPkCg": {"geometry": {"location": {"lat": 51.52095189999999, "lng": -0.1560679}, "viewport": {"northeast": {"lat": 51.5223183802915, "lng": -0.154619469708498}, "southwest": {"lat": 51.5196204197085, "lng": -0.157317430291502}}}, "name": "Silvertrees Property Consultants", "place_id": "ChIJM5p-0s0adkgRLoCcnlaPkCg", "types": ["finance", "real_estate_agency", "point_of_interest", "establishment"], "rating": 5, "user_ratings_total": 1}, "ChIJ8_dNfs4adkgRrONSpQvIv_U": {"geometry": {"location": {"lat": 51.5203108, "lng": -0.1554057}, "viewport": {"northeast": {"lat": 51.5216467302915, "lng": -0.154122219708498}, "southwest": {"lat": 51.5189487697085, "lng": -0.156820180291502}}}, "name": "Zankyo UK", "place_id": "ChIJ8_dNfs4adkgRrONSpQvIv_U", "types": ["point_of_interest", "establishment"]}, "ChIJsfWCfM4adkgR6iP9F07xJ_I": {"geometry": {"location": {"lat": 51.5206859, "lng": -0.1553452}, "viewport": {"northeast": {"lat": 51.5219680302915, "lng": -0.153962719708498}, "southwest": {"lat": 51.5192700697085, "lng": -0.156660680291502}}}, "name": "Le Muscadet", "place_id": "ChIJsfWCfM4adkgR6iP9F07xJ_I", "types": ["point_of_interest", "establishment"]}, "ChIJsfWCfM4adkgRTZdUdYmAn9Y": {"geometry": {"location": {"lat": 51.5206859, "lng": -0.1553452}, "viewport": {"northeast": {"lat": 51.5219680302915, "lng": -0.153962719708498}, "southwest": {"lat": 51.5192700697085, "lng": -0.156660680291502}}}, "name": "La Ratatouille", "place_id": "ChIJsfWCfM4adkgRTZdUdYmAn9Y", "types": ["restaurant", "food", "point_of_interest", "establishment"]}, "ChIJIVwj7wgbdkgR94y3IilFjJ8": {"geometry": {"location": {"lat": 51.520729, "lng": -0.1552281}, "viewport": {"northeast": {"lat": 51.5220779802915, "lng": -0.153879119708498}, "southwest": {"lat": 51.5193800197085, "lng": -0.156577080291502}}}, "name": "Mr. Vikrantee", "place_id": "ChIJIVwj7wgbdkgR94y3IilFjJ8", "types": ["point_of_interest", "establishment"]}, "ChIJfaxAURcbdkgRwR0OhKKWv-s": {"geometry": {"location": {"lat": 51.52068790000001, "lng": -0.1552597}, "viewport": {"northeast": {"lat": 51.52198663029151, "lng": -0.153829319708498}, "southwest": {"lat": 51.51928866970851, "lng": -0.156527280291502}}}, "name": "Bao & Bing", "place_id": "ChIJfaxAURcbdkgRwR0OhKKWv-s", "types": ["bar", "restaurant", "food", "point_of_interest", "establishment"], "rating": 4.3, "user_ratings_total": 249}, "ChIJ1ziEe84adkgRvViSVQelIGQ": {"geometry": {"location": {"lat": 51.5206276, "lng": -0.1553102}, "viewport": {"northeast": {"lat": 51.52193938029151, "lng": -0.153942569708498}, "southwest": {"lat": 51.51924141970851, "lng": -0.156640530291502}}}, "name": "Fucina", "place_id": "ChIJ1ziEe84adkgRvViSVQelIGQ", "types": ["point_of_interest", "establishment"]}, "ChIJRQXkh84adkgROQCGRDxfnO0": {"geometry": {"location": {"lat": 51.5207954, "lng": -0.1557733}, "viewport": {"northeast": {"lat": 51.5221515802915, "lng": -0.154383319708498}, "southwest": {"lat": 51.5194536197085, "lng": -0.157081280291502}}}, "name": "The Chilterns", "place_id": "ChIJRQXkh84adkgROQCGRDxfnO0", "types": ["point_of_interest", "establishment"]}, "ChIJE6CFDs4adkgRqthh1RK1XEM": {"geometry": {"location": {"lat": 51.52067049999999, "lng": -0.1550132}, "viewport": {"northeast": {"lat": 51.5219868802915, "lng": -0.153651419708498}, "southwest": {"lat": 51.5192889197085, "lng": -0.156349380291502}}}, "name": "Public toilets", "place_id": "ChIJE6CFDs4adkgRqthh1RK1XEM", "types": ["point_of_interest", "establishment"], "rating": 3.5, "user_ratings_total": 29}, "ChIJ_9hdUA8bdkgR7sbfXk3XE8U": {"geometry": {"location": {"lat": 51.5204811, "lng": -0.1554121}, "viewport": {"northeast": {"lat": 51.5218421802915, "lng": -0.154068719708498}, "southwest": {"lat": 51.5191442197085, "lng": -0.156766680291502}}}, "name": "Cheap Boxes", "place_id": "ChIJ_9hdUA8bdkgR7sbfXk3XE8U", "types": ["point_of_interest", "establishment"]}, "ChIJk_pqh84adkgRJFr018KwEXE": {"geometry": {"location": {"lat": 51.5205799, "lng": -0.1557886}, "viewport": {"northeast": {"lat": 51.52187368029151, "lng": -0.154418419708498}, "southwest": {"lat": 51.51917571970851, "lng": -0.157116380291502}}}, "name": "Paddington Street Ltd", "place_id": "ChIJk_pqh84adkgRJFr018KwEXE", "types": ["point_of_interest", "establishment"]}, "ChIJbVzR7c4adkgRXjOOU91eHUw": {"geometry": {"location": {"lat": 51.52048629999999, "lng": -0.1556403}, "viewport": {"northeast": {"lat": 51.5218352802915, "lng": -0.154291319708498}, "southwest": {"lat": 51.5191373197085, "lng": -0.156989280291502}}}, "name": "Calibre Capital Mortgage Finance", "place_id": "ChIJbVzR7c4adkgRXjOOU91eHUw", "types": ["finance", "point_of_interest", "establishment"], "rating": 5, "user_ratings_total": 1}, "ChIJOa_19g8bdkgR4Px1BAAIfrM": {"geometry": {"location": {"lat": 51.52048629999999, "lng": -0.1556403}, "viewport": {"northeast": {"lat": 51.5218352802915, "lng": -0.154291319708498}, "southwest": {"lat": 51.5191373197085, "lng": -0.156989280291502}}}, "name": "Audacix Europe", "place_id": "ChIJOa_19g8bdkgR4Px1BAAIfrM", "types": ["point_of_interest", "establishment"], "rating": 5, "user_ratings_total": 1}, "ChIJ1Ymh1-kbdkgRC3_YWlxEtn4": {"geometry": {"location": {"lat": 51.52058210000001, "lng": -0.1558322}, "viewport": {"northeast": {"lat": 51.52187148029151, "lng": -0.154457519708498}, "southwest": {"lat": 51.51917351970851, "lng": -0.157155480291502}}}, "name": "Local Mobile Guru", "place_id": "ChIJ1Ymh1-kbdkgRC3_YWlxEtn4", "types": ["point_of_interest", "establishment"], "rating": 5, "user_ratings_total": 4}, "ChIJ96cuhs4adkgRAGpVLf3Hljo": {"geometry": {"location": {"lat": 51.52076399999999, "lng": -0.1559384}, "viewport": {"northeast": {"lat": 51.5221269802915, "lng": -0.154510269708498}, "southwest": {"lat": 51.5194290197085, "lng": -0.157208230291502}}}, "name": "The Ralston Group", "place_id": "ChIJ96cuhs4adkgRAGpVLf3Hljo", "types": ["point_of_interest", "establishment"]}, "ChIJh-cYT88bdkgRE4kBAIsQeBk": {"geometry": {"location": {"lat": 51.52058, "lng": -0.15586}, "viewport": {"northeast": {"lat": 51.52186818029149, "lng": -0.154484819708498}, "southwest": {"lat": 51.51917021970849, "lng": -0.157182780291502}}}, "name": "UPS Access Point", "place_id": "ChIJh-cYT88bdkgRE4kBAIsQeBk", "types": ["point_of_interest", "establishment"]}, "ChIJZ74fh84adkgRaLC31e_Rz5M": {"geometry": {"location": {"lat": 51.5205449, "lng": -0.1558221}, "viewport": {"northeast": {"lat": 51.5218542302915, "lng": -0.154444369708498}, "southwest": {"lat": 51.5191562697085, "lng": -0.1571423302915021}}}, "name": "A D Foods", "place_id": "ChIJZ74fh84adkgRaLC31e_Rz5M", "types": ["convenience_store", "food", "point_of_interest", "store", "establishment"], "rating": 2.8, "user_ratings_total": 9}, "ChIJg7Qft00bdkgRc9dZbJUWCYQ": {"geometry": {"location": {"lat": 51.52055919999999, "lng": -0.1558805}, "viewport": {"northeast": {"lat": 51.5218554802915, "lng": -0.154508819708498}, "southwest": {"lat": 51.5191575197085, "lng": -0.157206780291502}}}, "name": "Paddington Roofing Service", "place_id": "ChIJg7Qft00bdkgRc9dZbJUWCYQ", "types": ["roofing_contractor", "point_of_interest", "establishment"], "rating": 5, "user_ratings_total": 7}, "ChIJPZgOJcwadkgRKBLhXN0pgUQ": {"geometry": {"location": {"lat": 51.5202537, "lng": -0.1556425}, "viewport": {"northeast": {"lat": 51.5216136802915, "lng": -0.154238319708498}, "southwest": {"lat": 51.5189157197085, "lng": -0.1569362802915021}}}, "name": "Baker Tilly", "place_id": "ChIJPZgOJcwadkgRKBLhXN0pgUQ", "types": ["accounting", "finance", "point_of_interest", "establishment"]}, "ChIJ5fXzic4adkgRiplxZs2OICY": {"geometry": {"location": {"lat": 51.5211261, "lng": -0.1557822}, "viewport": {"northeast": {"lat": 51.5224628802915, "lng": -0.154502669708498}, "southwest": {"lat": 51.5197649197085, "lng": -0.157200630291502}}}, "name": "The Evangelical Library Building", "place_id": "ChIJ5fXzic4adkgRiplxZs2OICY", "types": ["library", "point_of_interest", "establishment"]}, "ChIJAQCEgM4adkgRnJma86QGs_Y": {"geometry": {"location": {"lat": 51.52034609999999, "lng": -0.1557275}, "viewport": {"northeast": {"lat": 51.52170948029149, "lng": -0.154306269708498}, "southwest": {"lat": 51.5190115197085, "lng": -0.157004230291502}}}, "name": "Galleria Cafe Ltd", "place_id": "ChIJAQCEgM4adkgRnJma86QGs_Y", "types": ["cafe", "food", "point_of_interest", "establishment"]}, "ChIJ41FMTjIbdkgRRw8m7IOCiMA": {"geometry": {"location": {"lat": 51.52034609999999, "lng": -0.1557275}, "viewport": {"northeast": {"lat": 51.52170948029149, "lng": -0.154306269708498}, "southwest": {"lat": 51.5190115197085, "lng": -0.157004230291502}}}, "name": "Flying Butler Marylebone - Chiltern Street", "place_id": "ChIJ41FMTjIbdkgRRw8m7IOCiMA", "types": ["lodging", "point_of_interest", "establishment"]}, "ChIJlUKsHpQbdkgRGKhLw5e1VqM": {"geometry": {"location": {"lat": 51.52034609999999, "lng": -0.1557275}, "viewport": {"northeast": {"lat": 51.52170948029149, "lng": -0.154306269708498}, "southwest": {"lat": 51.5190115197085, "lng": -0.157004230291502}}}, "name": "The Apartments Chiltern Street", "place_id": "ChIJlUKsHpQbdkgRGKhLw5e1VqM", "types": ["lodging", "point_of_interest", "establishment"], "rating": 5, "user_ratings_total": 1}, "ChIJjZjXPk4bdkgRF7LTeEPrir4": {"geometry": {"location": {"lat": 51.52034609999999, "lng": -0.1557275}, "viewport": {"northeast": {"lat": 51.52170948029149, "lng": -0.154306269708498}, "southwest": {"lat": 51.5190115197085, "lng": -0.157004230291502}}}, "name": "Arro Coffee - The Temple of Coffee", "place_id": "ChIJjZjXPk4bdkgRF7LTeEPrir4", "types": ["cafe", "food", "point_of_interest", "store", "establishment"], "rating": 4.5, "user_ratings_total": 232}, "ChIJz7QahM4adkgRreTvKmYzhCs": {"geometry": {"location": {"lat": 51.52052820000001, "lng": -0.1560536}, "viewport": {"northeast": {"lat": 51.52182548029151, "lng": -0.154682319708498}, "southwest": {"lat": 51.51912751970851, "lng": -0.157380280291502}}}, "name": "Crypto Deli", "place_id": "ChIJz7QahM4adkgRreTvKmYzhCs", "types": ["cafe", "food", "point_of_interest", "store", "establishment"]}, "ChIJ38K2YpgbdkgRphmDCokdbkY": {"geometry": {"location": {"lat": 51.5203382, "lng": -0.1557417}, "viewport": {"northeast": {"lat": 51.52170323029149, "lng": -0.154312169708498}, "southwest": {"lat": 51.51900526970849, "lng": -0.157010130291502}}}, "name": "The Apartments by Prestige", "place_id": "ChIJ38K2YpgbdkgRphmDCokdbkY", "types": ["lodging", "point_of_interest", "establishment"]}, "ChIJWR4Vcc4adkgRNZA8hEN2fU8": {"geometry": {"location": {"lat": 51.520583, "lng": -0.154701}, "viewport": {"northeast": {"lat": 51.52193198029151, "lng": -0.153352019708498}, "southwest": {"lat": 51.51923401970851, "lng": -0.156049980291502}}}, "name": "Santander Cycles", "place_id": "ChIJWR4Vcc4adkgRNZA8hEN2fU8", "types": ["point_of_interest", "establishment"]}, "ChIJj502lGMbdkgRKF4vhF0XK3k": {"geometry": {"location": {"lat": 51.520346, "lng": -0.1558194}, "viewport": {"northeast": {"lat": 51.52169498029149, "lng": -0.154470419708498}, "southwest": {"lat": 51.51899701970849, "lng": -0.157168380291502}}}, "name": "Nail'd It London", "place_id": "ChIJj502lGMbdkgRKF4vhF0XK3k", "types": ["beauty_salon", "point_of_interest", "establishment"], "rating": 3.7, "user_ratings_total": 90}, "ChIJvSQeDXcbdkgRhHADf8CLfIM": {"geometry": {"location": {"lat": 51.520346, "lng": -0.1558194}, "viewport": {"northeast": {"lat": 51.52169498029149, "lng": -0.154470419708498}, "southwest": {"lat": 51.51899701970849, "lng": -0.157168380291502}}}, "name": "Nailed It", "place_id": "ChIJvSQeDXcbdkgRhHADf8CLfIM", "types": ["beauty_salon", "point_of_interest", "establishment"], "rating": 3.4, "user_ratings_total": 26}, "ChIJce1YIoQbdkgRb8sTbVRewOY": {"geometry": {"location": {"lat": 51.52030749999999, "lng": -0.1550923}, "viewport": {"northeast": {"lat": 51.5216152802915, "lng": -0.153950169708498}, "southwest": {"lat": 51.5189173197085, "lng": -0.156648130291502}}}, "name": "Wulf & Lamb Marylebone", "place_id": "ChIJce1YIoQbdkgRb8sTbVRewOY", "types": ["restaurant", "food", "point_of_interest", "establishment"], "rating": 4.5, "user_ratings_total": 70}, "ChIJt3d8gM4adkgRIfv7XOx-ulI": {"geometry": {"location": {"lat": 51.5202728, "lng": -0.1557179}, "viewport": {"northeast": {"lat": 51.5216329302915, "lng": -0.154280969708498}, "southwest": {"lat": 51.5189349697085, "lng": -0.156978930291502}}}, "name": "Il Blandford`s", "place_id": "ChIJt3d8gM4adkgRIfv7XOx-ulI", "types": ["bar", "restaurant", "food", "point_of_interest", "store", "establishment"], "rating": 4.3, "user_ratings_total": 306}, "ChIJk10aJswadkgRgfoQgsr_h70": {"geometry": {"location": {"lat": 51.51980526621121, "lng": -0.1564404559325244}, "viewport": {"northeast": {"lat": 51.52115423029149, "lng": -0.155091569708498}, "southwest": {"lat": 51.51845626970849, "lng": -0.157789530291502}}}, "name": "88-72 A41", "place_id": "ChIJk10aJswadkgRgfoQgsr_h70", "types": ["route"]}, "ChIJo4s4080adkgRZXhdFhSl-ww": {"geometry": {"location": {"lat": 51.5197344, "lng": -0.155407}, "viewport": {"northeast": {"lat": 51.5210238302915, "lng": -0.154032569708498}, "southwest": {"lat": 51.5183258697085, "lng": -0.156730530291502}}}, "name": "THE BARLEY MOW", "place_id": "ChIJo4s4080adkgRZXhdFhSl-ww", "types": ["bar", "restaurant", "food", "point_of_interest", "establishment"], "rating": 4.3, "user_ratings_total": 374}, "ChIJFYN7zs0adkgRyUa8kdBdvHc": {"geometry": {"location": {"lat": 51.5195437, "lng": -0.1552891}, "viewport": {"northeast": {"lat": 51.52091693029149, "lng": -0.154009419708498}, "southwest": {"lat": 51.51821896970849, "lng": -0.156707380291502}}}, "name": "Atlas Gallery", "place_id": "ChIJFYN7zs0adkgRyUa8kdBdvHc", "types": ["art_gallery", "point_of_interest", "establishment"], "rating": 4.2, "user_ratings_total": 45}, "ChIJg6qC7dUEdkgRnyMEmom369U": {"geometry": {"location": {"lat": 51.51950979999999, "lng": -0.1550322}, "viewport": {"northeast": {"lat": 51.5207509802915, "lng": -0.1536797697084979}, "southwest": {"lat": 51.5180530197085, "lng": -0.156377730291502}}}, "name": "English Cut", "place_id": "ChIJg6qC7dUEdkgRnyMEmom369U", "types": ["point_of_interest", "clothing_store", "store", "establishment"], "rating": 4.3, "user_ratings_total": 12}, "ChIJUSZA0M0adkgRFl6EU98bJVE": {"geometry": {"location": {"lat": 51.519558, "lng": -0.155019}, "viewport": {"northeast": {"lat": 51.5207750802915, "lng": -0.153690419708498}, "southwest": {"lat": 51.5180771197085, "lng": -0.156388380291502}}}, "name": "West One MYB", "place_id": "ChIJUSZA0M0adkgRFl6EU98bJVE", "types": ["beauty_salon", "hair_care", "spa", "health", "point_of_interest", "establishment"], "rating": 3.3, "user_ratings_total": 16}, "ChIJF05PJswadkgRqI9h_OVljvY": {"geometry": {"location": {"lat": 51.51995330000001, "lng": -0.1557486}, "viewport": {"northeast": {"lat": 51.5212924802915, "lng": -0.154452269708498}, "southwest": {"lat": 51.5185945197085, "lng": -0.157150230291502}}}, "name": "Personal Career Management", "place_id": "ChIJF05PJswadkgRqI9h_OVljvY", "types": ["health", "point_of_interest", "establishment"]}, "ChIJSywzJcwadkgRTa17roLLIRg": {"geometry": {"location": {"lat": 51.51953100000001, "lng": -0.155289}, "viewport": {"northeast": {"lat": 51.5209252802915, "lng": -0.153993119708498}, "southwest": {"lat": 51.51822731970851, "lng": -0.156691080291502}}}, "name": "ATM", "place_id": "ChIJSywzJcwadkgRTa17roLLIRg", "types": ["atm", "finance", "point_of_interest", "establishment"], "rating": 3, "user_ratings_total": 1}, "ChIJsWmn1M0adkgR6I8ADgJhOBg": {"geometry": {"location": {"lat": 51.5195094, "lng": -0.1552348}, "viewport": {"northeast": {"lat": 51.5208662802915, "lng": -0.1538464197084979}, "southwest": {"lat": 51.5181683197085, "lng": -0.156544380291502}}}, "name": "myleasehold ltd", "place_id": "ChIJsWmn1M0adkgR6I8ADgJhOBg", "types": ["point_of_interest", "establishment"], "rating": 4.5, "user_ratings_total": 6}, "ChIJo4s4080adkgRTdTlXVv0B0k": {"geometry": {"location": {"lat": 51.519689, "lng": -0.1556778}, "viewport": {"northeast": {"lat": 51.52097868029149, "lng": -0.154303519708498}, "southwest": {"lat": 51.51828071970849, "lng": -0.157001480291502}}}, "name": "TipToken", "place_id": "ChIJo4s4080adkgRTdTlXVv0B0k", "types": ["point_of_interest", "establishment"]}, "ChIJmyh-0s0adkgR2Qkxc6zLiSk": {"geometry": {"location": {"lat": 51.51944280000001, "lng": -0.1555385}, "viewport": {"northeast": {"lat": 51.52085823029151, "lng": -0.154217869708498}, "southwest": {"lat": 51.51816026970851, "lng": -0.156915830291502}}}, "name": "Javelin Ventures Ltd", "place_id": "ChIJmyh-0s0adkgR2Qkxc6zLiSk", "types": ["finance", "point_of_interest", "establishment"]}, "ChIJtQQGM8wadkgR9jTZDQuQ8uM": {"geometry": {"location": {"lat": 51.5194357, "lng": -0.1558848}, "viewport": {"northeast": {"lat": 51.5208284802915, "lng": -0.154482319708498}, "southwest": {"lat": 51.5181305197085, "lng": -0.157180280291502}}}, "name": "Fisher Sassoon & Marks", "place_id": "ChIJtQQGM8wadkgR9jTZDQuQ8uM", "types": ["accounting", "finance", "point_of_interest", "establishment"]}, "ChIJmc6t080adkgRJXDdgaXwYxw": {"geometry": {"location": {"lat": 51.5196858, "lng": -0.1554808}, "viewport": {"northeast": {"lat": 51.52103478029149, "lng": -0.154131819708498}, "southwest": {"lat": 51.5183368197085, "lng": -0.156829780291502}}}, "name": "CCPrestige LLP", "place_id": "ChIJmc6t080adkgRJXDdgaXwYxw", "types": ["general_contractor", "point_of_interest", "establishment"]}, "ChIJAQCn080adkgRNUFqwgHliKk": {"geometry": {"location": {"lat": 51.51972009999999, "lng": -0.1555056}, "viewport": {"northeast": {"lat": 51.52106908029149, "lng": -0.154156619708498}, "southwest": {"lat": 51.51837111970849, "lng": -0.156854580291502}}}, "name": "Baker Street Therapy", "place_id": "ChIJAQCn080adkgRNUFqwgHliKk", "types": ["health", "point_of_interest", "establishment"]}, "ChIJZyMfRc0adkgR-MauTv_ZZVo": {"geometry": {"location": {"lat": 51.51972009999999, "lng": -0.1555056}, "viewport": {"northeast": {"lat": 51.5210084302915, "lng": -0.154131769708498}, "southwest": {"lat": 51.5183104697085, "lng": -0.156829730291502}}}, "name": "Damson PR", "place_id": "ChIJZyMfRc0adkgR-MauTv_ZZVo", "types": ["point_of_interest", "establishment"], "rating": 5, "user_ratings_total": 1}, "ChIJq3CU080adkgRbnNg2XIdOww": {"geometry": {"location": {"lat": 51.51976959999999, "lng": -0.1554474}, "viewport": {"northeast": {"lat": 51.52103943029149, "lng": -0.1540647197084979}, "southwest": {"lat": 51.5183414697085, "lng": -0.156762680291502}}}, "name": "Rokstone Ltd", "place_id": "ChIJq3CU080adkgRbnNg2XIdOww", "types": ["finance", "real_estate_agency", "point_of_interest", "establishment"], "rating": 5, "user_ratings_total": 2}, "ChIJORx5zc0adkgRLpXxRlLygHY": {"geometry": {"location": {"lat": 51.5194772, "lng": -0.1555282}, "viewport": {"northeast": {"lat": 51.5208773802915, "lng": -0.154201069708498}, "southwest": {"lat": 51.5181794197085, "lng": -0.156899030291502}}}, "name": "Richardson's Nyewood Ltd", "place_id": "ChIJORx5zc0adkgRLpXxRlLygHY", "types": ["general_contractor", "point_of_interest", "establishment"]}, "ChIJNxx5zc0adkgRcTABteBciHo": {"geometry": {"location": {"lat": 51.5194772, "lng": -0.1555281}, "viewport": {"northeast": {"lat": 51.5208773802915, "lng": -0.154200969708498}, "southwest": {"lat": 51.5181794197085, "lng": -0.156898930291502}}}, "name": "ARAYARCHITECTS", "place_id": "ChIJNxx5zc0adkgRcTABteBciHo", "types": ["point_of_interest", "establishment"]}, "ChIJjY7Flc0adkgRZ4Oy5gapGCg": {"geometry": {"location": {"lat": 51.5194625, "lng": -0.1555222}, "viewport": {"northeast": {"lat": 51.52086998029149, "lng": -0.154198219708498}, "southwest": {"lat": 51.51817201970849, "lng": -0.156896180291502}}}, "name": "Skyteller Limited", "place_id": "ChIJjY7Flc0adkgRZ4Oy5gapGCg", "types": ["finance", "point_of_interest", "establishment"], "rating": 5, "user_ratings_total": 2}, "ChIJrx6vz80adkgRiqMq9JFAGtY": {"geometry": {"location": {"lat": 51.5194497, "lng": -0.1555273}, "viewport": {"northeast": {"lat": 51.52086278029149, "lng": -0.154205669708498}, "southwest": {"lat": 51.5181648197085, "lng": -0.156903630291502}}}, "name": "Competition R X", "place_id": "ChIJrx6vz80adkgRiqMq9JFAGtY", "types": ["finance", "point_of_interest", "establishment"]}, "ChIJ5fWrUxkbdkgRJeXRLBDWWFQ": {"geometry": {"location": {"lat": 51.5194497, "lng": -0.1555273}, "viewport": {"northeast": {"lat": 51.52079868029149, "lng": -0.154178319708498}, "southwest": {"lat": 51.5181007197085, "lng": -0.156876280291502}}}, "name": "Dashing Tweeds", "place_id": "ChIJ5fWrUxkbdkgRJeXRLBDWWFQ", "types": ["clothing_store", "point_of_interest", "store", "establishment"], "rating": 4.9, "user_ratings_total": 18}, "ChIJw1vg1M0adkgR2GXF45C-dKE": {"geometry": {"location": {"lat": 51.51993599999999, "lng": -0.155579}, "viewport": {"northeast": {"lat": 51.52130478029149, "lng": -0.154129369708498}, "southwest": {"lat": 51.51860681970849, "lng": -0.156827330291502}}}, "name": "Bella Freud", "place_id": "ChIJw1vg1M0adkgR2GXF45C-dKE", "types": ["point_of_interest", "clothing_store", "store", "establishment"], "rating": 3.8, "user_ratings_total": 8}, "ChIJ8RopMswadkgR9enaFKp9dHI": {"geometry": {"location": {"lat": 51.5197222, "lng": -0.1558333}, "viewport": {"northeast": {"lat": 51.5210711802915, "lng": -0.154484319708498}, "southwest": {"lat": 51.5183732197085, "lng": -0.157182280291502}}}, "name": "Anacapri", "place_id": "ChIJ8RopMswadkgR9enaFKp9dHI", "types": ["bar", "restaurant", "food", "point_of_interest", "establishment"], "rating": 4.5, "user_ratings_total": 266}, "ChIJKxH4nRcQdkgRKBmlVD4IkgA": {"geometry": {"location": {"lat": 51.51940200000001, "lng": -0.155308}, "viewport": {"northeast": {"lat": 51.5207713302915, "lng": -0.153856969708498}, "southwest": {"lat": 51.5180733697085, "lng": -0.156554930291502}}}, "name": "Hamilton and Hare", "place_id": "ChIJKxH4nRcQdkgRKBmlVD4IkgA", "types": ["clothing_store", "point_of_interest", "store", "establishment"], "rating": 3.9, "user_ratings_total": 16}, "ChIJdx51R3FhdkgR8dCKvQ4ngT0": {"geometry": {"location": {"lat": 51.5199304, "lng": -0.1557919}, "viewport": {"northeast": {"lat": 51.5212781302915, "lng": -0.154449819708498}, "southwest": {"lat": 51.5185801697085, "lng": -0.157147780291502}}}, "name": "NECL Consulting Limited", "place_id": "ChIJdx51R3FhdkgR8dCKvQ4ngT0", "types": ["point_of_interest", "establishment"], "rating": 5, "user_ratings_total": 33}, "ChIJnRFlh84adkgRNL7WsyUtO_M": {"geometry": {"location": {"lat": 51.5195016, "lng": -0.1550323}, "viewport": {"northeast": {"lat": 51.5208417802915, "lng": -0.153727519708498}, "southwest": {"lat": 51.5181438197085, "lng": -0.156425480291502}}}, "name": "PRISM", "place_id": "ChIJnRFlh84adkgRNL7WsyUtO_M", "types": ["clothing_store", "point_of_interest", "store", "establishment"], "rating": 4.5, "user_ratings_total": 18}, "ChIJ1SDtXE0EdkgRYxDrhZxJ2Hk": {"geometry": {"location": {"lat": 51.519935, "lng": -0.155771}, "viewport": {"northeast": {"lat": 51.52127873029151, "lng": -0.154450219708498}, "southwest": {"lat": 51.51858076970851, "lng": -0.157148180291502}}}, "name": "Trent & Hanover", "place_id": "ChIJ1SDtXE0EdkgRYxDrhZxJ2Hk", "types": ["point_of_interest", "establishment"], "rating": 5, "user_ratings_total": 4}, "ChIJcaMCCDsMdkgRh2Exe10Cqzo": {"geometry": {"location": {"lat": 51.519935, "lng": -0.155771}, "viewport": {"northeast": {"lat": 51.52127873029151, "lng": -0.154450219708498}, "southwest": {"lat": 51.51858076970851, "lng": -0.157148180291502}}}, "name": "Trent Vora", "place_id": "ChIJcaMCCDsMdkgRh2Exe10Cqzo", "types": ["point_of_interest", "establishment"], "rating": 5, "user_ratings_total": 2}, "ChIJL0I8K8wadkgRJII1hDC6VXw": {"geometry": {"location": {"lat": 51.5199419, "lng": -0.1557775}, "viewport": {"northeast": {"lat": 51.52128623029151, "lng": -0.154453719708498}, "southwest": {"lat": 51.51858826970851, "lng": -0.1571516802915021}}}, "name": "Innovid", "place_id": "ChIJL0I8K8wadkgRJII1hDC6VXw", "types": ["point_of_interest", "establishment"]}, "ChIJ45vAxc0adkgRyFlBon7Hi70": {"geometry": {"location": {"lat": 51.5193831, "lng": -0.1549572}, "viewport": {"northeast": {"lat": 51.5206876302915, "lng": -0.153646719708498}, "southwest": {"lat": 51.5179896697085, "lng": -0.156344680291502}}}, "name": "pauline burrows", "place_id": "ChIJ45vAxc0adkgRyFlBon7Hi70", "types": ["clothing_store", "point_of_interest", "store", "establishment"], "rating": 5, "user_ratings_total": 4}, "ChIJm-LmMswadkgRJHveP-Mdfto": {"geometry": {"location": {"lat": 51.5193705, "lng": -0.155785}, "viewport": {"northeast": {"lat": 51.5208013302915, "lng": -0.154448069708498}, "southwest": {"lat": 51.51810336970851, "lng": -0.157146030291502}}}, "name": "Trinity Technology Investment", "place_id": "ChIJm-LmMswadkgRJHveP-Mdfto", "types": ["point_of_interest", "establishment"]}, "ChIJv4lpaNIadkgRcGM6E1LwdSg": {"geometry": {"location": {"lat": 51.5193705, "lng": -0.155785}, "viewport": {"northeast": {"lat": 51.5208013302915, "lng": -0.154448069708498}, "southwest": {"lat": 51.51810336970851, "lng": -0.157146030291502}}}, "name": "Global Mutual Properties Ltd", "place_id": "ChIJv4lpaNIadkgRcGM6E1LwdSg", "types": ["finance", "real_estate_agency", "point_of_interest", "establishment"]}, "ChIJm-LmMswadkgR1zChHPx-I-c": {"geometry": {"location": {"lat": 51.5193705, "lng": -0.155785}, "viewport": {"northeast": {"lat": 51.5208013302915, "lng": -0.154448069708498}, "southwest": {"lat": 51.51810336970851, "lng": -0.157146030291502}}}, "name": "Proofreading.co.uk", "place_id": "ChIJm-LmMswadkgR1zChHPx-I-c", "types": ["point_of_interest", "establishment"]}, "ChIJm-LmMswadkgRygep-5TB-AU": {"geometry": {"location": {"lat": 51.5193705, "lng": -0.155785}, "viewport": {"northeast": {"lat": 51.5208013302915, "lng": -0.154448069708498}, "southwest": {"lat": 51.51810336970851, "lng": -0.157146030291502}}}, "name": "Valerie Cross Ltd", "place_id": "ChIJm-LmMswadkgRygep-5TB-AU", "types": ["point_of_interest", "establishment"]}, "ChIJCzRoz80adkgR5Q9ajXN7LHU": {"geometry": {"location": {"lat": 51.51928580000001, "lng": -0.1551851}, "viewport": {"northeast": {"lat": 51.52064943029151, "lng": -0.153762669708498}, "southwest": {"lat": 51.51795146970851, "lng": -0.1564606302915021}}}, "name": "Mouki mou", "place_id": "ChIJCzRoz80adkgR5Q9ajXN7LHU", "types": ["clothing_store", "point_of_interest", "store", "establishment"], "rating": 4.1, "user_ratings_total": 16}, "ChIJz8bVM8wadkgRIxt8uYFwYro": {"geometry": {"location": {"lat": 51.51937759999999, "lng": -0.1559147}, "viewport": {"northeast": {"lat": 51.52072658029149, "lng": -0.1545657197084979}, "southwest": {"lat": 51.51802861970849, "lng": -0.157263680291502}}}, "name": "TSB Bank", "place_id": "ChIJz8bVM8wadkgRIxt8uYFwYro", "types": ["bank", "finance", "point_of_interest", "establishment"], "rating": 2.1, "user_ratings_total": 34}, "ChIJq0sa-kgbdkgRIKtvyx9J6WE": {"geometry": {"location": {"lat": 51.5198316, "lng": -0.1546777}, "viewport": {"northeast": {"lat": 51.52112588029149, "lng": -0.153321819708498}, "southwest": {"lat": 51.51842791970849, "lng": -0.156019780291502}}}, "name": "Ruiin Studios", "place_id": "ChIJq0sa-kgbdkgRIKtvyx9J6WE", "types": ["point_of_interest", "establishment"]}, "ChIJ_Q03MswadkgRo4Kl57u3UR0": {"geometry": {"location": {"lat": 51.51937419999999, "lng": -0.1559891}, "viewport": {"northeast": {"lat": 51.5207017802915, "lng": -0.154760969708498}, "southwest": {"lat": 51.5180038197085, "lng": -0.157458930291502}}}, "name": "PCB Lawyers LLP", "place_id": "ChIJ_Q03MswadkgRo4Kl57u3UR0", "types": ["point_of_interest", "establishment"], "rating": 4.8, "user_ratings_total": 17}, "ChIJDS4rLswadkgRjhjHKSTZxH4": {"geometry": {"location": {"lat": 51.5195784, "lng": -0.1561587}, "viewport": {"northeast": {"lat": 51.5209128802915, "lng": -0.154893369708498}, "southwest": {"lat": 51.51821491970851, "lng": -0.157591330291502}}}, "name": "Pure", "place_id": "ChIJDS4rLswadkgRjhjHKSTZxH4", "types": ["cafe", "restaurant", "food", "point_of_interest", "store", "establishment"], "rating": 4.3, "user_ratings_total": 247}, "ChIJCTdlcywFdkgRuL9MBZEgYc8": {"geometry": {"location": {"lat": 51.5192664, "lng": -0.1557929}, "viewport": {"northeast": {"lat": 51.5205819802915, "lng": -0.154632769708498}, "southwest": {"lat": 51.5178840197085, "lng": -0.157330730291502}}}, "name": "Eleva Capital LLP", "place_id": "ChIJCTdlcywFdkgRuL9MBZEgYc8", "types": ["finance", "point_of_interest", "establishment"]}, "ChIJv4YHz80adkgROe9Tdj5CYBk": {"geometry": {"location": {"lat": 51.5193087, "lng": -0.1552567}, "viewport": {"northeast": {"lat": 51.5206777302915, "lng": -0.153807169708498}, "southwest": {"lat": 51.5179797697085, "lng": -0.156505130291502}}}, "name": "Howarth of London", "place_id": "ChIJv4YHz80adkgROe9Tdj5CYBk", "types": ["electronics_store", "home_goods_store", "point_of_interest", "store", "establishment"], "rating": 4.4, "user_ratings_total": 79}, "ChIJ-atw2c0adkgRVCOn-k1Z3mY": {"geometry": {"location": {"lat": 51.5198656, "lng": -0.1546416}, "viewport": {"northeast": {"lat": 51.5211421802915, "lng": -0.153304769708498}, "southwest": {"lat": 51.5184442197085, "lng": -0.156002730291502}}}, "name": "M&E Consultancy", "place_id": "ChIJ-atw2c0adkgRVCOn-k1Z3mY", "types": ["finance", "point_of_interest", "establishment"]}, "ChIJ81q-IcoadkgRzGSv-4Vy0lw": {"geometry": {"location": {"lat": 51.52016889999999, "lng": -0.1556549}, "viewport": {"northeast": {"lat": 51.5215339302915, "lng": -0.154225269708498}, "southwest": {"lat": 51.5188359697085, "lng": -0.156923230291502}}}, "name": "Ideal U", "place_id": "ChIJ81q-IcoadkgRzGSv-4Vy0lw", "types": ["beauty_salon", "doctor", "health", "point_of_interest", "establishment"], "rating": 5, "user_ratings_total": 7}, "ChIJRQFZ280adkgRQ6DWuzyLkYg": {"geometry": {"location": {"lat": 51.5195561, "lng": -0.1546192}, "viewport": {"northeast": {"lat": 51.5209189302915, "lng": -0.153202119708498}, "southwest": {"lat": 51.5182209697085, "lng": -0.155900080291502}}}, "name": "Herbert & Regina LLP", "place_id": "ChIJRQFZ280adkgRQ6DWuzyLkYg", "types": ["point_of_interest", "establishment"]}, "ChIJ1-RsKcwadkgR3VLJqCwz-Ro": {"geometry": {"location": {"lat": 51.519791, "lng": -0.1562071}, "viewport": {"northeast": {"lat": 51.5211217302915, "lng": -0.154963469708498}, "southwest": {"lat": 51.51842376970851, "lng": -0.157661430291502}}}, "name": "www.neville-goate.co.uk", "place_id": "ChIJ1-RsKcwadkgR3VLJqCwz-Ro", "types": ["health", "point_of_interest", "establishment"]}, "ChIJEzrSNswadkgRMFonAGnbAV0": {"geometry": {"location": {"lat": 51.5194943, "lng": -0.1561684}, "viewport": {"northeast": {"lat": 51.5208325802915, "lng": -0.1548811197084979}, "southwest": {"lat": 51.5181346197085, "lng": -0.157579080291502}}}, "name": "Added Value Applications Ltd", "place_id": "ChIJEzrSNswadkgRMFonAGnbAV0", "types": ["point_of_interest", "establishment"]}, "ChIJsWmn1M0adkgR7J3Y8lCR2xs": {"geometry": {"location": {"lat": 51.5198885, "lng": -0.1555185}, "viewport": {"northeast": {"lat": 51.5212542302915, "lng": -0.154085319708498}, "southwest": {"lat": 51.5185562697085, "lng": -0.156783280291502}}}, "name": "Globe Apartments", "place_id": "ChIJsWmn1M0adkgR7J3Y8lCR2xs", "types": ["real_estate_agency", "travel_agency", "point_of_interest", "establishment"], "rating": 4.5, "user_ratings_total": 55}, "ChIJe5VzNMwadkgRJD2U_Caz6kQ": {"geometry": {"location": {"lat": 51.51917270000001, "lng": -0.1553988}, "viewport": {"northeast": {"lat": 51.5205140802915, "lng": -0.154091069708498}, "southwest": {"lat": 51.5178161197085, "lng": -0.156789030291502}}}, "name": "Tide Construction Limited", "place_id": "ChIJe5VzNMwadkgRJD2U_Caz6kQ", "types": ["general_contractor", "point_of_interest", "establishment"], "rating": 3, "user_ratings_total": 4}, "ChIJnXjnM8wadkgRRnD5nZ9wteU": {"geometry": {"location": {"lat": 51.51932359999999, "lng": -0.1560067}, "viewport": {"northeast": {"lat": 51.52065453029149, "lng": -0.154759719708498}, "southwest": {"lat": 51.5179565697085, "lng": -0.157457680291502}}}, "name": "Fishman Brand Stone", "place_id": "ChIJnXjnM8wadkgRRnD5nZ9wteU", "types": ["lawyer", "point_of_interest", "establishment"], "rating": 3, "user_ratings_total": 4}, "ChIJy1y33_cPdkgRwuL44s8IOhU": {"geometry": {"location": {"lat": 51.5198203, "lng": -0.1562196}, "viewport": {"northeast": {"lat": 51.5211509802915, "lng": -0.154976219708498}, "southwest": {"lat": 51.5184530197085, "lng": -0.157674180291502}}}, "name": "Artum Medi Spa \u2014 Aesthetic Clinic and Beauty Salon", "place_id": "ChIJy1y33_cPdkgRwuL44s8IOhU", "types": ["beauty_salon", "spa", "health", "point_of_interest", "establishment"], "rating": 4.4, "user_ratings_total": 35}, "ChIJsWmn1M0adkgRqlcq8m8-KCI": {"geometry": {"location": {"lat": 51.5198973, "lng": -0.1554962}, "viewport": {"northeast": {"lat": 51.5212606302915, "lng": -0.154075169708498}, "southwest": {"lat": 51.5185626697085, "lng": -0.156773130291502}}}, "name": "BILLI CURRIE", "place_id": "ChIJsWmn1M0adkgRqlcq8m8-KCI", "types": ["hair_care", "health", "point_of_interest", "establishment"], "rating": 4.8, "user_ratings_total": 29}, "ChIJ92dy1c0adkgRpv1_63825ik": {"geometry": {"location": {"lat": 51.5201126, "lng": -0.1555807}, "viewport": {"northeast": {"lat": 51.5214735802915, "lng": -0.154171569708498}, "southwest": {"lat": 51.5187756197085, "lng": -0.156869530291502}}}, "name": "EuroCave UK", "place_id": "ChIJ92dy1c0adkgRpv1_63825ik", "types": ["food", "point_of_interest", "store", "establishment"], "rating": 4.3, "user_ratings_total": 9}, "ChIJBRMyjdUEdkgRmSoUWvRDaNs": {"geometry": {"location": {"lat": 51.51950979999999, "lng": -0.1550322}, "viewport": {"northeast": {"lat": 51.5208491802915, "lng": -0.153731319708498}, "southwest": {"lat": 51.5181512197085, "lng": -0.156429280291502}}}, "name": "Steven Hitchcock Bespoke", "place_id": "ChIJBRMyjdUEdkgRmSoUWvRDaNs", "types": ["point_of_interest", "clothing_store", "store", "establishment"], "rating": 5, "user_ratings_total": 7}, "ChIJEzrSNswadkgRDIFlvCMeOpw": {"geometry": {"location": {"lat": 51.51923919999999, "lng": -0.1558684}, "viewport": {"northeast": {"lat": 51.5205619802915, "lng": -0.154667569708498}, "southwest": {"lat": 51.5178640197085, "lng": -0.157365530291502}}}, "name": "Baker Street Quarter Partnership", "place_id": "ChIJEzrSNswadkgRDIFlvCMeOpw", "types": ["point_of_interest", "establishment"], "rating": 4.9, "user_ratings_total": 7}, "ChIJeS_mkCkFdkgRj09rtQ0KC20": {"geometry": {"location": {"lat": 51.5193705, "lng": -0.155785}, "viewport": {"northeast": {"lat": 51.5208013302915, "lng": -0.154448069708498}, "southwest": {"lat": 51.51810336970851, "lng": -0.157146030291502}}}, "name": "CBGA Robson LLP", "place_id": "ChIJeS_mkCkFdkgRj09rtQ0KC20", "types": ["point_of_interest", "establishment"]}, "ChIJya0D-csadkgRN8XI30x9Zj0": {"geometry": {"location": {"lat": 51.51945, "lng": -0.155527}, "viewport": {"northeast": {"lat": 51.5208629802915, "lng": -0.154205319708498}, "southwest": {"lat": 51.5181650197085, "lng": -0.156903280291502}}}, "name": "Dr Greg Madison London Psychological Counselling Therapy", "place_id": "ChIJya0D-csadkgRN8XI30x9Zj0", "types": ["health", "point_of_interest", "establishment"]}, "ChIJ3_YwLcwadkgRklJI99zMti4": {"geometry": {"location": {"lat": 51.51965109999999, "lng": -0.1557695}, "viewport": {"northeast": {"lat": 51.52100008029149, "lng": -0.154420519708498}, "southwest": {"lat": 51.51830211970849, "lng": -0.157118480291502}}}, "name": "WELBECK DRY CLEANERS", "place_id": "ChIJ3_YwLcwadkgRklJI99zMti4", "types": ["laundry", "point_of_interest", "establishment"], "rating": 4.2, "user_ratings_total": 28}, "ChIJ7xNpNbccdkgR0upa9zFCmf8": {"geometry": {"location": {"lat": 51.5197551, "lng": -0.156158}, "viewport": {"northeast": {"lat": 51.5210831802915, "lng": -0.154929669708498}, "southwest": {"lat": 51.5183852197085, "lng": -0.157627630291502}}}, "name": "Poke", "place_id": "ChIJ7xNpNbccdkgR0upa9zFCmf8", "types": ["point_of_interest", "establishment"], "rating": 4.2, "user_ratings_total": 10}, "ChIJT8rR080adkgROsWLfRucMaw": {"geometry": {"location": {"lat": 51.51969889999999, "lng": -0.1553739}, "viewport": {"northeast": {"lat": 51.52100743029149, "lng": -0.154007669708498}, "southwest": {"lat": 51.5183094697085, "lng": -0.156705630291502}}}, "name": "Shadow To Shine", "place_id": "ChIJT8rR080adkgROsWLfRucMaw", "types": ["point_of_interest", "establishment"]}, "ChIJw54FFDsbdkgR3BYXLf1Nn8g": {"geometry": {"location": {"lat": 51.51971529999999, "lng": -0.1554678}, "viewport": {"northeast": {"lat": 51.5210096802915, "lng": -0.154094769708498}, "southwest": {"lat": 51.5183117197085, "lng": -0.156792730291502}}}, "name": "Adsmith | PPC & SEO Agency", "place_id": "ChIJw54FFDsbdkgR3BYXLf1Nn8g", "types": ["point_of_interest", "establishment"]}, "ChIJC9OvS8wadkgRxR3cdRwN-qE": {"geometry": {"location": {"lat": 51.51865209240906, "lng": -0.1559200246565027}, "viewport": {"northeast": {"lat": 51.5200013802915, "lng": -0.154569319708498}, "southwest": {"lat": 51.5173034197085, "lng": -0.157267280291502}}}, "name": "45-55 A41", "place_id": "ChIJC9OvS8wadkgRxR3cdRwN-qE", "types": ["route"]}, "ChIJ7Ru8ScwadkgRvSfQEu0fkII": {"geometry": {"location": {"lat": 51.5184386, "lng": -0.1561861}, "viewport": {"northeast": {"lat": 51.5198183802915, "lng": -0.154668269708498}, "southwest": {"lat": 51.5171204197085, "lng": -0.157366230291502}}}, "name": "Rush Hair Baker Street", "place_id": "ChIJ7Ru8ScwadkgRvSfQEu0fkII", "types": ["beauty_salon", "hair_care", "point_of_interest", "establishment"], "rating": 4.5, "user_ratings_total": 193}, "ChIJWzYhs80adkgRKIvFea5zXSA": {"geometry": {"location": {"lat": 51.51840360000001, "lng": -0.155579}, "viewport": {"northeast": {"lat": 51.5197224802915, "lng": -0.154333769708498}, "southwest": {"lat": 51.5170245197085, "lng": -0.157031730291502}}}, "name": "Royal China Club", "place_id": "ChIJWzYhs80adkgRKIvFea5zXSA", "types": ["restaurant", "food", "point_of_interest", "establishment"], "rating": 4.2, "user_ratings_total": 732}, "ChIJ_SELs80adkgRQZ6pT4e8ggM": {"geometry": {"location": {"lat": 51.51842699999999, "lng": -0.15565}, "viewport": {"northeast": {"lat": 51.5197622302915, "lng": -0.154376469708498}, "southwest": {"lat": 51.5170642697085, "lng": -0.157074430291502}}}, "name": "Chess & Bridge: The London Chess Centre", "place_id": "ChIJ_SELs80adkgRQZ6pT4e8ggM", "types": ["book_store", "point_of_interest", "store", "establishment"], "rating": 4.6, "user_ratings_total": 176}, "ChIJ8dU-us0adkgRKgrz6JzMCsc": {"geometry": {"location": {"lat": 51.5183977, "lng": -0.1548654}, "viewport": {"northeast": {"lat": 51.5197466802915, "lng": -0.153516419708498}, "southwest": {"lat": 51.51704871970851, "lng": -0.156214380291502}}}, "name": "The Bok Bar", "place_id": "ChIJ8dU-us0adkgRKgrz6JzMCsc", "types": ["bar", "point_of_interest", "establishment"], "rating": 3.7, "user_ratings_total": 133}, "ChIJ7Ru8ScwadkgRPPUUkYXskZE": {"geometry": {"location": {"lat": 51.518608, "lng": -0.156286}, "viewport": {"northeast": {"lat": 51.5199207302915, "lng": -0.154758969708498}, "southwest": {"lat": 51.5172227697085, "lng": -0.157456930291502}}}, "name": "Fitness First", "place_id": "ChIJ7Ru8ScwadkgRPPUUkYXskZE", "types": ["gym", "beauty_salon", "spa", "health", "point_of_interest", "establishment"], "rating": 3.8, "user_ratings_total": 316}, "ChIJzQgdRc0adkgRWp3sn1JJ1xU": {"geometry": {"location": {"lat": 51.5184073, "lng": -0.1556204}, "viewport": {"northeast": {"lat": 51.5197407302915, "lng": -0.154356219708498}, "southwest": {"lat": 51.5170427697085, "lng": -0.157054180291502}}}, "name": "Streathers Solicitors", "place_id": "ChIJzQgdRc0adkgRWp3sn1JJ1xU", "types": ["lawyer", "point_of_interest", "establishment"], "rating": 4.9, "user_ratings_total": 136}, "ChIJw_drxSwFdkgR91bNRFPQVlA": {"geometry": {"location": {"lat": 51.5188734, "lng": -0.1552289}, "viewport": {"northeast": {"lat": 51.5202117802915, "lng": -0.153937719708498}, "southwest": {"lat": 51.5175138197085, "lng": -0.156635680291502}}}, "name": "Metropolitan Pub Company", "place_id": "ChIJw_drxSwFdkgR91bNRFPQVlA", "types": ["point_of_interest", "establishment"], "rating": 3.7, "user_ratings_total": 115}, "ChIJRwrN0NEEdkgRsEIkDbefeag": {"geometry": {"location": {"lat": 51.5188723, "lng": -0.1558305}, "viewport": {"northeast": {"lat": 51.5202058802915, "lng": -0.154570119708498}, "southwest": {"lat": 51.5175079197085, "lng": -0.157268080291502}}}, "name": "Social Care Institute for Excellence (SCIE)", "place_id": "ChIJRwrN0NEEdkgRsEIkDbefeag", "types": ["point_of_interest", "establishment"], "rating": 4.2, "user_ratings_total": 15}, "ChIJ_SELs80adkgRKscFhApRj4I": {"geometry": {"location": {"lat": 51.5184033, "lng": -0.1556372}, "viewport": {"northeast": {"lat": 51.51973838029149, "lng": -0.154364419708498}, "southwest": {"lat": 51.5170404197085, "lng": -0.157062380291502}}}, "name": "A a K Ltd", "place_id": "ChIJ_SELs80adkgRKscFhApRj4I", "types": ["point_of_interest", "establishment"], "rating": 4.5, "user_ratings_total": 2}, "ChIJ_SELs80adkgR5bnTgF1AV-0": {"geometry": {"location": {"lat": 51.5184316, "lng": -0.1555227}, "viewport": {"northeast": {"lat": 51.51975593029151, "lng": -0.154308769708498}, "southwest": {"lat": 51.51705796970851, "lng": -0.157006730291502}}}, "name": "Chess in Schools & Communities", "place_id": "ChIJ_SELs80adkgR5bnTgF1AV-0", "types": ["point_of_interest", "establishment"]}, "ChIJ_SELs80adkgR-ran9xyuMQw": {"geometry": {"location": {"lat": 51.5184316, "lng": -0.1555227}, "viewport": {"northeast": {"lat": 51.51975593029151, "lng": -0.154308769708498}, "southwest": {"lat": 51.51705796970851, "lng": -0.157006730291502}}}, "name": "Emerson Holding Co", "place_id": "ChIJ_SELs80adkgR-ran9xyuMQw", "types": ["point_of_interest", "establishment"]}, "ChIJv_w6s80adkgRo3_3C50Dx5I": {"geometry": {"location": {"lat": 51.5184316, "lng": -0.1555227}, "viewport": {"northeast": {"lat": 51.51975593029151, "lng": -0.154308769708498}, "southwest": {"lat": 51.51705796970851, "lng": -0.157006730291502}}}, "name": "Heart Cells Foundation", "place_id": "ChIJv_w6s80adkgRo3_3C50Dx5I", "types": ["point_of_interest", "establishment"]}, "ChIJb8USts0adkgRu5cOhmvnZRg": {"geometry": {"location": {"lat": 51.51876949999999, "lng": -0.155268}, "viewport": {"northeast": {"lat": 51.5201209802915, "lng": -0.153904669708498}, "southwest": {"lat": 51.5174230197085, "lng": -0.156602630291502}}}, "name": "Maverick Publicity", "place_id": "ChIJb8USts0adkgRu5cOhmvnZRg", "types": ["point_of_interest", "establishment"]}, "ChIJh_E5NcwadkgRkxE9tsfgoGc": {"geometry": {"location": {"lat": 51.5188887, "lng": -0.1558085}, "viewport": {"northeast": {"lat": 51.5202198802915, "lng": -0.154561719708498}, "southwest": {"lat": 51.5175219197085, "lng": -0.157259680291502}}}, "name": "Legende Celebrity Art", "place_id": "ChIJh_E5NcwadkgRkxE9tsfgoGc", "types": ["art_gallery", "point_of_interest", "establishment"]}, "ChIJu_iI6ykFdkgRov_jZqhiq2s": {"geometry": {"location": {"lat": 51.51888899999999, "lng": -0.1550987}, "viewport": {"northeast": {"lat": 51.5202293802915, "lng": -0.153610119708498}, "southwest": {"lat": 51.5175314197085, "lng": -0.156308080291502}}}, "name": "Casely-Hayford", "place_id": "ChIJu_iI6ykFdkgRov_jZqhiq2s", "types": ["clothing_store", "shoe_store", "point_of_interest", "store", "establishment"], "rating": 5, "user_ratings_total": 4}, "ChIJVTsfyM0adkgRLg41Pv1uSV0": {"geometry": {"location": {"lat": 51.51888899999999, "lng": -0.1550987}, "viewport": {"northeast": {"lat": 51.5202546802915, "lng": -0.1536228697084979}, "southwest": {"lat": 51.5175567197085, "lng": -0.156320830291502}}}, "name": "No.3 Chiltern Street", "place_id": "ChIJVTsfyM0adkgRLg41Pv1uSV0", "types": ["point_of_interest", "clothing_store", "store", "establishment"]}, "ChIJU-b68PsPdkgRxWYxvdMX9rQ": {"geometry": {"location": {"lat": 51.5188887, "lng": -0.1558085}, "viewport": {"northeast": {"lat": 51.52023768029149, "lng": -0.154459519708498}, "southwest": {"lat": 51.5175397197085, "lng": -0.157157480291502}}}, "name": "Hay House", "place_id": "ChIJU-b68PsPdkgRxWYxvdMX9rQ", "types": ["point_of_interest", "establishment"], "rating": 3.8, "user_ratings_total": 5}, "ChIJh_E5NcwadkgRiP6gV4UuIjQ": {"geometry": {"location": {"lat": 51.51894770000001, "lng": -0.1557469}, "viewport": {"northeast": {"lat": 51.5202717802915, "lng": -0.154541019708498}, "southwest": {"lat": 51.5175738197085, "lng": -0.157238980291502}}}, "name": "Namaste Travel & Tours", "place_id": "ChIJh_E5NcwadkgRiP6gV4UuIjQ", "types": ["travel_agency", "point_of_interest", "establishment"]}, "ChIJ_bPRnSoFdkgRGaKe7qQebso": {"geometry": {"location": {"lat": 51.51894799999999, "lng": -0.155747}, "viewport": {"northeast": {"lat": 51.5202720802915, "lng": -0.154541119708498}, "southwest": {"lat": 51.5175741197085, "lng": -0.157239080291502}}}, "name": "eConsol", "place_id": "ChIJ_bPRnSoFdkgRGaKe7qQebso", "types": ["point_of_interest", "establishment"], "rating": 5, "user_ratings_total": 1}, "ChIJbw3ZRswadkgRX0aZ4I_X2wA": {"geometry": {"location": {"lat": 51.5186726, "lng": -0.156111}, "viewport": {"northeast": {"lat": 51.5199883802915, "lng": -0.154659669708498}, "southwest": {"lat": 51.5172904197085, "lng": -0.157357630291502}}}, "name": "Knight Frank Marylebone Estate Agents", "place_id": "ChIJbw3ZRswadkgRX0aZ4I_X2wA", "types": ["real_estate_agency", "point_of_interest", "establishment"], "rating": 4.7, "user_ratings_total": 165}, "ChIJddmfcioFdkgRJ70ONYOEZFw": {"geometry": {"location": {"lat": 51.51897589999999, "lng": -0.1558785}, "viewport": {"northeast": {"lat": 51.5205849302915, "lng": -0.154636519708498}, "southwest": {"lat": 51.5178869697085, "lng": -0.157334480291502}}}, "name": "C K C Properties", "place_id": "ChIJddmfcioFdkgRJ70ONYOEZFw", "types": ["general_contractor", "point_of_interest", "establishment"]}, "ChIJ_SELs80adkgRH_CeQzDqvnM": {"geometry": {"location": {"lat": 51.518204, "lng": -0.1559466}, "viewport": {"northeast": {"lat": 51.51968623029151, "lng": -0.154523769708498}, "southwest": {"lat": 51.51698826970851, "lng": -0.157221730291502}}}, "name": "London Airport Transfer", "place_id": "ChIJ_SELs80adkgRH_CeQzDqvnM", "types": ["point_of_interest", "establishment"], "rating": 4.8, "user_ratings_total": 95}, "ChIJAYkvus0adkgR-BHnv8lER38": {"geometry": {"location": {"lat": 51.5187389, "lng": -0.1549693}, "viewport": {"northeast": {"lat": 51.5199925302915, "lng": -0.153459519708498}, "southwest": {"lat": 51.5172945697085, "lng": -0.156157480291502}}}, "name": "Chiltern Firehouse", "place_id": "ChIJAYkvus0adkgR-BHnv8lER38", "types": ["lodging", "restaurant", "food", "point_of_interest", "establishment"], "rating": 4.3, "user_ratings_total": 1916}, "ChIJaz_Tx80adkgR1CE_8OkP7Hk": {"geometry": {"location": {"lat": 51.5190248, "lng": -0.1550504}, "viewport": {"northeast": {"lat": 51.52038838029149, "lng": -0.153628169708498}, "southwest": {"lat": 51.5176904197085, "lng": -0.156326130291502}}}, "name": "Sunspel", "place_id": "ChIJaz_Tx80adkgR1CE_8OkP7Hk", "types": ["point_of_interest", "clothing_store", "store", "establishment"], "rating": 4, "user_ratings_total": 12}, "ChIJR0nq1TIFdkgRVhn3z4jhgg4": {"geometry": {"location": {"lat": 51.5190523, "lng": -0.1558352}, "viewport": {"northeast": {"lat": 51.5203793302915, "lng": -0.154610269708498}, "southwest": {"lat": 51.5176813697085, "lng": -0.157308230291502}}}, "name": "Greenhill Asset Management", "place_id": "ChIJR0nq1TIFdkgRVhn3z4jhgg4", "types": ["finance", "real_estate_agency", "point_of_interest", "establishment"]}, "ChIJh_E5NcwadkgRB9gxzRr4z4o": {"geometry": {"location": {"lat": 51.5190707, "lng": -0.1557536}, "viewport": {"northeast": {"lat": 51.5204454802915, "lng": -0.154264069708498}, "southwest": {"lat": 51.5177475197085, "lng": -0.156962030291502}}}, "name": "White Oak Advisory", "place_id": "ChIJh_E5NcwadkgRB9gxzRr4z4o", "types": ["finance", "point_of_interest", "establishment"]}, "ChIJy5xwrs0adkgRvgqkhu5x5Pg": {"geometry": {"location": {"lat": 51.51805419999999, "lng": -0.15549}, "viewport": {"northeast": {"lat": 51.51940318029149, "lng": -0.1541410197084979}, "southwest": {"lat": 51.51670521970849, "lng": -0.156838980291502}}}, "name": "Japanese Knife Company - Japanese Knives Specialist & Knife Sharpening Service Centre", "place_id": "ChIJy5xwrs0adkgRvgqkhu5x5Pg", "types": ["home_goods_store", "point_of_interest", "store", "establishment"], "rating": 4.8, "user_ratings_total": 160}, "ChIJEzrSNswadkgRX-4hKfnU21w": {"geometry": {"location": {"lat": 51.5190523, "lng": -0.1558352}, "viewport": {"northeast": {"lat": 51.5203793302915, "lng": -0.154610269708498}, "southwest": {"lat": 51.5176813697085, "lng": -0.157308230291502}}}, "name": "Matrix Science Ltd", "place_id": "ChIJEzrSNswadkgRX-4hKfnU21w", "types": ["point_of_interest", "establishment"]}, "ChIJbw3ZRswadkgRvDvVVGnC1Wc": {"geometry": {"location": {"lat": 51.51862, "lng": -0.1562919}, "viewport": {"northeast": {"lat": 51.51992673029151, "lng": -0.154764769708498}, "southwest": {"lat": 51.51722876970851, "lng": -0.157462730291502}}}, "name": "Roodlane Medical part of HCA Healthcare UK - Baker St Clinic", "place_id": "ChIJbw3ZRswadkgRvDvVVGnC1Wc", "types": ["hospital", "health", "point_of_interest", "establishment"], "rating": 4, "user_ratings_total": 10}, "ChIJD5q4NcwadkgR7N8Dj0LZ7QQ": {"geometry": {"location": {"lat": 51.5190523, "lng": -0.1558352}, "viewport": {"northeast": {"lat": 51.5203793302915, "lng": -0.154610269708498}, "southwest": {"lat": 51.5176813697085, "lng": -0.157308230291502}}}, "name": "Alumina Homes", "place_id": "ChIJD5q4NcwadkgR7N8Dj0LZ7QQ", "types": ["general_contractor", "point_of_interest", "establishment"]}, "ChIJdyA8oSsbdkgRnU0Vtv2aszs": {"geometry": {"location": {"lat": 51.5184734, "lng": -0.1556318}, "viewport": {"northeast": {"lat": 51.5198052302915, "lng": -0.154376719708498}, "southwest": {"lat": 51.5171072697085, "lng": -0.157074680291502}}}, "name": "North East Atlantic Fisheries Commission (NEAFC)", "place_id": "ChIJdyA8oSsbdkgRnU0Vtv2aszs", "types": ["point_of_interest", "establishment"], "rating": 4.3, "user_ratings_total": 3}, "ChIJs-iUtM0adkgRpBg41dS1YuA": {"geometry": {"location": {"lat": 51.51854909999999, "lng": -0.1557028}, "viewport": {"northeast": {"lat": 51.51988413029149, "lng": -0.154431569708498}, "southwest": {"lat": 51.51718616970849, "lng": -0.157129530291502}}}, "name": "N V S Pharmacy", "place_id": "ChIJs-iUtM0adkgRpBg41dS1YuA", "types": ["pharmacy", "health", "point_of_interest", "store", "establishment"], "rating": 4.8, "user_ratings_total": 83}, "ChIJswL8TcwadkgROVty0cFUsrM": {"geometry": {"location": {"lat": 51.5182594, "lng": -0.1560227}, "viewport": {"northeast": {"lat": 51.51971393029151, "lng": -0.154541269708498}, "southwest": {"lat": 51.51701596970851, "lng": -0.1572392302915021}}}, "name": "Bright Courtyard Club", "place_id": "ChIJswL8TcwadkgROVty0cFUsrM", "types": ["restaurant", "food", "point_of_interest", "establishment"], "rating": 3.8, "user_ratings_total": 277}, "ChIJC5umZcUadkgRYdbVxsI23YU": {"geometry": {"location": {"lat": 51.5187213, "lng": -0.1561223}, "viewport": {"northeast": {"lat": 51.52008453029149, "lng": -0.154695219708498}, "southwest": {"lat": 51.51738656970849, "lng": -0.157393180291502}}}, "name": "Regents Park Counselling Psychology", "place_id": "ChIJC5umZcUadkgRYdbVxsI23YU", "types": ["health", "point_of_interest", "establishment"]}, "ChIJW1ofS8wadkgRmMhEmhChtqg": {"geometry": {"location": {"lat": 51.5185586, "lng": -0.1554989}, "viewport": {"northeast": {"lat": 51.5198758802915, "lng": -0.154323519708498}, "southwest": {"lat": 51.5171779197085, "lng": -0.157021480291502}}}, "name": "Playa", "place_id": "ChIJW1ofS8wadkgRmMhEmhChtqg", "types": ["restaurant", "food", "point_of_interest", "establishment"], "rating": 4.1, "user_ratings_total": 19}, "ChIJX2_ytM0adkgRY8TrUfj5Rp4": {"geometry": {"location": {"lat": 51.5186138, "lng": -0.1555529}, "viewport": {"northeast": {"lat": 51.5199334302915, "lng": -0.154364619708498}, "southwest": {"lat": 51.5172354697085, "lng": -0.157062580291502}}}, "name": "Lion's Head Africa", "place_id": "ChIJX2_ytM0adkgRY8TrUfj5Rp4", "types": ["finance", "point_of_interest", "establishment"]}, "ChIJk8ZYs80adkgR2RN_w8IE1_c": {"geometry": {"location": {"lat": 51.51851250000001, "lng": -0.1556291}, "viewport": {"northeast": {"lat": 51.51984258029151, "lng": -0.154383769708498}, "southwest": {"lat": 51.51714461970851, "lng": -0.157081730291502}}}, "name": "Sloane Pharmacy", "place_id": "ChIJk8ZYs80adkgR2RN_w8IE1_c", "types": ["pharmacy", "health", "point_of_interest", "store", "establishment"]}, "ChIJr2KxtM0adkgR5xY_YfC3Ttc": {"geometry": {"location": {"lat": 51.51857259999999, "lng": -0.1556715}, "viewport": {"northeast": {"lat": 51.51995103029149, "lng": -0.154435169708498}, "southwest": {"lat": 51.51725306970849, "lng": -0.157133130291502}}}, "name": "Simple Health Kitchen", "place_id": "ChIJr2KxtM0adkgR5xY_YfC3Ttc", "types": ["restaurant", "food", "point_of_interest", "establishment"], "rating": 4.3, "user_ratings_total": 110}, "ChIJ_SELs80adkgRuo7ehq9Bkqw": {"geometry": {"location": {"lat": 51.51867, "lng": -0.155637}, "viewport": {"northeast": {"lat": 51.51999448029149, "lng": -0.154422219708498}, "southwest": {"lat": 51.51729651970849, "lng": -0.157120180291502}}}, "name": "Orbex Solutions Ltd", "place_id": "ChIJ_SELs80adkgRuo7ehq9Bkqw", "types": ["point_of_interest", "establishment"], "rating": 5, "user_ratings_total": 14}, "ChIJlwA4QNYbdkgR7L5CIldRacM": {"geometry": {"location": {"lat": 51.5184316, "lng": -0.1555227}, "viewport": {"northeast": {"lat": 51.51975593029151, "lng": -0.154308769708498}, "southwest": {"lat": 51.51705796970851, "lng": -0.157006730291502}}}, "name": "Orbex VT Consulting", "place_id": "ChIJlwA4QNYbdkgR7L5CIldRacM", "types": ["point_of_interest", "establishment"]}, "ChIJ_SELs80adkgRrE3eV9LU6sc": {"geometry": {"location": {"lat": 51.5184316, "lng": -0.1555227}, "viewport": {"northeast": {"lat": 51.51975593029151, "lng": -0.154308769708498}, "southwest": {"lat": 51.51705796970851, "lng": -0.157006730291502}}}, "name": "APOSTILLE & LEGALISATION IN DUBAI", "place_id": "ChIJ_SELs80adkgRrE3eV9LU6sc", "types": ["point_of_interest", "establishment"]}, "ChIJ_SELs80adkgRjIxsrtlaKNw": {"geometry": {"location": {"lat": 51.5184316, "lng": -0.1555227}, "viewport": {"northeast": {"lat": 51.5198558802915, "lng": -0.154308769708498}, "southwest": {"lat": 51.5171579197085, "lng": -0.157006730291502}}}, "name": "Ridgid Professional Tools", "place_id": "ChIJ_SELs80adkgRjIxsrtlaKNw", "types": ["point_of_interest", "establishment"]}, "ChIJ_SELs80adkgRjhbQX9dkUsY": {"geometry": {"location": {"lat": 51.5184316, "lng": -0.1555227}, "viewport": {"northeast": {"lat": 51.51975593029151, "lng": -0.154308769708498}, "southwest": {"lat": 51.51705796970851, "lng": -0.157006730291502}}}, "name": "mcbarans", "place_id": "ChIJ_SELs80adkgRjhbQX9dkUsY", "types": ["point_of_interest", "establishment"]}, "ChIJdz_7kNYbdkgRol8-DknoyFw": {"geometry": {"location": {"lat": 51.5184316, "lng": -0.1555227}, "viewport": {"northeast": {"lat": 51.51975593029151, "lng": -0.154308769708498}, "southwest": {"lat": 51.51705796970851, "lng": -0.157006730291502}}}, "name": "Acquired.com", "place_id": "ChIJdz_7kNYbdkgRol8-DknoyFw", "types": ["finance", "point_of_interest", "establishment"], "rating": 5, "user_ratings_total": 4}, "ChIJQ3ZqqY0bdkgRlC2vAfqxW-o": {"geometry": {"location": {"lat": 51.5184316, "lng": -0.1555227}, "viewport": {"northeast": {"lat": 51.51975593029151, "lng": -0.154308769708498}, "southwest": {"lat": 51.51705796970851, "lng": -0.157006730291502}}}, "name": "Fisher Investments UK", "place_id": "ChIJQ3ZqqY0bdkgRlC2vAfqxW-o", "types": ["finance", "point_of_interest", "establishment"]}, "ChIJow9F6lMbdkgRjhC5kYDrLBw": {"geometry": {"location": {"lat": 51.5184316, "lng": -0.1555227}, "viewport": {"northeast": {"lat": 51.51975593029151, "lng": -0.154308769708498}, "southwest": {"lat": 51.51705796970851, "lng": -0.157006730291502}}}, "name": "Rubix", "place_id": "ChIJow9F6lMbdkgRjhC5kYDrLBw", "types": ["point_of_interest", "establishment"], "rating": 4.7, "user_ratings_total": 3}, "ChIJ_SELs80adkgR1EmUsKaFNAg": {"geometry": {"location": {"lat": 51.5184316, "lng": -0.1555227}, "viewport": {"northeast": {"lat": 51.51975593029151, "lng": -0.154308769708498}, "southwest": {"lat": 51.51705796970851, "lng": -0.157006730291502}}}, "name": "Marylebone Cleaner", "place_id": "ChIJ_SELs80adkgR1EmUsKaFNAg", "types": ["laundry", "point_of_interest", "establishment"]}, "ChIJs-iUtM0adkgRGrY6K6mfh1c": {"geometry": {"location": {"lat": 51.5184316, "lng": -0.1555227}, "viewport": {"northeast": {"lat": 51.51975593029151, "lng": -0.154308769708498}, "southwest": {"lat": 51.51705796970851, "lng": -0.157006730291502}}}, "name": "Michael Lindley Notary Public", "place_id": "ChIJs-iUtM0adkgRGrY6K6mfh1c", "types": ["finance", "point_of_interest", "establishment"], "rating": 4.8, "user_ratings_total": 8}, "ChIJx_w6s80adkgRWOXgIEuLeNU": {"geometry": {"location": {"lat": 51.5184034, "lng": -0.1556373}, "viewport": {"northeast": {"lat": 51.5197384802915, "lng": -0.154364519708498}, "southwest": {"lat": 51.5170405197085, "lng": -0.157062480291502}}}, "name": "Urban Chic Serviced Apartments - Baker Street", "place_id": "ChIJx_w6s80adkgRWOXgIEuLeNU", "types": ["lodging", "point_of_interest", "establishment"], "rating": 4.3, "user_ratings_total": 6}, "ChIJ_SELs80adkgRFqJqUdcGRPw": {"geometry": {"location": {"lat": 51.5184034, "lng": -0.1556373}, "viewport": {"northeast": {"lat": 51.5197384802915, "lng": -0.154364519708498}, "southwest": {"lat": 51.5170405197085, "lng": -0.157062480291502}}}, "name": "Rochman Landau", "place_id": "ChIJ_SELs80adkgRFqJqUdcGRPw", "types": ["lawyer", "point_of_interest", "establishment"]}, "ChIJx_w6s80adkgR8rW-rbjl6Eo": {"geometry": {"location": {"lat": 51.5184033, "lng": -0.1556372}, "viewport": {"northeast": {"lat": 51.51973838029149, "lng": -0.154364419708498}, "southwest": {"lat": 51.5170404197085, "lng": -0.157062380291502}}}, "name": "Notary Public London", "place_id": "ChIJx_w6s80adkgR8rW-rbjl6Eo", "types": ["lawyer", "finance", "point_of_interest", "establishment"]}, "ChIJ_SELs80adkgRtatKMqxs7Nw": {"geometry": {"location": {"lat": 51.5184033, "lng": -0.1556372}, "viewport": {"northeast": {"lat": 51.51973838029149, "lng": -0.154364419708498}, "southwest": {"lat": 51.5170404197085, "lng": -0.157062380291502}}}, "name": "Mr & Mrs Music", "place_id": "ChIJ_SELs80adkgRtatKMqxs7Nw", "types": ["point_of_interest", "establishment"]}, "ChIJjXjnTMwadkgRF3cxewP9-b4": {"geometry": {"location": {"lat": 51.51834179999999, "lng": -0.1554674}, "viewport": {"northeast": {"lat": 51.5196118802915, "lng": -0.154085469708498}, "southwest": {"lat": 51.5169139197085, "lng": -0.156783430291502}}}, "name": "Michiaki", "place_id": "ChIJjXjnTMwadkgRF3cxewP9-b4", "types": ["point_of_interest", "establishment"]}, "ChIJh-0j_P8bdkgRDbB7V1PMHpA": {"geometry": {"location": {"lat": 51.5183444, "lng": -0.1552499}, "viewport": {"northeast": {"lat": 51.51965918029151, "lng": -0.153834319708498}, "southwest": {"lat": 51.51696121970851, "lng": -0.156532280291502}}}, "name": "NBar Nail Spa & Salon Marylebone", "place_id": "ChIJh-0j_P8bdkgRDbB7V1PMHpA", "types": ["beauty_salon", "point_of_interest", "establishment"], "rating": 5, "user_ratings_total": 15}, "ChIJPSHkTMwadkgRYkM4n641xls": {"geometry": {"location": {"lat": 51.518333, "lng": -0.1556104}, "viewport": {"northeast": {"lat": 51.5196677302915, "lng": -0.154334569708498}, "southwest": {"lat": 51.5169697697085, "lng": -0.157032530291502}}}, "name": "Royal China Group", "place_id": "ChIJPSHkTMwadkgRYkM4n641xls", "types": ["restaurant", "food", "point_of_interest", "establishment"], "rating": 3.9, "user_ratings_total": 43}, "ChIJV9tASswadkgRLlLg0jKNySo": {"geometry": {"location": {"lat": 51.5187847, "lng": -0.1557611}, "viewport": {"northeast": {"lat": 51.5201150802915, "lng": -0.1545140697084979}, "southwest": {"lat": 51.5174171197085, "lng": -0.157212030291502}}}, "name": "Platinum Accommodation Limited", "place_id": "ChIJV9tASswadkgRLlLg0jKNySo", "types": ["point_of_interest", "establishment"]}, "ChIJf2aIFeEbdkgRO0JveCm2wD8": {"geometry": {"location": {"lat": 51.5183979, "lng": -0.1550863}, "viewport": {"northeast": {"lat": 51.5196702802915, "lng": -0.153707719708498}, "southwest": {"lat": 51.51697231970851, "lng": -0.156405680291502}}}, "name": "Aviasales tickets \u043f\u043e\u0438\u0441\u043a \u0430\u0432\u0438\u0430\u0431\u0438\u043b\u0435\u0442\u043e\u0432", "place_id": "ChIJf2aIFeEbdkgRO0JveCm2wD8", "types": ["point_of_interest", "establishment"], "rating": 5, "user_ratings_total": 1}, "ChIJD4uIsM0adkgRP3dIhgxQ9QQ": {"geometry": {"location": {"lat": 51.5183792, "lng": -0.1550468}, "viewport": {"northeast": {"lat": 51.5196639302915, "lng": -0.153670069708498}, "southwest": {"lat": 51.5169659697085, "lng": -0.156368030291502}}}, "name": "Rare Tea Company", "place_id": "ChIJD4uIsM0adkgRP3dIhgxQ9QQ", "types": ["point_of_interest", "establishment"], "rating": 4.4, "user_ratings_total": 9}, "ChIJLe50qs0adkgRJRtcOw3CZUo": {"geometry": {"location": {"lat": 51.51755425000847, "lng": -0.1553950499000566}, "viewport": {"northeast": {"lat": 51.5189032302915, "lng": -0.154046069708498}, "southwest": {"lat": 51.5162052697085, "lng": -0.156744030291502}}}, "name": "19-21 A41", "place_id": "ChIJLe50qs0adkgRJRtcOw3CZUo", "types": ["route"]}, "ChIJOe3Zp80adkgRoAPhF-w9lA8": {"geometry": {"location": {"lat": 51.517609, "lng": -0.154994}, "viewport": {"northeast": {"lat": 51.5189115302915, "lng": -0.153646369708498}, "southwest": {"lat": 51.5162135697085, "lng": -0.156344330291502}}}, "name": "Daniel Galvin", "place_id": "ChIJOe3Zp80adkgRoAPhF-w9lA8", "types": ["beauty_salon", "hair_care", "point_of_interest", "establishment"], "rating": 4.4, "user_ratings_total": 266}, "ChIJ-wFAD9UadkgR8icVAB2jTU4": {"geometry": {"location": {"lat": 51.5173193, "lng": -0.1555763}, "viewport": {"northeast": {"lat": 51.5186913302915, "lng": -0.154097369708498}, "southwest": {"lat": 51.5159933697085, "lng": -0.156795330291502}}}, "name": "itsu", "place_id": "ChIJ-wFAD9UadkgR8icVAB2jTU4", "types": ["restaurant", "food", "point_of_interest", "establishment"], "rating": 4.3, "user_ratings_total": 261}, "ChIJbypV9MwadkgRqBXMk9DjJ8w": {"geometry": {"location": {"lat": 51.5174136, "lng": -0.1560948}, "viewport": {"northeast": {"lat": 51.5187236302915, "lng": -0.154902869708498}, "southwest": {"lat": 51.5160256697085, "lng": -0.1576008302915021}}}, "name": "The Union", "place_id": "ChIJbypV9MwadkgRqBXMk9DjJ8w", "types": ["bar", "restaurant", "food", "point_of_interest", "establishment"], "rating": 3.8, "user_ratings_total": 170}, "ChIJycpVqM0adkgRQYF8r1YAolk": {"geometry": {"location": {"lat": 51.5176889, "lng": -0.1553026}, "viewport": {"northeast": {"lat": 51.51902193029149, "lng": -0.154022419708498}, "southwest": {"lat": 51.51632396970849, "lng": -0.156720380291502}}}, "name": "Fujitsu", "place_id": "ChIJycpVqM0adkgRQYF8r1YAolk", "types": ["point_of_interest", "establishment"], "rating": 4.3, "user_ratings_total": 60}, "ChIJOWZrrM0adkgRdK8gezgbUDc": {"geometry": {"location": {"lat": 51.517882, "lng": -0.1551753}, "viewport": {"northeast": {"lat": 51.5191986302915, "lng": -0.154002269708498}, "southwest": {"lat": 51.5165006697085, "lng": -0.156700230291502}}}, "name": "Hyde Park Bathrooms and Kitchens", "place_id": "ChIJOWZrrM0adkgRdK8gezgbUDc", "types": ["furniture_store", "home_goods_store", "general_contractor", "point_of_interest", "store", "establishment"], "rating": 4.8, "user_ratings_total": 74}, "ChIJC3K6oM0adkgRNmcLmzwB5L0": {"geometry": {"location": {"lat": 51.5174792, "lng": -0.1545909}, "viewport": {"northeast": {"lat": 51.51887698029149, "lng": -0.1532634697084979}, "southwest": {"lat": 51.5161790197085, "lng": -0.155961430291502}}}, "name": "Pandora Head Office", "place_id": "ChIJC3K6oM0adkgRNmcLmzwB5L0", "types": ["jewelry_store", "point_of_interest", "store", "establishment"], "rating": 2.4, "user_ratings_total": 30}, "ChIJ0UpUqs0adkgRQOzxLK-1ROU": {"geometry": {"location": {"lat": 51.51758100000001, "lng": -0.15568}, "viewport": {"northeast": {"lat": 51.5189501802915, "lng": -0.154203719708498}, "southwest": {"lat": 51.51625221970851, "lng": -0.156901680291502}}}, "name": "Leonidas", "place_id": "ChIJ0UpUqs0adkgRQOzxLK-1ROU", "types": ["food", "point_of_interest", "store", "establishment"], "rating": 4.6, "user_ratings_total": 36}, "ChIJF9XMqs0adkgRttpawf54xYg": {"geometry": {"location": {"lat": 51.51765939999999, "lng": -0.1556786}, "viewport": {"northeast": {"lat": 51.51903343029149, "lng": -0.154226919708498}, "southwest": {"lat": 51.51633546970849, "lng": -0.156924880291502}}}, "name": "hulsta West End", "place_id": "ChIJF9XMqs0adkgRttpawf54xYg", "types": ["furniture_store", "home_goods_store", "point_of_interest", "store", "establishment"], "rating": 4.1, "user_ratings_total": 9}, "ChIJIXLNAM0adkgR3dm2CWqQ9hU": {"geometry": {"location": {"lat": 51.517377, "lng": -0.1551648}, "viewport": {"northeast": {"lat": 51.5186385802915, "lng": -0.153865069708498}, "southwest": {"lat": 51.5159406197085, "lng": -0.156563030291502}}}, "name": "Pret A Manger", "place_id": "ChIJIXLNAM0adkgR3dm2CWqQ9hU", "types": ["cafe", "restaurant", "food", "point_of_interest", "store", "establishment"], "rating": 4.3, "user_ratings_total": 295}, "ChIJK9Nlp80adkgRwOVXqwA5onU": {"geometry": {"location": {"lat": 51.5176364, "lng": -0.1550687}, "viewport": {"northeast": {"lat": 51.5189224802915, "lng": -0.1536903697084979}, "southwest": {"lat": 51.5162245197085, "lng": -0.156388330291502}}}, "name": "LOUISE GALVIN LIMITED", "place_id": "ChIJK9Nlp80adkgRwOVXqwA5onU", "types": ["point_of_interest", "establishment"]}, "ChIJVQ-rXS0FdkgRt1JRLfbWHo0": {"geometry": {"location": {"lat": 51.51771840000001, "lng": -0.1551611}, "viewport": {"northeast": {"lat": 51.51903668029151, "lng": -0.153951669708498}, "southwest": {"lat": 51.51633871970851, "lng": -0.1566496302915021}}}, "name": "Aprirose", "place_id": "ChIJVQ-rXS0FdkgRt1JRLfbWHo0", "types": ["finance", "point_of_interest", "establishment"], "rating": 4.3, "user_ratings_total": 6}, "ChIJX-p7fS8FdkgR10OySfOQgrc": {"geometry": {"location": {"lat": 51.5177341, "lng": -0.1559085}, "viewport": {"northeast": {"lat": 51.5192160302915, "lng": -0.154365969708498}, "southwest": {"lat": 51.5165180697085, "lng": -0.157063930291502}}}, "name": "Cirdan", "place_id": "ChIJX-p7fS8FdkgR10OySfOQgrc", "types": ["point_of_interest", "establishment"], "rating": 5, "user_ratings_total": 1}, "ChIJDW3GVMwadkgRIhWN11n0Pww": {"geometry": {"location": {"lat": 51.5179023, "lng": -0.1554245}, "viewport": {"northeast": {"lat": 51.51923918029149, "lng": -0.154141269708498}, "southwest": {"lat": 51.51654121970849, "lng": -0.156839230291502}}}, "name": "Betfred", "place_id": "ChIJDW3GVMwadkgRIhWN11n0Pww", "types": ["point_of_interest", "establishment"], "rating": 1, "user_ratings_total": 1}, "ChIJdwPL97ocdkgRZE4a5do8bIw": {"geometry": {"location": {"lat": 51.51745200000001, "lng": -0.1562124}, "viewport": {"northeast": {"lat": 51.51873508029151, "lng": -0.154950219708498}, "southwest": {"lat": 51.51603711970851, "lng": -0.157648180291502}}}, "name": "McAleer & Rushe", "place_id": "ChIJdwPL97ocdkgRZE4a5do8bIw", "types": ["point_of_interest", "establishment"], "rating": 5, "user_ratings_total": 3}, "ChIJPXpJrM0adkgRajRWezXpCl4": {"geometry": {"location": {"lat": 51.5180034, "lng": -0.1554287}, "viewport": {"northeast": {"lat": 51.5193359302915, "lng": -0.154165319708498}, "southwest": {"lat": 51.5166379697085, "lng": -0.156863280291502}}}, "name": "StudentDorms.com", "place_id": "ChIJPXpJrM0adkgRajRWezXpCl4", "types": ["real_estate_agency", "travel_agency", "point_of_interest", "establishment"]}, "ChIJ9ReoVMwadkgRbUWW9V3gkLU": {"geometry": {"location": {"lat": 51.51790039999999, "lng": -0.1557691}, "viewport": {"northeast": {"lat": 51.51935873029149, "lng": -0.154432569708498}, "southwest": {"lat": 51.51666076970849, "lng": -0.157130530291502}}}, "name": "Tossed Baker Street (Marylebone)", "place_id": "ChIJ9ReoVMwadkgRbUWW9V3gkLU", "types": ["meal_takeaway", "restaurant", "food", "point_of_interest", "establishment"], "rating": 4.2, "user_ratings_total": 114}, "ChIJTTv_htMadkgRWqS0W5cfXlU": {"geometry": {"location": {"lat": 51.5177341, "lng": -0.1559085}, "viewport": {"northeast": {"lat": 51.5192160302915, "lng": -0.154365969708498}, "southwest": {"lat": 51.5165180697085, "lng": -0.157063930291502}}}, "name": "Howard de Walden Estate", "place_id": "ChIJTTv_htMadkgRWqS0W5cfXlU", "types": ["point_of_interest", "establishment"], "rating": 3.4, "user_ratings_total": 12}, "ChIJG3T7pRwRdkgRNFY0H6SE60g": {"geometry": {"location": {"lat": 51.5177147, "lng": -0.1546474}, "viewport": {"northeast": {"lat": 51.5189984802915, "lng": -0.153269669708498}, "southwest": {"lat": 51.5163005197085, "lng": -0.155967630291502}}}, "name": "Parks Candles London Ltd", "place_id": "ChIJG3T7pRwRdkgRNFY0H6SE60g", "types": ["home_goods_store", "health", "point_of_interest", "store", "establishment"], "rating": 4.4, "user_ratings_total": 16}, "ChIJK_JeoM0adkgRh8DK3XICzxk": {"geometry": {"location": {"lat": 51.5177147, "lng": -0.1546474}, "viewport": {"northeast": {"lat": 51.5189984802915, "lng": -0.153269669708498}, "southwest": {"lat": 51.5163005197085, "lng": -0.155967630291502}}}, "name": "Colliers Capital", "place_id": "ChIJK_JeoM0adkgRh8DK3XICzxk", "types": ["point_of_interest", "establishment"], "rating": 3, "user_ratings_total": 1}, "ChIJBaNuoc0adkgRRB3UXPGZ0P4": {"geometry": {"location": {"lat": 51.5177147, "lng": -0.1546474}, "viewport": {"northeast": {"lat": 51.5189984802915, "lng": -0.153269669708498}, "southwest": {"lat": 51.5163005197085, "lng": -0.155967630291502}}}, "name": "Voreda", "place_id": "ChIJBaNuoc0adkgRRB3UXPGZ0P4", "types": ["finance", "general_contractor", "point_of_interest", "establishment"]}, "ChIJycMAoc0adkgRR0mg7A7X_lM": {"geometry": {"location": {"lat": 51.5176688, "lng": -0.154614}, "viewport": {"northeast": {"lat": 51.5189765802915, "lng": -0.153246869708498}, "southwest": {"lat": 51.5162786197085, "lng": -0.155944830291502}}}, "name": "Paul Bennett Antiques LLP", "place_id": "ChIJycMAoc0adkgRR0mg7A7X_lM", "types": ["home_goods_store", "point_of_interest", "store", "establishment"]}, "ChIJDRAV8cwadkgR-TzFxZ94Ixw": {"geometry": {"location": {"lat": 51.5173994, "lng": -0.1562755}, "viewport": {"northeast": {"lat": 51.5187022302915, "lng": -0.154907019708498}, "southwest": {"lat": 51.5160042697085, "lng": -0.157604980291502}}}, "name": "River Ganges", "place_id": "ChIJDRAV8cwadkgR-TzFxZ94Ixw", "types": ["meal_takeaway", "restaurant", "food", "point_of_interest", "establishment"]}, "ChIJbypV9MwadkgRQWnKVHBY2UI": {"geometry": {"location": {"lat": 51.5174142, "lng": -0.1560914}, "viewport": {"northeast": {"lat": 51.5187242302915, "lng": -0.1547259197084979}, "southwest": {"lat": 51.5160262697085, "lng": -0.157423880291502}}}, "name": "Faucet Inn Limited", "place_id": "ChIJbypV9MwadkgRQWnKVHBY2UI", "types": ["point_of_interest", "establishment"], "rating": 5, "user_ratings_total": 2}, "ChIJT-kMAM0adkgRCW67Ao6Iy7s": {"geometry": {"location": {"lat": 51.5175059, "lng": -0.1556037}, "viewport": {"northeast": {"lat": 51.5188716802915, "lng": -0.154148819708498}, "southwest": {"lat": 51.5161737197085, "lng": -0.156846780291502}}}, "name": "SOHO Coffee Co.", "place_id": "ChIJT-kMAM0adkgRCW67Ao6Iy7s", "types": ["cafe", "food", "point_of_interest", "store", "establishment"], "rating": 3.9, "user_ratings_total": 364}, "ChIJDVgACisbdkgRb4Ap9L3G5Ro": {"geometry": {"location": {"lat": 51.5175911, "lng": -0.1556368}, "viewport": {"northeast": {"lat": 51.51895673029149, "lng": -0.154182769708498}, "southwest": {"lat": 51.51625876970849, "lng": -0.156880730291502}}}, "name": "Funny monument haha", "place_id": "ChIJDVgACisbdkgRb4Ap9L3G5Ro", "types": ["point_of_interest", "establishment"]}, "ChIJ79qcKCQbdkgRc_Kx4KqOc-U": {"geometry": {"location": {"lat": 51.5175241, "lng": -0.1557259}, "viewport": {"northeast": {"lat": 51.5188984302915, "lng": -0.154217119708498}, "southwest": {"lat": 51.5162004697085, "lng": -0.156915080291502}}}, "name": "Mikeys", "place_id": "ChIJ79qcKCQbdkgRc_Kx4KqOc-U", "types": ["bar", "point_of_interest", "establishment"]}, "ChIJPZCxF3EbdkgRJRyCSIvKY2w": {"geometry": {"location": {"lat": 51.5176186, "lng": -0.1551421}, "viewport": {"northeast": {"lat": 51.51890703029149, "lng": -0.153727069708498}, "southwest": {"lat": 51.51620906970849, "lng": -0.156425030291502}}}, "name": "Practis English", "place_id": "ChIJPZCxF3EbdkgRJRyCSIvKY2w", "types": ["restaurant", "food", "point_of_interest", "establishment"]}, "ChIJqZu5Ac0adkgRvGwTMHnBUvU": {"geometry": {"location": {"lat": 51.5173193, "lng": -0.1555763}, "viewport": {"northeast": {"lat": 51.5186905802915, "lng": -0.154095119708498}, "southwest": {"lat": 51.51599261970851, "lng": -0.156793080291502}}}, "name": "Berekkah Consulting Ltd", "place_id": "ChIJqZu5Ac0adkgRvGwTMHnBUvU", "types": ["point_of_interest", "establishment"]}, "ChIJt4NKqM0adkgRPTiyAoM-Y2I": {"geometry": {"location": {"lat": 51.5176166, "lng": -0.1551279}, "viewport": {"northeast": {"lat": 51.51890713029149, "lng": -0.153719969708498}, "southwest": {"lat": 51.5162091697085, "lng": -0.156417930291502}}}, "name": "The Peel Boutique", "place_id": "ChIJt4NKqM0adkgRPTiyAoM-Y2I", "types": ["health", "point_of_interest", "establishment"]}, "ChIJn5cDi4IbdkgRetluhrvR3mU": {"geometry": {"location": {"lat": 51.5172845, "lng": -0.1554997}, "viewport": {"northeast": {"lat": 51.51865083029149, "lng": -0.154048519708498}, "southwest": {"lat": 51.51595286970849, "lng": -0.156746480291502}}}, "name": "Tamarind Tiger", "place_id": "ChIJn5cDi4IbdkgRetluhrvR3mU", "types": ["restaurant", "food", "point_of_interest", "establishment"], "rating": 4.1, "user_ratings_total": 18}, "ChIJOZSl7SAbdkgRvbVuQ-HQ2Hk": {"geometry": {"location": {"lat": 51.5176026, "lng": -0.1550448}, "viewport": {"northeast": {"lat": 51.5189062802915, "lng": -0.153675619708498}, "southwest": {"lat": 51.5162083197085, "lng": -0.1563735802915021}}}, "name": "62 George Street", "place_id": "ChIJOZSl7SAbdkgRvbVuQ-HQ2Hk", "types": ["point_of_interest", "establishment"]}, "ChIJ2_7Pqc0adkgRpHj4Kb4aTZU": {"geometry": {"location": {"lat": 51.5176364, "lng": -0.1550687}, "viewport": {"northeast": {"lat": 51.5189224802915, "lng": -0.1536903697084979}, "southwest": {"lat": 51.5162245197085, "lng": -0.156388330291502}}}, "name": "Shelka", "place_id": "ChIJ2_7Pqc0adkgRpHj4Kb4aTZU", "types": ["point_of_interest", "establishment"]}, "ChIJVVUBqc0adkgR9_EMSo6KIVg": {"geometry": {"location": {"lat": 51.51771840000001, "lng": -0.1551611}, "viewport": {"northeast": {"lat": 51.51903668029151, "lng": -0.153951669708498}, "southwest": {"lat": 51.51633871970851, "lng": -0.1566496302915021}}}, "name": "Chawla digital Media", "place_id": "ChIJVVUBqc0adkgR9_EMSo6KIVg", "types": ["point_of_interest", "establishment"]}, "ChIJu7sglPobdkgR8pN8MBCVhmY": {"geometry": {"location": {"lat": 51.51771840000001, "lng": -0.1551611}, "viewport": {"northeast": {"lat": 51.51903668029151, "lng": -0.153951669708498}, "southwest": {"lat": 51.51633871970851, "lng": -0.1566496302915021}}}, "name": "Mary Janerz", "place_id": "ChIJu7sglPobdkgR8pN8MBCVhmY", "types": ["cafe", "food", "point_of_interest", "store", "establishment"]}, "ChIJVVUBqc0adkgRBhXDnJDd_UM": {"geometry": {"location": {"lat": 51.51771840000001, "lng": -0.1551611}, "viewport": {"northeast": {"lat": 51.51903668029151, "lng": -0.153951669708498}, "southwest": {"lat": 51.51633871970851, "lng": -0.1566496302915021}}}, "name": "Portagex", "place_id": "ChIJVVUBqc0adkgRBhXDnJDd_UM", "types": ["point_of_interest", "establishment"]}, "ChIJVVUBqc0adkgR1SdugL-V6kY": {"geometry": {"location": {"lat": 51.51771840000001, "lng": -0.1551611}, "viewport": {"northeast": {"lat": 51.51903668029151, "lng": -0.153951669708498}, "southwest": {"lat": 51.51633871970851, "lng": -0.1566496302915021}}}, "name": "Almarose Hotels & Resorts", "place_id": "ChIJVVUBqc0adkgR1SdugL-V6kY", "types": ["lodging", "point_of_interest", "establishment"], "rating": 5, "user_ratings_total": 1}, "ChIJVVUBqc0adkgRuR7hilD46Ks": {"geometry": {"location": {"lat": 51.51771840000001, "lng": -0.1551611}, "viewport": {"northeast": {"lat": 51.51903668029151, "lng": -0.153951669708498}, "southwest": {"lat": 51.51633871970851, "lng": -0.1566496302915021}}}, "name": "Touax Express Delivery", "place_id": "ChIJVVUBqc0adkgRuR7hilD46Ks", "types": ["point_of_interest", "establishment"]}, "ChIJ3ecYhjwbdkgR0eW3sz_uiAY": {"geometry": {"location": {"lat": 51.51771840000001, "lng": -0.1551611}, "viewport": {"northeast": {"lat": 51.51903668029151, "lng": -0.153951669708498}, "southwest": {"lat": 51.51633871970851, "lng": -0.1566496302915021}}}, "name": "Alex-2020-Typeform", "place_id": "ChIJ3ecYhjwbdkgR0eW3sz_uiAY", "types": ["point_of_interest", "store", "establishment"]}, "ChIJV1UBqc0adkgR4B83TuvpIrQ": {"geometry": {"location": {"lat": 51.51771840000001, "lng": -0.155161}, "viewport": {"northeast": {"lat": 51.51903668029151, "lng": -0.153951619708498}, "southwest": {"lat": 51.51633871970851, "lng": -0.156649580291502}}}, "name": "360VELOXDELIVERY", "place_id": "ChIJV1UBqc0adkgR4B83TuvpIrQ", "types": ["point_of_interest", "establishment"]}, "ChIJhXl4Ac0adkgRPhYlzT1mN48": {"geometry": {"location": {"lat": 51.51723750000001, "lng": -0.1555019}, "viewport": {"northeast": {"lat": 51.51860573029149, "lng": -0.154038769708498}, "southwest": {"lat": 51.5159077697085, "lng": -0.156736730291502}}}, "name": "Mason Lauv", "place_id": "ChIJhXl4Ac0adkgRPhYlzT1mN48", "types": ["point_of_interest", "establishment"]}, "ChIJ22O5AzQbdkgRVqonlDoR5d0": {"geometry": {"location": {"lat": 51.5172329, "lng": -0.1555082}, "viewport": {"northeast": {"lat": 51.5186017802915, "lng": -0.154041219708498}, "southwest": {"lat": 51.51590381970851, "lng": -0.156739180291502}}}, "name": "11 Baker Street - Glass Sculpture by Alexander Beleschenko", "place_id": "ChIJ22O5AzQbdkgRVqonlDoR5d0", "types": ["point_of_interest", "establishment"]}, "ChIJkcjkqs0adkgRJyq8HDKeitc": {"geometry": {"location": {"lat": 51.5177899, "lng": -0.1553144}, "viewport": {"northeast": {"lat": 51.51912488029149, "lng": -0.154057069708498}, "southwest": {"lat": 51.51642691970849, "lng": -0.156755030291502}}}, "name": "Royal China Baker Street", "place_id": "ChIJkcjkqs0adkgRJyq8HDKeitc", "types": ["restaurant", "food", "point_of_interest", "establishment"], "rating": 4.1, "user_ratings_total": 813}, "ChIJY9qQq80adkgRm_5pP25HvY0": {"geometry": {"location": {"lat": 51.517803, "lng": -0.155451}, "viewport": {"northeast": {"lat": 51.5191346302915, "lng": -0.154137819708498}, "southwest": {"lat": 51.5164366697085, "lng": -0.156835780291502}}}, "name": "George Street (Stop J)", "place_id": "ChIJY9qQq80adkgRm_5pP25HvY0", "types": ["bus_station", "transit_station", "point_of_interest", "establishment"], "rating": 5, "user_ratings_total": 1}, "ChIJ9X6CkcgbdkgRo--Ysjnahv0": {"geometry": {"location": {"lat": 51.51741509999999, "lng": -0.154938}, "viewport": {"northeast": {"lat": 51.51881438029149, "lng": -0.153611419708498}, "southwest": {"lat": 51.51611641970849, "lng": -0.156309380291502}}}, "name": "George's Park", "place_id": "ChIJ9X6CkcgbdkgRo--Ysjnahv0", "types": ["park", "point_of_interest", "establishment"]}, "ChIJ7fdFqs0adkgRYuME1BAppT8": {"geometry": {"location": {"lat": 51.5177341, "lng": -0.1559085}, "viewport": {"northeast": {"lat": 51.5192160302915, "lng": -0.154365969708498}, "southwest": {"lat": 51.5165180697085, "lng": -0.157063930291502}}}, "name": "Babelweb.it", "place_id": "ChIJ7fdFqs0adkgRYuME1BAppT8", "types": ["point_of_interest", "establishment"]}, "ChIJ7fdFqs0adkgR0r-uSiQFvlI": {"geometry": {"location": {"lat": 51.5177341, "lng": -0.1559085}, "viewport": {"northeast": {"lat": 51.5192160302915, "lng": -0.154365969708498}, "southwest": {"lat": 51.5165180697085, "lng": -0.157063930291502}}}, "name": "Tour To Enable", "place_id": "ChIJ7fdFqs0adkgR0r-uSiQFvlI", "types": ["point_of_interest", "establishment"]}, "ChIJ7fdFqs0adkgRw8X63bZSOH8": {"geometry": {"location": {"lat": 51.5177341, "lng": -0.1559085}, "viewport": {"northeast": {"lat": 51.5192160302915, "lng": -0.154365969708498}, "southwest": {"lat": 51.5165180697085, "lng": -0.157063930291502}}}, "name": "Curved Force llc", "place_id": "ChIJ7fdFqs0adkgRw8X63bZSOH8", "types": ["point_of_interest", "establishment"]}, "ChIJ92FQVMwadkgRgNtH1R1UbYs": {"geometry": {"location": {"lat": 51.5177341, "lng": -0.1559085}, "viewport": {"northeast": {"lat": 51.5192160302915, "lng": -0.154365969708498}, "southwest": {"lat": 51.5165180697085, "lng": -0.157063930291502}}}, "name": "Zest Food Ltd", "place_id": "ChIJ92FQVMwadkgRgNtH1R1UbYs", "types": ["point_of_interest", "establishment"], "rating": 4, "user_ratings_total": 1}, "ChIJ92FQVMwadkgRIQJYm3xxyq4": {"geometry": {"location": {"lat": 51.5177341, "lng": -0.1559085}, "viewport": {"northeast": {"lat": 51.5192160302915, "lng": -0.154365969708498}, "southwest": {"lat": 51.5165180697085, "lng": -0.157063930291502}}}, "name": "Hfl Realisations Limited", "place_id": "ChIJ92FQVMwadkgRIQJYm3xxyq4", "types": ["point_of_interest", "establishment"]}, "ChIJLaRpg_YbdkgR-M5wCde9uf4": {"geometry": {"location": {"lat": 51.5177341, "lng": -0.1559085}, "viewport": {"northeast": {"lat": 51.5192160302915, "lng": -0.154365969708498}, "southwest": {"lat": 51.5165180697085, "lng": -0.157063930291502}}}, "name": "Databricks UK", "place_id": "ChIJLaRpg_YbdkgR-M5wCde9uf4", "types": ["point_of_interest", "establishment"], "rating": 4, "user_ratings_total": 4}, "ChIJOWJaVMwadkgRl6rYzvZ4xYE": {"geometry": {"location": {"lat": 51.51774160000001, "lng": -0.1559078}, "viewport": {"northeast": {"lat": 51.51921978029149, "lng": -0.154367269708498}, "southwest": {"lat": 51.5165218197085, "lng": -0.157065230291502}}}, "name": "Excel Apartment", "place_id": "ChIJOWJaVMwadkgRl6rYzvZ4xYE", "types": ["point_of_interest", "establishment"]}, "ChIJKe4FrM0adkgRIqVWd2riVms": {"geometry": {"location": {"lat": 51.5178858, "lng": -0.155366}, "viewport": {"northeast": {"lat": 51.51921843029151, "lng": -0.154106069708498}, "southwest": {"lat": 51.51652046970851, "lng": -0.156804030291502}}}, "name": "NEWKROTON LTD. CO", "place_id": "ChIJKe4FrM0adkgRIqVWd2riVms", "types": ["point_of_interest", "establishment"]}, "ChIJV2OV-MwadkgR_knbmsmB2V4": {"geometry": {"location": {"lat": 51.5174578, "lng": -0.1561495}, "viewport": {"northeast": {"lat": 51.51874298029149, "lng": -0.154919669708498}, "southwest": {"lat": 51.5160450197085, "lng": -0.1576176302915021}}}, "name": "Golden Brick Pubs Limited", "place_id": "ChIJV2OV-MwadkgR_knbmsmB2V4", "types": ["point_of_interest", "establishment"], "rating": 2.3, "user_ratings_total": 3}, "ChIJ7ynYm84adkgR40SY3SJPHAk": {"geometry": {"location": {"lat": 51.5206894500444, "lng": -0.15683459948621}, "viewport": {"northeast": {"lat": 51.5220384302915, "lng": -0.155485619708498}, "southwest": {"lat": 51.51934046970851, "lng": -0.158183580291502}}}, "name": "108-96 A41", "place_id": "ChIJ7ynYm84adkgR40SY3SJPHAk", "types": ["route"]}, "ChIJJXNfoY4NdEgR5o9cDBrw_ro": {"geometry": {"location": {"lat": 51.52052769999999, "lng": -0.1564435}, "viewport": {"northeast": {"lat": 51.5218585302915, "lng": -0.155242569708498}, "southwest": {"lat": 51.5191605697085, "lng": -0.157940530291502}}}, "name": "Everyman Baker Street", "place_id": "ChIJJXNfoY4NdEgR5o9cDBrw_ro", "types": ["movie_theater", "point_of_interest", "establishment"], "rating": 4.6, "user_ratings_total": 458}, "ChIJC9M9vs4adkgRWlcTjNAo5OU": {"geometry": {"location": {"lat": 51.52121509999999, "lng": -0.157265}, "viewport": {"northeast": {"lat": 51.52258743029149, "lng": -0.155836769708498}, "southwest": {"lat": 51.5198894697085, "lng": -0.158534730291502}}}, "name": "Baker Street Post Office", "place_id": "ChIJC9M9vs4adkgRWlcTjNAo5OU", "types": ["post_office", "finance", "point_of_interest", "establishment"], "rating": 2.6, "user_ratings_total": 71}, "ChIJOU6pl84adkgRnM5DFFAJZRs": {"geometry": {"location": {"lat": 51.520706, "lng": -0.1572079}, "viewport": {"northeast": {"lat": 51.5221449302915, "lng": -0.155712869708498}, "southwest": {"lat": 51.5194469697085, "lng": -0.158410830291502}}}, "name": "Chipotle Mexican Grill", "place_id": "ChIJOU6pl84adkgRnM5DFFAJZRs", "types": ["restaurant", "food", "point_of_interest", "establishment"], "rating": 4.1, "user_ratings_total": 1804}, "ChIJr9kwos4adkgR2IPkQ_p7j8Q": {"geometry": {"location": {"lat": 51.5205462, "lng": -0.1573256}, "viewport": {"northeast": {"lat": 51.5218839302915, "lng": -0.156042519708498}, "southwest": {"lat": 51.5191859697085, "lng": -0.158740480291502}}}, "name": "Black Taxi Tours Of London", "place_id": "ChIJr9kwos4adkgR2IPkQ_p7j8Q", "types": ["travel_agency", "point_of_interest", "establishment"], "rating": 5, "user_ratings_total": 12}, "ChIJvQ4pms4adkgRBeCz8knyFfc": {"geometry": {"location": {"lat": 51.52067509999999, "lng": -0.1566711}, "viewport": {"northeast": {"lat": 51.52202408029149, "lng": -0.155322119708498}, "southwest": {"lat": 51.51932611970849, "lng": -0.158020080291502}}}, "name": "Emergency Dentist - Baker Street Dental", "place_id": "ChIJvQ4pms4adkgRBeCz8knyFfc", "types": ["dentist", "health", "point_of_interest", "establishment"], "rating": 4.7, "user_ratings_total": 649}, "ChIJ8e4co84adkgRWqNlYE0yDz8": {"geometry": {"location": {"lat": 51.5206919, "lng": -0.1573673}, "viewport": {"northeast": {"lat": 51.5221085802915, "lng": -0.156050519708498}, "southwest": {"lat": 51.5194106197085, "lng": -0.158748480291502}}}, "name": "P R I Europe Ltd", "place_id": "ChIJ8e4co84adkgRWqNlYE0yDz8", "types": ["point_of_interest", "establishment"]}, "ChIJ2RtTDIkNdkgRQcA-SvP01Dk": {"geometry": {"location": {"lat": 51.5205968, "lng": -0.1566358}, "viewport": {"northeast": {"lat": 51.52193318029151, "lng": -0.1553598197084979}, "southwest": {"lat": 51.51923521970851, "lng": -0.158057780291502}}}, "name": "James Cubitt & Partners", "place_id": "ChIJ2RtTDIkNdkgRQcA-SvP01Dk", "types": ["point_of_interest", "establishment"], "rating": 5, "user_ratings_total": 2}, "ChIJ4_VlmM4adkgRJm9kyPNqNIk": {"geometry": {"location": {"lat": 51.520755, "lng": -0.157174}, "viewport": {"northeast": {"lat": 51.5221288802915, "lng": -0.155681069708498}, "southwest": {"lat": 51.5194309197085, "lng": -0.158379030291502}}}, "name": "Luceco Plc", "place_id": "ChIJ4_VlmM4adkgRJm9kyPNqNIk", "types": ["point_of_interest", "establishment"]}, "ChIJ4S1DFUWScEgR3cWZlExkAU8": {"geometry": {"location": {"lat": 51.52067890000001, "lng": -0.1571038}, "viewport": {"northeast": {"lat": 51.52207068029151, "lng": -0.155627669708498}, "southwest": {"lat": 51.51937271970851, "lng": -0.158325630291502}}}, "name": "Nexus Industries Ltd", "place_id": "ChIJ4S1DFUWScEgR3cWZlExkAU8", "types": ["point_of_interest", "establishment"]}, "ChIJh0S1UMkadkgR_EOmooy9bj8": {"geometry": {"location": {"lat": 51.52071729999999, "lng": -0.1573215}, "viewport": {"northeast": {"lat": 51.52212618029149, "lng": -0.156001019708498}, "southwest": {"lat": 51.51942821970849, "lng": -0.158698980291502}}}, "name": "Mortgage Masters", "place_id": "ChIJh0S1UMkadkgR_EOmooy9bj8", "types": ["finance", "point_of_interest", "establishment"]}, "ChIJ1RpMrc4adkgR81XM0vOm-mo": {"geometry": {"location": {"lat": 51.52075130000001, "lng": -0.1573333}, "viewport": {"northeast": {"lat": 51.52214358029151, "lng": -0.156004869708498}, "southwest": {"lat": 51.51944561970851, "lng": -0.158702830291502}}}, "name": "Inspire me", "place_id": "ChIJ1RpMrc4adkgR81XM0vOm-mo", "types": ["point_of_interest", "establishment"]}, "ChIJ8e4co84adkgRXnB2xj40qug": {"geometry": {"location": {"lat": 51.5206919, "lng": -0.1573673}, "viewport": {"northeast": {"lat": 51.5221085802915, "lng": -0.156050519708498}, "southwest": {"lat": 51.5194106197085, "lng": -0.158748480291502}}}, "name": "SAE International - Aerospace Standards (ITC)", "place_id": "ChIJ8e4co84adkgRXnB2xj40qug", "types": ["point_of_interest", "establishment"]}, "ChIJl_YJl84adkgRrykRM2aXJwE": {"geometry": {"location": {"lat": 51.5209203, "lng": -0.156991}, "viewport": {"northeast": {"lat": 51.5222693802915, "lng": -0.155641619708498}, "southwest": {"lat": 51.5195714197085, "lng": -0.158339580291502}}}, "name": "Print Memories Photo Booth", "place_id": "ChIJl_YJl84adkgRrykRM2aXJwE", "types": ["point_of_interest", "establishment"], "rating": 5, "user_ratings_total": 2}, "ChIJi4Jwmc4adkgRAnYCIanm4T0": {"geometry": {"location": {"lat": 51.5205581, "lng": -0.1570689}, "viewport": {"northeast": {"lat": 51.5219306302915, "lng": -0.155583869708498}, "southwest": {"lat": 51.5192326697085, "lng": -0.158281830291502}}}, "name": "William Hill", "place_id": "ChIJi4Jwmc4adkgRAnYCIanm4T0", "types": ["point_of_interest", "establishment"], "rating": 3.1, "user_ratings_total": 7}, "ChIJ2fN1vc4adkgRRj4DWRxL3Ic": {"geometry": {"location": {"lat": 51.5209789, "lng": -0.1572527}, "viewport": {"northeast": {"lat": 51.5223523302915, "lng": -0.155771969708498}, "southwest": {"lat": 51.5196543697085, "lng": -0.158469930291502}}}, "name": "JOE & THE JUICE", "place_id": "ChIJ2fN1vc4adkgRRj4DWRxL3Ic", "types": ["meal_takeaway", "cafe", "restaurant", "food", "point_of_interest", "store", "establishment"], "rating": 4, "user_ratings_total": 298}, "ChIJ19kuztUadkgRtUZiykhcwWQ": {"geometry": {"location": {"lat": 51.5208376, "lng": -0.1566958}, "viewport": {"northeast": {"lat": 51.5221701302915, "lng": -0.155441919708498}, "southwest": {"lat": 51.5194721697085, "lng": -0.158139880291502}}}, "name": "Direction Law", "place_id": "ChIJ19kuztUadkgRtUZiykhcwWQ", "types": ["point_of_interest", "establishment"], "rating": 4.4, "user_ratings_total": 40}, "ChIJ_d9bms4adkgR0nsXQAqrojw": {"geometry": {"location": {"lat": 51.520709, "lng": -0.156649}, "viewport": {"northeast": {"lat": 51.5220423802915, "lng": -0.1553901697084979}, "southwest": {"lat": 51.5193444197085, "lng": -0.158088130291502}}}, "name": "Boulis Dental Centre", "place_id": "ChIJ_d9bms4adkgR0nsXQAqrojw", "types": ["dentist", "health", "point_of_interest", "establishment"], "rating": 5, "user_ratings_total": 1}, "ChIJRSUgEPEPdkgRTV20KSkTyvM": {"geometry": {"location": {"lat": 51.52083540000001, "lng": -0.1566521}, "viewport": {"northeast": {"lat": 51.52216453029151, "lng": -0.155418069708498}, "southwest": {"lat": 51.51946656970851, "lng": -0.158116030291502}}}, "name": "We Buy Your Lhd Car", "place_id": "ChIJRSUgEPEPdkgRTV20KSkTyvM", "types": ["car_dealer", "point_of_interest", "store", "establishment"], "rating": 5, "user_ratings_total": 2}, "ChIJV97zkM4adkgRLYjgG7ZlG2s": {"geometry": {"location": {"lat": 51.5209191, "lng": -0.1566567}, "viewport": {"northeast": {"lat": 51.52231323029149, "lng": -0.155437869708498}, "southwest": {"lat": 51.5196152697085, "lng": -0.158135830291502}}}, "name": "Murder Mystery Events Limited", "place_id": "ChIJV97zkM4adkgRLYjgG7ZlG2s", "types": ["point_of_interest", "establishment"], "rating": 3, "user_ratings_total": 2}, "ChIJrRtcvTQFdkgRpHbPI8pTl_s": {"geometry": {"location": {"lat": 51.5204024, "lng": -0.1571204}, "viewport": {"northeast": {"lat": 51.5217845802915, "lng": -0.155579269708498}, "southwest": {"lat": 51.5190866197085, "lng": -0.158277230291502}}}, "name": "Multiverse", "place_id": "ChIJrRtcvTQFdkgRpHbPI8pTl_s", "types": ["point_of_interest", "establishment"], "rating": 4.5, "user_ratings_total": 179}, "ChIJq_8ykc4adkgRFsrWkiqZeZI": {"geometry": {"location": {"lat": 51.5210459, "lng": -0.1567993}, "viewport": {"northeast": {"lat": 51.5223892802915, "lng": -0.155544919708498}, "southwest": {"lat": 51.5196913197085, "lng": -0.158242880291502}}}, "name": "Tesco Express", "place_id": "ChIJq_8ykc4adkgRFsrWkiqZeZI", "types": ["supermarket", "convenience_store", "grocery_or_supermarket", "food", "point_of_interest", "store", "establishment"], "rating": 2.9, "user_ratings_total": 55}, "ChIJDZEYu84adkgRw36vY5B9N2s": {"geometry": {"location": {"lat": 51.5209014, "lng": -0.1576999}, "viewport": {"northeast": {"lat": 51.5221936302915, "lng": -0.156323919708498}, "southwest": {"lat": 51.5194956697085, "lng": -0.159021880291502}}}, "name": "Next level Media", "place_id": "ChIJDZEYu84adkgRw36vY5B9N2s", "types": ["point_of_interest", "establishment"]}, "ChIJdacWQp9mdkgRKayJBRFR_iM": {"geometry": {"location": {"lat": 51.52047750000001, "lng": -0.1567405}, "viewport": {"northeast": {"lat": 51.52181813029151, "lng": -0.155439769708498}, "southwest": {"lat": 51.51912016970851, "lng": -0.158137730291502}}}, "name": "inbeeo", "place_id": "ChIJdacWQp9mdkgRKayJBRFR_iM", "types": ["point_of_interest", "establishment"], "rating": 5, "user_ratings_total": 2}, "ChIJnX0uvM4adkgRJpKZsVZp9Ok": {"geometry": {"location": {"lat": 51.5211137, "lng": -0.1573891}, "viewport": {"northeast": {"lat": 51.5224930302915, "lng": -0.155875169708498}, "southwest": {"lat": 51.5197950697085, "lng": -0.158573130291502}}}, "name": "G2F Guardianship and More", "place_id": "ChIJnX0uvM4adkgRJpKZsVZp9Ok", "types": ["point_of_interest", "establishment"]}, "ChIJczttn84adkgRObIjZ1KrK-w": {"geometry": {"location": {"lat": 51.52037199999999, "lng": -0.157088}, "viewport": {"northeast": {"lat": 51.5217524802915, "lng": -0.155555619708498}, "southwest": {"lat": 51.5190545197085, "lng": -0.158253580291502}}}, "name": "Modular", "place_id": "ChIJczttn84adkgRObIjZ1KrK-w", "types": ["point_of_interest", "establishment"]}, "ChIJtTttn84adkgRGc8UGdnyF6E": {"geometry": {"location": {"lat": 51.5203716, "lng": -0.1570876}, "viewport": {"northeast": {"lat": 51.52175208029149, "lng": -0.155555319708498}, "southwest": {"lat": 51.5190541197085, "lng": -0.158253280291502}}}, "name": "Uflex", "place_id": "ChIJtTttn84adkgRGc8UGdnyF6E", "types": ["point_of_interest", "establishment"]}, "ChIJSVQlDUwbdkgRhK8GTdceLdc": {"geometry": {"location": {"lat": 51.5211419, "lng": -0.1572388}, "viewport": {"northeast": {"lat": 51.5225073802915, "lng": -0.155800169708498}, "southwest": {"lat": 51.51980941970851, "lng": -0.158498130291502}}}, "name": "AXA Venture Partners", "place_id": "ChIJSVQlDUwbdkgRhK8GTdceLdc", "types": ["finance", "point_of_interest", "establishment"]}, "ChIJnX0uvM4adkgRpPG1tecz3do": {"geometry": {"location": {"lat": 51.52112409999999, "lng": -0.1574331}, "viewport": {"northeast": {"lat": 51.5225067302915, "lng": -0.155901219708498}, "southwest": {"lat": 51.5198087697085, "lng": -0.158599180291502}}}, "name": "Bassetts - Chartered Certified Accountants & Registered Auditors", "place_id": "ChIJnX0uvM4adkgRpPG1tecz3do", "types": ["accounting", "finance", "point_of_interest", "establishment"]}, "ChIJJ2b7nc4adkgRrolyZzzgK30": {"geometry": {"location": {"lat": 51.5205606, "lng": -0.1565446}, "viewport": {"northeast": {"lat": 51.5218909302915, "lng": -0.155303419708498}, "southwest": {"lat": 51.5191929697085, "lng": -0.158001380291502}}},