{"E00023987": {"ChIJK4g4yeAEdkgRblj07CkSIv0": {"geometry": {"location": {"lat": 51.49230720067994, "lng": -0.1354333982078587}, "viewport": {"northeast": {"lat": 51.4936561802915, "lng": -0.134084419708498}, "southwest": {"lat": 51.4909582197085, "lng": -0.136782380291502}}}, "name": "37-45 Vincent Square", "place_id": "ChIJK4g4yeAEdkgRblj07CkSIv0", "types": ["route"]}, "ChIJ7fgkxuAEdkgRkMZTSQuoe6g": {"geometry": {"location": {"lat": 51.4922346, "lng": -0.135967}, "viewport": {"northeast": {"lat": 51.4934638302915, "lng": -0.134736969708498}, "southwest": {"lat": 51.4907658697085, "lng": -0.137434930291502}}}, "name": "The Gordon Hospital", "place_id": "ChIJ7fgkxuAEdkgRkMZTSQuoe6g", "types": ["hospital", "health", "point_of_interest", "establishment"], "rating": 2.1, "user_ratings_total": 32}, "ChIJe58jZCAFdkgR4BTuGlbXNA0": {"geometry": {"location": {"lat": 51.4925407, "lng": -0.1361244}, "viewport": {"northeast": {"lat": 51.4939255802915, "lng": -0.134727469708498}, "southwest": {"lat": 51.4912276197085, "lng": -0.137425430291502}}}, "name": "Flying Butler Apartments - Victoria", "place_id": "ChIJe58jZCAFdkgR4BTuGlbXNA0", "types": ["lodging", "point_of_interest", "establishment"], "rating": 4.5, "user_ratings_total": 4}, "ChIJRUBJwOAEdkgRQMm1hqW5-rI": {"geometry": {"location": {"lat": 51.4924489, "lng": -0.1363303}, "viewport": {"northeast": {"lat": 51.49380253104074, "lng": -0.1349865995818837}, "southwest": {"lat": 51.49110457045775, "lng": -0.1376845601648877}}}, "name": "Parking lot", "place_id": "ChIJRUBJwOAEdkgRQMm1hqW5-rI", "types": ["parking", "premise", "point_of_interest", "establishment"]}, "ChIJYfMy1OAEdkgRt23di4Eaims": {"geometry": {"location": {"lat": 51.49146669557572, "lng": -0.1352896101376352}, "viewport": {"northeast": {"lat": 51.4928150302915, "lng": -0.133941419708498}, "southwest": {"lat": 51.4901170697085, "lng": -0.136639380291502}}}, "name": "43-61 A202", "place_id": "ChIJYfMy1OAEdkgRt23di4Eaims", "types": ["route"]}, "ChIJ9xduKucEdkgRMBPTFkl3ggE": {"geometry": {"location": {"lat": 51.49138339999999, "lng": -0.1347182}, "viewport": {"northeast": {"lat": 51.4926727302915, "lng": -0.133443769708498}, "southwest": {"lat": 51.4899747697085, "lng": -0.136141730291502}}}, "name": "Hopkinson House - Look Ahead Housing & Care", "place_id": "ChIJ9xduKucEdkgRMBPTFkl3ggE", "types": ["lodging", "point_of_interest", "establishment"], "rating": 3.7, "user_ratings_total": 3}, "ChIJq6qaIucEdkgREL55qSFMNSs": {"geometry": {"location": {"lat": 51.491675, "lng": -0.1354154}, "viewport": {"northeast": {"lat": 51.4930443302915, "lng": -0.134109669708498}, "southwest": {"lat": 51.4903463697085, "lng": -0.136807630291502}}}, "name": "Premier", "place_id": "ChIJq6qaIucEdkgREL55qSFMNSs", "types": ["point_of_interest", "establishment"]}, "ChIJ3a7dCyIFdkgRvxuAfZb6l0s": {"geometry": {"location": {"lat": 51.4914068, "lng": -0.1347514}, "viewport": {"northeast": {"lat": 51.4927557802915, "lng": -0.133402419708498}, "southwest": {"lat": 51.4900578197085, "lng": -0.136100380291502}}}, "name": "Mind in Brent, Wandsworth and Westminster", "place_id": "ChIJ3a7dCyIFdkgRvxuAfZb6l0s", "types": ["point_of_interest", "establishment"], "rating": 3.6, "user_ratings_total": 20}, "ChIJb_XzKeEEdkgRa1BjGgJ-EIs": {"geometry": {"location": {"lat": 51.4911251, "lng": -0.13542}, "viewport": {"northeast": {"lat": 51.4925253802915, "lng": -0.134009119708498}, "southwest": {"lat": 51.4898274197085, "lng": -0.136707080291502}}}, "name": "Moo Cantina Pub & Kitchen", "place_id": "ChIJb_XzKeEEdkgRa1BjGgJ-EIs", "types": ["bar", "restaurant", "food", "point_of_interest", "establishment"], "rating": 4.3, "user_ratings_total": 753}, "ChIJbyeEMucEdkgRfwWxqjJw9rk": {"geometry": {"location": {"lat": 51.4918109, "lng": -0.1349009}, "viewport": {"northeast": {"lat": 51.4932258802915, "lng": -0.133463769708498}, "southwest": {"lat": 51.4905279197085, "lng": -0.1361617302915021}}}, "name": "Landmark Consulting", "place_id": "ChIJbyeEMucEdkgRfwWxqjJw9rk", "types": ["point_of_interest", "establishment"]}, "ChIJtZ2D2uAEdkgRllrL7eQwrRM": {"geometry": {"location": {"lat": 51.4918024, "lng": -0.1357264}, "viewport": {"northeast": {"lat": 51.4931101802915, "lng": -0.134427519708498}, "southwest": {"lat": 51.4904122197085, "lng": -0.137125480291502}}}, "name": "Skewers Victoria Kebab Pimlico", "place_id": "ChIJtZ2D2uAEdkgRllrL7eQwrRM", "types": ["meal_takeaway", "restaurant", "food", "point_of_interest", "establishment"], "rating": 4.7, "user_ratings_total": 408}, "ChIJXft90-AEdkgRJB5AXB4SoJw": {"geometry": {"location": {"lat": 51.4913743, "lng": -0.1348957}, "viewport": {"northeast": {"lat": 51.49270923029151, "lng": -0.133541369708498}, "southwest": {"lat": 51.49001126970851, "lng": -0.136239330291502}}}, "name": "Stanford Street (Stop V)", "place_id": "ChIJXft90-AEdkgRJB5AXB4SoJw", "types": ["transit_station", "point_of_interest", "establishment"], "rating": 1, "user_ratings_total": 1}, "ChIJQwBpKuEEdkgRinBC9nogUaw": {"geometry": {"location": {"lat": 51.4911863, "lng": -0.1352581}, "viewport": {"northeast": {"lat": 51.4925456802915, "lng": -0.133952369708498}, "southwest": {"lat": 51.48984771970851, "lng": -0.136650330291502}}}, "name": "Mco", "place_id": "ChIJQwBpKuEEdkgRinBC9nogUaw", "types": ["pharmacy", "health", "point_of_interest", "store", "establishment"]}, "ChIJXew_b24FdkgRU6uWEECeRL0": {"geometry": {"location": {"lat": 51.4913028, "lng": -0.1357161}, "viewport": {"northeast": {"lat": 51.4926905802915, "lng": -0.134320269708498}, "southwest": {"lat": 51.4899926197085, "lng": -0.137018230291502}}}, "name": "Sourcegenics", "place_id": "ChIJXew_b24FdkgRU6uWEECeRL0", "types": ["point_of_interest", "establishment"]}, "ChIJxwlzs3gFdkgRSnbD4ltgDbA": {"geometry": {"location": {"lat": 51.4913028, "lng": -0.1357161}, "viewport": {"northeast": {"lat": 51.4926905802915, "lng": -0.134320269708498}, "southwest": {"lat": 51.4899926197085, "lng": -0.137018230291502}}}, "name": "His Dominion Limited", "place_id": "ChIJxwlzs3gFdkgRSnbD4ltgDbA", "types": ["real_estate_agency", "point_of_interest", "establishment"]}, "ChIJfYE72OAEdkgRM9QgMCPFU5Q": {"geometry": {"location": {"lat": 51.49135949999999, "lng": -0.1357952}, "viewport": {"northeast": {"lat": 51.4927409802915, "lng": -0.134406969708498}, "southwest": {"lat": 51.4900430197085, "lng": -0.137104930291502}}}, "name": "Charlwood House", "place_id": "ChIJfYE72OAEdkgRM9QgMCPFU5Q", "types": ["point_of_interest", "establishment"], "rating": 5, "user_ratings_total": 1}, "ChIJr3uI2eAEdkgR8YIbPoZZ7Kc": {"geometry": {"location": {"lat": 51.4915994, "lng": -0.1358421}, "viewport": {"northeast": {"lat": 51.4929890302915, "lng": -0.134443669708498}, "southwest": {"lat": 51.4902910697085, "lng": -0.137141630291502}}}, "name": "Kids Parties London", "place_id": "ChIJr3uI2eAEdkgR8YIbPoZZ7Kc", "types": ["night_club", "point_of_interest", "establishment"]}, "ChIJYWNQKucEdkgR67FVzILgiIs": {"geometry": {"location": {"lat": 51.4914068, "lng": -0.1347514}, "viewport": {"northeast": {"lat": 51.4927697802915, "lng": -0.133453819708498}, "southwest": {"lat": 51.4900718197085, "lng": -0.136151780291502}}}, "name": "Wandsworth And Westminster Mind Talking Therapies And Wellbeing Service", "place_id": "ChIJYWNQKucEdkgR67FVzILgiIs", "types": ["point_of_interest", "establishment"]}, "ChIJSboS2uAEdkgRCkfROgzcHfQ": {"geometry": {"location": {"lat": 51.4917705, "lng": -0.1356551}, "viewport": {"northeast": {"lat": 51.4930777302915, "lng": -0.134356869708498}, "southwest": {"lat": 51.4903797697085, "lng": -0.137054830291502}}}, "name": "Victoria Exquisite New 2 Bed Apartment", "place_id": "ChIJSboS2uAEdkgRCkfROgzcHfQ", "types": ["lodging", "point_of_interest", "establishment"]}, "ChIJ0UQjLecEdkgRx2HQLsRmD3w": {"geometry": {"location": {"lat": 51.4918109, "lng": -0.1349009}, "viewport": {"northeast": {"lat": 51.49322693029151, "lng": -0.133463619708498}, "southwest": {"lat": 51.49052896970851, "lng": -0.136161580291502}}}, "name": "W2-IM", "place_id": "ChIJ0UQjLecEdkgRx2HQLsRmD3w", "types": ["finance", "point_of_interest", "establishment"]}, "ChIJ0UQjLecEdkgRc1ji_-AgGcE": {"geometry": {"location": {"lat": 51.4918109, "lng": -0.1349009}, "viewport": {"northeast": {"lat": 51.4932258802915, "lng": -0.133463769708498}, "southwest": {"lat": 51.4905279197085, "lng": -0.1361617302915021}}}, "name": "Viavenue Limited", "place_id": "ChIJ0UQjLecEdkgRc1ji_-AgGcE", "types": ["point_of_interest", "establishment"]}, "ChIJ0UQjLecEdkgRX4pPxbeAMOQ": {"geometry": {"location": {"lat": 51.4918109, "lng": -0.1349009}, "viewport": {"northeast": {"lat": 51.4932258802915, "lng": -0.133463769708498}, "southwest": {"lat": 51.4905279197085, "lng": -0.1361617302915021}}}, "name": "Bridgemount Ltd", "place_id": "ChIJ0UQjLecEdkgRX4pPxbeAMOQ", "types": ["point_of_interest", "establishment"], "rating": 5, "user_ratings_total": 1}, "ChIJX36e2OAEdkgRfs4JKsPNQwA": {"geometry": {"location": {"lat": 51.491289, "lng": -0.1359584}, "viewport": {"northeast": {"lat": 51.4927174302915, "lng": -0.134513519708498}, "southwest": {"lat": 51.4900194697085, "lng": -0.137211480291502}}}, "name": "Spicy World Limited", "place_id": "ChIJX36e2OAEdkgRfs4JKsPNQwA", "types": ["point_of_interest", "establishment"]}, "ChIJO1aYIeEEdkgRxPpxpw3OAe0": {"geometry": {"location": {"lat": 51.49125369999999, "lng": -0.1360258}, "viewport": {"northeast": {"lat": 51.4927034802915, "lng": -0.134555169708498}, "southwest": {"lat": 51.4900055197085, "lng": -0.137253130291502}}}, "name": "Lillington Gardens Community Centre", "place_id": "ChIJO1aYIeEEdkgRxPpxpw3OAe0", "types": ["point_of_interest", "establishment"], "rating": 3.9, "user_ratings_total": 32}, "ChIJv0GuF-EEdkgR9lnTInYpxyk": {"geometry": {"location": {"lat": 51.49037385787916, "lng": -0.1367295133333655}, "viewport": {"northeast": {"lat": 51.4918222802915, "lng": -0.13460375}, "southwest": {"lat": 51.4891243197085, "lng": -0.13853515}}}, "name": "138-80 Tachbrook St", "place_id": "ChIJv0GuF-EEdkgR9lnTInYpxyk", "types": ["route"]}, "ChIJtViDNOEEdkgRuypT-ypnkJU": {"geometry": {"location": {"lat": 51.49031459999999, "lng": -0.135221}, "viewport": {"northeast": {"lat": 51.4916301302915, "lng": -0.1338039697084979}, "southwest": {"lat": 51.4889321697085, "lng": -0.136501930291502}}}, "name": "CPN Investment Management", "place_id": "ChIJtViDNOEEdkgRuypT-ypnkJU", "types": ["finance", "point_of_interest", "establishment"]}, "ChIJy6zmM-EEdkgRlyU-lsqR-kc": {"geometry": {"location": {"lat": 51.490234, "lng": -0.1353176}, "viewport": {"northeast": {"lat": 51.4915503802915, "lng": -0.133902319708498}, "southwest": {"lat": 51.4888524197085, "lng": -0.1366002802915021}}}, "name": "Smart Software Initiative LTD", "place_id": "ChIJy6zmM-EEdkgRlyU-lsqR-kc", "types": ["point_of_interest", "establishment"]}, "ChIJTywyM-EEdkgR2jqGRJ8DAhI": {"geometry": {"location": {"lat": 51.490234, "lng": -0.1353176}, "viewport": {"northeast": {"lat": 51.4915829802915, "lng": -0.133968619708498}, "southwest": {"lat": 51.4888850197085, "lng": -0.136666580291502}}}, "name": "3D Space Storage", "place_id": "ChIJTywyM-EEdkgR2jqGRJ8DAhI", "types": ["storage", "point_of_interest", "establishment"], "rating": 4.9, "user_ratings_total": 8}, "ChIJVVURNOEEdkgRHDubkdAp1yo": {"geometry": {"location": {"lat": 51.49023340000001, "lng": -0.1352636}, "viewport": {"northeast": {"lat": 51.4915580802915, "lng": -0.133865169708498}, "southwest": {"lat": 51.4888601197085, "lng": -0.136563130291502}}}, "name": "CPN Financial Services", "place_id": "ChIJVVURNOEEdkgRHDubkdAp1yo", "types": ["finance", "point_of_interest", "establishment"]}, "ChIJi2bgclEbdkgRh1j-WSJK-aI": {"geometry": {"location": {"lat": 51.4906417, "lng": -0.1359118}, "viewport": {"northeast": {"lat": 51.4917835802915, "lng": -0.134847869708498}, "southwest": {"lat": 51.4890856197085, "lng": -0.137545830291502}}}, "name": "KREADO", "place_id": "ChIJi2bgclEbdkgRh1j-WSJK-aI", "types": ["general_contractor", "point_of_interest", "establishment"]}, "ChIJc_zXLOEEdkgR4VL6SObJwdM": {"geometry": {"location": {"lat": 51.490789, "lng": -0.1350119}, "viewport": {"northeast": {"lat": 51.49213758029151, "lng": -0.133660669708498}, "southwest": {"lat": 51.48943961970851, "lng": -0.1363586302915021}}}, "name": "Sans Souci Milonga", "place_id": "ChIJc_zXLOEEdkgR4VL6SObJwdM", "types": ["point_of_interest", "establishment"]}, "ChIJOfUasOYEdkgRGrqJVGF4WLM": {"geometry": {"location": {"lat": 51.4902008, "lng": -0.1359771}, "viewport": {"northeast": {"lat": 51.4914804302915, "lng": -0.134702419708498}, "southwest": {"lat": 51.4887824697085, "lng": -0.137400380291502}}}, "name": "Cave", "place_id": "ChIJOfUasOYEdkgRGrqJVGF4WLM", "types": ["art_gallery", "cafe", "food", "point_of_interest", "store", "establishment"], "rating": 4.7, "user_ratings_total": 26}, "ChIJTaHELeEEdkgRA4JCtxJXnTo": {"geometry": {"location": {"lat": 51.4906372, "lng": -0.1351928}, "viewport": {"northeast": {"lat": 51.4918950302915, "lng": -0.133658469708498}, "southwest": {"lat": 51.4891970697085, "lng": -0.136356430291502}}}, "name": "St James the Less Church, Pimlico", "place_id": "ChIJTaHELeEEdkgRA4JCtxJXnTo", "types": ["church", "place_of_worship", "point_of_interest", "establishment"], "rating": 4.6, "user_ratings_total": 28}, "ChIJCwblRuEEdkgRXgEPjgV5APQ": {"geometry": {"location": {"lat": 51.49054049999999, "lng": -0.1348832}, "viewport": {"northeast": {"lat": 51.4918637802915, "lng": -0.133481969708498}, "southwest": {"lat": 51.4891658197085, "lng": -0.136179930291502}}}, "name": "Pimlico Nursery & Pre-Prep", "place_id": "ChIJCwblRuEEdkgRXgEPjgV5APQ", "types": ["school", "point_of_interest", "establishment"]}, "ChIJU2bxzuYEdkgRbiXEDiCmT1s": {"geometry": {"location": {"lat": 51.49039819999999, "lng": -0.1347135}, "viewport": {"northeast": {"lat": 51.4917745302915, "lng": -0.133420119708498}, "southwest": {"lat": 51.4890765697085, "lng": -0.136118080291502}}}, "name": "Housing 21", "place_id": "ChIJU2bxzuYEdkgRbiXEDiCmT1s", "types": ["point_of_interest", "establishment"]}, "ChIJEWr939wEdkgRSjObhM9ZDw4": {"geometry": {"location": {"lat": 51.4902631, "lng": -0.135225}, "viewport": {"northeast": {"lat": 51.4915879302915, "lng": -0.133826869708498}, "southwest": {"lat": 51.4888899697085, "lng": -0.136524830291502}}}, "name": "Hatching Dragons Westminster | Bilingual Nursery in Pimlico", "place_id": "ChIJEWr939wEdkgRSjObhM9ZDw4", "types": ["school", "point_of_interest", "establishment"], "rating": 3.8, "user_ratings_total": 6}, "ChIJB0GAZLsbdkgRuFQn4iOGK-c": {"geometry": {"location": {"lat": 51.4902631, "lng": -0.135225}, "viewport": {"northeast": {"lat": 51.4915879302915, "lng": -0.133826869708498}, "southwest": {"lat": 51.4888899697085, "lng": -0.136524830291502}}}, "name": "Hatching Dragons Weekend School", "place_id": "ChIJB0GAZLsbdkgRuFQn4iOGK-c", "types": ["point_of_interest", "establishment"], "rating": 5, "user_ratings_total": 2}, "ChIJVVURNOEEdkgRIhx9jt3Vo-8": {"geometry": {"location": {"lat": 51.49023340000001, "lng": -0.1352636}, "viewport": {"northeast": {"lat": 51.4915580802915, "lng": -0.133865169708498}, "southwest": {"lat": 51.4888601197085, "lng": -0.136563130291502}}}, "name": "The Centre For Global Studies", "place_id": "ChIJVVURNOEEdkgRIhx9jt3Vo-8", "types": ["point_of_interest", "establishment"]}, "ChIJTciWNuEEdkgRWG6Bsqhd58g": {"geometry": {"location": {"lat": 51.4901941, "lng": -0.1353949}, "viewport": {"northeast": {"lat": 51.49150643029149, "lng": -0.133971369708498}, "southwest": {"lat": 51.48880846970849, "lng": -0.136669330291502}}}, "name": "The Keyboard Group", "place_id": "ChIJTciWNuEEdkgRWG6Bsqhd58g", "types": ["point_of_interest", "establishment"]}, "ChIJNZgkNuEEdkgRDk1B0eb_bY8": {"geometry": {"location": {"lat": 51.4903571, "lng": -0.1347592}, "viewport": {"northeast": {"lat": 51.4917343802915, "lng": -0.133467819708498}, "southwest": {"lat": 51.4890364197085, "lng": -0.136165780291502}}}, "name": "M-Lash", "place_id": "ChIJNZgkNuEEdkgRDk1B0eb_bY8", "types": ["beauty_salon", "point_of_interest", "establishment"]}, "ChIJ1Qe1KKsFdkgRxIXMUfDWBLE": {"geometry": {"location": {"lat": 51.4907102, "lng": -0.1348279}, "viewport": {"northeast": {"lat": 51.4920570802915, "lng": -0.133480369708498}, "southwest": {"lat": 51.4893591197085, "lng": -0.136178330291502}}}, "name": "Enterprise Car Club - Thorndike Street London SW1V 2PS", "place_id": "ChIJ1Qe1KKsFdkgRxIXMUfDWBLE", "types": ["car_rental", "point_of_interest", "establishment"]}, "ChIJSyw-OeEEdkgRaGodDU3JXmA": {"geometry": {"location": {"lat": 51.4902008, "lng": -0.1359771}, "viewport": {"northeast": {"lat": 51.4914804302915, "lng": -0.134702419708498}, "southwest": {"lat": 51.4887824697085, "lng": -0.137400380291502}}}, "name": "Cavespace", "place_id": "ChIJSyw-OeEEdkgRaGodDU3JXmA", "types": ["art_gallery", "point_of_interest", "establishment"]}, "ChIJ5URm8uAEdkgR7W_YRSwTAGU": {"geometry": {"location": {"lat": 51.49239640014154, "lng": -0.1372295496506088}, "viewport": {"northeast": {"lat": 51.4937453802915, "lng": -0.135880569708498}, "southwest": {"lat": 51.4910474197085, "lng": -0.1385785302915021}}}, "name": "158-150 A202", "place_id": "ChIJ5URm8uAEdkgR7W_YRSwTAGU", "types": ["route"]}, "ChIJQxdKYOAEdkgRvIc_jlVJrcc": {"geometry": {"location": {"lat": 51.4924888, "lng": -0.1377492}, "viewport": {"northeast": {"lat": 51.4938890802915, "lng": -0.136347569708498}, "southwest": {"lat": 51.4911911197085, "lng": -0.139045530291502}}}, "name": "Post Office", "place_id": "ChIJQxdKYOAEdkgRvIc_jlVJrcc", "types": ["post_office", "finance", "point_of_interest", "establishment"], "rating": 2.6, "user_ratings_total": 64}, "ChIJWZbcmqkFdkgRqSCijDuQZlw": {"geometry": {"location": {"lat": 51.4924022, "lng": -0.1373936}, "viewport": {"northeast": {"lat": 51.49377193029149, "lng": -0.136019019708498}, "southwest": {"lat": 51.4910739697085, "lng": -0.138716980291502}}}, "name": "Ginkgo Gardens", "place_id": "ChIJWZbcmqkFdkgRqSCijDuQZlw", "types": ["general_contractor", "point_of_interest", "establishment"], "rating": 2.7, "user_ratings_total": 21}, "ChIJT8P66-AEdkgRtNgY5UyVJ2Y": {"geometry": {"location": {"lat": 51.4925377, "lng": -0.1375605}, "viewport": {"northeast": {"lat": 51.4938714302915, "lng": -0.136229619708498}, "southwest": {"lat": 51.4911734697085, "lng": -0.138927580291502}}}, "name": "London External Rendering Services - Specialist Rendering Company", "place_id": "ChIJT8P66-AEdkgRtNgY5UyVJ2Y", "types": ["point_of_interest", "establishment"]}, "ChIJsSLWjeAEdkgRo5g6144_7TA": {"geometry": {"location": {"lat": 51.49290750000001, "lng": -0.1373704}, "viewport": {"northeast": {"lat": 51.4942347802915, "lng": -0.135957819708498}, "southwest": {"lat": 51.4915368197085, "lng": -0.138655780291502}}}, "name": "The Seafarers\u2019 Charity", "place_id": "ChIJsSLWjeAEdkgRo5g6144_7TA", "types": ["point_of_interest", "establishment"], "rating": 4.5, "user_ratings_total": 4}, "ChIJW0RujeAEdkgRiPgm4qcbD_4": {"geometry": {"location": {"lat": 51.4925451, "lng": -0.1371082}, "viewport": {"northeast": {"lat": 51.4938290802915, "lng": -0.135839469708498}, "southwest": {"lat": 51.4911311197085, "lng": -0.138537430291502}}}, "name": "bp", "place_id": "ChIJW0RujeAEdkgRiPgm4qcbD_4", "types": ["gas_station", "atm", "convenience_store", "finance", "food", "point_of_interest", "store", "establishment"], "rating": 3.7, "user_ratings_total": 44}, "ChIJu1f-HiAFdkgRgbNeLmUs9nY": {"geometry": {"location": {"lat": 51.4927019, "lng": -0.1375588}, "viewport": {"northeast": {"lat": 51.4940024302915, "lng": -0.1362671197084979}, "southwest": {"lat": 51.4913044697085, "lng": -0.138965080291502}}}, "name": "Firstpointprint Victoria", "place_id": "ChIJu1f-HiAFdkgRgbNeLmUs9nY", "types": ["point_of_interest", "store", "establishment"], "rating": 4.6, "user_ratings_total": 60}, "ChIJR59p7OAEdkgR0ZocAVTmu8E": {"geometry": {"location": {"lat": 51.492568, "lng": -0.1371165}, "viewport": {"northeast": {"lat": 51.49384603029149, "lng": -0.135855069708498}, "southwest": {"lat": 51.49114806970849, "lng": -0.138553030291502}}}, "name": "MRH Vauxhall Bridge", "place_id": "ChIJR59p7OAEdkgR0ZocAVTmu8E", "types": ["gas_station", "point_of_interest", "establishment"]}, "ChIJzxK6x-AEdkgRuCNbBIFlwn8": {"geometry": {"location": {"lat": 51.492441, "lng": -0.1369983}, "viewport": {"northeast": {"lat": 51.49377853029149, "lng": -0.1356251197084979}, "southwest": {"lat": 51.4910805697085, "lng": -0.138323080291502}}}, "name": "Green and Gold", "place_id": "ChIJzxK6x-AEdkgRuCNbBIFlwn8", "types": ["point_of_interest", "establishment"]}, "ChIJ5QG0kuAEdkgROFJ9crd6iho": {"geometry": {"location": {"lat": 51.492612, "lng": -0.1371105}, "viewport": {"northeast": {"lat": 51.4940075302915, "lng": -0.135897869708498}, "southwest": {"lat": 51.4913095697085, "lng": -0.138595830291502}}}, "name": "Londis", "place_id": "ChIJ5QG0kuAEdkgROFJ9crd6iho", "types": ["point_of_interest", "establishment"]}, "ChIJHxxv8uAEdkgRnBtPKJVgxlM": {"geometry": {"location": {"lat": 51.492377, "lng": -0.137241}, "viewport": {"northeast": {"lat": 51.49371663029149, "lng": -0.135903519708498}, "southwest": {"lat": 51.4910186697085, "lng": -0.138601480291502}}}, "name": "HIS DOMINION LIMITED", "place_id": "ChIJHxxv8uAEdkgRnBtPKJVgxlM", "types": ["point_of_interest", "establishment"]}, "ChIJ5fjP7eAEdkgRvWGR4jvVfdo": {"geometry": {"location": {"lat": 51.4923061, "lng": -0.1370407}, "viewport": {"northeast": {"lat": 51.49362998029149, "lng": -0.135722219708498}, "southwest": {"lat": 51.4909320197085, "lng": -0.138420180291502}}}, "name": "Cleanline Shipping Company Limited", "place_id": "ChIJ5fjP7eAEdkgRvWGR4jvVfdo", "types": ["point_of_interest", "establishment"]}, "ChIJnaKPZNQFdkgRq8dwHRn4ye8": {"geometry": {"location": {"lat": 51.4924837, "lng": -0.1374013}, "viewport": {"northeast": {"lat": 51.4938061302915, "lng": -0.136085119708498}, "southwest": {"lat": 51.4911081697085, "lng": -0.138783080291502}}}, "name": "Oakwood St. George Wharf", "place_id": "ChIJnaKPZNQFdkgRq8dwHRn4ye8", "types": ["lodging", "point_of_interest", "establishment"]}, "ChIJGY91FegFdkgRT8UFjJMIx_4": {"geometry": {"location": {"lat": 51.49248370000002, "lng": -0.137412}, "viewport": {"northeast": {"lat": 51.49383268029152, "lng": -0.136063019708498}, "southwest": {"lat": 51.49113471970852, "lng": -0.1387609802915021}}}, "name": "Indover Streaming", "place_id": "ChIJGY91FegFdkgRT8UFjJMIx_4", "types": ["point_of_interest", "establishment"]}, "ChIJo31I8uAEdkgRRP-ly69PKGs": {"geometry": {"location": {"lat": 51.4924066, "lng": -0.137406}, "viewport": {"northeast": {"lat": 51.49377733029149, "lng": -0.136024969708498}, "southwest": {"lat": 51.4910793697085, "lng": -0.138722930291502}}}, "name": "Rochester Row (Stop W)", "place_id": "ChIJo31I8uAEdkgRRP-ly69PKGs", "types": ["transit_station", "point_of_interest", "establishment"]}, "ChIJq6ra6uAEdkgRvEFes4ivSP4": {"geometry": {"location": {"lat": 51.4925512, "lng": -0.1365834}, "viewport": {"northeast": {"lat": 51.49392713029151, "lng": -0.135291769708498}, "southwest": {"lat": 51.49122916970851, "lng": -0.137989730291502}}}, "name": "Bitcoinbase Limited", "place_id": "ChIJq6ra6uAEdkgRvEFes4ivSP4", "types": ["point_of_interest", "establishment"], "rating": 5, "user_ratings_total": 1}, "ChIJX8qprHEFdkgRM6MtSjgK_ZU": {"geometry": {"location": {"lat": 51.4927215, "lng": -0.1376533}, "viewport": {"northeast": {"lat": 51.4941059302915, "lng": -0.136409419708498}, "southwest": {"lat": 51.4914079697085, "lng": -0.139107380291502}}}, "name": "Iv Therapy Near Vauxhall Bridge", "place_id": "ChIJX8qprHEFdkgRM6MtSjgK_ZU", "types": ["spa", "health", "point_of_interest", "establishment"]}, "ChIJ1f97juAEdkgRr0KzqX3Xj8Y": {"geometry": {"location": {"lat": 51.49294039999999, "lng": -0.1373422}, "viewport": {"northeast": {"lat": 51.49426758029149, "lng": -0.1359293197084979}, "southwest": {"lat": 51.4915696197085, "lng": -0.138627280291502}}}, "name": "Armed Forces Covenant Fund", "place_id": "ChIJ1f97juAEdkgRr0KzqX3Xj8Y", "types": ["point_of_interest", "establishment"]}, "ChIJm78OHeEEdkgROdFQAYHT5mw": {"geometry": {"location": {"lat": 51.49229039999999, "lng": -0.1376762}, "viewport": {"northeast": {"lat": 51.4937404302915, "lng": -0.136204469708498}, "southwest": {"lat": 51.4910424697085, "lng": -0.138902430291502}}}, "name": "Discount London Tours", "place_id": "ChIJm78OHeEEdkgROdFQAYHT5mw", "types": ["travel_agency", "point_of_interest", "establishment"], "rating": 5, "user_ratings_total": 1}, "ChIJD1DVsoQFdkgRKp-cF-M14vQ": {"geometry": {"location": {"lat": 51.4925449, "lng": -0.137796}, "viewport": {"northeast": {"lat": 51.4939315802915, "lng": -0.136402419708498}, "southwest": {"lat": 51.4912336197085, "lng": -0.139100380291502}}}, "name": "Post Office Travel Money", "place_id": "ChIJD1DVsoQFdkgRKp-cF-M14vQ", "types": ["finance", "point_of_interest", "establishment"]}, "ChIJXaSs0mgFdkgR8H9ozSJWOgU": {"geometry": {"location": {"lat": 51.4927645, "lng": -0.1377144}, "viewport": {"northeast": {"lat": 51.4940678802915, "lng": -0.136419369708498}, "southwest": {"lat": 51.4913699197085, "lng": -0.139117330291502}}}, "name": "Victoria by Q Apartments", "place_id": "ChIJXaSs0mgFdkgR8H9ozSJWOgU", "types": ["lodging", "point_of_interest", "establishment"], "rating": 4, "user_ratings_total": 2}, "ChIJMWxCX-AEdkgRKyE388rCCkk": {"geometry": {"location": {"lat": 51.4923033, "lng": -0.1379596}, "viewport": {"northeast": {"lat": 51.49368497825115, "lng": -0.1366265113727792}, "southwest": {"lat": 51.49098701766815, "lng": -0.1393244719557833}}}, "name": "Longmoore Gardens Playground", "place_id": "ChIJMWxCX-AEdkgRKyE388rCCkk", "types": ["premise", "point_of_interest", "establishment"]}, "ChIJ20Y74-AEdkgRx7PewgAvEfM": {"geometry": {"location": {"lat": 51.49148122777805, "lng": -0.1371302689151041}, "viewport": {"northeast": {"lat": 51.4928265802915, "lng": -0.135772869708498}, "southwest": {"lat": 51.4901286197085, "lng": -0.138470830291502}}}, "name": "17-3 Charlwood St", "place_id": "ChIJ20Y74-AEdkgRx7PewgAvEfM", "types": ["route"]}, "ChIJSSxMAuEEdkgR5tG9FenV-mM": {"geometry": {"location": {"lat": 51.4911333, "lng": -0.1373472}, "viewport": {"northeast": {"lat": 51.4924919802915, "lng": -0.136084869708498}, "southwest": {"lat": 51.4897940197085, "lng": -0.138782830291502}}}, "name": "Cask Pub & Kitchen", "place_id": "ChIJSSxMAuEEdkgR5tG9FenV-mM", "types": ["bar", "point_of_interest", "establishment"], "rating": 4.5, "user_ratings_total": 1881}, "ChIJZVFImL4CdkgR-KoP4gvCS80": {"geometry": {"location": {"lat": 51.49166399999999, "lng": -0.1363251}, "viewport": {"northeast": {"lat": 51.4930148302915, "lng": -0.134974169708498}, "southwest": {"lat": 51.49031686970851, "lng": -0.137672130291502}}}, "name": "Dalibor Vitas Consulting Ltd -Top London Personal Fashion and Styling Consultant", "place_id": "ChIJZVFImL4CdkgR-KoP4gvCS80", "types": ["point_of_interest", "establishment"]}, "ChIJNdfzV-AEdkgRiBoUCrcs2nQ": {"geometry": {"location": {"lat": 51.4913879, "lng": -0.137594}, "viewport": {"northeast": {"lat": 51.49269288029149, "lng": -0.136112469708498}, "southwest": {"lat": 51.48999491970849, "lng": -0.138810430291502}}}, "name": "Tachbrook Village - Nisa Local", "place_id": "ChIJNdfzV-AEdkgRiBoUCrcs2nQ", "types": ["convenience_store", "bakery", "supermarket", "grocery_or_supermarket", "food", "point_of_interest", "store", "establishment"], "rating": 4.4, "user_ratings_total": 7}, "ChIJjbMm4-AEdkgRiYuYPEXYZa0": {"geometry": {"location": {"lat": 51.49132969999999, "lng": -0.1372346}, "viewport": {"northeast": {"lat": 51.49268923029149, "lng": -0.135912019708498}, "southwest": {"lat": 51.48999126970849, "lng": -0.138609980291502}}}, "name": "Chargemaster Charging Station", "place_id": "ChIJjbMm4-AEdkgRiYuYPEXYZa0", "types": ["point_of_interest", "establishment"], "rating": 4, "user_ratings_total": 2}, "ChIJKWpW_eAEdkgRka2C9xNdESM": {"geometry": {"location": {"lat": 51.4912843, "lng": -0.1372021}, "viewport": {"northeast": {"lat": 51.4926540302915, "lng": -0.135902419708498}, "southwest": {"lat": 51.4899560697085, "lng": -0.138600380291502}}}, "name": "Central London Rescue and Repair Ltd", "place_id": "ChIJKWpW_eAEdkgRka2C9xNdESM", "types": ["car_repair", "point_of_interest", "establishment"]}, "ChIJA69D5OAEdkgRzHHF8i4Vu9Y": {"geometry": {"location": {"lat": 51.4916893, "lng": -0.1369857}, "viewport": {"northeast": {"lat": 51.49302563029149, "lng": -0.135606019708498}, "southwest": {"lat": 51.49032766970849, "lng": -0.138303980291502}}}, "name": "ubitricity Charging Station", "place_id": "ChIJA69D5OAEdkgRzHHF8i4Vu9Y", "types": ["point_of_interest", "establishment"]}, "ChIJfzL5btgFdkgRomMf6WU4UoM": {"geometry": {"location": {"lat": 51.4911706, "lng": -0.1370179}, "viewport": {"northeast": {"lat": 51.4925847802915, "lng": -0.135823769708498}, "southwest": {"lat": 51.4898868197085, "lng": -0.138521730291502}}}, "name": "Dr. mehmet M. normina, DDS", "place_id": "ChIJfzL5btgFdkgRomMf6WU4UoM", "types": ["doctor", "health", "point_of_interest", "establishment"]}, "ChIJF0lXi-AEdkgRt1P4tHCkY5o": {"geometry": {"location": {"lat": 51.4917155, "lng": -0.1373558}, "viewport": {"northeast": {"lat": 51.4932994802915, "lng": -0.135721269708498}, "southwest": {"lat": 51.4906015197085, "lng": -0.138419230291502}}}, "name": "Ace Discos Ltd", "place_id": "ChIJF0lXi-AEdkgRt1P4tHCkY5o", "types": ["point_of_interest", "establishment"], "rating": 3.8, "user_ratings_total": 14}, "ChIJAWC-Aa8FdkgRwj_eRuiujd4": {"geometry": {"location": {"lat": 51.491348, "lng": -0.137515}, "viewport": {"northeast": {"lat": 51.4926691302915, "lng": -0.136083869708498}, "southwest": {"lat": 51.4899711697085, "lng": -0.138781830291502}}}, "name": "CitySpareSpace Luggage Storage London Victoria", "place_id": "ChIJAWC-Aa8FdkgRwj_eRuiujd4", "types": ["storage", "point_of_interest", "establishment"]}, "ChIJGzdAVqkFdkgRVaMd1thl-jM": {"geometry": {"location": {"lat": 51.4913434, "lng": -0.1375802}, "viewport": {"northeast": {"lat": 51.4926996802915, "lng": -0.136092369708498}, "southwest": {"lat": 51.4900017197085, "lng": -0.138790330291502}}}, "name": "Nisa local", "place_id": "ChIJGzdAVqkFdkgRVaMd1thl-jM", "types": ["grocery_or_supermarket", "food", "point_of_interest", "store", "establishment"], "rating": 3.9, "user_ratings_total": 7}, "ChIJZdgq3OAEdkgRN_LHlcslWII": {"geometry": {"location": {"lat": 51.49160190000001, "lng": -0.1362536}, "viewport": {"northeast": {"lat": 51.4929728802915, "lng": -0.134878019708498}, "southwest": {"lat": 51.4902749197085, "lng": -0.137575980291502}}}, "name": "Henry Wise House", "place_id": "ChIJZdgq3OAEdkgRN_LHlcslWII", "types": ["point_of_interest", "establishment"], "rating": 3.7, "user_ratings_total": 3}, "ChIJG-orDOEEdkgRkseU3eZSq6E": {"geometry": {"location": {"lat": 51.49039639999999, "lng": -0.1377961}, "viewport": {"northeast": {"lat": 51.49165368029149, "lng": -0.1364737197084979}, "southwest": {"lat": 51.48895571970849, "lng": -0.139171680291502}}}, "name": "Victoria Inn", "place_id": "ChIJG-orDOEEdkgRkseU3eZSq6E", "types": ["lodging", "point_of_interest", "establishment"], "rating": 3.6, "user_ratings_total": 436}, "ChIJ58z3EOEEdkgRgQifhm1_wzA": {"geometry": {"location": {"lat": 51.4905081, "lng": -0.1369828}, "viewport": {"northeast": {"lat": 51.49185378029149, "lng": -0.135640219708498}, "southwest": {"lat": 51.48915581970849, "lng": -0.138338180291502}}}, "name": "Bespoke Photography", "place_id": "ChIJ58z3EOEEdkgRgQifhm1_wzA", "types": ["point_of_interest", "establishment"]}, "ChIJ_6Y4BeEEdkgRU6W2osb0Yjs": {"geometry": {"location": {"lat": 51.49048430000001, "lng": -0.1371716}, "viewport": {"northeast": {"lat": 51.49187413029151, "lng": -0.135737869708498}, "southwest": {"lat": 51.48917616970851, "lng": -0.138435830291502}}}, "name": "A to B London", "place_id": "ChIJ_6Y4BeEEdkgRU6W2osb0Yjs", "types": ["point_of_interest", "establishment"]}, "ChIJme1xTeEEdkgREWK9-VaXYNE": {"geometry": {"location": {"lat": 51.4905102, "lng": -0.1369305}, "viewport": {"northeast": {"lat": 51.49187938029149, "lng": -0.135542769708498}, "southwest": {"lat": 51.4891814197085, "lng": -0.138240730291502}}}, "name": "Savill Damp Proofing Limited", "place_id": "ChIJme1xTeEEdkgREWK9-VaXYNE", "types": ["general_contractor", "point_of_interest", "establishment"], "rating": 5, "user_ratings_total": 4}, "ChIJp-twC-EEdkgRHFYfqUrRmL4": {"geometry": {"location": {"lat": 51.4902658, "lng": -0.1375795}, "viewport": {"northeast": {"lat": 51.4915567302915, "lng": -0.136298119708498}, "southwest": {"lat": 51.4888587697085, "lng": -0.138996080291502}}}, "name": "Astor Victoria Hostel", "place_id": "ChIJp-twC-EEdkgRHFYfqUrRmL4", "types": ["lodging", "point_of_interest", "establishment"], "rating": 3.8, "user_ratings_total": 840}, "ChIJ0X7tB-EEdkgROnCalatq7yM": {"geometry": {"location": {"lat": 51.4906805, "lng": -0.1377593}, "viewport": {"northeast": {"lat": 51.4920657302915, "lng": -0.136497869708498}, "southwest": {"lat": 51.4893677697085, "lng": -0.139195830291502}}}, "name": "C C A Management", "place_id": "ChIJ0X7tB-EEdkgROnCalatq7yM", "types": ["point_of_interest", "establishment"]}, "ChIJG-orDOEEdkgRekBzk2_fu_Q": {"geometry": {"location": {"lat": 51.49028209999999, "lng": -0.1375019}, "viewport": {"northeast": {"lat": 51.49155743029149, "lng": -0.136241869708498}, "southwest": {"lat": 51.48885946970849, "lng": -0.138939830291502}}}, "name": "Eco Valeting Express.co.uk", "place_id": "ChIJG-orDOEEdkgRekBzk2_fu_Q", "types": ["point_of_interest", "establishment"]}, "ChIJRxoLs-YEdkgRvnfiPtLneLE": {"geometry": {"location": {"lat": 51.49022209999999, "lng": -0.1366684}, "viewport": {"northeast": {"lat": 51.49160068029149, "lng": -0.135274669708498}, "southwest": {"lat": 51.4889027197085, "lng": -0.137972630291502}}}, "name": "Rs Newsagents", "place_id": "ChIJRxoLs-YEdkgRvnfiPtLneLE", "types": ["point_of_interest", "store", "establishment"]}, "ChIJb6_yEjUFdkgRYeAIgkqdRpk": {"geometry": {"location": {"lat": 51.4902658, "lng": -0.1375795}, "viewport": {"northeast": {"lat": 51.4915579302915, "lng": -0.136299169708498}, "southwest": {"lat": 51.4888599697085, "lng": -0.138997130291502}}}, "name": "RESOURCE.ME LTD", "place_id": "ChIJb6_yEjUFdkgRYeAIgkqdRpk", "types": ["point_of_interest", "establishment"], "rating": 5, "user_ratings_total": 1}, "ChIJeV1jCeEEdkgRCwvWOSSoStk": {"geometry": {"location": {"lat": 51.4903107, "lng": -0.1376686}, "viewport": {"northeast": {"lat": 51.4916022802915, "lng": -0.136390319708498}, "southwest": {"lat": 51.4889043197085, "lng": -0.139088280291502}}}, "name": "Aston Victoria", "place_id": "ChIJeV1jCeEEdkgRCwvWOSSoStk", "types": ["lodging", "point_of_interest", "establishment"]}, "ChIJs7S7ZuAEdkgRbdhEd6ylkXI": {"geometry": {"location": {"lat": 51.49290035018218, "lng": -0.1383030995515963}, "viewport": {"northeast": {"lat": 51.4942493302915, "lng": -0.136954119708498}, "southwest": {"lat": 51.49155136970851, "lng": -0.139652080291502}}}, "name": "174-168 A202", "place_id": "ChIJs7S7ZuAEdkgRbdhEd6ylkXI", "types": ["route"]}, "ChIJS7kCaeAEdkgRoIvwvzG4gNA": {"geometry": {"location": {"lat": 51.49270610000001, "lng": -0.1389013}, "viewport": {"northeast": {"lat": 51.49405508029151, "lng": -0.137552319708498}, "southwest": {"lat": 51.49135711970851, "lng": -0.1402502802915021}}}, "name": "Victoria Medical Centre", "place_id": "ChIJS7kCaeAEdkgRoIvwvzG4gNA", "types": ["health", "point_of_interest", "establishment"], "rating": 2.4, "user_ratings_total": 161}, "ChIJC0nCXuAEdkgRZIkjaeJln8E": {"geometry": {"location": {"lat": 51.4922411, "lng": -0.1384873}, "viewport": {"northeast": {"lat": 51.4934460302915, "lng": -0.137118869708498}, "southwest": {"lat": 51.4907480697085, "lng": -0.139816830291502}}}, "name": "Tachbrook Street Toilets", "place_id": "ChIJC0nCXuAEdkgRZIkjaeJln8E", "types": ["point_of_interest", "establishment"], "rating": 1.7, "user_ratings_total": 3}, "ChIJH8luXeAEdkgR48oTZMTK8H4": {"geometry": {"location": {"lat": 51.4925833, "lng": -0.1384136}, "viewport": {"northeast": {"lat": 51.49396138029149, "lng": -0.137110919708498}, "southwest": {"lat": 51.4912634197085, "lng": -0.139808880291502}}}, "name": "The Optical Studio Pimlico", "place_id": "ChIJH8luXeAEdkgR48oTZMTK8H4", "types": ["health", "point_of_interest", "store", "establishment"], "rating": 4.9, "user_ratings_total": 18}, "ChIJa4FkZ-AEdkgRmInascRwiHM": {"geometry": {"location": {"lat": 51.49258510000001, "lng": -0.1383246}, "viewport": {"northeast": {"lat": 51.49361798029151, "lng": -0.136952719708498}, "southwest": {"lat": 51.49092001970851, "lng": -0.139650680291502}}}, "name": "Clive Kay Ltd", "place_id": "ChIJa4FkZ-AEdkgRmInascRwiHM", "types": ["health", "point_of_interest", "store", "establishment"], "rating": 5, "user_ratings_total": 4}, "ChIJH8luXeAEdkgR2P06MGy81j4": {"geometry": {"location": {"lat": 51.492467, "lng": -0.1384195}, "viewport": {"northeast": {"lat": 51.4939047802915, "lng": -0.137149469708498}, "southwest": {"lat": 51.4912068197085, "lng": -0.139847430291502}}}, "name": "Special Eye Effects", "place_id": "ChIJH8luXeAEdkgR2P06MGy81j4", "types": ["health", "point_of_interest", "store", "establishment"]}, "ChIJS7kCaeAEdkgRlzTUirScoaI": {"geometry": {"location": {"lat": 51.4927139, "lng": -0.1388768}, "viewport": {"northeast": {"lat": 51.4940628802915, "lng": -0.137527819708498}, "southwest": {"lat": 51.4913649197085, "lng": -0.140225780291502}}}, "name": "CliniChem Pharmacy", "place_id": "ChIJS7kCaeAEdkgRlzTUirScoaI", "types": ["pharmacy", "health", "point_of_interest", "store", "establishment"], "rating": 4.6, "user_ratings_total": 9}, "ChIJk7UQXeAEdkgRMnLMzGr1ylo": {"geometry": {"location": {"lat": 51.4924718, "lng": -0.1385333}, "viewport": {"northeast": {"lat": 51.4938955802915, "lng": -0.137228619708498}, "southwest": {"lat": 51.4911976197085, "lng": -0.139926580291502}}}, "name": "Baker Tilly", "place_id": "ChIJk7UQXeAEdkgRMnLMzGr1ylo", "types": ["accounting", "finance", "point_of_interest", "establishment"]}, "ChIJV60ObOAEdkgRt727VyXvhFw": {"geometry": {"location": {"lat": 51.4927322, "lng": -0.1388946}, "viewport": {"northeast": {"lat": 51.4940558802915, "lng": -0.137612119708498}, "southwest": {"lat": 51.49135791970851, "lng": -0.140310080291502}}}, "name": "Dr S E Rankine - Victoria Medical Centre", "place_id": "ChIJV60ObOAEdkgRt727VyXvhFw", "types": ["doctor", "health", "point_of_interest", "establishment"]}, "ChIJG4cmPuAEdkgRpQrJbz5rWnk": {"geometry": {"location": {"lat": 51.492338, "lng": -0.1389499}, "viewport": {"northeast": {"lat": 51.49349448029151, "lng": -0.137350169708498}, "southwest": {"lat": 51.49079651970851, "lng": -0.1400481302915021}}}, "name": "Cutting Crew Hair and beauty", "place_id": "ChIJG4cmPuAEdkgRpQrJbz5rWnk", "types": ["hair_care", "point_of_interest", "establishment"], "rating": 4.4, "user_ratings_total": 218}, "ChIJZcvwa-AEdkgRgLvK7_Bu7i4": {"geometry": {"location": {"lat": 51.4928968, "lng": -0.1390715}, "viewport": {"northeast": {"lat": 51.49422258029149, "lng": -0.1377834697084979}, "southwest": {"lat": 51.4915246197085, "lng": -0.140481430291502}}}, "name": "Dr A Akinmade - Victoria Medical Centre", "place_id": "ChIJZcvwa-AEdkgRgLvK7_Bu7i4", "types": ["doctor", "health", "point_of_interest", "establishment"]}, "ChIJZcvwa-AEdkgR0XlsuJrG1m8": {"geometry": {"location": {"lat": 51.4928968, "lng": -0.1390715}, "viewport": {"northeast": {"lat": 51.49422258029149, "lng": -0.1377834697084979}, "southwest": {"lat": 51.4915246197085, "lng": -0.140481430291502}}}, "name": "Dr S Dhar - Victoria Medical Centre", "place_id": "ChIJZcvwa-AEdkgR0XlsuJrG1m8", "types": ["doctor", "health", "point_of_interest", "establishment"]}, "ChIJZcvwa-AEdkgRaLxhQOswnDI": {"geometry": {"location": {"lat": 51.4928968, "lng": -0.1390715}, "viewport": {"northeast": {"lat": 51.49422258029149, "lng": -0.1377834697084979}, "southwest": {"lat": 51.4915246197085, "lng": -0.140481430291502}}}, "name": "Dr G Okoli - Victoria Medical Centre", "place_id": "ChIJZcvwa-AEdkgRaLxhQOswnDI", "types": ["doctor", "health", "point_of_interest", "establishment"]}, "ChIJZcvwa-AEdkgRfPAFpgzio0E": {"geometry": {"location": {"lat": 51.4928968, "lng": -0.1390715}, "viewport": {"northeast": {"lat": 51.49422258029149, "lng": -0.1377834697084979}, "southwest": {"lat": 51.4915246197085, "lng": -0.140481430291502}}}, "name": "Dr K Brown - Victoria Medical Centre", "place_id": "ChIJZcvwa-AEdkgRfPAFpgzio0E", "types": ["doctor", "health", "point_of_interest", "establishment"]}, "ChIJC80HYeAEdkgRqZtIZUlzpSM": {"geometry": {"location": {"lat": 51.49246779999999, "lng": -0.138738}, "viewport": {"northeast": {"lat": 51.4938699802915, "lng": -0.137310469708498}, "southwest": {"lat": 51.4911720197085, "lng": -0.140008430291502}}}, "name": "Holland & Barrett", "place_id": "ChIJC80HYeAEdkgRqZtIZUlzpSM", "types": ["food", "health", "point_of_interest", "store", "establishment"], "rating": 4.7, "user_ratings_total": 15}, "ChIJH8luXeAEdkgR0aR87hf7s-8": {"geometry": {"location": {"lat": 51.492538, "lng": -0.138454}, "viewport": {"northeast": {"lat": 51.4939387302915, "lng": -0.137171169708498}, "southwest": {"lat": 51.4912407697085, "lng": -0.139869130291502}}}, "name": "Leyland SDM Victoria | Decorating & DIY", "place_id": "ChIJH8luXeAEdkgR0aR87hf7s-8", "types": ["hardware_store", "home_goods_store", "point_of_interest", "store", "establishment"], "rating": 4.2, "user_ratings_total": 232}, "ChIJXeI2ROAEdkgRNplh80daPpw": {"geometry": {"location": {"lat": 51.49215869999999, "lng": -0.1388654}, "viewport": {"northeast": {"lat": 51.49350768029149, "lng": -0.137516419708498}, "southwest": {"lat": 51.49080971970849, "lng": -0.140214380291502}}}, "name": "Fara Kids Charity Shop", "place_id": "ChIJXeI2ROAEdkgRNplh80daPpw", "types": ["point_of_interest", "establishment"], "rating": 4.4, "user_ratings_total": 11}, "ChIJQ8x0QeAEdkgRzWIol0pNgI8": {"geometry": {"location": {"lat": 51.4923748, "lng": -0.1390539}, "viewport": {"northeast": {"lat": 51.4937237802915, "lng": -0.137704919708498}, "southwest": {"lat": 51.4910258197085, "lng": -0.140402880291502}}}, "name": "Snappy Snaps Pimlico", "place_id": "ChIJQ8x0QeAEdkgRzWIol0pNgI8", "types": ["point_of_interest", "store", "establishment"], "rating": 3.8, "user_ratings_total": 187}, "ChIJOSgaROAEdkgRcuqYtae_kUI": {"geometry": {"location": {"lat": 51.492098, "lng": -0.1387029}, "viewport": {"northeast": {"lat": 51.49338068029149, "lng": -0.137243319708498}, "southwest": {"lat": 51.4906827197085, "lng": -0.139941280291502}}}, "name": "Buckles & Brogues", "place_id": "ChIJOSgaROAEdkgRcuqYtae_kUI", "types": ["locksmith", "point_of_interest", "store", "establishment"], "rating": 4.8, "user_ratings_total": 54}, "ChIJ-592Q-AEdkgRl8c3a1uDVW8": {"geometry": {"location": {"lat": 51.4922222, "lng": -0.1388889}, "viewport": {"northeast": {"lat": 51.4935711802915, "lng": -0.137539919708498}, "southwest": {"lat": 51.4908732197085, "lng": -0.140237880291502}}}, "name": "Tachbrook Street Market", "place_id": "ChIJ-592Q-AEdkgRl8c3a1uDVW8", "types": ["point_of_interest", "establishment"], "rating": 4.3, "user_ratings_total": 493}, "ChIJkcluXeAEdkgRoA-pfMNlwbk": {"geometry": {"location": {"lat": 51.4924718, "lng": -0.1385333}, "viewport": {"northeast": {"lat": 51.4938955802915, "lng": -0.137228619708498}, "southwest": {"lat": 51.4911976197085, "lng": -0.139926580291502}}}, "name": "Westminster Coroner's Court", "place_id": "ChIJkcluXeAEdkgRoA-pfMNlwbk", "types": ["courthouse", "point_of_interest", "establishment"]}, "ChIJOzjrz_UFdkgR9NeNECjxXDE": {"geometry": {"location": {"lat": 51.4923714, "lng": -0.1387868}, "viewport": {"northeast": {"lat": 51.4935111802915, "lng": -0.137268619708498}, "southwest": {"lat": 51.4908132197085, "lng": -0.139966580291502}}}, "name": "CauliBox @Tachbrook - Reusable lunchbox scheme", "place_id": "ChIJOzjrz_UFdkgR9NeNECjxXDE", "types": ["point_of_interest", "establishment"]}, "ChIJYdyLQ-AEdkgRf_aE-elD3nQ": {"geometry": {"location": {"lat": 51.4922755, "lng": -0.1389028}, "viewport": {"northeast": {"lat": 51.4934632302915, "lng": -0.137326619708498}, "southwest": {"lat": 51.4907652697085, "lng": -0.1400245802915021}}}, "name": "Vores Hotel", "place_id": "ChIJYdyLQ-AEdkgRf_aE-elD3nQ", "types": ["lodging", "point_of_interest", "establishment"]}, "ChIJXeI2ROAEdkgRZ0czPBm4I5c": {"geometry": {"location": {"lat": 51.4922755, "lng": -0.1389028}, "viewport": {"northeast": {"lat": 51.4934632302915, "lng": -0.137326619708498}, "southwest": {"lat": 51.4907652697085, "lng": -0.1400245802915021}}}, "name": "AL HALAL SUPER MARKET", "place_id": "ChIJXeI2ROAEdkgRZ0czPBm4I5c", "types": ["point_of_interest", "establishment"]}, "ChIJsWgNxLoFdkgRLb_J1JmtPm8": {"geometry": {"location": {"lat": 51.4922429, "lng": -0.1386266}, "viewport": {"northeast": {"lat": 51.4935918802915, "lng": -0.137277619708498}, "southwest": {"lat": 51.4908939197085, "lng": -0.139975580291502}}}, "name": "Karim's Falafel Stand", "place_id": "ChIJsWgNxLoFdkgRLb_J1JmtPm8", "types": ["restaurant", "food", "point_of_interest", "establishment"], "rating": 4.4, "user_ratings_total": 9}, "ChIJXeI2ROAEdkgRP_5_MbL3aSM": {"geometry": {"location": {"lat": 51.4922222, "lng": -0.1388889}, "viewport": {"northeast": {"lat": 51.4935711802915, "lng": -0.137539919708498}, "southwest": {"lat": 51.4908732197085, "lng": -0.140237880291502}}}, "name": "Tachbrook Halal", "place_id": "ChIJXeI2ROAEdkgRP_5_MbL3aSM", "types": ["grocery_or_supermarket", "food", "point_of_interest", "store", "establishment"], "rating": 4.4, "user_ratings_total": 8}, "ChIJ-6SAlBQFdkgR3fgqZIGz3po": {"geometry": {"location": {"lat": 51.49222, "lng": -0.1389693}, "viewport": {"northeast": {"lat": 51.49356898029149, "lng": -0.137620319708498}, "southwest": {"lat": 51.4908710197085, "lng": -0.140318280291502}}}, "name": "Flat 2 Tachbrook Court Tachbrook Street", "place_id": "ChIJ-6SAlBQFdkgR3fgqZIGz3po", "types": ["lodging", "point_of_interest", "establishment"]}, "ChIJJ3ajYOAEdkgRHRHr3is1OVU": {"geometry": {"location": {"lat": 51.49262119999999, "lng": -0.1382099}, "viewport": {"northeast": {"lat": 51.4939937802915, "lng": -0.137009069708498}, "southwest": {"lat": 51.4912958197085, "lng": -0.139707030291502}}}, "name": "Biguns Ribs", "place_id": "ChIJJ3ajYOAEdkgRHRHr3is1OVU", "types": ["restaurant", "food", "point_of_interest", "establishment"]}, "ChIJ_4DHWuAEdkgReZGV1wUgzoI": {"geometry": {"location": {"lat": 51.49205, "lng": -0.1386633}, "viewport": {"northeast": {"lat": 51.49334178029151, "lng": -0.137249719708498}, "southwest": {"lat": 51.49064381970851, "lng": -0.139947680291502}}}, "name": "Art of Tapas", "place_id": "ChIJ_4DHWuAEdkgReZGV1wUgzoI", "types": ["cafe", "restaurant", "food", "point_of_interest", "store", "establishment"], "rating": 3.3, "user_ratings_total": 173}, "ChIJ24Ss5eQFdkgRn5dzKohRKKE": {"geometry": {"location": {"lat": 51.49211829999999, "lng": -0.1385039}, "viewport": {"northeast": {"lat": 51.49338463029149, "lng": -0.137127169708498}, "southwest": {"lat": 51.4906866697085, "lng": -0.139825130291502}}}, "name": "Newdlez & Co.", "place_id": "ChIJ24Ss5eQFdkgRn5dzKohRKKE", "types": ["food", "point_of_interest", "establishment"], "rating": 5, "user_ratings_total": 4}, "ChIJPe4H2gYFdkgRnB0ayI_tLXc": {"geometry": {"location": {"lat": 51.4925829, "lng": -0.1380535}, "viewport": {"northeast": {"lat": 51.49400968029151, "lng": -0.136930869708498}, "southwest": {"lat": 51.49131171970851, "lng": -0.139628830291502}}}, "name": "George Eliot House", "place_id": "ChIJPe4H2gYFdkgRnB0ayI_tLXc", "types": ["lodging", "point_of_interest", "establishment"]}, "ChIJM8VBb-AEdkgR4G9aEGNZ5Ts": {"geometry": {"location": {"lat": 51.49298549999999, "lng": -0.1387785}, "viewport": {"northeast": {"lat": 51.49437878029149, "lng": -0.137377219708498}, "southwest": {"lat": 51.49168081970849, "lng": -0.140075180291502}}}, "name": "FredK E.Gillett Ltd", "place_id": "ChIJM8VBb-AEdkgR4G9aEGNZ5Ts", "types": ["point_of_interest", "establishment"]}, "ChIJrUwXQ-AEdkgR-H-uRVXFqZU": {"geometry": {"location": {"lat": 51.492207, "lng": -0.1381987}, "viewport": {"northeast": {"lat": 51.4934248302915, "lng": -0.1369494697084979}, "southwest": {"lat": 51.4907268697085, "lng": -0.139647430291502}}}, "name": "Luli's Barbers", "place_id": "ChIJrUwXQ-AEdkgR-H-uRVXFqZU", "types": ["hair_care", "health", "point_of_interest", "establishment"], "rating": 4.8, "user_ratings_total": 110}, "ChIJu40FYeAEdkgRdcD71UFpyso": {"geometry": {"location": {"lat": 51.4927936, "lng": -0.1381294}, "viewport": {"northeast": {"lat": 51.49411323029149, "lng": -0.136760619708498}, "southwest": {"lat": 51.49141526970849, "lng": -0.139458580291502}}}, "name": "Nlt", "place_id": "ChIJu40FYeAEdkgRdcD71UFpyso", "types": ["doctor", "health", "point_of_interest", "establishment"]}, "ChIJs4VsYeAEdkgRmidseygwLa4": {"geometry": {"location": {"lat": 51.4928453, "lng": -0.1381667}, "viewport": {"northeast": {"lat": 51.4941661302915, "lng": -0.1368523697084979}, "southwest": {"lat": 51.4914681697085, "lng": -0.139550330291502}}}, "name": "Rochester Row", "place_id": "ChIJs4VsYeAEdkgRmidseygwLa4", "types": ["transit_station", "point_of_interest", "establishment"]}, "ChIJkfIRW-AEdkgRWgKqYPNZypM": {"geometry": {"location": {"lat": 51.49211099999999, "lng": -0.138364}, "viewport": {"northeast": {"lat": 51.4934599802915, "lng": -0.1370150197084979}, "southwest": {"lat": 51.4907620197085, "lng": -0.139712980291502}}}, "name": "Santander Cycles", "place_id": "ChIJkfIRW-AEdkgRWgKqYPNZypM", "types": ["point_of_interest", "establishment"], "rating": 4, "user_ratings_total": 1}, "ChIJiwpyReAEdkgR7Gb7S--bKik": {"geometry": {"location": {"lat": 51.49202100000001, "lng": -0.1387023}, "viewport": {"northeast": {"lat": 51.49332493029151, "lng": -0.137272569708498}, "southwest": {"lat": 51.49062696970851, "lng": -0.139970530291502}}}, "name": "Bluebird Care Westminster & City of London", "place_id": "ChIJiwpyReAEdkgR7Gb7S--bKik", "types": ["health", "point_of_interest", "establishment"]}, "ChIJjZpSReAEdkgRSOnS1qjQ_KI": {"geometry": {"location": {"lat": 51.491992, "lng": -0.1387195}, "viewport": {"northeast": {"lat": 51.49330243029151, "lng": -0.137291669708498}, "southwest": {"lat": 51.49060446970851, "lng": -0.139989630291502}}}, "name": "De Vera Property Development", "place_id": "ChIJjZpSReAEdkgRSOnS1qjQ_KI", "types": ["real_estate_agency", "general_contractor", "point_of_interest", "establishment"]}, "ChIJSTHRVeAEdkgRP9GOiOj_69E": {"geometry": {"location": {"lat": 51.49160470757857, "lng": -0.138029615687868}, "viewport": {"northeast": {"lat": 51.4929321802915, "lng": -0.136714519708498}, "southwest": {"lat": 51.4902342197085, "lng": -0.139412480291502}}}, "name": "74-46 Tachbrook St", "place_id": "ChIJSTHRVeAEdkgRP9GOiOj_69E", "types": ["route"]}, "ChIJg7VNseEEdkgRlVQOcZaNB50": {"geometry": {"location": {"lat": 51.4909392, "lng": -0.1389268}, "viewport": {"northeast": {"lat": 51.4922284302915, "lng": -0.137677769708498}, "southwest": {"lat": 51.48953046970851, "lng": -0.140375730291502}}}, "name": "Comfort Inn London - Westminster", "place_id": "ChIJg7VNseEEdkgRlVQOcZaNB50", "types": ["lodging", "point_of_interest", "establishment"], "rating": 3.2, "user_ratings_total": 503}, "ChIJ_SKgtOEEdkgRjevuIPd525k": {"geometry": {"location": {"lat": 51.4911782, "lng": -0.138975}, "viewport": {"northeast": {"lat": 51.4925282302915, "lng": -0.137693069708498}, "southwest": {"lat": 51.4898302697085, "lng": -0.140391030291502}}}, "name": "Grumbles", "place_id": "ChIJ_SKgtOEEdkgRjevuIPd525k", "types": ["bar", "restaurant", "food", "point_of_interest", "establishment"], "rating": 4.4, "user_ratings_total": 440}, "ChIJL17qUeAEdkgR0sme0AjjbJU": {"geometry": {"location": {"lat": 51.4916952, "lng": -0.1385391}, "viewport": {"northeast": {"lat": 51.49306758029149, "lng": -0.137270719708498}, "southwest": {"lat": 51.4903696197085, "lng": -0.139968680291502}}}, "name": "London Bride Couture", "place_id": "ChIJL17qUeAEdkgR0sme0AjjbJU", "types": ["point_of_interest", "clothing_store", "store", "establishment"], "rating": 4.5, "user_ratings_total": 113}, "ChIJ_3zRT-AEdkgRsUqy6tc3jl0": {"geometry": {"location": {"lat": 51.49189289999999, "lng": -0.1387553}, "viewport": {"northeast": {"lat": 51.49324188029149, "lng": -0.1374063197084979}, "southwest": {"lat": 51.49054391970849, "lng": -0.140104280291502}}}, "name": "L&Q Office", "place_id": "ChIJ_3zRT-AEdkgRsUqy6tc3jl0", "types": ["local_government_office", "point_of_interest", "establishment"], "rating": 1.3, "user_ratings_total": 12}, "ChIJ2dVASuAEdkgRa3YvCz9Gizs": {"geometry": {"location": {"lat": 51.4916144, "lng": -0.1390466}, "viewport": {"northeast": {"lat": 51.49293348029151, "lng": -0.137594669708498}, "southwest": {"lat": 51.49023551970851, "lng": -0.140292630291502}}}, "name": "The Latin Traveller Limited", "place_id": "ChIJ2dVASuAEdkgRa3YvCz9Gizs", "types": ["real_estate_agency", "lodging", "travel_agency", "point_of_interest", "establishment"]}, "ChIJt3NKs-EEdkgRlbeXS_KmZCE": {"geometry": {"location": {"lat": 51.4912032, "lng": -0.1388897}, "viewport": {"northeast": {"lat": 51.4925771302915, "lng": -0.137628369708498}, "southwest": {"lat": 51.4898791697085, "lng": -0.140326330291502}}}, "name": "Pimlico Dozen Ltd", "place_id": "ChIJt3NKs-EEdkgRlbeXS_KmZCE", "types": ["point_of_interest", "establishment"], "rating": 5, "user_ratings_total": 1}, "ChIJZ3os6j4xcEERMwWeNjpYMzM": {"geometry": {"location": {"lat": 51.4914674, "lng": -0.1387275}, "viewport": {"northeast": {"lat": 51.4928376802915, "lng": -0.137451819708498}, "southwest": {"lat": 51.4901397197085, "lng": -0.140149780291502}}}, "name": "Rodrigo Oliveira Stylist", "place_id": "ChIJZ3os6j4xcEERMwWeNjpYMzM", "types": ["hair_care", "point_of_interest", "establishment"], "rating": 3.9, "user_ratings_total": 33}, "ChIJL8_CTOAEdkgRBetnQFdOWw8": {"geometry": {"location": {"lat": 51.4913767, "lng": -0.1388015}, "viewport": {"northeast": {"lat": 51.49274623029151, "lng": -0.137523369708498}, "southwest": {"lat": 51.49004826970851, "lng": -0.140221330291502}}}, "name": "The Roasting", "place_id": "ChIJL8_CTOAEdkgRBetnQFdOWw8", "types": ["cafe", "food", "point_of_interest", "store", "establishment"], "rating": 4.5, "user_ratings_total": 342}, "ChIJ8UDwtOEEdkgRYuh1cBxDWPs": {"geometry": {"location": {"lat": 51.4915082, "lng": -0.1390414}, "viewport": {"northeast": {"lat": 51.4928373802915, "lng": -0.1376242697084979}, "southwest": {"lat": 51.4901394197085, "lng": -0.140322230291502}}}, "name": "Goldgenie", "place_id": "ChIJ8UDwtOEEdkgRYuh1cBxDWPs", "types": ["point_of_interest", "store", "establishment"]}, "ChIJ_YJ3S-AEdkgRx9YR2Jo00mg": {"geometry": {"location": {"lat": 51.49143309999999, "lng": -0.1390691}, "viewport": {"northeast": {"lat": 51.4927656802915, "lng": -0.137663719708498}, "southwest": {"lat": 51.4900677197085, "lng": -0.140361680291502}}}, "name": "Property IS Consulting", "place_id": "ChIJ_YJ3S-AEdkgRx9YR2Jo00mg", "types": ["point_of_interest", "establishment"]}, "ChIJnYzETuAEdkgR9MGvpDtudD0": {"geometry": {"location": {"lat": 51.4917185, "lng": -0.1389491}, "viewport": {"northeast": {"lat": 51.49304333029149, "lng": -0.137502619708498}, "southwest": {"lat": 51.4903453697085, "lng": -0.140200580291502}}}, "name": "GAIL's Bakery Pimlico", "place_id": "ChIJnYzETuAEdkgR9MGvpDtudD0", "types": ["bakery", "meal_delivery", "cafe", "restaurant", "food", "point_of_interest", "store", "establishment"], "rating": 4.4, "user_ratings_total": 516}, "ChIJFVWEtOEEdkgRzwhxl1EuY1A": {"geometry": {"location": {"lat": 51.4911528, "lng": -0.1389272}, "viewport": {"northeast": {"lat": 51.4925266802915, "lng": -0.137665669708498}, "southwest": {"lat": 51.4898287197085, "lng": -0.140363630291502}}}, "name": "B L Pattern & Foundry", "place_id": "ChIJFVWEtOEEdkgRzwhxl1EuY1A", "types": ["point_of_interest", "establishment"]}, "ChIJFVWEtOEEdkgR2rLASJDUPR4": {"geometry": {"location": {"lat": 51.49111049999999, "lng": -0.1389574}, "viewport": {"northeast": {"lat": 51.49248448029149, "lng": -0.137696219708498}, "southwest": {"lat": 51.4897865197085, "lng": -0.140394180291502}}}, "name": "Stealth Defence", "place_id": "ChIJFVWEtOEEdkgR2rLASJDUPR4", "types": ["point_of_interest", "establishment"]}, "ChIJickXUuAEdkgRrp2Co9oa7LI": {"geometry": {"location": {"lat": 51.4916119, "lng": -0.13866}, "viewport": {"northeast": {"lat": 51.49297728029151, "lng": -0.137367619708498}, "southwest": {"lat": 51.49027931970851, "lng": -0.140065580291502}}}, "name": "McKennell Dental Practice", "place_id": "ChIJickXUuAEdkgRrp2Co9oa7LI", "types": ["dentist", "health", "point_of_interest", "establishment"], "rating": 4.3, "user_ratings_total": 23}, "ChIJZXhVReAEdkgR1FKGDd3MU3g": {"geometry": {"location": {"lat": 51.4919843, "lng": -0.1387271}, "viewport": {"northeast": {"lat": 51.49329858029151, "lng": -0.137295469708498}, "southwest": {"lat": 51.49060061970851, "lng": -0.139993430291502}}}, "name": "Cz Property Limited", "place_id": "ChIJZXhVReAEdkgR1FKGDd3MU3g", "types": ["point_of_interest", "establishment"]}, "ChIJQauFtOEEdkgR3_ay2JzQsdI": {"geometry": {"location": {"lat": 51.49111049999999, "lng": -0.1389574}, "viewport": {"northeast": {"lat": 51.49248593029149, "lng": -0.137695169708498}, "southwest": {"lat": 51.48978796970849, "lng": -0.140393130291502}}}, "name": "Levy B & Co (Patterns) Ltd", "place_id": "ChIJQauFtOEEdkgR3_ay2JzQsdI", "types": ["general_contractor", "point_of_interest", "establishment"]}, "ChIJickXUuAEdkgR7FdiNXP3EJw": {"geometry": {"location": {"lat": 51.4915366, "lng": -0.1386393}, "viewport": {"northeast": {"lat": 51.4929112302915, "lng": -0.137378569708498}, "southwest": {"lat": 51.4902132697085, "lng": -0.140076530291502}}}, "name": "Dovers Flowers", "place_id": "ChIJickXUuAEdkgR7FdiNXP3EJw", "types": ["florist", "point_of_interest", "store", "establishment"], "rating": 4.8, "user_ratings_total": 32}, "ChIJOR7G6vAEdkgRDP6B-yfdBD8": {"geometry": {"location": {"lat": 51.4915024, "lng": -0.1386578}, "viewport": {"northeast": {"lat": 51.4928778802915, "lng": -0.137399969708498}, "southwest": {"lat": 51.4901799197085, "lng": -0.140097930291502}}}, "name": "All London Fire Extinguishers", "place_id": "ChIJOR7G6vAEdkgRDP6B-yfdBD8", "types": ["point_of_interest", "establishment"], "rating": 5, "user_ratings_total": 4}, "ChIJh51ITOAEdkgRNxg0e2UDLNE": {"geometry": {"location": {"lat": 51.4914593, "lng": -0.1387567}, "viewport": {"northeast": {"lat": 51.49282683029149, "lng": -0.137471519708498}, "southwest": {"lat": 51.49012886970849, "lng": -0.140169480291502}}}, "name": "Pimlico Apartment", "place_id": "ChIJh51ITOAEdkgRNxg0e2UDLNE", "types": ["point_of_interest", "establishment"], "rating": 5, "user_ratings_total": 1}, "ChIJE0BqqSEFdkgRHr_2NEiWNgU": {"geometry": {"location": {"lat": 51.4914597, "lng": -0.1386913}, "viewport": {"northeast": {"lat": 51.4928338302915, "lng": -0.137433719708498}, "southwest": {"lat": 51.4901358697085, "lng": -0.140131680291502}}}, "name": "Victoria Hair Studio", "place_id": "ChIJE0BqqSEFdkgRHr_2NEiWNgU", "types": ["hair_care", "point_of_interest", "establishment"], "rating": 4.9, "user_ratings_total": 84}, "ChIJbV4PTeAEdkgRH5ybJ_tJGhM": {"geometry": {"location": {"lat": 51.4914181, "lng": -0.1387342}, "viewport": {"northeast": {"lat": 51.49279198029149, "lng": -0.137470969708498}, "southwest": {"lat": 51.4900940197085, "lng": -0.140168930291502}}}, "name": "Herb Clinic", "place_id": "ChIJbV4PTeAEdkgRH5ybJ_tJGhM", "types": ["beauty_salon", "spa", "health", "point_of_interest", "establishment"], "rating": 4.6, "user_ratings_total": 18}, "ChIJM3tKB1MFdkgRJTJz7vySIfQ": {"geometry": {"location": {"lat": 51.4913213, "lng": -0.138923}, "viewport": {"northeast": {"lat": 51.4926974802915, "lng": -0.137540719708498}, "southwest": {"lat": 51.4899995197085, "lng": -0.140238680291502}}}, "name": "WUS Charlwood Place", "place_id": "ChIJM3tKB1MFdkgRJTJz7vySIfQ", "types": ["school", "point_of_interest", "establishment"]}, "ChIJC47GdUMFdkgRIa3z2HZgylo": {"geometry": {"location": {"lat": 51.49135649999999, "lng": -0.1389891}, "viewport": {"northeast": {"lat": 51.4927054802915, "lng": -0.137640119708498}, "southwest": {"lat": 51.4900075197085, "lng": -0.140338080291502}}}, "name": "JTF Comedy Club", "place_id": "ChIJC47GdUMFdkgRIa3z2HZgylo", "types": ["point_of_interest", "establishment"]}, "ChIJB_0bnwcFdkgR1QfWRQFECiI": {"geometry": {"location": {"lat": 51.4915243, "lng": -0.1390461}, "viewport": {"northeast": {"lat": 51.49285148029151, "lng": -0.137622069708498}, "southwest": {"lat": 51.49015351970851, "lng": -0.1403200302915021}}}, "name": "Golden Butterfly", "place_id": "ChIJB_0bnwcFdkgR1QfWRQFECiI", "types": ["beauty_salon", "point_of_interest", "establishment"], "rating": 4.3, "user_ratings_total": 71}, "ChIJPzQXTOAEdkgR2LvMvGjhjeQ": {"geometry": {"location": {"lat": 51.4915038, "lng": -0.13906}, "viewport": {"northeast": {"lat": 51.4928311802915, "lng": -0.137636569708498}, "southwest": {"lat": 51.4901332197085, "lng": -0.140334530291502}}}, "name": "St George's Conservative Club", "place_id": "ChIJPzQXTOAEdkgR2LvMvGjhjeQ", "types": ["point_of_interest", "establishment"], "rating": 4.3, "user_ratings_total": 3}, "ChIJickXUuAEdkgRCDiL_BMYuWo": {"geometry": {"location": {"lat": 51.4916305, "lng": -0.138586}, "viewport": {"northeast": {"lat": 51.49300308029149, "lng": -0.137318269708498}, "southwest": {"lat": 51.49030511970849, "lng": -0.140016230291502}}}, "name": "Boutique - Terrence Higgins Trust Charity Shop", "place_id": "ChIJickXUuAEdkgRCDiL_BMYuWo", "types": ["point_of_interest", "clothing_store", "store", "establishment"], "rating": 4.9, "user_ratings_total": 27}, "ChIJVVXwUeAEdkgRduFXPUbbZDY": {"geometry": {"location": {"lat": 51.49163550000001, "lng": -0.1385876}, "viewport": {"northeast": {"lat": 51.49300743029151, "lng": -0.137317669708498}, "southwest": {"lat": 51.49030946970851, "lng": -0.140015630291502}}}, "name": "Crusaid", "place_id": "ChIJVVXwUeAEdkgRduFXPUbbZDY", "types": ["point_of_interest", "establishment"]}, "ChIJgQ-1UuAEdkgR3QHAA1IcbwQ": {"geometry": {"location": {"lat": 51.49128460000001, "lng": -0.13856}, "viewport": {"northeast": {"lat": 51.4925928802915, "lng": -0.1372603697084979}, "southwest": {"lat": 51.4898949197085, "lng": -0.139958330291502}}}, "name": "Wealden Contracts Limited", "place_id": "ChIJgQ-1UuAEdkgR3QHAA1IcbwQ", "types": ["point_of_interest", "establishment"]}, "ChIJM3v_S-AEdkgRcqAPCH2zzRk": {"geometry": {"location": {"lat": 51.4916215, "lng": -0.1390073}, "viewport": {"northeast": {"lat": 51.4929446302915, "lng": -0.137569319708498}, "southwest": {"lat": 51.4902466697085, "lng": -0.140267280291502}}}, "name": "Westminster Web Limited", "place_id": "ChIJM3v_S-AEdkgRcqAPCH2zzRk", "types": ["point_of_interest", "establishment"]}, "ChIJ02T_S-AEdkgRw_pAIjXqX5E": {"geometry": {"location": {"lat": 51.4916215, "lng": -0.1390073}, "viewport": {"northeast": {"lat": 51.4929446302915, "lng": -0.137569319708498}, "southwest": {"lat": 51.4902466697085, "lng": -0.140267280291502}}}, "name": "Latin Squares", "place_id": "ChIJ02T_S-AEdkgRw_pAIjXqX5E", "types": ["general_contractor", "point_of_interest", "establishment"], "rating": 3.3, "user_ratings_total": 7}, "ChIJA_OyTuAEdkgRpNuWSwqhRrA": {"geometry": {"location": {"lat": 51.4916509, "lng": -0.139003}, "viewport": {"northeast": {"lat": 51.4929719302915, "lng": -0.137557719708498}, "southwest": {"lat": 51.4902739697085, "lng": -0.140255680291502}}}, "name": "Virgilio Seo", "place_id": "ChIJA_OyTuAEdkgRpNuWSwqhRrA", "types": ["point_of_interest", "establishment"]}, "ChIJvyPDUeAEdkgRsUr5jp0nbDU": {"geometry": {"location": {"lat": 51.4916987, "lng": -0.1385947}, "viewport": {"northeast": {"lat": 51.4930641302915, "lng": -0.137302419708498}, "southwest": {"lat": 51.4903661697085, "lng": -0.140000380291502}}}, "name": "Luxury Alterations", "place_id": "ChIJvyPDUeAEdkgRsUr5jp0nbDU", "types": ["point_of_interest", "establishment"], "rating": 4.6, "user_ratings_total": 53}, "ChIJ__80reEEdkgRbl_6Qp_c4-Y": {"geometry": {"location": {"lat": 51.4912651, "lng": -0.1384654}, "viewport": {"northeast": {"lat": 51.4925654302915, "lng": -0.1371754197084979}, "southwest": {"lat": 51.4898674697085, "lng": -0.139873380291502}}}, "name": "Cordelia Sayers", "place_id": "ChIJ__80reEEdkgRbl_6Qp_c4-Y", "types": ["point_of_interest", "establishment"]}, "ChIJt3NKs-EEdkgRgNOYH6ioJnA": {"geometry": {"location": {"lat": 51.49119289999999, "lng": -0.1389333}, "viewport": {"northeast": {"lat": 51.4925625802915, "lng": -0.137657069708498}, "southwest": {"lat": 51.4898646197085, "lng": -0.140355030291502}}}, "name": "Vintage Cellars", "place_id": "ChIJt3NKs-EEdkgRgNOYH6ioJnA", "types": ["food", "point_of_interest", "establishment"], "rating": 5, "user_ratings_total": 6}, "ChIJz-ThTuAEdkgR0kRUqN41OXg": {"geometry": {"location": {"lat": 51.49176680000001, "lng": -0.1389012}, "viewport": {"northeast": {"lat": 51.49308963029151, "lng": -0.137462069708498}, "southwest": {"lat": 51.49039166970851, "lng": -0.140160030291502}}}, "name": "Ab Design & Build Ltd", "place_id": "ChIJz-ThTuAEdkgR0kRUqN41OXg", "types": ["point_of_interest", "establishment"]}, "ChIJp6feZO8FdkgR3hLwQRQaFmk": {"geometry": {"location": {"lat": 51.4917705, "lng": -0.1388901}, "viewport": {"northeast": {"lat": 51.4931541302915, "lng": -0.1375162197084979}, "southwest": {"lat": 51.4904561697085, "lng": -0.140214180291502}}}, "name": "MORE Provasi", "place_id": "ChIJp6feZO8FdkgR3hLwQRQaFmk", "types": ["furniture_store", "home_goods_store", "point_of_interest", "store", "establishment"]}, "ChIJAd_n9ooFdkgRutsnoRUiv9E": {"geometry": {"location": {"lat": 51.4911093, "lng": -0.1390132}, "viewport": {"northeast": {"lat": 51.4924768302915, "lng": -0.137729319708498}, "southwest": {"lat": 51.4897788697085, "lng": -0.140427280291502}}}, "name": "Beauty Therapy By Carla", "place_id": "ChIJAd_n9ooFdkgRutsnoRUiv9E", "types": ["health", "point_of_interest", "establishment"], "rating": 5, "user_ratings_total": 10}, "ChIJrwILX6UFdkgRUhT_XYN3ZcQ": {"geometry": {"location": {"lat": 51.49109439999999, "lng": -0.1389609}, "viewport": {"northeast": {"lat": 51.4924693802915, "lng": -0.137703169708498}, "southwest": {"lat": 51.4897714197085, "lng": -0.140401130291502}}}, "name": "Petite Nail Bar", "place_id": "ChIJrwILX6UFdkgRUhT_XYN3ZcQ", "types": ["beauty_salon", "point_of_interest", "establishment"], "rating": 4.8, "user_ratings_total": 110}, "ChIJI10ntOEEdkgRFe9eEK-xUWA": {"geometry": {"location": {"lat": 51.4910107, "lng": -0.1390725}, "viewport": {"northeast": {"lat": 51.4922900802915, "lng": -0.1378052197084979}, "southwest": {"lat": 51.4895921197085, "lng": -0.140503180291502}}}, "name": "Villa Medici", "place_id": "ChIJI10ntOEEdkgRFe9eEK-xUWA", "types": ["restaurant", "food", "point_of_interest", "establishment"], "rating": 4.4, "user_ratings_total": 5}, "ChIJF6snhHcFdkgRAx0SS2F7_0E": {"geometry": {"location": {"lat": 51.49195169999999, "lng": -0.1387415}, "viewport": {"northeast": {"lat": 51.49327323029149, "lng": -0.137311769708498}, "southwest": {"lat": 51.49057526970849, "lng": -0.140009730291502}}}, "name": "Cutting crew Pimlico", "place_id": "ChIJF6snhHcFdkgRAx0SS2F7_0E", "types": ["hair_care", "health", "point_of_interest", "establishment"], "rating": 5, "user_ratings_total": 2}, "ChIJZ_V9hd0FdkgRrlSGyT7Iy0o": {"geometry": {"location": {"lat": 51.49195169999999, "lng": -0.1387415}, "viewport": {"northeast": {"lat": 51.4932728302915, "lng": -0.137312169708498}, "southwest": {"lat": 51.4905748697085, "lng": -0.140010130291502}}}, "name": "Regain Health Osteopathy Clinic", "place_id": "ChIJZ_V9hd0FdkgRrlSGyT7Iy0o", "types": ["health", "point_of_interest", "establishment"], "rating": 5, "user_ratings_total": 24}, "ChIJxbFgReAEdkgRxjP32oJaNJo": {"geometry": {"location": {"lat": 51.49195169999999, "lng": -0.1387415}, "viewport": {"northeast": {"lat": 51.4932728302915, "lng": -0.137312169708498}, "southwest": {"lat": 51.4905748697085, "lng": -0.140010130291502}}}, "name": "Calm Reflexology", "place_id": "ChIJxbFgReAEdkgRxjP32oJaNJo", "types": ["health", "point_of_interest", "establishment"]}, "ChIJixsKsOEEdkgRMUo94D648qY": {"geometry": {"location": {"lat": 51.49062155071631, "lng": -0.1387054482412669}, "viewport": {"northeast": {"lat": 51.4919705302915, "lng": -0.137356469708498}, "southwest": {"lat": 51.4892725697085, "lng": -0.140054430291502}}}, "name": "76-58 Belgrave Rd", "place_id": "ChIJixsKsOEEdkgRMUo94D648qY", "types": ["route"]}, "ChIJW-zrseEEdkgRlEFG2yb-wtc": {"geometry": {"location": {"lat": 51.49065979999999, "lng": -0.1383784}, "viewport": {"northeast": {"lat": 51.49195898029149, "lng": -0.136999269708498}, "southwest": {"lat": 51.48926101970849, "lng": -0.139697230291502}}}, "name": "OYO Flagship Huttons", "place_id": "ChIJW-zrseEEdkgRlEFG2yb-wtc", "types": ["lodging", "point_of_interest", "establishment"], "rating": 3.4, "user_ratings_total": 806}, "ChIJrUfuueEEdkgR6joeORsbYVw": {"geometry": {"location": {"lat": 51.4904777, "lng": -0.1388339}, "viewport": {"northeast": {"lat": 51.49174463029151, "lng": -0.137288819708498}, "southwest": {"lat": 51.48904666970851, "lng": -0.139986780291502}}}, "name": "Sidney Hotel London - Budget Hotels In Central London Near Victoria Station, Hotel Near Queen Elisabeth Conference Centre, Breakfast, Free WI-FI, Restaurant", "place_id": "ChIJrUfuueEEdkgR6joeORsbYVw", "types": ["lodging", "point_of_interest", "establishment"], "rating": 3.8, "user_ratings_total": 771}, "ChIJC7v6vOEEdkgRMzUB4sDDpCI": {"geometry": {"location": {"lat": 51.4901947, "lng": -0.1387737000000001}, "viewport": {"northeast": {"lat": 51.4915109802915, "lng": -0.137344819708498}, "southwest": {"lat": 51.4888130197085, "lng": -0.1400427802915021}}}, "name": "The Melita, London", "place_id": "ChIJC7v6vOEEdkgRMzUB4sDDpCI", "types": ["lodging", "point_of_interest", "establishment"], "rating": 3.8, "user_ratings_total": 127}, "ChIJW-zrseEEdkgRUrNWa6ny1Tw": {"geometry": {"location": {"lat": 51.49087170000001, "lng": -0.138789}, "viewport": {"northeast": {"lat": 51.49215883029149, "lng": -0.1375311197084979}, "southwest": {"lat": 51.48946086970849, "lng": -0.140229080291502}}}, "name": "Lidos Hotel", "place_id": "ChIJW-zrseEEdkgRUrNWa6ny1Tw", "types": ["lodging", "point_of_interest", "establishment"], "rating": 3.9, "user_ratings_total": 359}, "ChIJpQsosOEEdkgREqV9sGqfASQ": {"geometry": {"location": {"lat": 51.49079379999999, "lng": -0.1386982}, "viewport": {"northeast": {"lat": 51.49208733029149, "lng": -0.137417269708498}, "southwest": {"lat": 51.4893893697085, "lng": -0.140115230291502}}}, "name": "Luna Simone Hotel", "place_id": "ChIJpQsosOEEdkgREqV9sGqfASQ", "types": ["lodging", "point_of_interest", "establishment"], "rating": 4.4, "user_ratings_total": 288}, "ChIJp-HBr-EEdkgRVW4t9zfJmoo": {"geometry": {"location": {"lat": 51.4907215, "lng": -0.1385217}, "viewport": {"northeast": {"lat": 51.4920113302915, "lng": -0.137245319708498}, "southwest": {"lat": 51.4893133697085, "lng": -0.139943280291502}}}, "name": "The Victor Hotel London Victoria", "place_id": "ChIJp-HBr-EEdkgRVW4t9zfJmoo", "types": ["lodging", "point_of_interest", "establishment"], "rating": 3.8, "user_ratings_total": 223}, "ChIJPUqpvOEEdkgRs02tpbei7YA": {"geometry": {"location": {"lat": 51.4902778, "lng": -0.1386111}, "viewport": {"northeast": {"lat": 51.4916053302915, "lng": -0.137208319708498}, "southwest": {"lat": 51.4889073697085, "lng": -0.139906280291502}}}, "name": "Romanos Hotel London", "place_id": "ChIJPUqpvOEEdkgRs02tpbei7YA", "types": ["lodging", "point_of_interest", "establishment"], "rating": 3, "user_ratings_total": 241}, "ChIJ48-8N5EFdkgRxuNpjiVv1vg": {"geometry": {"location": {"lat": 51.49059380000001, "lng": -0.1390614}, "viewport": {"northeast": {"lat": 51.4920049802915, "lng": -0.137636019708498}, "southwest": {"lat": 51.48930701970851, "lng": -0.140333980291502}}}, "name": "The Park Hotel", "place_id": "ChIJ48-8N5EFdkgRxuNpjiVv1vg", "types": ["lodging", "point_of_interest", "establishment"], "rating": 2.2, "user_ratings_total": 354}, "ChIJtY0KsOEEdkgR4Y5GSgAjofQ": {"geometry": {"location": {"lat": 51.4906235, "lng": -0.1387225}, "viewport": {"northeast": {"lat": 51.49199943029149, "lng": -0.1373404197084979}, "southwest": {"lat": 51.48930146970849, "lng": -0.140038380291502}}}, "name": "Belgrave Road", "place_id": "ChIJtY0KsOEEdkgR4Y5GSgAjofQ", "types": ["transit_station", "point_of_interest", "establishment"]}, "ChIJPUuyZkgFdkgRK4ls11YVN1s": {"geometry": {"location": {"lat": 51.4904777, "lng": -0.1388339}, "viewport": {"northeast": {"lat": 51.49189138029149, "lng": -0.137405519708498}, "southwest": {"lat": 51.48919341970849, "lng": -0.140103480291502}}}, "name": "HAQEL ALMADINA TEXTILE TRAINING", "place_id": "ChIJPUuyZkgFdkgRK4ls11YVN1s", "types": ["store", "point_of_interest", "establishment"]}, "ChIJdyAtpeEEdkgRF4tMPP345I4": {"geometry": {"location": {"lat": 51.490486, "lng": -0.138634}, "viewport": {"northeast": {"lat": 51.49186703029149, "lng": -0.137245669708498}, "southwest": {"lat": 51.4891690697085, "lng": -0.139943630291502}}}, "name": "Belgrave Road (Stop S)", "place_id": "ChIJdyAtpeEEdkgRF4tMPP345I4", "types": ["transit_station", "point_of_interest", "establishment"], "rating": 5, "user_ratings_total": 1}, "ChIJVVXhueEEdkgR0B_Z0ka4dKI": {"geometry": {"location": {"lat": 51.490603, "lng": -0.1390369}, "viewport": {"northeast": {"lat": 51.4920076302915, "lng": -0.137619619708498}, "southwest": {"lat": 51.4893096697085, "lng": -0.140317580291502}}}, "name": "\u30b6 \u30d1\u30fc\u30af \u30db\u30c6\u30eb (The Park Hotel)", "place_id": "ChIJVVXhueEEdkgR0B_Z0ka4dKI", "types": ["lodging", "point_of_interest", "establishment"]}, "ChIJ3b9yQ9wFdkgRgUsXQzvIYRY": {"geometry": {"location": {"lat": 51.49022410000001, "lng": -0.138329}, "viewport": {"northeast": {"lat": 51.4916423802915, "lng": -0.136895719708498}, "southwest": {"lat": 51.4889444197085, "lng": -0.139593680291502}}}, "name": "Domenica Marland", "place_id": "ChIJ3b9yQ9wFdkgRgUsXQzvIYRY", "types": ["point_of_interest", "establishment"]}, "ChIJGx_po-EEdkgRAGkfapdrjeQ": {"geometry": {"location": {"lat": 51.49022410000001, "lng": -0.138329}, "viewport": {"northeast": {"lat": 51.4916423802915, "lng": -0.136895719708498}, "southwest": {"lat": 51.4889444197085, "lng": -0.139593680291502}}}, "name": "Herriot Limited", "place_id": "ChIJGx_po-EEdkgRAGkfapdrjeQ", "types": ["point_of_interest", "establishment"]}, "ChIJ4708hgcFdkgRKQroOc0EW5Y": {"geometry": {"location": {"lat": 51.49062139999999, "lng": -0.1383806}, "viewport": {"northeast": {"lat": 51.49192163029151, "lng": -0.137091469708498}, "southwest": {"lat": 51.48922366970851, "lng": -0.139789430291502}}}, "name": "Six20Two", "place_id": "ChIJ4708hgcFdkgRKQroOc0EW5Y", "types": ["point_of_interest", "establishment"]}, "ChIJiUxhr-EEdkgR_B1q8UUaB8E": {"geometry": {"location": {"lat": 51.49062139999999, "lng": -0.1383806}, "viewport": {"northeast": {"lat": 51.49192163029151, "lng": -0.137091469708498}, "southwest": {"lat": 51.48922366970851, "lng": -0.139789430291502}}}, "name": "\u30cf\u30c3\u30c8\u30f3 \u30db\u30c6\u30eb", "place_id": "ChIJiUxhr-EEdkgR_B1q8UUaB8E", "types": ["lodging", "point_of_interest", "establishment"]}, "ChIJS4RWsOEEdkgRbyRldG6bDaA": {"geometry": {"location": {"lat": 51.490761, "lng": -0.138811}, "viewport": {"northeast": {"lat": 51.4920749302915, "lng": -0.137482769708498}, "southwest": {"lat": 51.4893769697085, "lng": -0.140180730291502}}}, "name": "Belgrave Road (Stop R)", "place_id": "ChIJS4RWsOEEdkgRbyRldG6bDaA", "types": ["bus_station", "transit_station", "point_of_interest", "establishment"], "rating": 1, "user_ratings_total": 1}, "ChIJIYPAThIFdkgR4cAZZZWgK-w": {"geometry": {"location": {"lat": 51.49081779999999, "lng": -0.1384077}, "viewport": {"northeast": {"lat": 51.49225193029149, "lng": -0.136955419708498}, "southwest": {"lat": 51.4895539697085, "lng": -0.139653380291502}}}, "name": "HOTEL", "place_id": "ChIJIYPAThIFdkgR4cAZZZWgK-w", "types": ["lodging", "point_of_interest", "establishment"]}, "ChIJCzEbGecEdkgRGq65hxqUZQU": {"geometry": {"location": {"lat": 51.4916968, "lng": -0.1344651}, "viewport": {"northeast": {"lat": 51.4930751302915, "lng": -0.133076069708498}, "southwest": {"lat": 51.4903771697085, "lng": -0.135774030291502}}}, "name": "Communica", "place_id": "ChIJCzEbGecEdkgRGq65hxqUZQU", "types": ["point_of_interest", "establishment"]}, "ChIJf6PlMucEdkgRWtj5Wv9TtHE": {"geometry": {"location": {"lat": 51.49206700000001, "lng": -0.13485}, "viewport": {"northeast": {"lat": 51.4933987302915, "lng": -0.133523819708498}, "southwest": {"lat": 51.4907007697085, "lng": -0.136221780291502}}}, "name": "ubitricity Charging Station", "place_id": "ChIJf6PlMucEdkgRWtj5Wv9TtHE", "types": ["point_of_interest", "establishment"]}, "ChIJ-SvKNAoFdkgRNqHaNj36374": {"geometry": {"location": {"lat": 51.4908771, "lng": -0.1346224}, "viewport": {"northeast": {"lat": 51.4921739802915, "lng": -0.133169669708498}, "southwest": {"lat": 51.4894760197085, "lng": -0.135867630291502}}}, "name": "One Church Square", "place_id": "ChIJ-SvKNAoFdkgRNqHaNj36374", "types": ["lodging", "point_of_interest", "establishment"], "rating": 4.5, "user_ratings_total": 2}, "ChIJS4q8luAEdkgRWuTHpMfDWBU": {"geometry": {"location": {"lat": 51.49296925036725, "lng": -0.1367272990519584}, "viewport": {"northeast": {"lat": 51.4943182302915, "lng": -0.135378319708498}, "southwest": {"lat": 51.49162026970851, "lng": -0.138076280291502}}}, "name": "56 Vincent Square", "place_id": "ChIJS4q8luAEdkgRWuTHpMfDWBU", "types": ["route"]}, "ChIJQSlr2uAEdkgRn9ru3Xk78OI": {"geometry": {"location": {"lat": 51.49176608833956, "lng": -0.1359129642568394}, "viewport": {"northeast": {"lat": 51.49311508029149, "lng": -0.134563969708498}, "southwest": {"lat": 51.4904171197085, "lng": -0.137261930291502}}}, "name": "124-106 A202", "place_id": "ChIJQSlr2uAEdkgRn9ru3Xk78OI", "types": ["route"]}, "ChIJV53P7uAEdkgRwNq1Onptp5U": {"geometry": {"location": {"lat": 51.49200039999999, "lng": -0.1361573}, "viewport": {"northeast": {"lat": 51.49348923029149, "lng": -0.134831419708498}, "southwest": {"lat": 51.4907912697085, "lng": -0.137529380291502}}}, "name": "halter management ltd", "place_id": "ChIJV53P7uAEdkgRwNq1Onptp5U", "types": ["point_of_interest", "establishment"]}, "ChIJT6QV7rUEdkgRJ6H2kFm-gNs": {"geometry": {"location": {"lat": 51.492339, "lng": -0.136148}, "viewport": {"northeast": {"lat": 51.49367598029151, "lng": -0.134773719708498}, "southwest": {"lat": 51.49097801970851, "lng": -0.137471680291502}}}, "name": "CoachDirectors Ltd", "place_id": "ChIJT6QV7rUEdkgRJ6H2kFm-gNs", "types": ["point_of_interest", "establishment"], "rating": 4.8, "user_ratings_total": 4}, "ChIJOZjE1dIEdkgRChR2UiP0hUM": {"geometry": {"location": {"lat": 51.492203, "lng": -0.1360077}, "viewport": {"northeast": {"lat": 51.4935905302915, "lng": -0.134723019708498}, "southwest": {"lat": 51.4908925697085, "lng": -0.137420980291502}}}, "name": "Addictions & Offender Care Management Offices for C N W L", "place_id": "ChIJOZjE1dIEdkgRChR2UiP0hUM", "types": ["point_of_interest", "establishment"]}, "ChIJBdVRHOQFdkgRjuKefzMuvCw": {"geometry": {"location": {"lat": 51.492339, "lng": -0.136148}, "viewport": {"northeast": {"lat": 51.49367598029151, "lng": -0.134773719708498}, "southwest": {"lat": 51.49097801970851, "lng": -0.137471680291502}}}, "name": "BUYability Limited", "place_id": "ChIJBdVRHOQFdkgRjuKefzMuvCw", "types": ["point_of_interest", "establishment"]}, "ChIJywcPZOAEdkgRYsCyKN4W3Qk": {"geometry": {"location": {"lat": 51.4930542, "lng": -0.13825}, "viewport": {"northeast": {"lat": 51.49440318029149, "lng": -0.1369010197084979}, "southwest": {"lat": 51.49170521970849, "lng": -0.139598980291502}}}, "name": "The Jugged Hare, Victoria", "place_id": "ChIJywcPZOAEdkgRYsCyKN4W3Qk", "types": ["bar", "restaurant", "food", "point_of_interest", "establishment"], "rating": 4.2, "user_ratings_total": 723}, "ChIJk__iiOAEdkgRCwuTqF8BEx4": {"geometry": {"location": {"lat": 51.4930327, "lng": -0.1375942}, "viewport": {"northeast": {"lat": 51.49440363029149, "lng": -0.136320019708498}, "southwest": {"lat": 51.4917056697085, "lng": -0.139017980291502}}}, "name": "Chelsea Funeral Directors", "place_id": "ChIJk__iiOAEdkgRCwuTqF8BEx4", "types": ["point_of_interest", "establishment"], "rating": 4, "user_ratings_total": 1}, "ChIJ6c7niOAEdkgRCWSCqQv77zE": {"geometry": {"location": {"lat": 51.493053, "lng": -0.1375385}, "viewport": {"northeast": {"lat": 51.4944299802915, "lng": -0.136279669708498}, "southwest": {"lat": 51.49173201970851, "lng": -0.138977630291502}}}, "name": "Elliott Rowland Visiting Tailor's", "place_id": "ChIJ6c7niOAEdkgRCWSCqQv77zE", "types": ["point_of_interest", "establishment"], "rating": 5, "user_ratings_total": 1}, "ChIJrfduYeAEdkgRSDs6nrdabjo": {"geometry": {"location": {"lat": 51.4929621, "lng": -0.1381353}, "viewport": {"northeast": {"lat": 51.4942616302915, "lng": -0.136703969708498}, "southwest": {"lat": 51.4915636697085, "lng": -0.139401930291502}}}, "name": "London Apprenticeship Company", "place_id": "ChIJrfduYeAEdkgRSDs6nrdabjo", "types": ["point_of_interest", "establishment"]}, "ChIJg_jmYeAEdkgRcCGwcK3ADTM": {"geometry": {"location": {"lat": 51.49289330000001, "lng": -0.1377689}, "viewport": {"northeast": {"lat": 51.49426633029151, "lng": -0.136473319708498}, "southwest": {"lat": 51.49156836970851, "lng": -0.139171280291502}}}, "name": "The Young Actors Studio", "place_id": "ChIJg_jmYeAEdkgRcCGwcK3ADTM", "types": ["point_of_interest", "establishment"]}, "ChIJS2TF29wEdkgR4BBUuPhdWcc": {"geometry": {"location": {"lat": 51.492932, "lng": -0.1377399}, "viewport": {"northeast": {"lat": 51.49430268029151, "lng": -0.136439119708498}, "southwest": {"lat": 51.49160471970851, "lng": -0.139137080291502}}}, "name": "The Salvation Army", "place_id": "ChIJS2TF29wEdkgR4BBUuPhdWcc", "types": ["point_of_interest", "establishment"], "rating": 3, "user_ratings_total": 3}, "ChIJ6c7niOAEdkgRQ2MB1ltWR24": {"geometry": {"location": {"lat": 51.4930548, "lng": -0.1375357}, "viewport": {"northeast": {"lat": 51.4944391302915, "lng": -0.136271669708498}, "southwest": {"lat": 51.4917411697085, "lng": -0.138969630291502}}}, "name": "Redwood & Feller Ltd", "place_id": "ChIJ6c7niOAEdkgRQ2MB1ltWR24", "types": ["point_of_interest", "establishment"], "rating": 4.7, "user_ratings_total": 28}, "ChIJEc0XiuAEdkgRNkbDqsp6SQA": {"geometry": {"location": {"lat": 51.49281200000001, "lng": -0.137843}, "viewport": {"northeast": {"lat": 51.49419443029151, "lng": -0.136540669708498}, "southwest": {"lat": 51.49149646970851, "lng": -0.139238630291502}}}, "name": "Foxtons Pimlico & Westminster Estate Agents", "place_id": "ChIJEc0XiuAEdkgRNkbDqsp6SQA", "types": ["finance", "real_estate_agency", "point_of_interest", "establishment"], "rating": 4.4, "user_ratings_total": 138}, "ChIJ-8TEjuAEdkgRp6DQFohkv_g": {"geometry": {"location": {"lat": 51.49299509999999, "lng": -0.1376284}, "viewport": {"northeast": {"lat": 51.49436533029149, "lng": -0.136351869708498}, "southwest": {"lat": 51.49166736970849, "lng": -0.139049830291502}}}, "name": "Tapas Bar O Tejo", "place_id": "ChIJ-8TEjuAEdkgRp6DQFohkv_g", "types": ["restaurant", "cafe", "food", "point_of_interest", "establishment"], "rating": 4.5, "user_ratings_total": 8}, "ChIJ-8TEjuAEdkgR7xtx4GNHvBw": {"geometry": {"location": {"lat": 51.49301440000001, "lng": -0.1376654}, "viewport": {"northeast": {"lat": 51.4943786302915, "lng": -0.136367619708498}, "southwest": {"lat": 51.4916806697085, "lng": -0.139065580291502}}}, "name": "Caf\u00e9 Tejo", "place_id": "ChIJ-8TEjuAEdkgR7xtx4GNHvBw", "types": ["cafe", "food", "point_of_interest", "establishment"], "rating": 4.6, "user_ratings_total": 103}, "ChIJgztyieAEdkgR6SFEH59SBsk": {"geometry": {"location": {"lat": 51.49298280000001, "lng": -0.1376936}, "viewport": {"northeast": {"lat": 51.4943452802915, "lng": -0.136394919708498}, "southwest": {"lat": 51.4916473197085, "lng": -0.139092880291502}}}, "name": "Yoella Salon", "place_id": "ChIJgztyieAEdkgR6SFEH59SBsk", "types": ["hair_care", "point_of_interest", "establishment"], "rating": 4.9, "user_ratings_total": 7}, "ChIJs4c9YuAEdkgRg8LC6y3RxuI": {"geometry": {"location": {"lat": 51.4929868, "lng": -0.1381047}, "viewport": {"northeast": {"lat": 51.4942948802915, "lng": -0.136661769708498}, "southwest": {"lat": 51.4915969197085, "lng": -0.139359730291502}}}, "name": "Investment Security International Bank", "place_id": "ChIJs4c9YuAEdkgRg8LC6y3RxuI", "types": ["bank", "finance", "point_of_interest", "establishment"]}, "ChIJrfduYeAEdkgRHcNqxxZnb9Y": {"geometry": {"location": {"lat": 51.4930116, "lng": -0.1381416}, "viewport": {"northeast": {"lat": 51.4943012802915, "lng": -0.136839619708498}, "southwest": {"lat": 51.4916033197085, "lng": -0.139537580291502}}}, "name": "Victoria One", "place_id": "ChIJrfduYeAEdkgRHcNqxxZnb9Y", "types": ["point_of_interest", "establishment"], "rating": 3.6, "user_ratings_total": 13}, "ChIJZcvwa-AEdkgREpSdMYOuduA": {"geometry": {"location": {"lat": 51.4929482, "lng": -0.1381041}, "viewport": {"northeast": {"lat": 51.4942559802915, "lng": -0.136780219708498}, "southwest": {"lat": 51.4915580197085, "lng": -0.139478180291502}}}, "name": "Bodyset", "place_id": "ChIJZcvwa-AEdkgREpSdMYOuduA", "types": ["physiotherapist", "health", "point_of_interest", "establishment"], "rating": 5, "user_ratings_total": 2}, "ChIJ70g0iuAEdkgRFK938a8M0u4": {"geometry": {"location": {"lat": 51.4928496, "lng": -0.137749}, "viewport": {"northeast": {"lat": 51.4942183302915, "lng": -0.1364772697084979}, "southwest": {"lat": 51.4915203697085, "lng": -0.139175230291502}}}, "name": "Foxtons", "place_id": "ChIJ70g0iuAEdkgRFK938a8M0u4", "types": ["point_of_interest", "establishment"]}, "ChIJZ240uj8FdkgRUMxIp7Re8l4": {"geometry": {"location": {"lat": 51.4930615, "lng": -0.1383595}, "viewport": {"northeast": {"lat": 51.4943681802915, "lng": -0.137062569708498}, "southwest": {"lat": 51.4916702197085, "lng": -0.139760530291502}}}, "name": "Ladbrokes", "place_id": "ChIJZ240uj8FdkgRUMxIp7Re8l4", "types": ["point_of_interest", "establishment"], "rating": 4.3, "user_ratings_total": 4}, "ChIJm2yZWeAEdkgRmmYAeZ-zSWc": {"geometry": {"location": {"lat": 51.4920743, "lng": -0.1381309}, "viewport": {"northeast": {"lat": 51.4933485802915, "lng": -0.136895569708498}, "southwest": {"lat": 51.4906506197085, "lng": -0.139593530291502}}}, "name": "Go Glam", "place_id": "ChIJm2yZWeAEdkgRmmYAeZ-zSWc", "types": ["beauty_salon", "point_of_interest", "establishment"], "rating": 3.8, "user_ratings_total": 31}, "ChIJccCB58cFdkgRHjsYhuZD7Dk": {"geometry": {"location": {"lat": 51.4920744, "lng": -0.1381309000000001}, "viewport": {"northeast": {"lat": 51.4933382302915, "lng": -0.136880769708498}, "southwest": {"lat": 51.4906402697085, "lng": -0.139578730291502}}}, "name": "Emideli Restaurant", "place_id": "ChIJccCB58cFdkgRHjsYhuZD7Dk", "types": ["meal_takeaway", "restaurant", "food", "point_of_interest", "store", "establishment"], "rating": 5, "user_ratings_total": 9}, "ChIJQ36NWeAEdkgR6p1X_sjucR8": {"geometry": {"location": {"lat": 51.4920035, "lng": -0.1381803}, "viewport": {"northeast": {"lat": 51.4933075302915, "lng": -0.136910719708498}, "southwest": {"lat": 51.4906095697085, "lng": -0.139608680291502}}}, "name": "Classi Clean", "place_id": "ChIJQ36NWeAEdkgR6p1X_sjucR8", "types": ["laundry", "point_of_interest", "establishment"], "rating": 3, "user_ratings_total": 2}, "ChIJIWIoSnAFdkgR7QKaP86bdAM": {"geometry": {"location": {"lat": 51.4920091, "lng": -0.1381854}, "viewport": {"northeast": {"lat": 51.4933103302915, "lng": -0.136913269708498}, "southwest": {"lat": 51.4906123697085, "lng": -0.139611230291502}}}, "name": "Tower Bridge Dry Cleaners", "place_id": "ChIJIWIoSnAFdkgR7QKaP86bdAM", "types": ["laundry", "point_of_interest", "establishment"], "rating": 3, "user_ratings_total": 2}, "ChIJCxiMWeAEdkgRAbT--AI_EGE": {"geometry": {"location": {"lat": 51.4920572, "lng": -0.1382304}, "viewport": {"northeast": {"lat": 51.49340618029151, "lng": -0.136881419708498}, "southwest": {"lat": 51.49070821970851, "lng": -0.139579380291502}}}, "name": "Victoria Greetings Cards Ltd", "place_id": "ChIJCxiMWeAEdkgRAbT--AI_EGE", "types": ["point_of_interest", "establishment"]}, "ChIJAfWKWeAEdkgRfl06c65pR3g": {"geometry": {"location": {"lat": 51.4920713, "lng": -0.1382436}, "viewport": {"northeast": {"lat": 51.4934202802915, "lng": -0.1368946197084979}, "southwest": {"lat": 51.4907223197085, "lng": -0.139592580291502}}}, "name": "Nuvit Boutique Caf\u00e9 & Bar", "place_id": "ChIJAfWKWeAEdkgRfl06c65pR3g", "types": ["point_of_interest", "establishment"]}, "ChIJvwEpWuAEdkgRukKbMiUjfVM": {"geometry": {"location": {"lat": 51.4920672, "lng": -0.1382923}, "viewport": {"northeast": {"lat": 51.49335518029149, "lng": -0.136996869708498}, "southwest": {"lat": 51.4906572197085, "lng": -0.139694830291502}}}, "name": "Pimlico Pet Foods", "place_id": "ChIJvwEpWuAEdkgRukKbMiUjfVM", "types": ["point_of_interest", "establishment"], "rating": 5, "user_ratings_total": 2}, "ChIJZXhVReAEdkgRUYf4Pvq8J1M": {"geometry": {"location": {"lat": 51.4919843, "lng": -0.1387271}, "viewport": {"northeast": {"lat": 51.49329858029151, "lng": -0.137295469708498}, "southwest": {"lat": 51.49060061970851, "lng": -0.139993430291502}}}, "name": "The Pimlico Clinic", "place_id": "ChIJZXhVReAEdkgRUYf4Pvq8J1M", "types": ["doctor", "health", "point_of_interest", "establishment"], "rating": 5, "user_ratings_total": 37}, "ChIJzQ_uAOEEdkgRFfJlO05vtiw": {"geometry": {"location": {"lat": 51.4910708, "lng": -0.137795}, "viewport": {"northeast": {"lat": 51.4923869302915, "lng": -0.136378269708498}, "southwest": {"lat": 51.48968896970851, "lng": -0.139076230291502}}}, "name": "Radio Napoli", "place_id": "ChIJzQ_uAOEEdkgRFfJlO05vtiw", "types": ["point_of_interest", "establishment"]}, "ChIJhRYxHyEFdkgRboPQ5gZTCXQ": {"geometry": {"location": {"lat": 51.4911047, "lng": -0.1377921}, "viewport": {"northeast": {"lat": 51.4924844302915, "lng": -0.136358919708498}, "southwest": {"lat": 51.4897864697085, "lng": -0.139056880291502}}}, "name": "Fine Architecture", "place_id": "ChIJhRYxHyEFdkgRboPQ5gZTCXQ", "types": ["point_of_interest", "establishment"]}, "ChIJFbZ4COEEdkgREuWHUGZAOBk": {"geometry": {"location": {"lat": 51.49089170000001, "lng": -0.1375861}, "viewport": {"northeast": {"lat": 51.4922406802915, "lng": -0.136237119708498}, "southwest": {"lat": 51.48954271970851, "lng": -0.1389350802915021}}}, "name": "Pimlico Thai", "place_id": "ChIJFbZ4COEEdkgREuWHUGZAOBk", "types": ["restaurant", "food", "point_of_interest", "establishment"], "rating": 4.1, "user_ratings_total": 251}, "ChIJZXq0qeEEdkgRbY88AVK2P8Q": {"geometry": {"location": {"lat": 51.490797, "lng": -0.138019}, "viewport": {"northeast": {"lat": 51.4921796302915, "lng": -0.136629269708498}, "southwest": {"lat": 51.4894816697085, "lng": -0.139327230291502}}}, "name": "ubitricity Charging Station", "place_id": "ChIJZXq0qeEEdkgRbY88AVK2P8Q", "types": ["point_of_interest", "establishment"]}, "ChIJX9sI6lwFdkgRIZMTafmtKc8": {"geometry": {"location": {"lat": 51.4908391, "lng": -0.1376448}, "viewport": {"northeast": {"lat": 51.4922163802915, "lng": -0.136364769708498}, "southwest": {"lat": 51.4895184197085, "lng": -0.139062730291502}}}, "name": "Thai Studio Pimlico", "place_id": "ChIJX9sI6lwFdkgRIZMTafmtKc8", "types": ["health", "point_of_interest", "establishment"], "rating": 4.7, "user_ratings_total": 43}, "ChIJryUOfZAFdkgRs-qqJKztzUk": {"geometry": {"location": {"lat": 51.4911001, "lng": -0.1377641}, "viewport": {"northeast": {"lat": 51.4924765802915, "lng": -0.136339719708498}, "southwest": {"lat": 51.4897786197085, "lng": -0.139037680291502}}}, "name": "EvoShave", "place_id": "ChIJryUOfZAFdkgRs-qqJKztzUk", "types": ["point_of_interest", "establishment"]}, "ChIJAWwVOzQFdkgRCWBTVxO3sLc": {"geometry": {"location": {"lat": 51.4909372, "lng": -0.1389744}, "viewport": {"northeast": {"lat": 51.49222628029151, "lng": -0.137696769708498}, "southwest": {"lat": 51.48952831970851, "lng": -0.140394730291502}}}, "name": "Komfort Inn", "place_id": "ChIJAWwVOzQFdkgRCWBTVxO3sLc", "types": ["lodging", "point_of_interest", "establishment"]}}}