{"E00024060": {"ChIJ2wde1h8FdkgREPWnFS0TeXE": {"geometry": {"location": {"lat": 51.49169183722368, "lng": -0.1409938788694222}, "viewport": {"northeast": {"lat": 51.4930429302915, "lng": -0.139642319708498}, "southwest": {"lat": 51.4903449697085, "lng": -0.142340280291502}}}, "name": "31 Belgrave Rd", "place_id": "ChIJ2wde1h8FdkgREPWnFS0TeXE", "types": ["route"]}, "ChIJh-m9IOAEdkgRk424d8N_GXw": {"geometry": {"location": {"lat": 51.4923552, "lng": -0.1408619}, "viewport": {"northeast": {"lat": 51.49370418029149, "lng": -0.139512919708498}, "southwest": {"lat": 51.4910062197085, "lng": -0.142210880291502}}}, "name": "Chester Hotel Victoria", "place_id": "ChIJh-m9IOAEdkgRk424d8N_GXw", "types": ["lodging", "point_of_interest", "establishment"], "rating": 2.8, "user_ratings_total": 329}, "ChIJ2Ud8wx8FdkgRP_IztPFMwpA": {"geometry": {"location": {"lat": 51.4922207, "lng": -0.14155}, "viewport": {"northeast": {"lat": 51.4934871302915, "lng": -0.140301219708498}, "southwest": {"lat": 51.4907891697085, "lng": -0.142999180291502}}}, "name": "Stanley House Hotel", "place_id": "ChIJ2Ud8wx8FdkgRP_IztPFMwpA", "types": ["lodging", "point_of_interest", "establishment"], "rating": 3.1, "user_ratings_total": 398}, "ChIJf8_gMeAEdkgRKeEqBKT0GcI": {"geometry": {"location": {"lat": 51.4920892, "lng": -0.1400803}, "viewport": {"northeast": {"lat": 51.49346798029149, "lng": -0.138779069708498}, "southwest": {"lat": 51.49077001970849, "lng": -0.141477030291502}}}, "name": "Uno", "place_id": "ChIJf8_gMeAEdkgRKeEqBKT0GcI", "types": ["restaurant", "food", "point_of_interest", "establishment"], "rating": 4.1, "user_ratings_total": 391}, "ChIJUbV5KOAEdkgRWeiG5CzZOEU": {"geometry": {"location": {"lat": 51.49187059999999, "lng": -0.1407168}, "viewport": {"northeast": {"lat": 51.49327723029149, "lng": -0.139379219708498}, "southwest": {"lat": 51.4905792697085, "lng": -0.142077180291502}}}, "name": "Eureka Newsagents & Stationery", "place_id": "ChIJUbV5KOAEdkgRWeiG5CzZOEU", "types": ["point_of_interest", "store", "establishment"], "rating": 4.2, "user_ratings_total": 43}, "ChIJt07b1x8FdkgRH3irntbUpzw": {"geometry": {"location": {"lat": 51.4918294, "lng": -0.1408543}, "viewport": {"northeast": {"lat": 51.4931274802915, "lng": -0.139611519708498}, "southwest": {"lat": 51.4904295197085, "lng": -0.142309480291502}}}, "name": "Marquis Of Westminster", "place_id": "ChIJt07b1x8FdkgRH3irntbUpzw", "types": ["bar", "point_of_interest", "establishment"], "rating": 4.3, "user_ratings_total": 1385}, "ChIJ__84IuAEdkgRUf98X7aSfkg": {"geometry": {"location": {"lat": 51.4924749, "lng": -0.1404054}, "viewport": {"northeast": {"lat": 51.4938542802915, "lng": -0.138991619708498}, "southwest": {"lat": 51.4911563197085, "lng": -0.1416895802915021}}}, "name": "Victoria Apartments", "place_id": "ChIJ__84IuAEdkgRUf98X7aSfkg", "types": ["lodging", "point_of_interest", "establishment"], "rating": 2.2, "user_ratings_total": 9}, "ChIJ_9FCJOAEdkgRdsz8n2vD92o": {"geometry": {"location": {"lat": 51.4921782, "lng": -0.1403986}, "viewport": {"northeast": {"lat": 51.49352718029149, "lng": -0.1390496197084979}, "southwest": {"lat": 51.4908292197085, "lng": -0.141747580291502}}}, "name": "DDK Kitchen", "place_id": "ChIJ_9FCJOAEdkgRdsz8n2vD92o", "types": ["cafe", "food", "point_of_interest", "establishment"], "rating": 4.6, "user_ratings_total": 117}, "ChIJf8_gMeAEdkgRAW-wfB0JQYA": {"geometry": {"location": {"lat": 51.49188960000001, "lng": -0.140028}, "viewport": {"northeast": {"lat": 51.4932524802915, "lng": -0.138582419708498}, "southwest": {"lat": 51.4905545197085, "lng": -0.141280380291502}}}, "name": "Tantalizing", "place_id": "ChIJf8_gMeAEdkgRAW-wfB0JQYA", "types": ["beauty_salon", "point_of_interest", "establishment"], "rating": 3.6, "user_ratings_total": 155}, "ChIJy6FUIOAEdkgR6pvLc66vmMs": {"geometry": {"location": {"lat": 51.4924382, "lng": -0.1405788}, "viewport": {"northeast": {"lat": 51.4938204302915, "lng": -0.139264419708498}, "southwest": {"lat": 51.4911224697085, "lng": -0.141962380291502}}}, "name": "St Leonards Hotel", "place_id": "ChIJy6FUIOAEdkgR6pvLc66vmMs", "types": ["lodging", "point_of_interest", "establishment"], "rating": 4.2, "user_ratings_total": 11}, "ChIJVX7HJuAEdkgRDcEcSXwPeKE": {"geometry": {"location": {"lat": 51.492, "lng": -0.140347}, "viewport": {"northeast": {"lat": 51.4933489802915, "lng": -0.138998019708498}, "southwest": {"lat": 51.4906510197085, "lng": -0.141695980291502}}}, "name": "Sue Ryder", "place_id": "ChIJVX7HJuAEdkgRDcEcSXwPeKE", "types": ["point_of_interest", "store", "establishment"], "rating": 4, "user_ratings_total": 3}, "ChIJf8_gMeAEdkgRQkXG0eb5jx0": {"geometry": {"location": {"lat": 51.4919842, "lng": -0.1400631}, "viewport": {"northeast": {"lat": 51.49334768029149, "lng": -0.138617719708498}, "southwest": {"lat": 51.49064971970849, "lng": -0.141315680291502}}}, "name": "Paradise Indian Restaurant", "place_id": "ChIJf8_gMeAEdkgRQkXG0eb5jx0", "types": ["restaurant", "food", "point_of_interest", "establishment"], "rating": 4, "user_ratings_total": 441}, "ChIJVX7HJuAEdkgRRHd0e4UYUWU": {"geometry": {"location": {"lat": 51.49206, "lng": -0.1409}, "viewport": {"northeast": {"lat": 51.49336073029149, "lng": -0.139516119708498}, "southwest": {"lat": 51.49066276970849, "lng": -0.142214080291502}}}, "name": "Marsh & Parsons Pimlico & Westminster Estate Agents", "place_id": "ChIJVX7HJuAEdkgRRHd0e4UYUWU", "types": ["real_estate_agency", "point_of_interest", "establishment"], "rating": 3.7, "user_ratings_total": 25}, "ChIJF8bBJeAEdkgRjeTJRuhAqQ8": {"geometry": {"location": {"lat": 51.49199259999999, "lng": -0.1403227}, "viewport": {"northeast": {"lat": 51.4933887802915, "lng": -0.139008419708498}, "southwest": {"lat": 51.4906908197085, "lng": -0.141706380291502}}}, "name": "The Sporting Mind", "place_id": "ChIJF8bBJeAEdkgRjeTJRuhAqQ8", "types": ["health", "point_of_interest", "establishment"]}, "ChIJF8bBJeAEdkgREQcIh59vQqY": {"geometry": {"location": {"lat": 51.49198939999999, "lng": -0.1403354}, "viewport": {"northeast": {"lat": 51.49333838029149, "lng": -0.138986419708498}, "southwest": {"lat": 51.49064041970849, "lng": -0.141684380291502}}}, "name": "Rupert Chapman Osteopath", "place_id": "ChIJF8bBJeAEdkgREQcIh59vQqY", "types": ["health", "point_of_interest", "establishment"], "rating": 5, "user_ratings_total": 5}, "ChIJu0BIO-AEdkgRyAw-a9h35Fw": {"geometry": {"location": {"lat": 51.49198939999999, "lng": -0.1403354}, "viewport": {"northeast": {"lat": 51.4933853802915, "lng": -0.139021019708498}, "southwest": {"lat": 51.4906874197085, "lng": -0.141718980291502}}}, "name": "Andy Barton", "place_id": "ChIJu0BIO-AEdkgRyAw-a9h35Fw", "types": ["health", "point_of_interest", "establishment"]}, "ChIJ5-TAPuAEdkgR63phOG_UjRI": {"geometry": {"location": {"lat": 51.4919617, "lng": -0.1404488}, "viewport": {"northeast": {"lat": 51.49335578029149, "lng": -0.139132969708498}, "southwest": {"lat": 51.4906578197085, "lng": -0.141830930291502}}}, "name": "Blue-Magic", "place_id": "ChIJ5-TAPuAEdkgR63phOG_UjRI", "types": ["point_of_interest", "establishment"]}, "ChIJDbOZJ-AEdkgRUqjAgcEN5ns": {"geometry": {"location": {"lat": 51.4920605, "lng": -0.1407713}, "viewport": {"northeast": {"lat": 51.4933760302915, "lng": -0.139398119708498}, "southwest": {"lat": 51.4906780697085, "lng": -0.142096080291502}}}, "name": "Kallond", "place_id": "ChIJDbOZJ-AEdkgRUqjAgcEN5ns", "types": ["point_of_interest", "establishment"]}, "ChIJrdeuJ-AEdkgRL1FjrNAolnc": {"geometry": {"location": {"lat": 51.4921065, "lng": -0.1407169}, "viewport": {"northeast": {"lat": 51.4934092802915, "lng": -0.139334569708498}, "southwest": {"lat": 51.4907113197085, "lng": -0.142032530291502}}}, "name": "Hopkins Hairdressing", "place_id": "ChIJrdeuJ-AEdkgRL1FjrNAolnc", "types": ["hair_care", "point_of_interest", "establishment"], "rating": 4.6, "user_ratings_total": 8}, "ChIJATyOJ-AEdkgRFsJ25JFLAO4": {"geometry": {"location": {"lat": 51.4920815, "lng": -0.14093}, "viewport": {"northeast": {"lat": 51.49336978029149, "lng": -0.139537119708498}, "southwest": {"lat": 51.4906718197085, "lng": -0.142235080291502}}}, "name": "Marsh & Parsons", "place_id": "ChIJATyOJ-AEdkgRFsJ25JFLAO4", "types": ["point_of_interest", "establishment"], "rating": 3.7, "user_ratings_total": 3}, "ChIJz3yXJeAEdkgRU4Jzoq1N-o8": {"geometry": {"location": {"lat": 51.492, "lng": -0.140347}, "viewport": {"northeast": {"lat": 51.4933906802915, "lng": -0.139026819708498}, "southwest": {"lat": 51.4906927197085, "lng": -0.141724780291502}}}, "name": "Pimlico Osteopathy", "place_id": "ChIJz3yXJeAEdkgRU4Jzoq1N-o8", "types": ["health", "point_of_interest", "establishment"], "rating": 4.8, "user_ratings_total": 23}, "ChIJOyF0JeAEdkgR3QBVGmSvNoc": {"geometry": {"location": {"lat": 51.49198939999999, "lng": -0.1403354}, "viewport": {"northeast": {"lat": 51.4933853802915, "lng": -0.139021019708498}, "southwest": {"lat": 51.4906874197085, "lng": -0.141718980291502}}}, "name": "Acupuncture Access SW1", "place_id": "ChIJOyF0JeAEdkgR3QBVGmSvNoc", "types": ["health", "point_of_interest", "establishment"], "rating": 5, "user_ratings_total": 1}, "ChIJ0zOaJeAEdkgR_eLSgTczEkY": {"geometry": {"location": {"lat": 51.49198939999999, "lng": -0.1403354}, "viewport": {"northeast": {"lat": 51.4933853802915, "lng": -0.139021019708498}, "southwest": {"lat": 51.4906874197085, "lng": -0.141718980291502}}}, "name": "Medicspot Clinic Pimlico", "place_id": "ChIJ0zOaJeAEdkgR_eLSgTczEkY", "types": ["hospital", "doctor", "health", "point_of_interest", "establishment"], "rating": 4, "user_ratings_total": 9}, "ChIJl_G_IOAEdkgRvuVqfdI1XiY": {"geometry": {"location": {"lat": 51.4923375, "lng": -0.140763}, "viewport": {"northeast": {"lat": 51.49372898029149, "lng": -0.139458269708498}, "southwest": {"lat": 51.49103101970849, "lng": -0.142156230291502}}}, "name": "Direct Energy Services", "place_id": "ChIJl_G_IOAEdkgRvuVqfdI1XiY", "types": ["point_of_interest", "establishment"], "rating": 1.8, "user_ratings_total": 5}, "ChIJPfqtKOAEdkgROFXLCVgxIYA": {"geometry": {"location": {"lat": 51.49202349999999, "lng": -0.1402192}, "viewport": {"northeast": {"lat": 51.4933724802915, "lng": -0.1388702197084979}, "southwest": {"lat": 51.4906745197085, "lng": -0.141568180291502}}}, "name": "William Hill", "place_id": "ChIJPfqtKOAEdkgROFXLCVgxIYA", "types": ["point_of_interest", "establishment"], "rating": 5, "user_ratings_total": 3}, "ChIJVX7HJuAEdkgRNM6tOf-w1qw": {"geometry": {"location": {"lat": 51.4921611, "lng": -0.1404512}, "viewport": {"northeast": {"lat": 51.49351008029149, "lng": -0.1391022197084979}, "southwest": {"lat": 51.49081211970849, "lng": -0.141800180291502}}}, "name": "Cafe Mignon", "place_id": "ChIJVX7HJuAEdkgRNM6tOf-w1qw", "types": ["cafe", "food", "point_of_interest", "establishment"], "rating": 4.4, "user_ratings_total": 271}, "ChIJxWDnIuAEdkgRM6JoOKk-LBk": {"geometry": {"location": {"lat": 51.49243259999999, "lng": -0.1403598}, "viewport": {"northeast": {"lat": 51.49381323029149, "lng": -0.138944619708498}, "southwest": {"lat": 51.49111526970849, "lng": -0.141642580291502}}}, "name": "Shiraz Travel", "place_id": "ChIJxWDnIuAEdkgRM6JoOKk-LBk", "types": ["travel_agency", "point_of_interest", "establishment"], "rating": 4.4, "user_ratings_total": 62}, "ChIJf8_gMeAEdkgRA2c368N4M7E": {"geometry": {"location": {"lat": 51.49208530000001, "lng": -0.140105}, "viewport": {"northeast": {"lat": 51.4934480802915, "lng": -0.138657219708498}, "southwest": {"lat": 51.4907501197085, "lng": -0.141355180291502}}}, "name": "Bin Ends London \ud1a0\ub9c8\ud1a0\ud558\uc6b0\uc2a4", "place_id": "ChIJf8_gMeAEdkgRA2c368N4M7E", "types": ["liquor_store", "food", "point_of_interest", "store", "establishment"], "rating": 4.2, "user_ratings_total": 9}, "ChIJy-_2SOAEdkgRoBckP5wsLgY": {"geometry": {"location": {"lat": 51.4922276, "lng": -0.1402459}, "viewport": {"northeast": {"lat": 51.4935355802915, "lng": -0.138867319708498}, "southwest": {"lat": 51.4908376197085, "lng": -0.141565280291502}}}, "name": "Ivan Coffey Associates", "place_id": "ChIJy-_2SOAEdkgRoBckP5wsLgY", "types": ["point_of_interest", "establishment"]}, "ChIJVX7HJuAEdkgRNoqrS6Ue7Po": {"geometry": {"location": {"lat": 51.4922745, "lng": -0.1401916}, "viewport": {"northeast": {"lat": 51.4936522802915, "lng": -0.138760769708498}, "southwest": {"lat": 51.4909543197085, "lng": -0.141458730291502}}}, "name": "Caff\u00e8 Nero", "place_id": "ChIJVX7HJuAEdkgRNoqrS6Ue7Po", "types": ["cafe", "food", "point_of_interest", "store", "establishment"], "rating": 4.2, "user_ratings_total": 592}, "ChIJZZuwOuAEdkgR2hQsu7p1q-k": {"geometry": {"location": {"lat": 51.4919857, "lng": -0.1400717}, "viewport": {"northeast": {"lat": 51.4933491302915, "lng": -0.138622319708498}, "southwest": {"lat": 51.4906511697085, "lng": -0.141320280291502}}}, "name": "EJS Capital", "place_id": "ChIJZZuwOuAEdkgR2hQsu7p1q-k", "types": ["finance", "point_of_interest", "establishment"]}, "ChIJPfqtKOAEdkgRcV4Rn6ak00s": {"geometry": {"location": {"lat": 51.49190970000001, "lng": -0.1406083}, "viewport": {"northeast": {"lat": 51.49330863029151, "lng": -0.1392883197084979}, "southwest": {"lat": 51.49061066970851, "lng": -0.141986280291502}}}, "name": "Boots", "place_id": "ChIJPfqtKOAEdkgRcV4Rn6ak00s", "types": ["pharmacy", "health", "point_of_interest", "store", "establishment"], "rating": 4.2, "user_ratings_total": 32}, "ChIJJfW3YCQFdkgRH5j-F7_DXOg": {"geometry": {"location": {"lat": 51.4919486, "lng": -0.1400303}, "viewport": {"northeast": {"lat": 51.4933101302915, "lng": -0.138594019708498}, "southwest": {"lat": 51.4906121697085, "lng": -0.141291980291502}}}, "name": "Luminaire Arts Ltd", "place_id": "ChIJJfW3YCQFdkgRH5j-F7_DXOg", "types": ["art_gallery", "general_contractor", "point_of_interest", "store", "establishment"], "rating": 4.8, "user_ratings_total": 5}, "ChIJZRyIpyEFdkgRCPbBu7KIkuY": {"geometry": {"location": {"lat": 51.4924791, "lng": -0.1404501}, "viewport": {"northeast": {"lat": 51.49386518029149, "lng": -0.139139769708498}, "southwest": {"lat": 51.49116721970849, "lng": -0.141837730291502}}}, "name": "FHB Hair & Beauty Salon", "place_id": "ChIJZRyIpyEFdkgRCPbBu7KIkuY", "types": ["beauty_salon", "hair_care", "point_of_interest", "establishment"], "rating": 4.7, "user_ratings_total": 17}, "ChIJIZZcIuAEdkgRspcgLyWtews": {"geometry": {"location": {"lat": 51.4924653, "lng": -0.1404213}, "viewport": {"northeast": {"lat": 51.4938497802915, "lng": -0.138999919708498}, "southwest": {"lat": 51.4911518197085, "lng": -0.141697880291502}}}, "name": "ffields", "place_id": "ChIJIZZcIuAEdkgRspcgLyWtews", "types": ["real_estate_agency", "point_of_interest", "establishment"]}, "ChIJWWvJMOcEdkgR2xNTXXfYXSI": {"geometry": {"location": {"lat": 51.491712, "lng": -0.1401779}, "viewport": {"northeast": {"lat": 51.49306113029149, "lng": -0.138822269708498}, "southwest": {"lat": 51.49036316970849, "lng": -0.141520230291502}}}, "name": "Bookblock", "place_id": "ChIJWWvJMOcEdkgR2xNTXXfYXSI", "types": ["point_of_interest", "store", "establishment"], "rating": 4.8, "user_ratings_total": 53}, "ChIJM96KJuAEdkgRpVnz86I3DWg": {"geometry": {"location": {"lat": 51.4921423, "lng": -0.1406124}, "viewport": {"northeast": {"lat": 51.49344233029149, "lng": -0.139228019708498}, "southwest": {"lat": 51.49074436970849, "lng": -0.141925980291502}}}, "name": "Cyprus Mangal", "place_id": "ChIJM96KJuAEdkgRpVnz86I3DWg", "types": ["restaurant", "food", "point_of_interest", "establishment"], "rating": 4.6, "user_ratings_total": 952}, "ChIJ_9ewI-AEdkgRG9D7xdWaBv0": {"geometry": {"location": {"lat": 51.49249769999999, "lng": -0.1404639}, "viewport": {"northeast": {"lat": 51.49388173029149, "lng": -0.139040269708498}, "southwest": {"lat": 51.49118376970849, "lng": -0.141738230291502}}}, "name": "A M Q Interiors", "place_id": "ChIJ_9ewI-AEdkgRG9D7xdWaBv0", "types": ["general_contractor", "point_of_interest", "establishment"]}, "ChIJ9-O7JCkEdkgRuiWbV7WM0sA": {"geometry": {"location": {"lat": 51.4915887, "lng": -0.1403722}, "viewport": {"northeast": {"lat": 51.4929868302915, "lng": -0.138937969708498}, "southwest": {"lat": 51.4902888697085, "lng": -0.141635930291502}}}, "name": "Black Daisy Events", "place_id": "ChIJ9-O7JCkEdkgRuiWbV7WM0sA", "types": ["point_of_interest", "establishment"]}, "ChIJKbMiI-AEdkgREDrrVC3D84I": {"geometry": {"location": {"lat": 51.4923827, "lng": -0.1402558}, "viewport": {"northeast": {"lat": 51.4937724302915, "lng": -0.138848869708498}, "southwest": {"lat": 51.4910744697085, "lng": -0.141546830291502}}}, "name": "Pimlico Fresh", "place_id": "ChIJKbMiI-AEdkgREDrrVC3D84I", "types": ["cafe", "food", "point_of_interest", "establishment"], "rating": 4.5, "user_ratings_total": 698}, "ChIJU5ZHI-AEdkgREmn06-f-22M": {"geometry": {"location": {"lat": 51.4923109, "lng": -0.1402439}, "viewport": {"northeast": {"lat": 51.4936932802915, "lng": -0.138814269708498}, "southwest": {"lat": 51.4909953197085, "lng": -0.141512230291502}}}, "name": "Royal Trinity Hospice - Pimlico Shop", "place_id": "ChIJU5ZHI-AEdkgREmn06-f-22M", "types": ["point_of_interest", "clothing_store", "store", "establishment"], "rating": 3.3, "user_ratings_total": 19}, "ChIJ2Ud8wx8FdkgRAmBc7Mw-aRA": {"geometry": {"location": {"lat": 51.49195999999999, "lng": -0.141165}, "viewport": {"northeast": {"lat": 51.4933394802915, "lng": -0.1397293197084979}, "southwest": {"lat": 51.4906415197085, "lng": -0.142427280291502}}}, "name": "Winkworth Pimlico & Westminster Estate Agents", "place_id": "ChIJ2Ud8wx8FdkgRAmBc7Mw-aRA", "types": ["finance", "real_estate_agency", "point_of_interest", "establishment"], "rating": 4.8, "user_ratings_total": 72}, "ChIJL3owIuAEdkgRn3wFD4OnH_E": {"geometry": {"location": {"lat": 51.4924834, "lng": -0.140371}, "viewport": {"northeast": {"lat": 51.49385608029149, "lng": -0.138971469708498}, "southwest": {"lat": 51.49115811970849, "lng": -0.141669430291502}}}, "name": "SatoshiPoint Bitcoin ATM, AOL Apartments of London, Pimlico", "place_id": "ChIJL3owIuAEdkgRn3wFD4OnH_E", "types": ["atm", "finance", "point_of_interest", "establishment"], "rating": 3, "user_ratings_total": 2}, "ChIJsc53AR8FdkgRjUfy8cGrahA": {"geometry": {"location": {"lat": 51.4920225, "lng": -0.1412232}, "viewport": {"northeast": {"lat": 51.4933029302915, "lng": -0.139957469708498}, "southwest": {"lat": 51.4906049697085, "lng": -0.142655430291502}}}, "name": "Cactus Language Courses London Victoria", "place_id": "ChIJsc53AR8FdkgRjUfy8cGrahA", "types": ["point_of_interest", "establishment"], "rating": 5, "user_ratings_total": 2}, "ChIJF8bBJeAEdkgR3lvVIFhdJL8": {"geometry": {"location": {"lat": 51.49198939999999, "lng": -0.1403354}, "viewport": {"northeast": {"lat": 51.49333838029149, "lng": -0.138986419708498}, "southwest": {"lat": 51.49064041970849, "lng": -0.141684380291502}}}, "name": "Warwick Pharmacy", "place_id": "ChIJF8bBJeAEdkgR3lvVIFhdJL8", "types": ["pharmacy", "health", "point_of_interest", "store", "establishment"], "rating": 4.3, "user_ratings_total": 83}, "ChIJzw3Fqo8FdkgRcuSp68i_RKk": {"geometry": {"location": {"lat": 51.49198939999999, "lng": -0.1403354}, "viewport": {"northeast": {"lat": 51.4933853802915, "lng": -0.139021019708498}, "southwest": {"lat": 51.4906874197085, "lng": -0.141718980291502}}}, "name": "Zak Acupuncture London", "place_id": "ChIJzw3Fqo8FdkgRcuSp68i_RKk", "types": ["health", "point_of_interest", "establishment"], "rating": 5, "user_ratings_total": 20}, "ChIJLQGzJeAEdkgRLJ2ypqyZIew": {"geometry": {"location": {"lat": 51.4919703, "lng": -0.1404996}, "viewport": {"northeast": {"lat": 51.49335498029149, "lng": -0.139176419708498}, "southwest": {"lat": 51.4906570197085, "lng": -0.141874380291502}}}, "name": "Hospices of Hope - Pimlico", "place_id": "ChIJLQGzJeAEdkgRLJ2ypqyZIew", "types": ["point_of_interest", "store", "establishment"], "rating": 3.8, "user_ratings_total": 6}, "ChIJeYQcjO8FdkgRB3yWLCAi5mE": {"geometry": {"location": {"lat": 51.4920882, "lng": -0.1407818}, "viewport": {"northeast": {"lat": 51.49339103029151, "lng": -0.139399469708498}, "southwest": {"lat": 51.49069306970851, "lng": -0.142097430291502}}}, "name": "City Relay Victoria", "place_id": "ChIJeYQcjO8FdkgRB3yWLCAi5mE", "types": ["real_estate_agency", "travel_agency", "point_of_interest", "establishment"], "rating": 5, "user_ratings_total": 78}, "ChIJVX7HJuAEdkgRrkzek6HyklU": {"geometry": {"location": {"lat": 51.4920882, "lng": -0.1407818}, "viewport": {"northeast": {"lat": 51.49339103029151, "lng": -0.139399469708498}, "southwest": {"lat": 51.49069306970851, "lng": -0.142097430291502}}}, "name": "London Holiday Rentals", "place_id": "ChIJVX7HJuAEdkgRrkzek6HyklU", "types": ["real_estate_agency", "lodging", "travel_agency", "point_of_interest", "establishment"]}, "ChIJ4cT2AtQFdkgRRlRVdqEbOu8": {"geometry": {"location": {"lat": 51.4921012, "lng": -0.140822}, "viewport": {"northeast": {"lat": 51.49339398029149, "lng": -0.139432419708498}, "southwest": {"lat": 51.4906960197085, "lng": -0.142130380291502}}}, "name": "Turk restaurants", "place_id": "ChIJ4cT2AtQFdkgRRlRVdqEbOu8", "types": ["restaurant", "food", "point_of_interest", "establishment"]}, "ChIJT5UMKOAEdkgRb6OAm1O4al0": {"geometry": {"location": {"lat": 51.491905, "lng": -0.1407644}, "viewport": {"northeast": {"lat": 51.4932860302915, "lng": -0.139438569708498}, "southwest": {"lat": 51.4905880697085, "lng": -0.142136530291502}}}, "name": "Sprout finance", "place_id": "ChIJT5UMKOAEdkgRb6OAm1O4al0", "types": ["finance", "point_of_interest", "establishment"]}, "ChIJV1UBJ-AEdkgRiZnYYN9PIFk": {"geometry": {"location": {"lat": 51.4921554, "lng": -0.1406752}, "viewport": {"northeast": {"lat": 51.4934427302915, "lng": -0.139281669708498}, "southwest": {"lat": 51.4907447697085, "lng": -0.141979630291502}}}, "name": "SagoProp", "place_id": "ChIJV1UBJ-AEdkgRiZnYYN9PIFk", "types": ["point_of_interest", "establishment"]}, "ChIJHSCVJuAEdkgRKrM8FiZ7GY0": {"geometry": {"location": {"lat": 51.4921554, "lng": -0.1406752}, "viewport": {"northeast": {"lat": 51.4934426802915, "lng": -0.139281569708498}, "southwest": {"lat": 51.4907447197085, "lng": -0.141979530291502}}}, "name": "Cheeky Olives", "place_id": "ChIJHSCVJuAEdkgRKrM8FiZ7GY0", "types": ["cafe", "restaurant", "food", "point_of_interest", "establishment"], "rating": 4.5, "user_ratings_total": 2}, "ChIJcXf2Ub8FdkgR29dUlmu0pQw": {"geometry": {"location": {"lat": 51.49187059999999, "lng": -0.1407168}, "viewport": {"northeast": {"lat": 51.4932714802915, "lng": -0.139405319708498}, "southwest": {"lat": 51.4905735197085, "lng": -0.142103280291502}}}, "name": "Hermes ParcelShop", "place_id": "ChIJcXf2Ub8FdkgR29dUlmu0pQw", "types": ["point_of_interest", "establishment"], "rating": 1.5, "user_ratings_total": 2}, "ChIJVzkUKOAEdkgRkXN7DA_67Ws": {"geometry": {"location": {"lat": 51.4918624, "lng": -0.1407768}, "viewport": {"northeast": {"lat": 51.4932597302915, "lng": -0.139462769708498}, "southwest": {"lat": 51.4905617697085, "lng": -0.142160730291502}}}, "name": "Medical and Aesthetic Clinic London Ltd,", "place_id": "ChIJVzkUKOAEdkgRkXN7DA_67Ws", "types": ["point_of_interest", "establishment"]}, "ChIJVzkUKOAEdkgR-AW1KGI1t_Q": {"geometry": {"location": {"lat": 51.4918624, "lng": -0.1407768}, "viewport": {"northeast": {"lat": 51.4932597302915, "lng": -0.139427119708498}, "southwest": {"lat": 51.4905617697085, "lng": -0.142125080291502}}}, "name": "Medical & Aesthetic Clinic", "place_id": "ChIJVzkUKOAEdkgR-AW1KGI1t_Q", "types": ["beauty_salon", "hospital", "doctor", "health", "point_of_interest", "establishment"], "rating": 4.7, "user_ratings_total": 13}, "ChIJMxCvOuAEdkgRbx9E7EbKD8c": {"geometry": {"location": {"lat": 51.49199710000001, "lng": -0.1404577}, "viewport": {"northeast": {"lat": 51.49337548029149, "lng": -0.139130369708498}, "southwest": {"lat": 51.4906775197085, "lng": -0.141828330291502}}}, "name": "Warwick Way Food & Wine", "place_id": "ChIJMxCvOuAEdkgRbx9E7EbKD8c", "types": ["grocery_or_supermarket", "food", "point_of_interest", "store", "establishment"]}, "ChIJaUaXJeAEdkgRjaoKzO4ClJ8": {"geometry": {"location": {"lat": 51.4919956, "lng": -0.1403503}, "viewport": {"northeast": {"lat": 51.49338728029149, "lng": -0.139032719708498}, "southwest": {"lat": 51.49068931970849, "lng": -0.141730680291502}}}, "name": "A Life of Confidence - Psychotherapy (Westminster)", "place_id": "ChIJaUaXJeAEdkgRjaoKzO4ClJ8", "types": ["health", "point_of_interest", "establishment"]}, "ChIJoWnZFMEFdkgRIfz1WiQ5he0": {"geometry": {"location": {"lat": 51.492, "lng": -0.140347}, "viewport": {"northeast": {"lat": 51.49339028029149, "lng": -0.139028369708498}, "southwest": {"lat": 51.49069231970849, "lng": -0.141726330291502}}}, "name": "Massage Bodywork (ITMMS)", "place_id": "ChIJoWnZFMEFdkgRIfz1WiQ5he0", "types": ["health", "point_of_interest", "establishment"]}, "ChIJo4uLLOAEdkgRHMee_65KFjw": {"geometry": {"location": {"lat": 51.49141875017212, "lng": -0.1404049995809541}, "viewport": {"northeast": {"lat": 51.49276773029149, "lng": -0.139056019708498}, "southwest": {"lat": 51.49006976970849, "lng": -0.141753980291502}}}, "name": "52 Belgrave Rd", "place_id": "ChIJo4uLLOAEdkgRHMee_65KFjw", "types": ["route"]}, "ChIJJeM-Lx4FdkgRUrmGYz_0Wfw": {"geometry": {"location": {"lat": 51.4907808, "lng": -0.1410283}, "viewport": {"northeast": {"lat": 51.49206743029149, "lng": -0.139548469708498}, "southwest": {"lat": 51.4893694697085, "lng": -0.142246430291502}}}, "name": "Warwick Square", "place_id": "ChIJJeM-Lx4FdkgRUrmGYz_0Wfw", "types": ["park", "point_of_interest", "establishment"], "rating": 4.2, "user_ratings_total": 118}, "ChIJawU1AiMFdkgRo5fFCCbrZOs": {"geometry": {"location": {"lat": 51.49074479999999, "lng": -0.1403635}, "viewport": {"northeast": {"lat": 51.4921379802915, "lng": -0.139107269708498}, "southwest": {"lat": 51.4894400197085, "lng": -0.141805230291502}}}, "name": "Jorge & Silva Upholstery", "place_id": "ChIJawU1AiMFdkgRo5fFCCbrZOs", "types": ["furniture_store", "home_goods_store", "point_of_interest", "store", "establishment"]}, "ChIJVynM2eEEdkgRUz0qeR5ECuk": {"geometry": {"location": {"lat": 51.49056439999999, "lng": -0.1406382}, "viewport": {"northeast": {"lat": 51.4919495802915, "lng": -0.139365219708498}, "southwest": {"lat": 51.4892516197085, "lng": -0.142063180291502}}}, "name": "ELENA PEUGEOT LTD.", "place_id": "ChIJVynM2eEEdkgRUz0qeR5ECuk", "types": ["general_contractor", "point_of_interest", "establishment"]}, "ChIJzWjLJx4FdkgRRoVbQyzjk2s": {"geometry": {"location": {"lat": 51.4905109, "lng": -0.1408725}, "viewport": {"northeast": {"lat": 51.4918686302915, "lng": -0.139540919708498}, "southwest": {"lat": 51.4891706697085, "lng": -0.1422388802915021}}}, "name": "ubitricity Charging Station", "place_id": "ChIJzWjLJx4FdkgRRoVbQyzjk2s", "types": ["point_of_interest", "establishment"]}, "ChIJtxO5LR4FdkgRyvKdDlzW6FM": {"geometry": {"location": {"lat": 51.491041, "lng": -0.141458}, "viewport": {"northeast": {"lat": 51.4923914302915, "lng": -0.140112219708498}, "southwest": {"lat": 51.4896934697085, "lng": -0.142810180291502}}}, "name": "ubitricity Charging Station", "place_id": "ChIJtxO5LR4FdkgRyvKdDlzW6FM", "types": ["point_of_interest", "establishment"]}, "ChIJn3dS0x8FdkgRq4lwIVa3s00": {"geometry": {"location": {"lat": 51.4912862, "lng": -0.1412597}, "viewport": {"northeast": {"lat": 51.4926116802915, "lng": -0.1398606697084979}, "southwest": {"lat": 51.4899137197085, "lng": -0.142558630291502}}}, "name": "Dunblending", "place_id": "ChIJn3dS0x8FdkgRq4lwIVa3s00", "types": ["point_of_interest", "establishment"]}, "ChIJsR152OEEdkgRMY7eYjReVq0": {"geometry": {"location": {"lat": 51.4904322, "lng": -0.1407281}, "viewport": {"northeast": {"lat": 51.4918267802915, "lng": -0.139478069708498}, "southwest": {"lat": 51.4891288197085, "lng": -0.142176030291502}}}, "name": "Sky Events", "place_id": "ChIJsR152OEEdkgRMY7eYjReVq0", "types": ["point_of_interest", "establishment"]}, "ChIJZzh3GB8FdkgRs0KE--ZpB5w": {"geometry": {"location": {"lat": 51.4904319, "lng": -0.1407261}, "viewport": {"northeast": {"lat": 51.49182683029149, "lng": -0.139476869708498}, "southwest": {"lat": 51.48912886970849, "lng": -0.142174830291502}}}, "name": "Mountain Leap", "place_id": "ChIJZzh3GB8FdkgRs0KE--ZpB5w", "types": ["point_of_interest", "establishment"]}, "ChIJt2N01R8FdkgR-OV8O7qWj88": {"geometry": {"location": {"lat": 51.49142069999999, "lng": -0.1409273}, "viewport": {"northeast": {"lat": 51.49275453029151, "lng": -0.139545919708498}, "southwest": {"lat": 51.49005656970851, "lng": -0.142243880291502}}}, "name": "Motorcycle Parking Bay", "place_id": "ChIJt2N01R8FdkgR-OV8O7qWj88", "types": ["parking", "point_of_interest", "establishment"]}, "ChIJP_1FzR8FdkgRAw2f3OZ8pbM": {"geometry": {"location": {"lat": 51.49112909999999, "lng": -0.141558}, "viewport": {"northeast": {"lat": 51.49243843029149, "lng": -0.1401245197084979}, "southwest": {"lat": 51.48974046970849, "lng": -0.142822480291502}}}, "name": "Halstead Designs International", "place_id": "ChIJP_1FzR8FdkgRAw2f3OZ8pbM", "types": ["general_contractor", "point_of_interest", "establishment"]}, "ChIJ31S_5KoHdkgRRQ1-J7ma_f0": {"geometry": {"location": {"lat": 51.4912582, "lng": -0.1401193}, "viewport": {"northeast": {"lat": 51.49259668029149, "lng": -0.138783869708498}, "southwest": {"lat": 51.4898987197085, "lng": -0.141481830291502}}}, "name": "QELECTRIC LTD", "place_id": "ChIJ31S_5KoHdkgRRQ1-J7ma_f0", "types": ["electrician", "point_of_interest", "establishment"], "rating": 5, "user_ratings_total": 29}, "ChIJ2_-DGR4FdkgRmPkRoVXGSKo": {"geometry": {"location": {"lat": 51.48966115039333, "lng": -0.1413551490677102}, "viewport": {"northeast": {"lat": 51.4910101302915, "lng": -0.140006169708498}, "southwest": {"lat": 51.4883121697085, "lng": -0.142704130291502}}}, "name": "42-46 St George's Dr", "place_id": "ChIJ2_-DGR4FdkgRmPkRoVXGSKo", "types": ["route"]}, "ChIJ3yy928IEdkgRs9Twns6fca8": {"geometry": {"location": {"lat": 51.4901542, "lng": -0.1404256}, "viewport": {"northeast": {"lat": 51.49148248029149, "lng": -0.139032269708498}, "southwest": {"lat": 51.4887845197085, "lng": -0.141730230291502}}}, "name": "St. George Valuations", "place_id": "ChIJ3yy928IEdkgRs9Twns6fca8", "types": ["point_of_interest", "establishment"]}, "ChIJDScXJx4FdkgRDvbtTj-rAU4": {"geometry": {"location": {"lat": 51.49026780000001, "lng": -0.1409109}, "viewport": {"northeast": {"lat": 51.4916647302915, "lng": -0.139661919708498}, "southwest": {"lat": 51.4889667697085, "lng": -0.142359880291502}}}, "name": "LTD Design Consultants", "place_id": "ChIJDScXJx4FdkgRDvbtTj-rAU4", "types": ["point_of_interest", "establishment"], "rating": 5, "user_ratings_total": 1}, "ChIJNWNj3OEEdkgRJjqOxOs-_8M": {"geometry": {"location": {"lat": 51.4902334, "lng": -0.1403209}, "viewport": {"northeast": {"lat": 51.4915629802915, "lng": -0.138930569708498}, "southwest": {"lat": 51.4888650197085, "lng": -0.141628530291502}}}, "name": "Just Off", "place_id": "ChIJNWNj3OEEdkgRJjqOxOs-_8M", "types": ["point_of_interest", "establishment"]}, "ChIJDScXJx4FdkgR-h5dsuKdhuQ": {"geometry": {"location": {"lat": 51.4903397, "lng": -0.1408768}, "viewport": {"northeast": {"lat": 51.49172848029149, "lng": -0.139614269708498}, "southwest": {"lat": 51.4890305197085, "lng": -0.142312230291502}}}, "name": "Stancliffe & Glover", "place_id": "ChIJDScXJx4FdkgR-h5dsuKdhuQ", "types": ["point_of_interest", "establishment"]}, "ChIJG5kT4-EEdkgRWy-ZGDFHu6U": {"geometry": {"location": {"lat": 51.4894185, "lng": -0.1404148}, "viewport": {"northeast": {"lat": 51.4907013802915, "lng": -0.139142719708498}, "southwest": {"lat": 51.48800341970851, "lng": -0.141840680291502}}}, "name": "Real Estate Consultancy Ltd", "place_id": "ChIJG5kT4-EEdkgRWy-ZGDFHu6U", "types": ["real_estate_agency", "point_of_interest", "establishment"]}, "ChIJXx7-ojYbdkgR6ITQjxEhqJc": {"geometry": {"location": {"lat": 51.4902914, "lng": -0.1403578}, "viewport": {"northeast": {"lat": 51.4916049302915, "lng": -0.138933269708498}, "southwest": {"lat": 51.48890696970851, "lng": -0.141631230291502}}}, "name": "Portman Chambers", "place_id": "ChIJXx7-ojYbdkgR6ITQjxEhqJc", "types": ["point_of_interest", "establishment"], "rating": 1, "user_ratings_total": 1}, "ChIJXdtwGx4FdkgRX4z2v2yQR00": {"geometry": {"location": {"lat": 51.4894426, "lng": -0.14126}, "viewport": {"northeast": {"lat": 51.49084818029149, "lng": -0.139843969708498}, "southwest": {"lat": 51.48815021970849, "lng": -0.142541930291502}}}, "name": "Blue Plaque: Swami Vivekananda", "place_id": "ChIJXdtwGx4FdkgRX4z2v2yQR00", "types": ["point_of_interest", "establishment"], "rating": 4.1, "user_ratings_total": 19}, "ChIJT3Y23-EEdkgRM-EJ3LM6WEU": {"geometry": {"location": {"lat": 51.4903711, "lng": -0.1406466}, "viewport": {"northeast": {"lat": 51.4917886302915, "lng": -0.139446369708498}, "southwest": {"lat": 51.4890906697085, "lng": -0.142144330291502}}}, "name": "Aldine Honey Ltd", "place_id": "ChIJT3Y23-EEdkgRM-EJ3LM6WEU", "types": ["real_estate_agency", "point_of_interest", "establishment"]}, "ChIJtcQ83OEEdkgRowPuWjTdeZQ": {"geometry": {"location": {"lat": 51.4902375, "lng": -0.1404401}, "viewport": {"northeast": {"lat": 51.4915485302915, "lng": -0.1390101197084979}, "southwest": {"lat": 51.4888505697085, "lng": -0.141708080291502}}}, "name": "Powder Puffs", "place_id": "ChIJtcQ83OEEdkgRowPuWjTdeZQ", "types": ["point_of_interest", "establishment"]}, "ChIJK0FdIR4FdkgR6O5AYesb5KQ": {"geometry": {"location": {"lat": 51.49014450000001, "lng": -0.1410021}, "viewport": {"northeast": {"lat": 51.4915518802915, "lng": -0.139770919708498}, "southwest": {"lat": 51.4888539197085, "lng": -0.1424688802915021}}}, "name": "Association Of Inner Wheel Clubs In Great Britain & Ireland", "place_id": "ChIJK0FdIR4FdkgR6O5AYesb5KQ", "types": ["point_of_interest", "establishment"], "rating": 4, "user_ratings_total": 2}, "ChIJ200L1akFdkgR5ir3Mvi-74c": {"geometry": {"location": {"lat": 51.48980840000001, "lng": -0.1408498}, "viewport": {"northeast": {"lat": 51.49113543029151, "lng": -0.139453819708498}, "southwest": {"lat": 51.48843746970851, "lng": -0.142151780291502}}}, "name": "My Crypto Profits", "place_id": "ChIJ200L1akFdkgR5ir3Mvi-74c", "types": ["finance", "point_of_interest", "establishment"]}, "ChIJZ1QO4eEEdkgRtlwpxP9HG9U": {"geometry": {"location": {"lat": 51.48974390000001, "lng": -0.1406202}, "viewport": {"northeast": {"lat": 51.49111688029151, "lng": -0.139322669708498}, "southwest": {"lat": 51.48841891970851, "lng": -0.142020630291502}}}, "name": "Webster House", "place_id": "ChIJZ1QO4eEEdkgRtlwpxP9HG9U", "types": ["point_of_interest", "establishment"]}, "ChIJgcS5AfEFdkgR6N8xKNk3KhE": {"geometry": {"location": {"lat": 51.4900037, "lng": -0.1407237}, "viewport": {"northeast": {"lat": 51.4913144802915, "lng": -0.139292819708498}, "southwest": {"lat": 51.4886165197085, "lng": -0.141990780291502}}}, "name": "Steve", "place_id": "ChIJgcS5AfEFdkgR6N8xKNk3KhE", "types": ["point_of_interest", "establishment"]}, "ChIJsSxZ43YFdkgRdWuELG-r1kg": {"geometry": {"location": {"lat": 51.49007240000001, "lng": -0.140536}, "viewport": {"northeast": {"lat": 51.49139888029151, "lng": -0.139138819708498}, "southwest": {"lat": 51.48870091970851, "lng": -0.1418367802915021}}}, "name": "Accountant in Pimlico", "place_id": "ChIJsSxZ43YFdkgRdWuELG-r1kg", "types": ["accounting", "finance", "point_of_interest", "establishment"]}, "ChIJVVWA5-EEdkgRBu-KGlYTK5M": {"geometry": {"location": {"lat": 51.4899504, "lng": -0.140278}, "viewport": {"northeast": {"lat": 51.49133738029149, "lng": -0.139010469708498}, "southwest": {"lat": 51.48863941970849, "lng": -0.141708430291502}}}, "name": "Antler Capital Partners Llp", "place_id": "ChIJVVWA5-EEdkgRBu-KGlYTK5M", "types": ["point_of_interest", "establishment"]}, "ChIJe6B93eEEdkgR0swz4y1vkgA": {"geometry": {"location": {"lat": 51.4899663, "lng": -0.1402552}, "viewport": {"northeast": {"lat": 51.49135383029149, "lng": -0.1389888197084979}, "southwest": {"lat": 51.4886558697085, "lng": -0.141686780291502}}}, "name": "Zenith Partners Limited", "place_id": "ChIJe6B93eEEdkgR0swz4y1vkgA", "types": ["point_of_interest", "establishment"]}, "ChIJXxfPWiUEdkgRFiWc9rYOECs": {"geometry": {"location": {"lat": 51.4899663, "lng": -0.1402552}, "viewport": {"northeast": {"lat": 51.4913537802915, "lng": -0.138988769708498}, "southwest": {"lat": 51.4886558197085, "lng": -0.141686730291502}}}, "name": "TOTTENHAM & CO", "place_id": "ChIJXxfPWiUEdkgRFiWc9rYOECs", "types": ["point_of_interest", "establishment"]}, "ChIJHdIx3OEEdkgRWaNmKOStZvc": {"geometry": {"location": {"lat": 51.4901542, "lng": -0.1404256}, "viewport": {"northeast": {"lat": 51.49148248029149, "lng": -0.139032269708498}, "southwest": {"lat": 51.4887845197085, "lng": -0.141730230291502}}}, "name": "Valuemystuff", "place_id": "ChIJHdIx3OEEdkgRWaNmKOStZvc", "types": ["point_of_interest", "establishment"]}, "ChIJA9Ix3OEEdkgR62YFDsHCjO4": {"geometry": {"location": {"lat": 51.4901542, "lng": -0.1404255}, "viewport": {"northeast": {"lat": 51.49148248029149, "lng": -0.139032169708498}, "southwest": {"lat": 51.4887845197085, "lng": -0.141730130291502}}}, "name": "Christian Art Today", "place_id": "ChIJA9Ix3OEEdkgR62YFDsHCjO4", "types": ["point_of_interest", "establishment"]}, "ChIJtcZy4-EEdkgRNaEgv7IxOz8": {"geometry": {"location": {"lat": 51.4894504, "lng": -0.1404861}, "viewport": {"northeast": {"lat": 51.49073338029149, "lng": -0.139213919708498}, "southwest": {"lat": 51.4880354197085, "lng": -0.141911880291502}}}, "name": "Cleaners Pimlico", "place_id": "ChIJtcZy4-EEdkgRNaEgv7IxOz8", "types": ["point_of_interest", "establishment"]}, "ChIJh_oP3OEEdkgRfkdc0NZUA34": {"geometry": {"location": {"lat": 51.4902503, "lng": -0.1404265}, "viewport": {"northeast": {"lat": 51.4915609802915, "lng": -0.138995919708498}, "southwest": {"lat": 51.4888630197085, "lng": -0.141693880291502}}}, "name": "4 Zeros", "place_id": "ChIJh_oP3OEEdkgRfkdc0NZUA34", "types": ["point_of_interest", "establishment"]}, "ChIJmTw2IR4FdkgRSO8fHm86ANs": {"geometry": {"location": {"lat": 51.49026120000001, "lng": -0.1411142}, "viewport": {"northeast": {"lat": 51.4916281802915, "lng": -0.1398026197084979}, "southwest": {"lat": 51.4889302197085, "lng": -0.142500580291502}}}, "name": "Tokenspin Limited", "place_id": "ChIJmTw2IR4FdkgRSO8fHm86ANs", "types": ["point_of_interest", "establishment"]}, "ChIJeaJmTwUFdkgRahNBtdBwMxQ": {"geometry": {"location": {"lat": 51.4902334, "lng": -0.1403209}, "viewport": {"northeast": {"lat": 51.4915629802915, "lng": -0.138930519708498}, "southwest": {"lat": 51.4888650197085, "lng": -0.141628480291502}}}, "name": "Bolinkgbroke Advisory", "place_id": "ChIJeaJmTwUFdkgRahNBtdBwMxQ", "types": ["point_of_interest", "establishment"]}, "ChIJNWNj3OEEdkgREl-J7BmhE7Q": {"geometry": {"location": {"lat": 51.4902334, "lng": -0.1403209}, "viewport": {"northeast": {"lat": 51.4915629802915, "lng": -0.138930569708498}, "southwest": {"lat": 51.4888650197085, "lng": -0.141628530291502}}}, "name": "Secure Inside Area", "place_id": "ChIJNWNj3OEEdkgREl-J7BmhE7Q", "types": ["point_of_interest", "establishment"]}, "ChIJNWNj3OEEdkgRsuzP1YOnNLo": {"geometry": {"location": {"lat": 51.49024030000001, "lng": -0.1403128}, "viewport": {"northeast": {"lat": 51.49156983029151, "lng": -0.138922369708498}, "southwest": {"lat": 51.48887186970851, "lng": -0.141620330291502}}}, "name": "The BDG Group", "place_id": "ChIJNWNj3OEEdkgRsuzP1YOnNLo", "types": ["finance", "point_of_interest", "establishment"]}, "ChIJZ2H7Ih4FdkgRsvuMUswwR7s": {"geometry": {"location": {"lat": 51.490102, "lng": -0.141431}, "viewport": {"northeast": {"lat": 51.4914443302915, "lng": -0.140071419708498}, "southwest": {"lat": 51.4887463697085, "lng": -0.142769380291502}}}, "name": "ubitricity Charging Station", "place_id": "ChIJZ2H7Ih4FdkgRsvuMUswwR7s", "types": ["point_of_interest", "establishment"]}, "ChIJNWNj3OEEdkgRh33E3T64d-o": {"geometry": {"location": {"lat": 51.4902717, "lng": -0.1403739}, "viewport": {"northeast": {"lat": 51.49158643029151, "lng": -0.138951869708498}, "southwest": {"lat": 51.48888846970851, "lng": -0.141649830291502}}}, "name": "ONE FOREX ZONE LIMITED", "place_id": "ChIJNWNj3OEEdkgRh33E3T64d-o", "types": ["shopping_mall", "point_of_interest", "establishment"]}, "ChIJ_-f9ojYbdkgRGrGf5brzBdU": {"geometry": {"location": {"lat": 51.4902914, "lng": -0.1403578}, "viewport": {"northeast": {"lat": 51.4916049302915, "lng": -0.138933269708498}, "southwest": {"lat": 51.48890696970851, "lng": -0.141631230291502}}}, "name": "VCQ Media Ltd", "place_id": "ChIJ_-f9ojYbdkgRGrGf5brzBdU", "types": ["point_of_interest", "establishment"]}, "ChIJgfqJ2-EEdkgRfJyhVnrvUFo": {"geometry": {"location": {"lat": 51.4902915, "lng": -0.1403578}, "viewport": {"northeast": {"lat": 51.4916050302915, "lng": -0.138933219708498}, "southwest": {"lat": 51.4889070697085, "lng": -0.141631180291502}}}, "name": "METIS Conferences Ltd", "place_id": "ChIJgfqJ2-EEdkgRfJyhVnrvUFo", "types": ["point_of_interest", "establishment"]}, "ChIJ27lBJx4FdkgRLH-KNuhN-XY": {"geometry": {"location": {"lat": 51.4903644, "lng": -0.1409198}, "viewport": {"northeast": {"lat": 51.4917420302915, "lng": -0.139630569708498}, "southwest": {"lat": 51.4890440697085, "lng": -0.142328530291502}}}, "name": "Tfc Investment Management Llp", "place_id": "ChIJ27lBJx4FdkgRLH-KNuhN-XY", "types": ["finance", "point_of_interest", "establishment"]}, "ChIJr7GExPoFdkgRLTJ6B_ZAWPE": {"geometry": {"location": {"lat": 51.49037939999999, "lng": -0.1407608}, "viewport": {"northeast": {"lat": 51.4917784302915, "lng": -0.139520519708498}, "southwest": {"lat": 51.4890804697085, "lng": -0.142218480291502}}}, "name": "Wema pharmaceutical", "place_id": "ChIJr7GExPoFdkgRLTJ6B_ZAWPE", "types": ["health", "point_of_interest", "establishment"]}, "ChIJiZ_6Jh4FdkgR3nwoJt4Cv3w": {"geometry": {"location": {"lat": 51.49036779999999, "lng": -0.1409814}, "viewport": {"northeast": {"lat": 51.4917360802915, "lng": -0.139674269708498}, "southwest": {"lat": 51.4890381197085, "lng": -0.142372230291502}}}, "name": "Cmc Partnership Uk Ltd", "place_id": "ChIJiZ_6Jh4FdkgR3nwoJt4Cv3w", "types": ["point_of_interest", "establishment"]}, "ChIJZ8v6Jh4FdkgR4Gqir9rdN6Q": {"geometry": {"location": {"lat": 51.4903731, "lng": -0.1409911}, "viewport": {"northeast": {"lat": 51.4917354802915, "lng": -0.139669919708498}, "southwest": {"lat": 51.4890375197085, "lng": -0.142367880291502}}}, "name": "Chaos Fashion Styling & Consultancy", "place_id": "ChIJZ8v6Jh4FdkgR4Gqir9rdN6Q", "types": ["point_of_interest", "establishment"], "rating": 5, "user_ratings_total": 1}, "ChIJZ8v6Jh4FdkgRk_QGsjCD3ZM": {"geometry": {"location": {"lat": 51.4903731, "lng": -0.1409911}, "viewport": {"northeast": {"lat": 51.4917354802915, "lng": -0.139669919708498}, "southwest": {"lat": 51.4890375197085, "lng": -0.142367880291502}}}, "name": "The Heritage Bureau", "place_id": "ChIJZ8v6Jh4FdkgRk_QGsjCD3ZM", "types": ["point_of_interest", "establishment"]}, "ChIJh5CF2-EEdkgRrpdESZALZg8": {"geometry": {"location": {"lat": 51.4903171, "lng": -0.1403336}, "viewport": {"northeast": {"lat": 51.4916296302915, "lng": -0.138906919708498}, "southwest": {"lat": 51.48893166970851, "lng": -0.141604880291502}}}, "name": "Mornington Hotel London Victoria", "place_id": "ChIJh5CF2-EEdkgRrpdESZALZg8", "types": ["lodging", "point_of_interest", "establishment"], "rating": 4, "user_ratings_total": 153}, "ChIJfSZu_eEEdkgR5W_YVZEjJss": {"geometry": {"location": {"lat": 51.4891813, "lng": -0.1407756}, "viewport": {"northeast": {"lat": 51.49059543029149, "lng": -0.139349119708498}, "southwest": {"lat": 51.4878974697085, "lng": -0.142047080291502}}}, "name": "Stylish Apartment in Victoria", "place_id": "ChIJfSZu_eEEdkgR5W_YVZEjJss", "types": ["lodging", "point_of_interest", "establishment"], "rating": 1.5, "user_ratings_total": 8}, "ChIJVSvrHNYEdkgRY06czfoHQHg": {"geometry": {"location": {"lat": 51.4892676, "lng": -0.1407704}, "viewport": {"northeast": {"lat": 51.4906530802915, "lng": -0.139377969708498}, "southwest": {"lat": 51.4879551197085, "lng": -0.142075930291502}}}, "name": "William Thuillier Fine Art", "place_id": "ChIJVSvrHNYEdkgRY06czfoHQHg", "types": ["art_gallery", "point_of_interest", "establishment"], "rating": 5, "user_ratings_total": 4}, "ChIJz0Gf--EEdkgRpDnacxbC2WY": {"geometry": {"location": {"lat": 51.48912389999999, "lng": -0.140382}, "viewport": {"northeast": {"lat": 51.4904958302915, "lng": -0.138999919708498}, "southwest": {"lat": 51.4877978697085, "lng": -0.141697880291502}}}, "name": "ubitricity Charging Station", "place_id": "ChIJz0Gf--EEdkgRpDnacxbC2WY", "types": ["point_of_interest", "establishment"]}, "ChIJW6wQGgcFdkgROAKLmqjYg80": {"geometry": {"location": {"lat": 51.4892676, "lng": -0.1407704}, "viewport": {"northeast": {"lat": 51.4906530802915, "lng": -0.139377969708498}, "southwest": {"lat": 51.4879551197085, "lng": -0.142075930291502}}}, "name": "St. Farra\u2019s Drive", "place_id": "ChIJW6wQGgcFdkgROAKLmqjYg80", "types": ["night_club", "point_of_interest", "establishment"]}, "ChIJhy3Zxh8FdkgRDAOHTu5i_RA": {"geometry": {"location": {"lat": 51.49221303454212, "lng": -0.1420847789546712}, "viewport": {"northeast": {"lat": 51.4935629802915, "lng": -0.1404764}, "southwest": {"lat": 51.4908650197085, "lng": -0.1436908}}}, "name": "11-31 Belgrave Rd", "place_id": "ChIJhy3Zxh8FdkgRDAOHTu5i_RA", "types": ["route"]}, "ChIJr03Qxx8FdkgR70v5UWHiVlE": {"geometry": {"location": {"lat": 51.4919406, "lng": -0.1418579}, "viewport": {"northeast": {"lat": 51.4933406802915, "lng": -0.140441519708498}, "southwest": {"lat": 51.4906427197085, "lng": -0.143139480291502}}}, "name": "Dover Hotel", "place_id": "ChIJr03Qxx8FdkgR70v5UWHiVlE", "types": ["lodging", "point_of_interest", "establishment"], "rating": 3.6, "user_ratings_total": 297}, "ChIJJVFBsh8FdkgRjLCOhk_vRyI": {"geometry": {"location": {"lat": 51.4915425, "lng": -0.1428169}, "viewport": {"northeast": {"lat": 51.49282493029149, "lng": -0.141418069708498}, "southwest": {"lat": 51.4901269697085, "lng": -0.144116030291502}}}, "name": "Enrico Hotel", "place_id": "ChIJJVFBsh8FdkgRjLCOhk_vRyI", "types": ["lodging", "point_of_interest", "establishment"], "rating": 3.2, "user_ratings_total": 356}, "ChIJgW2SyR8FdkgRHjzXXkDfGxE": {"geometry": {"location": {"lat": 51.4916504, "lng": -0.1423366}, "viewport": {"northeast": {"lat": 51.4928612302915, "lng": -0.140934819708498}, "southwest": {"lat": 51.4901632697085, "lng": -0.143632780291502}}}, "name": "The Tudor Inn Hotel", "place_id": "ChIJgW2SyR8FdkgRHjzXXkDfGxE", "types": ["lodging", "point_of_interest", "establishment"], "rating": 2.4, "user_ratings_total": 303}, "ChIJW6plOPSm2EcRSZFdJh88cBo": {"geometry": {"location": {"lat": 51.4921373, "lng": -0.1422693}, "viewport": {"northeast": {"lat": 51.49348628029149, "lng": -0.1409203197084979}, "southwest": {"lat": 51.49078831970849, "lng": -0.143618280291502}}}, "name": "Belgrave House Hotel London Victoria", "place_id": "ChIJW6plOPSm2EcRSZFdJh88cBo", "types": ["lodging", "point_of_interest", "establishment"], "rating": 3.4, "user_ratings_total": 467}, "ChIJEShnOroEdkgR3YYKu3PpO90": {"geometry": {"location": {"lat": 51.4925145, "lng": -0.1422247}, "viewport": {"northeast": {"lat": 51.4937885302915, "lng": -0.140966719708498}, "southwest": {"lat": 51.4910905697085, "lng": -0.143664680291502}}}, "name": "Refugee Action", "place_id": "ChIJEShnOroEdkgR3YYKu3PpO90", "types": ["point_of_interest", "establishment"], "rating": 4.5, "user_ratings_total": 15}, "ChIJiaonxR8FdkgRDh9-xMrXwZQ": {"geometry": {"location": {"lat": 51.49210319999999, "lng": -0.1422403}, "viewport": {"northeast": {"lat": 51.49351028029149, "lng": -0.140820819708498}, "southwest": {"lat": 51.4908123197085, "lng": -0.143518780291502}}}, "name": "e-millenium", "place_id": "ChIJiaonxR8FdkgRDh9-xMrXwZQ", "types": ["travel_agency", "point_of_interest", "establishment"]}, "ChIJc_sv_98EdkgRZaAgOKH5fMk": {"geometry": {"location": {"lat": 51.4924395, "lng": -0.1422219}, "viewport": {"northeast": {"lat": 51.4937612302915, "lng": -0.1409454697084979}, "southwest": {"lat": 51.4910632697085, "lng": -0.143643430291502}}}, "name": "Oxfam GB London Campaigns Office", "place_id": "ChIJc_sv_98EdkgRZaAgOKH5fMk", "types": ["point_of_interest", "store", "establishment"], "rating": 5, "user_ratings_total": 2}, "ChIJ8-BOxh8FdkgRtTyMGUjnP3o": {"geometry": {"location": {"lat": 51.49201110000001, "lng": -0.1420447}, "viewport": {"northeast": {"lat": 51.4934183302915, "lng": -0.140625019708498}, "southwest": {"lat": 51.49072036970851, "lng": -0.143322980291502}}}, "name": "Easy Hotel", "place_id": "ChIJ8-BOxh8FdkgRtTyMGUjnP3o", "types": ["lodging", "point_of_interest", "establishment"], "rating": 3.1, "user_ratings_total": 1033}, "ChIJg21Kux8FdkgRbTzeKEGu3gs": {"geometry": {"location": {"lat": 51.4921535, "lng": -0.1430786}, "viewport": {"northeast": {"lat": 51.49355363029149, "lng": -0.141839219708498}, "southwest": {"lat": 51.49085566970849, "lng": -0.144537180291502}}}, "name": "Taxless UK Ltd", "place_id": "ChIJg21Kux8FdkgRbTzeKEGu3gs", "types": ["accounting", "finance", "point_of_interest", "establishment"]}, "ChIJzU_uinMPdkgR--HsfHWVENo": {"geometry": {"location": {"lat": 51.4925078, "lng": -0.1425358}, "viewport": {"northeast": {"lat": 51.49383038029151, "lng": -0.141218869708498}, "southwest": {"lat": 51.49113241970851, "lng": -0.143916830291502}}}, "name": "Prospect Burma", "place_id": "ChIJzU_uinMPdkgR--HsfHWVENo", "types": ["point_of_interest", "establishment"]}, "ChIJYxG5wB8FdkgRej702idhiX8": {"geometry": {"location": {"lat": 51.49225819999999, "lng": -0.1418725}, "viewport": {"northeast": {"lat": 51.49356088029149, "lng": -0.1405797697084979}, "southwest": {"lat": 51.49086291970849, "lng": -0.143277730291502}}}, "name": "The Beverley Hotel", "place_id": "ChIJYxG5wB8FdkgRej702idhiX8", "types": ["lodging", "point_of_interest", "establishment"], "rating": 4.2, "user_ratings_total": 149}, "ChIJAcsJwx8FdkgRVMgJ2qcDf-8": {"geometry": {"location": {"lat": 51.4925145, "lng": -0.1422247}, "viewport": {"northeast": {"lat": 51.4937885302915, "lng": -0.140966719708498}, "southwest": {"lat": 51.4910905697085, "lng": -0.143664680291502}}}, "name": "World Confederation For Physical Therapy", "place_id": "ChIJAcsJwx8FdkgRVMgJ2qcDf-8", "types": ["health", "point_of_interest", "establishment"]}, "ChIJW0o-wB8FdkgRSaDiZ4HJNpE": {"geometry": {"location": {"lat": 51.4925145, "lng": -0.1422247}, "viewport": {"northeast": {"lat": 51.4937885302915, "lng": -0.140966719708498}, "southwest": {"lat": 51.4910905697085, "lng": -0.143664680291502}}}, "name": "BEWC", "place_id": "ChIJW0o-wB8FdkgRSaDiZ4HJNpE", "types": ["point_of_interest", "establishment"]}, "ChIJW0o-wB8FdkgRSDfA48Q6D9o": {"geometry": {"location": {"lat": 51.4925145, "lng": -0.1422247}, "viewport": {"northeast": {"lat": 51.4937885302915, "lng": -0.140966719708498}, "southwest": {"lat": 51.4910905697085, "lng": -0.143664680291502}}}, "name": "Third Sector Centres", "place_id": "ChIJW0o-wB8FdkgRSDfA48Q6D9o", "types": ["point_of_interest", "establishment"], "rating": 4, "user_ratings_total": 1}, "ChIJAcsJwx8FdkgRjh6tqwy1Pew": {"geometry": {"location": {"lat": 51.4925145, "lng": -0.1422247}, "viewport": {"northeast": {"lat": 51.4937885302915, "lng": -0.140966719708498}, "southwest": {"lat": 51.4910905697085, "lng": -0.143664680291502}}}, "name": "Interact Stroke Support", "place_id": "ChIJAcsJwx8FdkgRjh6tqwy1Pew", "types": ["point_of_interest", "establishment"], "rating": 5, "user_ratings_total": 1}, "ChIJAcsJwx8FdkgRttJMjxftDoU": {"geometry": {"location": {"lat": 51.4925145, "lng": -0.1422247}, "viewport": {"northeast": {"lat": 51.4937885302915, "lng": -0.140966719708498}, "southwest": {"lat": 51.4910905697085, "lng": -0.143664680291502}}}, "name": "Institute for European Environmental Policy", "place_id": "ChIJAcsJwx8FdkgRttJMjxftDoU", "types": ["point_of_interest", "establishment"]}, "ChIJAcsJwx8FdkgR06FQ-U7lK0Q": {"geometry": {"location": {"lat": 51.4925145, "lng": -0.1422247}, "viewport": {"northeast": {"lat": 51.4937885302915, "lng": -0.140966719708498}, "southwest": {"lat": 51.4910905697085, "lng": -0.143664680291502}}}, "name": "Media Diversity Institute", "place_id": "ChIJAcsJwx8FdkgR06FQ-U7lK0Q", "types": ["university", "point_of_interest", "establishment"], "rating": 1, "user_ratings_total": 1}, "ChIJkSHAvx8FdkgR0NKUXSz2Y4Y": {"geometry": {"location": {"lat": 51.4925145, "lng": -0.1422247}, "viewport": {"northeast": {"lat": 51.4937885302915, "lng": -0.140966719708498}, "southwest": {"lat": 51.4910905697085, "lng": -0.143664680291502}}}, "name": "Stars Foundation", "place_id": "ChIJkSHAvx8FdkgR0NKUXSz2Y4Y", "types": ["point_of_interest", "establishment"], "rating": 5, "user_ratings_total": 3}, "ChIJW0o-wB8FdkgRb04Z3DS3uUo": {"geometry": {"location": {"lat": 51.4925145, "lng": -0.1422247}, "viewport": {"northeast": {"lat": 51.4937885302915, "lng": -0.140966719708498}, "southwest": {"lat": 51.4910905697085, "lng": -0.143664680291502}}}, "name": "Bus Users UK", "place_id": "ChIJW0o-wB8FdkgRb04Z3DS3uUo", "types": ["point_of_interest", "establishment"]}, "ChIJW0o-wB8FdkgRTJ1BGUxUuV8": {"geometry": {"location": {"lat": 51.4925145, "lng": -0.1422247}, "viewport": {"northeast": {"lat": 51.4937885302915, "lng": -0.140966719708498}, "southwest": {"lat": 51.4910905697085, "lng": -0.143664680291502}}}, "name": "The Spiritualist Association of Great Britain", "place_id": "ChIJW0o-wB8FdkgRTJ1BGUxUuV8", "types": ["point_of_interest", "establishment"]}, "ChIJAcsJwx8FdkgRNywisew9QSg": {"geometry": {"location": {"lat": 51.492529, "lng": -0.142266}, "viewport": {"northeast": {"lat": 51.4938045802915, "lng": -0.141006119708498}, "southwest": {"lat": 51.4911066197085, "lng": -0.143704080291502}}}, "name": "Field Lane Foundation", "place_id": "ChIJAcsJwx8FdkgRNywisew9QSg", "types": ["point_of_interest", "establishment"]}, "ChIJ6TYPwB8FdkgRX8D6vnoEfG8": {"geometry": {"location": {"lat": 51.4925287, "lng": -0.1422643}, "viewport": {"northeast": {"lat": 51.49380413029149, "lng": -0.141004619708498}, "southwest": {"lat": 51.49110616970849, "lng": -0.143702580291502}}}, "name": "World Vision UK and International", "place_id": "ChIJ6TYPwB8FdkgRX8D6vnoEfG8", "types": ["point_of_interest", "establishment"], "rating": 3.8, "user_ratings_total": 12}, "ChIJ6TYPwB8FdkgRd_pRDEbtLsQ": {"geometry": {"location": {"lat": 51.49253840000001, "lng": -0.142298}, "viewport": {"northeast": {"lat": 51.49381698029151, "lng": -0.141038419708498}, "southwest": {"lat": 51.49111901970851, "lng": -0.143736380291502}}}, "name": "Facing History and Ourselves, Ltd.", "place_id": "ChIJ6TYPwB8FdkgRd_pRDEbtLsQ", "types": ["point_of_interest", "establishment"]}, "ChIJ5TYPwB8FdkgRHN95PFloZL0": {"geometry": {"location": {"lat": 51.49253849999999, "lng": -0.1422979}, "viewport": {"northeast": {"lat": 51.4938170302915, "lng": -0.141038369708498}, "southwest": {"lat": 51.4911190697085, "lng": -0.143736330291502}}}, "name": "Sustainability First", "place_id": "ChIJ5TYPwB8FdkgRHN95PFloZL0", "types": ["point_of_interest", "establishment"]}, "ChIJxSuJvR8FdkgRZsqSdaI2K0s": {"geometry": {"location": {"lat": 51.4925445, "lng": -0.142277}, "viewport": {"northeast": {"lat": 51.4938168302915, "lng": -0.141021119708498}, "southwest": {"lat": 51.4911188697085, "lng": -0.143719080291502}}}, "name": "Charity Services Centre", "place_id": "ChIJxSuJvR8FdkgRZsqSdaI2K0s", "types": ["point_of_interest", "establishment"], "rating": 2.5, "user_ratings_total": 2}, "ChIJVVUFwB8FdkgRNdltAd7CJi0": {"geometry": {"location": {"lat": 51.4925445, "lng": -0.142277}, "viewport": {"northeast": {"lat": 51.4938168302915, "lng": -0.141021119708498}, "southwest": {"lat": 51.4911188697085, "lng": -0.143719080291502}}}, "name": "Kosovo Connection", "place_id": "ChIJVVUFwB8FdkgRNdltAd7CJi0", "types": ["point_of_interest", "establishment"]}, "ChIJk0JNox8FdkgRtfX6WFJBZbo": {"geometry": {"location": {"lat": 51.49227639999999, "lng": -0.1429846}, "viewport": {"northeast": {"lat": 51.4936684802915, "lng": -0.141727969708498}, "southwest": {"lat": 51.4909705197085, "lng": -0.144425930291502}}}, "name": "Pimlico Flowers", "place_id": "ChIJk0JNox8FdkgRtfX6WFJBZbo", "types": ["florist", "point_of_interest", "store", "establishment"], "rating": 3, "user_ratings_total": 8}, "ChIJi9-WuB8FdkgR5yN6IcTZgdI": {"geometry": {"location": {"lat": 51.49215909999999, "lng": -0.1423784}, "viewport": {"northeast": {"lat": 51.49356903029151, "lng": -0.140955419708498}, "southwest": {"lat": 51.49087106970851, "lng": -0.143653380291502}}}, "name": "\ubca8\uadf8\ub808\uc774\ube0c \ud558\uc6b0\uc2a4\ud638\ud154", "place_id": "ChIJi9-WuB8FdkgR5yN6IcTZgdI", "types": ["lodging", "point_of_interest", "establishment"]}, "ChIJ88MYWVMFdkgR0wmnhKUFv4M": {"geometry": {"location": {"lat": 51.4921511, "lng": -0.1423525}, "viewport": {"northeast": {"lat": 51.49355973029149, "lng": -0.140931119708498}, "southwest": {"lat": 51.4908617697085, "lng": -0.143629080291502}}}, "name": "OYO Studios @ 28", "place_id": "ChIJ88MYWVMFdkgR0wmnhKUFv4M", "types": ["lodging", "point_of_interest", "establishment"], "rating": 3.8, "user_ratings_total": 17}, "ChIJT6JR_igFdkgR0omdEczdGlA": {"geometry": {"location": {"lat": 51.4921511, "lng": -0.1423525}, "viewport": {"northeast": {"lat": 51.49355973029149, "lng": -0.140931119708498}, "southwest": {"lat": 51.4908617697085, "lng": -0.143629080291502}}}, "name": "Vitvo", "place_id": "ChIJT6JR_igFdkgR0omdEczdGlA", "types": ["finance", "point_of_interest", "establishment"]}, "ChIJCSy7uB8FdkgRuSnhwZ2c47I": {"geometry": {"location": {"lat": 51.49220439999999, "lng": -0.1423683}, "viewport": {"northeast": {"lat": 51.4935985802915, "lng": -0.1409644197084979}, "southwest": {"lat": 51.4909006197085, "lng": -0.143662380291502}}}, "name": "Sophie Hewlett", "place_id": "ChIJCSy7uB8FdkgRuSnhwZ2c47I", "types": ["point_of_interest", "establishment"]}, "ChIJhRBLxh8FdkgRGO51XBvywWM": {"geometry": {"location": {"lat": 51.4920239, "lng": -0.1421288}, "viewport": {"northeast": {"lat": 51.49343818029149, "lng": -0.140696119708498}, "southwest": {"lat": 51.4907402197085, "lng": -0.1433940802915021}}}, "name": "Nuestro Hotel", "place_id": "ChIJhRBLxh8FdkgRGO51XBvywWM", "types": ["lodging", "point_of_interest", "establishment"]}, "ChIJo_qm7KEFdkgR6QCYHpegkL8": {"geometry": {"location": {"lat": 51.4920388, "lng": -0.1421142}, "viewport": {"northeast": {"lat": 51.4934474802915, "lng": -0.140692769708498}, "southwest": {"lat": 51.4907495197085, "lng": -0.143390730291502}}}, "name": "hotel", "place_id": "ChIJo_qm7KEFdkgR6QCYHpegkL8", "types": ["lodging", "point_of_interest", "establishment"]}, "ChIJm4nLtx8FdkgRB9Q99js5P1Q": {"geometry": {"location": {"lat": 51.49177829999999, "lng": -0.1423884}, "viewport": {"northeast": {"lat": 51.49315163029149, "lng": -0.141008969708498}, "southwest": {"lat": 51.4904536697085, "lng": -0.143706930291502}}}, "name": "BW-v\u00e6relse1", "place_id": "ChIJm4nLtx8FdkgRB9Q99js5P1Q", "types": ["lodging", "point_of_interest", "establishment"], "rating": 5, "user_ratings_total": 1}, "ChIJD2qGTngFdkgRhvtAmmEKpug": {"geometry": {"location": {"lat": 51.4917339, "lng": -0.1421236}, "viewport": {"northeast": {"lat": 51.49302153029149, "lng": -0.140728769708498}, "southwest": {"lat": 51.49032356970849, "lng": -0.143426730291502}}}, "name": "Golden Star Hotel", "place_id": "ChIJD2qGTngFdkgRhvtAmmEKpug", "types": ["lodging", "point_of_interest", "establishment"], "rating": 1.2, "user_ratings_total": 32}, "ChIJP705ueQFdkgRSUKV9BtE3MI": {"geometry": {"location": {"lat": 51.4920632, "lng": -0.1431523}, "viewport": {"northeast": {"lat": 51.49346843029149, "lng": -0.141922969708498}, "southwest": {"lat": 51.49077046970849, "lng": -0.144620930291502}}}, "name": "Kids En Cuisine", "place_id": "ChIJP705ueQFdkgRSUKV9BtE3MI", "types": ["food", "point_of_interest", "establishment"], "rating": 5, "user_ratings_total": 13}, "ChIJTR3uxR8FdkgRa5NPgl_X-kU": {"geometry": {"location": {"lat": 51.4919705, "lng": -0.1418866}, "viewport": {"northeast": {"lat": 51.4933668302915, "lng": -0.140480169708498}, "southwest": {"lat": 51.4906688697085, "lng": -0.143178130291502}}}, "name": "Calvados Hotel", "place_id": "ChIJTR3uxR8FdkgRa5NPgl_X-kU", "types": ["lodging", "point_of_interest", "establishment"]}, "ChIJ7bVKpB8FdkgRuaSJvWS9y6g": {"geometry": {"location": {"lat": 51.49205649999999, "lng": -0.1431759}, "viewport": {"northeast": {"lat": 51.49345943029149, "lng": -0.1419416197084979}, "southwest": {"lat": 51.4907614697085, "lng": -0.144639580291502}}}, "name": "The Rodolfus Foundation Limited", "place_id": "ChIJ7bVKpB8FdkgRuaSJvWS9y6g", "types": ["point_of_interest", "establishment"]}, "ChIJ4dm5ZuAEdkgRZhxzbupnzzc": {"geometry": {"location": {"lat": 51.49176019999999, "lng": -0.1419288}, "viewport": {"northeast": {"lat": 51.4930609802915, "lng": -0.140543369708498}, "southwest": {"lat": 51.4903630197085, "lng": -0.143241330291502}}}, "name": "BLUE FLUX", "place_id": "ChIJ4dm5ZuAEdkgRZhxzbupnzzc", "types": ["point_of_interest", "establishment"]}, "ChIJa2kTxMsFdkgRXM8rxiNcGpE": {"geometry": {"location": {"lat": 51.4924919, "lng": -0.1423333}, "viewport": {"northeast": {"lat": 51.4937937302915, "lng": -0.141056069708498}, "southwest": {"lat": 51.4910957697085, "lng": -0.143754030291502}}}, "name": "Youth Business International", "place_id": "ChIJa2kTxMsFdkgRXM8rxiNcGpE", "types": ["point_of_interest", "establishment"]}, "ChIJoZ-Svx8FdkgRpYREzRzmzC0": {"geometry": {"location": {"lat": 51.49249779999999, "lng": -0.1423693}, "viewport": {"northeast": {"lat": 51.49379878029149, "lng": -0.141077419708498}, "southwest": {"lat": 51.49110081970849, "lng": -0.143775380291502}}}, "name": "Eleven", "place_id": "ChIJoZ-Svx8FdkgRpYREzRzmzC0", "types": ["point_of_interest", "establishment"]}, "ChIJ7bVKpB8FdkgRnr65rONOuME": {"geometry": {"location": {"lat": 51.4920926, "lng": -0.1433253}, "viewport": {"northeast": {"lat": 51.4934668302915, "lng": -0.142030419708498}, "southwest": {"lat": 51.4907688697085, "lng": -0.144728380291502}}}, "name": "Garbage and recycling bins", "place_id": "ChIJ7bVKpB8FdkgRnr65rONOuME", "types": ["point_of_interest", "establishment"], "rating": 5, "user_ratings_total": 1}, "ChIJxSuJvR8FdkgR5neROikwL5M": {"geometry": {"location": {"lat": 51.4925145, "lng": -0.1422247}, "viewport": {"northeast": {"lat": 51.4937885302915, "lng": -0.140966719708498}, "southwest": {"lat": 51.4910905697085, "lng": -0.143664680291502}}}, "name": "National School of Government (Belgrave Road)", "place_id": "ChIJxSuJvR8FdkgR5neROikwL5M", "types": ["university", "point_of_interest", "establishment"], "rating": 4, "user_ratings_total": 1}, "ChIJq00dzx8FdkgR_QpThU2J2V4": {"geometry": {"location": {"lat": 51.4917682, "lng": -0.1418146}, "viewport": {"northeast": {"lat": 51.4930785802915, "lng": -0.1404367697084979}, "southwest": {"lat": 51.4903806197085, "lng": -0.143134730291502}}}, "name": "Hardscape Products Ltd", "place_id": "ChIJq00dzx8FdkgR_QpThU2J2V4", "types": ["point_of_interest", "establishment"]}, "ChIJw_dVyB8FdkgRmUoABtKkj5E": {"geometry": {"location": {"lat": 51.49180630000001, "lng": -0.1417786}, "viewport": {"northeast": {"lat": 51.4931052802915, "lng": -0.140392269708498}, "southwest": {"lat": 51.4904073197085, "lng": -0.143090230291502}}}, "name": "Rogers Of Pimlico", "place_id": "ChIJw_dVyB8FdkgRmUoABtKkj5E", "types": ["laundry", "point_of_interest", "establishment"], "rating": 2.9, "user_ratings_total": 13}, "ChIJq6oHzx8FdkgRcNeUJdLLZH8": {"geometry": {"location": {"lat": 51.49179589999999, "lng": -0.1417795}, "viewport": {"northeast": {"lat": 51.49309908029149, "lng": -0.140396269708498}, "southwest": {"lat": 51.49040111970849, "lng": -0.143094230291502}}}, "name": "Aaan Ltd", "place_id": "ChIJq6oHzx8FdkgRcNeUJdLLZH8", "types": ["point_of_interest", "establishment"]}, "ChIJVVUFwB8FdkgRDgxudkxt5tg": {"geometry": {"location": {"lat": 51.4925445, "lng": -0.142277}, "viewport": {"northeast": {"lat": 51.4938168302915, "lng": -0.141021119708498}, "southwest": {"lat": 51.4911188697085, "lng": -0.143719080291502}}}, "name": "Lha London Ltd", "place_id": "ChIJVVUFwB8FdkgRDgxudkxt5tg", "types": ["point_of_interest", "establishment"]}, "ChIJVVUFwB8FdkgRtSL0z6A2Jk4": {"geometry": {"location": {"lat": 51.4925445, "lng": -0.142277}, "viewport": {"northeast": {"lat": 51.4938168302915, "lng": -0.141021119708498}, "southwest": {"lat": 51.4911188697085, "lng": -0.143719080291502}}}, "name": "The Lullaby Trust Baby Check", "place_id": "ChIJVVUFwB8FdkgRtSL0z6A2Jk4", "types": ["point_of_interest", "establishment"]}, "ChIJVVUFwB8FdkgR9bHxLMDKfwg": {"geometry": {"location": {"lat": 51.4925445, "lng": -0.142277}, "viewport": {"northeast": {"lat": 51.4938168302915, "lng": -0.141021119708498}, "southwest": {"lat": 51.4911188697085, "lng": -0.143719080291502}}}, "name": "Select Locums", "place_id": "ChIJVVUFwB8FdkgR9bHxLMDKfwg", "types": ["point_of_interest", "establishment"]}, "ChIJVVVVVdwEdkgRHLaV9BGse64": {"geometry": {"location": {"lat": 51.4925445, "lng": -0.142277}, "viewport": {"northeast": {"lat": 51.4938168302915, "lng": -0.141021119708498}, "southwest": {"lat": 51.4911188697085, "lng": -0.143719080291502}}}, "name": "The Coroners Courts Support Services", "place_id": "ChIJVVVVVdwEdkgRHLaV9BGse64", "types": ["courthouse", "point_of_interest", "establishment"]}, "ChIJgdpzaBcFdkgRtFgdDkJuHmE": {"geometry": {"location": {"lat": 51.4925445, "lng": -0.142277}, "viewport": {"northeast": {"lat": 51.4938168302915, "lng": -0.141021119708498}, "southwest": {"lat": 51.4911188697085, "lng": -0.143719080291502}}}, "name": "Baby Loss Awareness Week", "place_id": "ChIJgdpzaBcFdkgRtFgdDkJuHmE", "types": ["point_of_interest", "establishment"]}, "ChIJVVUFwB8FdkgRGJ0NyymQONE": {"geometry": {"location": {"lat": 51.4925445, "lng": -0.142277}, "viewport": {"northeast": {"lat": 51.4938168302915, "lng": -0.141021119708498}, "southwest": {"lat": 51.4911188697085, "lng": -0.143719080291502}}}, "name": "The Duke of Edinburgh\u2019s Award", "place_id": "ChIJVVUFwB8FdkgRGJ0NyymQONE", "types": ["point_of_interest", "establishment"], "rating": 5, "user_ratings_total": 1}, "ChIJxX_TCB8FdkgR2u2Hp56vJfQ": {"geometry": {"location": {"lat": 51.4920908, "lng": -0.1439737}, "viewport": {"northeast": {"lat": 51.49343203351182, "lng": -0.142760550327118}, "southwest": {"lat": 51.49073407292882, "lng": -0.1454585109101221}}}, "name": "Ecclestone Square Park", "place_id": "ChIJxX_TCB8FdkgR2u2Hp56vJfQ", "types": ["park", "premise", "point_of_interest", "establishment"]}, "ChIJC6IQsx8FdkgRKuCHvLcoLvM": {"geometry": {"location": {"lat": 51.4913793784947, "lng": -0.142820613863953}, "viewport": {"northeast": {"lat": 51.49272793029149, "lng": -0.1414712697084979}, "southwest": {"lat": 51.49002996970849, "lng": -0.144169230291502}}}, "name": "86-96 Warwick Way", "place_id": "ChIJC6IQsx8FdkgRKuCHvLcoLvM", "types": ["route"]}, "ChIJUQESUx4FdkgRDoSrGahVSsc": {"geometry": {"location": {"lat": 51.49113389999999, "lng": -0.143293}, "viewport": {"northeast": {"lat": 51.49252248029149, "lng": -0.141974019708498}, "southwest": {"lat": 51.48982451970849, "lng": -0.144671980291502}}}, "name": "OYO Vegas Hotel", "place_id": "ChIJUQESUx4FdkgRDoSrGahVSsc", "types": ["lodging", "point_of_interest", "establishment"], "rating": 3, "user_ratings_total": 258}, "ChIJAQDQTB4FdkgRiEOQ-nqTG9g": {"geometry": {"location": {"lat": 51.4912612, "lng": -0.1427885}, "viewport": {"northeast": {"lat": 51.4926625302915, "lng": -0.141478719708498}, "southwest": {"lat": 51.4899645697085, "lng": -0.144176680291502}}}, "name": "The Warwick by Aura Collection", "place_id": "ChIJAQDQTB4FdkgRiEOQ-nqTG9g", "types": ["lodging", "point_of_interest", "establishment"], "rating": 5, "user_ratings_total": 2}, "ChIJP_1FzR8FdkgRMRp-35IRlrM": {"geometry": {"location": {"lat": 51.4909854, "lng": -0.1417593}, "viewport": {"northeast": {"lat": 51.4922906302915, "lng": -0.140317069708498}, "southwest": {"lat": 51.4895926697085, "lng": -0.143015030291502}}}, "name": "The Rank Foundation", "place_id": "ChIJP_1FzR8FdkgRMRp-35IRlrM", "types": ["point_of_interest", "establishment"], "rating": 5, "user_ratings_total": 3}, "ChIJTdIJzR8FdkgR9oM4K6n8X8Y": {"geometry": {"location": {"lat": 51.49129109999999, "lng": -0.1419454}, "viewport": {"northeast": {"lat": 51.4926389302915, "lng": -0.140593919708498}, "southwest": {"lat": 51.4899409697085, "lng": -0.143291880291502}}}, "name": "CV+", "place_id": "ChIJTdIJzR8FdkgR9oM4K6n8X8Y", "types": ["point_of_interest", "establishment"]}, "ChIJUQESUx4FdkgRHIzfxhnHL2s": {"geometry": {"location": {"lat": 51.491055, "lng": -0.1433599}, "viewport": {"northeast": {"lat": 51.4924679302915, "lng": -0.142059069708498}, "southwest": {"lat": 51.4897699697085, "lng": -0.144757030291502}}}, "name": "Mystery Customer Evaluations", "place_id": "ChIJUQESUx4FdkgRHIzfxhnHL2s", "types": ["point_of_interest", "establishment"]}, "ChIJR4eySR4FdkgRgAoxrS7MKyw": {"geometry": {"location": {"lat": 51.4908534, "lng": -0.1425333}, "viewport": {"northeast": {"lat": 51.49222483029151, "lng": -0.141228519708498}, "southwest": {"lat": 51.48952686970851, "lng": -0.143926480291502}}}, "name": "Wired Back Limited", "place_id": "ChIJR4eySR4FdkgRgAoxrS7MKyw", "types": ["point_of_interest", "establishment"]}, "ChIJnRZoNLMFdkgRFuIEJk8FkfY": {"geometry": {"location": {"lat": 51.4909385, "lng": -0.1427689}, "viewport": {"northeast": {"lat": 51.4923032302915, "lng": -0.141376119708498}, "southwest": {"lat": 51.4896052697085, "lng": -0.144074080291502}}}, "name": "TravelWorld UK", "place_id": "ChIJnRZoNLMFdkgRFuIEJk8FkfY", "types": ["travel_agency", "point_of_interest", "establishment"]}, "ChIJi8ilTR4FdkgRi88F1tRMPsk": {"geometry": {"location": {"lat": 51.4910819, "lng": -0.1429213}, "viewport": {"northeast": {"lat": 51.4924274802915, "lng": -0.141584069708498}, "southwest": {"lat": 51.4897295197085, "lng": -0.1442820302915021}}}, "name": "Westminster Tree Trust", "place_id": "ChIJi8ilTR4FdkgRi88F1tRMPsk", "types": ["point_of_interest", "establishment"]}, "ChIJBcpYNx4FdkgRYzi-OkRNEmY": {"geometry": {"location": {"lat": 51.4906206, "lng": -0.1420133}, "viewport": {"northeast": {"lat": 51.49195718029149, "lng": -0.140637919708498}, "southwest": {"lat": 51.48925921970849, "lng": -0.143335880291502}}}, "name": "S R U Ltd", "place_id": "ChIJBcpYNx4FdkgRYzi-OkRNEmY", "types": ["point_of_interest", "establishment"]}, "ChIJjXRzRR4FdkgRBS08Nkzywtc": {"geometry": {"location": {"lat": 51.4905415, "lng": -0.1428918}, "viewport": {"northeast": {"lat": 51.4918411802915, "lng": -0.141601969708498}, "southwest": {"lat": 51.4891432197085, "lng": -0.144299930291502}}}, "name": "Benjamin Milton Reflexology", "place_id": "ChIJjXRzRR4FdkgRBS08Nkzywtc", "types": ["health", "point_of_interest", "establishment"]}, "ChIJh_3B6bkFdkgRBHQ2DgQxWCE": {"geometry": {"location": {"lat": 51.491337, "lng": -0.1429666}, "viewport": {"northeast": {"lat": 51.4926578302915, "lng": -0.141595569708498}, "southwest": {"lat": 51.4899598697085, "lng": -0.144293530291502}}}, "name": "Dee Dee K's Snack Bar", "place_id": "ChIJh_3B6bkFdkgRBHQ2DgQxWCE", "types": ["restaurant", "food", "point_of_interest", "establishment"]}, "ChIJxbbdUB4FdkgRi-h9MTpjCy0": {"geometry": {"location": {"lat": 51.4907512, "lng": -0.1433335}, "viewport": {"northeast": {"lat": 51.49205023029149, "lng": -0.142045069708498}, "southwest": {"lat": 51.48935226970849, "lng": -0.144743030291502}}}, "name": "Greysby Ltd", "place_id": "ChIJxbbdUB4FdkgRi-h9MTpjCy0", "types": ["lodging", "point_of_interest", "establishment"]}, "ChIJBdP9sh8FdkgRteJjiz7lnUc": {"geometry": {"location": {"lat": 51.49141299999999, "lng": -0.142879}, "viewport": {"northeast": {"lat": 51.4927490302915, "lng": -0.141520319708498}, "southwest": {"lat": 51.4900510697085, "lng": -0.144218280291502}}}, "name": "ubitricity Charging Station", "place_id": "ChIJBdP9sh8FdkgRteJjiz7lnUc", "types": ["point_of_interest", "establishment"]}, "ChIJV0JiQB4FdkgRHyfA8mGlSCc": {"geometry": {"location": {"lat": 51.49013115004679, "lng": -0.1423379998896727}, "viewport": {"northeast": {"lat": 51.4914801302915, "lng": -0.1409890197084979}, "southwest": {"lat": 51.4887821697085, "lng": -0.143686980291502}}}, "name": "61 St George's Dr", "place_id": "ChIJV0JiQB4FdkgRHyfA8mGlSCc", "types": ["route"]}, "ChIJn8JhEx4FdkgR3kuoepncp3I": {"geometry": {"location": {"lat": 51.48962699999999, "lng": -0.142199}, "viewport": {"northeast": {"lat": 51.49097598029149, "lng": -0.140850019708498}, "southwest": {"lat": 51.4882780197085, "lng": -0.143547980291502}}}, "name": "St Gabriel's, Pimlico", "place_id": "ChIJn8JhEx4FdkgR3kuoepncp3I", "types": ["church", "place_of_worship", "point_of_interest", "establishment"], "rating": 4.5, "user_ratings_total": 64}, "ChIJTeF6RB4FdkgRdDtgRh_w4H4": {"geometry": {"location": {"lat": 51.4901524, "lng": -0.142942}, "viewport": {"northeast": {"lat": 51.4915844302915, "lng": -0.141493369708498}, "southwest": {"lat": 51.4888864697085, "lng": -0.144191330291502}}}, "name": "Brompton House", "place_id": "ChIJTeF6RB4FdkgRdDtgRh_w4H4", "types": ["lodging", "point_of_interest", "establishment"]}, "ChIJgV4kah4FdkgRnAKTLcK3PNc": {"geometry": {"location": {"lat": 51.4898494, "lng": -0.1426434}, "viewport": {"northeast": {"lat": 51.4911800802915, "lng": -0.141253469708498}, "southwest": {"lat": 51.4884821197085, "lng": -0.143951430291502}}}, "name": "Pimlico Musical Foundation", "place_id": "ChIJgV4kah4FdkgRnAKTLcK3PNc", "types": ["point_of_interest", "establishment"]}, "ChIJCdCXah4FdkgRnWC4t7l1n4U": {"geometry": {"location": {"lat": 51.4899093, "lng": -0.1424039}, "viewport": {"northeast": {"lat": 51.4912528302915, "lng": -0.141043369708498}, "southwest": {"lat": 51.4885548697085, "lng": -0.143741330291502}}}, "name": "Zipcar", "place_id": "ChIJCdCXah4FdkgRnWC4t7l1n4U", "types": ["car_rental", "point_of_interest", "establishment"]}, "ChIJK7rbax4FdkgRLqUmxPZLvS4": {"geometry": {"location": {"lat": 51.4897391, "lng": -0.1426456}, "viewport": {"northeast": {"lat": 51.49110698029149, "lng": -0.141337069708498}, "southwest": {"lat": 51.48840901970849, "lng": -0.144035030291502}}}, "name": "Grosvenor School Of Modern Art", "place_id": "ChIJK7rbax4FdkgRLqUmxPZLvS4", "types": ["point_of_interest", "establishment"]}, "ChIJRxzjQB4FdkgRPRT8qdXwgbA": {"geometry": {"location": {"lat": 51.4901037, "lng": -0.1425575}, "viewport": {"northeast": {"lat": 51.49149458029149, "lng": -0.141160269708498}, "southwest": {"lat": 51.48879661970849, "lng": -0.143858230291502}}}, "name": "Dinsdales Of London", "place_id": "ChIJRxzjQB4FdkgRPRT8qdXwgbA", "types": ["storage", "point_of_interest", "establishment"], "rating": 5, "user_ratings_total": 22}, "ChIJm-Y6Qh4FdkgR9mXyyFTCxKs": {"geometry": {"location": {"lat": 51.49007229999999, "lng": -0.1427306}, "viewport": {"northeast": {"lat": 51.4914984802915, "lng": -0.141288969708498}, "southwest": {"lat": 51.4888005197085, "lng": -0.143986930291502}}}, "name": "As Energy Ltd", "place_id": "ChIJm-Y6Qh4FdkgR9mXyyFTCxKs", "types": ["point_of_interest", "establishment"]}, "ChIJ8cUUBJEFdkgRcubx4Jk-Bu4": {"geometry": {"location": {"lat": 51.4897292, "lng": -0.1428875}, "viewport": {"northeast": {"lat": 51.4910781802915, "lng": -0.141538519708498}, "southwest": {"lat": 51.4883802197085, "lng": -0.144236480291502}}}, "name": "Mathematical Bridge", "place_id": "ChIJ8cUUBJEFdkgRcubx4Jk-Bu4", "types": ["point_of_interest", "establishment"]}, "ChIJI206z9sFdkgRMNeGISV1i4E": {"geometry": {"location": {"lat": 51.4897292, "lng": -0.1428875}, "viewport": {"northeast": {"lat": 51.4910781802915, "lng": -0.141538519708498}, "southwest": {"lat": 51.4883802197085, "lng": -0.144236480291502}}}, "name": "Smith may solicitors", "place_id": "ChIJI206z9sFdkgRMNeGISV1i4E", "types": ["point_of_interest", "establishment"]}, "ChIJWad2Fh4FdkgR4MFqe8WbG2I": {"geometry": {"location": {"lat": 51.489856, "lng": -0.141923}, "viewport": {"northeast": {"lat": 51.4912260802915, "lng": -0.140547219708498}, "southwest": {"lat": 51.4885281197085, "lng": -0.143245180291502}}}, "name": "Santander Cycles", "place_id": "ChIJWad2Fh4FdkgR4MFqe8WbG2I", "types": ["point_of_interest", "establishment"]}, "ChIJWad2Fh4FdkgRUWaba2enY5E": {"geometry": {"location": {"lat": 51.489856, "lng": -0.141923}, "viewport": {"northeast": {"lat": 51.4912260802915, "lng": -0.140547219708498}, "southwest": {"lat": 51.4885281197085, "lng": -0.143245180291502}}}, "name": "Santander Cycles", "place_id": "ChIJWad2Fh4FdkgRUWaba2enY5E", "types": ["point_of_interest", "establishment"]}, "ChIJJzCTXBcFdkgRs4RMBvUhg_Q": {"geometry": {"location": {"lat": 51.48949349999999, "lng": -0.1423814}, "viewport": {"northeast": {"lat": 51.49086688029149, "lng": -0.141003969708498}, "southwest": {"lat": 51.4881689197085, "lng": -0.143701930291502}}}, "name": "Aubrey Beardsley Blue Plaque", "place_id": "ChIJJzCTXBcFdkgRs4RMBvUhg_Q", "types": ["tourist_attraction", "point_of_interest", "establishment"], "rating": 3, "user_ratings_total": 1}, "ChIJy-ECZh4FdkgR97_1hU9CnCE": {"geometry": {"location": {"lat": 51.4896641, "lng": -0.143054}, "viewport": {"northeast": {"lat": 51.4910587302915, "lng": -0.141649619708498}, "southwest": {"lat": 51.4883607697085, "lng": -0.144347580291502}}}, "name": "Ski 2 Freedom Foundation", "place_id": "ChIJy-ECZh4FdkgR97_1hU9CnCE", "types": ["point_of_interest", "establishment"]}, "ChIJMSEFNAoFdkgRvIuWoMgdXaM": {"geometry": {"location": {"lat": 51.48987090000001, "lng": -0.1431886}, "viewport": {"northeast": {"lat": 51.4911947302915, "lng": -0.141870119708498}, "southwest": {"lat": 51.4884967697085, "lng": -0.1445680802915021}}}, "name": "Jomo Kenyatta Blue Plaque", "place_id": "ChIJMSEFNAoFdkgRvIuWoMgdXaM", "types": ["point_of_interest", "establishment"], "rating": 4, "user_ratings_total": 2}, "ChIJf8wSZh4FdkgR9-BWhsXbYV8": {"geometry": {"location": {"lat": 51.48967630000001, "lng": -0.143134}, "viewport": {"northeast": {"lat": 51.49107903029149, "lng": -0.141719769708498}, "southwest": {"lat": 51.4883810697085, "lng": -0.1444177302915021}}}, "name": "Dickens Brothers Limited", "place_id": "ChIJf8wSZh4FdkgR9-BWhsXbYV8", "types": ["point_of_interest", "establishment"]}, "ChIJa0rnRh4FdkgRuz8XDil-QkM": {"geometry": {"location": {"lat": 51.49037329999999, "lng": -0.1425195}, "viewport": {"northeast": {"lat": 51.4916756302915, "lng": -0.141071169708498}, "southwest": {"lat": 51.4889776697085, "lng": -0.143769130291502}}}, "name": "Vienso Ltd", "place_id": "ChIJa0rnRh4FdkgRuz8XDil-QkM", "types": ["store", "point_of_interest", "establishment"]}, "ChIJAQDcZh4FdkgRP3H32v6HWRo": {"geometry": {"location": {"lat": 51.4897722, "lng": -0.1433418}, "viewport": {"northeast": {"lat": 51.49117553029149, "lng": -0.141926819708498}, "southwest": {"lat": 51.4884775697085, "lng": -0.144624780291502}}}, "name": "Riverside Mental Health Trust", "place_id": "ChIJAQDcZh4FdkgRP3H32v6HWRo", "types": ["health", "point_of_interest", "establishment"]}, "ChIJreStcx4FdkgRj9nGuYnso2I": {"geometry": {"location": {"lat": 51.4891794, "lng": -0.1426368}, "viewport": {"northeast": {"lat": 51.49047433029151, "lng": -0.141354219708498}, "southwest": {"lat": 51.48777636970851, "lng": -0.144052180291502}}}, "name": "Donald Burke Decorations", "place_id": "ChIJreStcx4FdkgRj9nGuYnso2I", "types": ["painter", "point_of_interest", "establishment"], "rating": 5, "user_ratings_total": 1}, "ChIJp8FhVYYFdkgR1ddRWZsSMbU": {"geometry": {"location": {"lat": 51.4892645, "lng": -0.142903}, "viewport": {"northeast": {"lat": 51.49057258029151, "lng": -0.141604269708498}, "southwest": {"lat": 51.48787461970851, "lng": -0.144302230291502}}}, "name": "TR Corp", "place_id": "ChIJp8FhVYYFdkgR1ddRWZsSMbU", "types": ["point_of_interest", "establishment"]}, "ChIJg4DXAB8FdkgRntYPiUzuSy0": {"geometry": {"location": {"lat": 51.49159419999999, "lng": -0.144002}, "viewport": {"northeast": {"lat": 51.49295188029149, "lng": -0.142671569708498}, "southwest": {"lat": 51.49025391970849, "lng": -0.145369530291502}}}, "name": "The Buddhist Society", "place_id": "ChIJg4DXAB8FdkgRntYPiUzuSy0", "types": ["library", "health", "point_of_interest", "establishment"], "rating": 4.7, "user_ratings_total": 13}, "ChIJVdghDa0cdkgRJozj3vLByl4": {"geometry": {"location": {"lat": 51.4922626, "lng": -0.144473}, "viewport": {"northeast": {"lat": 51.4936031302915, "lng": -0.143105969708498}, "southwest": {"lat": 51.4909051697085, "lng": -0.145803930291502}}}, "name": "Clarus Education London & West Midlands", "place_id": "ChIJVdghDa0cdkgRJozj3vLByl4", "types": ["point_of_interest", "establishment"], "rating": 4.4, "user_ratings_total": 66}, "ChIJ3z3pDR8FdkgRECrEI529eKw": {"geometry": {"location": {"lat": 51.4923096, "lng": -0.1444516}, "viewport": {"northeast": {"lat": 51.49367743029151, "lng": -0.143142869708498}, "southwest": {"lat": 51.49097946970851, "lng": -0.145840830291502}}}, "name": "London Nursery Advice", "place_id": "ChIJ3z3pDR8FdkgRECrEI529eKw", "types": ["point_of_interest", "establishment"]}, "ChIJd5uEMS8FdkgRGJLA2CP-gTI": {"geometry": {"location": {"lat": 51.492368, "lng": -0.144715}, "viewport": {"northeast": {"lat": 51.4936669802915, "lng": -0.143259269708498}, "southwest": {"lat": 51.4909690197085, "lng": -0.145957230291502}}}, "name": "Delta Economics", "place_id": "ChIJd5uEMS8FdkgRGJLA2CP-gTI", "types": ["finance", "point_of_interest", "establishment"]}, "ChIJ_0JPqh8FdkgRGGKG7vuSZ74": {"geometry": {"location": {"lat": 51.49181000000001, "lng": -0.1435719}, "viewport": {"northeast": {"lat": 51.49319818029151, "lng": -0.142306919708498}, "southwest": {"lat": 51.49050021970851, "lng": -0.145004880291502}}}, "name": "Konrad-Adenauer-Stiftung e.V. Great Britain", "place_id": "ChIJ_0JPqh8FdkgRGGKG7vuSZ74", "types": ["point_of_interest", "establishment"], "rating": 2.7, "user_ratings_total": 3}, "ChIJxcqM_5cFdkgRqkSqfcu1b0k": {"geometry": {"location": {"lat": 51.4922511, "lng": -0.144522}, "viewport": {"northeast": {"lat": 51.49360008029149, "lng": -0.1431730197084979}, "southwest": {"lat": 51.49090211970849, "lng": -0.145870980291502}}}, "name": "Tennis", "place_id": "ChIJxcqM_5cFdkgRqkSqfcu1b0k", "types": ["point_of_interest", "establishment"]}, "ChIJ_0JPqh8FdkgRWTCQuXfENtU": {"geometry": {"location": {"lat": 51.49184760000001, "lng": -0.1436499}, "viewport": {"northeast": {"lat": 51.4932173802915, "lng": -0.142345469708498}, "southwest": {"lat": 51.49051941970851, "lng": -0.145043430291502}}}, "name": "J E Snell", "place_id": "ChIJ_0JPqh8FdkgRWTCQuXfENtU", "types": ["point_of_interest", "establishment"]}, "ChIJ79xPP1MFdkgRJs50RIYyCYs": {"geometry": {"location": {"lat": 51.491617, "lng": -0.14408}, "viewport": {"northeast": {"lat": 51.4929809802915, "lng": -0.1427629697084979}, "southwest": {"lat": 51.4902830197085, "lng": -0.145460930291502}}}, "name": "Evan", "place_id": "ChIJ79xPP1MFdkgRJs50RIYyCYs", "types": ["museum", "point_of_interest", "establishment"]}, "ChIJd9BArqgFdkgR7Ku24P0Q3z8": {"geometry": {"location": {"lat": 51.4916363, "lng": -0.1438889}, "viewport": {"northeast": {"lat": 51.49300838029149, "lng": -0.1425894197084979}, "southwest": {"lat": 51.4903104197085, "lng": -0.145287380291502}}}, "name": "Blue Plaques: Sir Michael Costa", "place_id": "ChIJd9BArqgFdkgR7Ku24P0Q3z8", "types": ["point_of_interest", "establishment"], "rating": 3, "user_ratings_total": 1}, "ChIJq9-yEx8FdkgRrl8z4ql-3P0": {"geometry": {"location": {"lat": 51.4923676, "lng": -0.1447149}, "viewport": {"northeast": {"lat": 51.4936666802915, "lng": -0.143259369708498}, "southwest": {"lat": 51.4909687197085, "lng": -0.145957330291502}}}, "name": "Helena Packshaw Associates", "place_id": "ChIJq9-yEx8FdkgRrl8z4ql-3P0", "types": ["point_of_interest", "establishment"], "rating": 3, "user_ratings_total": 1}, "ChIJbXZa_B4FdkgRnZTJDi5QIcA": {"geometry": {"location": {"lat": 51.49107320009293, "lng": -0.1442745497463929}, "viewport": {"northeast": {"lat": 51.4924221802915, "lng": -0.142925569708498}, "southwest": {"lat": 51.4897242197085, "lng": -0.145623530291502}}}, "name": "53 St George's Dr", "place_id": "ChIJbXZa_B4FdkgRnZTJDi5QIcA", "types": ["route"]}, "ChIJswBRjc4EdkgRDD78Mnrt7B8": {"geometry": {"location": {"lat": 51.49053589999999, "lng": -0.1437503}, "viewport": {"northeast": {"lat": 51.4920753302915, "lng": -0.142565569708498}, "southwest": {"lat": 51.4893773697085, "lng": -0.145263530291502}}}, "name": "The 29 London ( FKA- Airways Hotel Victoria london)", "place_id": "ChIJswBRjc4EdkgRDD78Mnrt7B8", "types": ["lodging", "point_of_interest", "establishment"], "rating": 3.7, "user_ratings_total": 485}, "ChIJc6IoVx4FdkgR-302Jiv1ZxQ": {"geometry": {"location": {"lat": 51.4909648, "lng": -0.1437599}, "viewport": {"northeast": {"lat": 51.4922635302915, "lng": -0.142481369708498}, "southwest": {"lat": 51.4895655697085, "lng": -0.145179330291502}}}, "name": "OYO Townhouse New England Victoria", "place_id": "ChIJc6IoVx4FdkgR-302Jiv1ZxQ", "types": ["lodging", "point_of_interest", "establishment"], "rating": 2.9, "user_ratings_total": 175}, "ChIJG7dp-B4FdkgRdetG5aiJ49s": {"geometry": {"location": {"lat": 51.4906952, "lng": -0.1438746}, "viewport": {"northeast": {"lat": 51.4920798302915, "lng": -0.142443269708498}, "southwest": {"lat": 51.4893818697085, "lng": -0.145141230291502}}}, "name": "Georgian House Hotel", "place_id": "ChIJG7dp-B4FdkgRdetG5aiJ49s", "types": ["lodging", "point_of_interest", "establishment"], "rating": 4.4, "user_ratings_total": 941}, "ChIJ4xSR5h4FdkgRXIKQhFHsXnU": {"geometry": {"location": {"lat": 51.4908497, "lng": -0.1450323}, "viewport": {"northeast": {"lat": 51.4921622802915, "lng": -0.143602919708498}, "southwest": {"lat": 51.4894643197085, "lng": -0.146300880291502}}}, "name": "Grapevine Hotel", "place_id": "ChIJ4xSR5h4FdkgRXIKQhFHsXnU", "types": ["lodging", "point_of_interest", "establishment"], "rating": 2, "user_ratings_total": 270}, "ChIJ4xSR5h4FdkgRP1V9dAA66BE": {"geometry": {"location": {"lat": 51.490877, "lng": -0.144846}, "viewport": {"northeast": {"lat": 51.49222598029149, "lng": -0.143497019708498}, "southwest": {"lat": 51.4895280197085, "lng": -0.146194980291502}}}, "name": "Sheriff Hotel", "place_id": "ChIJ4xSR5h4FdkgRP1V9dAA66BE", "types": ["lodging", "point_of_interest", "establishment"], "rating": 3.1, "user_ratings_total": 329}, "ChIJr03UCB8FdkgRHpR3jU4GdWI": {"geometry": {"location": {"lat": 51.4911924, "lng": -0.1449474}, "viewport": {"northeast": {"lat": 51.4925707302915, "lng": -0.143530519708498}, "southwest": {"lat": 51.4898727697085, "lng": -0.146228480291502}}}, "name": "Eccleston Square Hotel", "place_id": "ChIJr03UCB8FdkgRHpR3jU4GdWI", "types": ["lodging", "point_of_interest", "establishment"], "rating": 4.3, "user_ratings_total": 357}, "ChIJUaUg5R4FdkgRZbumgAHJqE8": {"geometry": {"location": {"lat": 51.4907566, "lng": -0.1445887}, "viewport": {"northeast": {"lat": 51.4921492802915, "lng": -0.1432740697084979}, "southwest": {"lat": 51.4894513197085, "lng": -0.145972030291502}}}, "name": "OYO Bakers Hotel", "place_id": "ChIJUaUg5R4FdkgRZbumgAHJqE8", "types": ["lodging", "point_of_interest", "establishment"], "rating": 3.5, "user_ratings_total": 193}, "ChIJxd5j4R4FdkgRjuEHvok71zQ": {"geometry": {"location": {"lat": 51.4911101, "lng": -0.1446826}, "viewport": {"northeast": {"lat": 51.4924842302915, "lng": -0.143304119708498}, "southwest": {"lat": 51.4897862697085, "lng": -0.146002080291502}}}, "name": "Catholic Education Service", "place_id": "ChIJxd5j4R4FdkgRjuEHvok71zQ", "types": ["point_of_interest", "establishment"]}, "ChIJ7UaU--EEdkgR5L9xA3vwW_0": {"geometry": {"location": {"lat": 51.49096219999999, "lng": -0.1437612}, "viewport": {"northeast": {"lat": 51.4922580302915, "lng": -0.142476619708498}, "southwest": {"lat": 51.4895600697085, "lng": -0.145174580291502}}}, "name": "E A L Productions", "place_id": "ChIJ7UaU--EEdkgR5L9xA3vwW_0", "types": ["point_of_interest", "establishment"]}, "ChIJD6344R4FdkgRvqfG2AUsxI0": {"geometry": {"location": {"lat": 51.4910345, "lng": -0.1447919}, "viewport": {"northeast": {"lat": 51.4924496302915, "lng": -0.143365419708498}, "southwest": {"lat": 51.4897516697085, "lng": -0.146063380291502}}}, "name": "Catholic Bishops' Conference of England and Wales", "place_id": "ChIJD6344R4FdkgRvqfG2AUsxI0", "types": ["point_of_interest", "establishment"], "rating": 2.3, "user_ratings_total": 3}, "ChIJRTC34h4FdkgRqudAbpM-i1Y": {"geometry": {"location": {"lat": 51.49111079999999, "lng": -0.1446727}, "viewport": {"northeast": {"lat": 51.49248153029149, "lng": -0.143298219708498}, "southwest": {"lat": 51.48978356970849, "lng": -0.145996180291502}}}, "name": "Catholic Faith", "place_id": "ChIJRTC34h4FdkgRqudAbpM-i1Y", "types": ["church", "place_of_worship", "point_of_interest", "establishment"], "rating": 3, "user_ratings_total": 1}, "ChIJjeLA4h4FdkgRWlj9Ka1ZVAs": {"geometry": {"location": {"lat": 51.491112, "lng": -0.1446756}, "viewport": {"northeast": {"lat": 51.4924807802915, "lng": -0.1433033197084979}, "southwest": {"lat": 51.4897828197085, "lng": -0.146001280291502}}}, "name": "The National Office for Vocation", "place_id": "ChIJjeLA4h4FdkgRWlj9Ka1ZVAs", "types": ["point_of_interest", "establishment"]}, "ChIJ2XL-4h4FdkgR-PCpadD-FQc": {"geometry": {"location": {"lat": 51.4911101, "lng": -0.1446826}, "viewport": {"northeast": {"lat": 51.4924842302915, "lng": -0.143304119708498}, "southwest": {"lat": 51.4897862697085, "lng": -0.146002080291502}}}, "name": "National Justice & Peace Network", "place_id": "ChIJ2XL-4h4FdkgR-PCpadD-FQc", "types": ["point_of_interest", "establishment"]}, "ChIJ2XL-4h4FdkgRUAcrnShA4NU": {"geometry": {"location": {"lat": 51.4911101, "lng": -0.1446826}, "viewport": {"northeast": {"lat": 51.4924842302915, "lng": -0.143304119708498}, "southwest": {"lat": 51.4897862697085, "lng": -0.146002080291502}}}, "name": "Catholic Agency to Support Evangelisation", "place_id": "ChIJ2XL-4h4FdkgRUAcrnShA4NU", "types": ["point_of_interest", "establishment"]}, "ChIJST7IeO0FdkgRA8QvQBi3FlA": {"geometry": {"location": {"lat": 51.49128409999999, "lng": -0.1442609}, "viewport": {"northeast": {"lat": 51.49266398029149, "lng": -0.142978119708498}, "southwest": {"lat": 51.4899660197085, "lng": -0.145676080291502}}}, "name": "Holland House (Victoria)", "place_id": "ChIJST7IeO0FdkgRA8QvQBi3FlA", "types": ["lodging", "point_of_interest", "establishment"], "rating": 2.8, "user_ratings_total": 156}, "ChIJjeLA4h4FdkgRimjaZAQ-nwY": {"geometry": {"location": {"lat": 51.4910611, "lng": -0.1447963}, "viewport": {"northeast": {"lat": 51.4924674302915, "lng": -0.143377069708498}, "southwest": {"lat": 51.4897694697085, "lng": -0.146075030291502}}}, "name": "Mental Health Project", "place_id": "ChIJjeLA4h4FdkgRimjaZAQ-nwY", "types": ["point_of_interest", "establishment"]}, "ChIJo0Jlp1oxcEERcU8UMsuOPIo": {"geometry": {"location": {"lat": 51.49102550000001, "lng": -0.1448285000000001}, "viewport": {"northeast": {"lat": 51.4924479302915, "lng": -0.143389569708498}, "southwest": {"lat": 51.48974996970851, "lng": -0.146087530291502}}}, "name": "Apostleship Of The Sea", "place_id": "ChIJo0Jlp1oxcEERcU8UMsuOPIo", "types": ["point_of_interest", "establishment"]}, "ChIJtQPB8B4FdkgRGjfaBEt9CR0": {"geometry": {"location": {"lat": 51.4905196, "lng": -0.1442278}, "viewport": {"northeast": {"lat": 51.4918213302915, "lng": -0.142937869708498}, "southwest": {"lat": 51.4891233697085, "lng": -0.145635830291502}}}, "name": "Robert Plane", "place_id": "ChIJtQPB8B4FdkgRGjfaBEt9CR0", "types": ["point_of_interest", "establishment"]}, "ChIJ6TYPwB8FdkgRYwtte1sxMxI": {"geometry": {"location": {"lat": 51.4913657, "lng": -0.1441944}, "viewport": {"northeast": {"lat": 51.4927408302915, "lng": -0.142901419708498}, "southwest": {"lat": 51.4900428697085, "lng": -0.145599380291502}}}, "name": "LHA London Ltd", "place_id": "ChIJ6TYPwB8FdkgRYwtte1sxMxI", "types": ["lodging", "point_of_interest", "establishment"], "rating": 2.7, "user_ratings_total": 21}, "ChIJ-XBfVB4FdkgRfRfa_9OMtGo": {"geometry": {"location": {"lat": 51.4911031, "lng": -0.143523}, "viewport": {"northeast": {"lat": 51.4924729802915, "lng": -0.142189719708498}, "southwest": {"lat": 51.4897750197085, "lng": -0.144887680291502}}}, "name": "Baden-Powell Associates Ltd", "place_id": "ChIJ-XBfVB4FdkgRfRfa_9OMtGo", "types": ["point_of_interest", "establishment"]}, "ChIJj8imAR8FdkgR6E7Wc8LMEmA": {"geometry": {"location": {"lat": 51.4914193, "lng": -0.1440364}, "viewport": {"northeast": {"lat": 51.49280838029149, "lng": -0.142773369708498}, "southwest": {"lat": 51.49011041970849, "lng": -0.145471330291502}}}, "name": "UNICENTRES", "place_id": "ChIJj8imAR8FdkgR6E7Wc8LMEmA", "types": ["university", "point_of_interest", "establishment"]}, "ChIJoxXZ3h4FdkgRzxUKBXHICgs": {"geometry": {"location": {"lat": 51.491166, "lng": -0.1449562}, "viewport": {"northeast": {"lat": 51.49256303029151, "lng": -0.143546069708498}, "southwest": {"lat": 51.48986506970851, "lng": -0.146244030291502}}}, "name": "The Catholic Medical Association", "place_id": "ChIJoxXZ3h4FdkgRzxUKBXHICgs", "types": ["point_of_interest", "establishment"], "rating": 5, "user_ratings_total": 1}, "ChIJn89m5R4FdkgRYe6VaNEAuLY": {"geometry": {"location": {"lat": 51.4905365, "lng": -0.1443208}, "viewport": {"northeast": {"lat": 51.49184698029149, "lng": -0.143019919708498}, "southwest": {"lat": 51.48914901970849, "lng": -0.145717880291502}}}, "name": "Classic Bindings Ltd", "place_id": "ChIJn89m5R4FdkgRYe6VaNEAuLY", "types": ["book_store", "home_goods_store", "point_of_interest", "store", "establishment"], "rating": 4.5, "user_ratings_total": 2}, "ChIJ5U3vrtgEdkgRxgXizLWlQ0I": {"geometry": {"location": {"lat": 51.49066449999999, "lng": -0.1439899}, "viewport": {"northeast": {"lat": 51.4920894302915, "lng": -0.142548869708498}, "southwest": {"lat": 51.4893914697085, "lng": -0.145246830291502}}}, "name": "Embassy of Albania", "place_id": "ChIJ5U3vrtgEdkgRxgXizLWlQ0I", "types": ["embassy", "point_of_interest", "establishment"], "rating": 3.3, "user_ratings_total": 163}, "ChIJ5QHl-x4FdkgRVTBZazbBugw": {"geometry": {"location": {"lat": 51.4908909, "lng": -0.1441857}, "viewport": {"northeast": {"lat": 51.49227378029151, "lng": -0.142781719708498}, "southwest": {"lat": 51.48957581970851, "lng": -0.145479680291502}}}, "name": "Aud Jebsen Hall", "place_id": "ChIJ5QHl-x4FdkgRVTBZazbBugw", "types": ["point_of_interest", "establishment"]}, "ChIJVVWs-x4FdkgRI9aKsNAMG2o": {"geometry": {"location": {"lat": 51.49078710000001, "lng": -0.1442999}, "viewport": {"northeast": {"lat": 51.4922025302915, "lng": -0.143001019708498}, "southwest": {"lat": 51.4895045697085, "lng": -0.145698980291502}}}, "name": "Royal Ballet School", "place_id": "ChIJVVWs-x4FdkgRI9aKsNAMG2o", "types": ["point_of_interest", "establishment"]}, "ChIJaefmJCgFdkgRUWLWar2G-vQ": {"geometry": {"location": {"lat": 51.49086980000001, "lng": -0.1439293}, "viewport": {"northeast": {"lat": 51.4922463802915, "lng": -0.142546719708498}, "southwest": {"lat": 51.4895484197085, "lng": -0.1452446802915021}}}, "name": "St George Drive", "place_id": "ChIJaefmJCgFdkgRUWLWar2G-vQ", "types": ["lodging", "point_of_interest", "establishment"]}, "ChIJu6iK-B4FdkgRK2Tg6m7mx1k": {"geometry": {"location": {"lat": 51.4906842, "lng": -0.1440152}, "viewport": {"northeast": {"lat": 51.4921066302915, "lng": -0.142577169708498}, "southwest": {"lat": 51.4894086697085, "lng": -0.145275130291502}}}, "name": "Ambasada e Shqip\u00ebris\u00eb Lond\u00ebr", "place_id": "ChIJu6iK-B4FdkgRK2Tg6m7mx1k", "types": ["point_of_interest", "establishment"], "rating": 3.1, "user_ratings_total": 61}, "ChIJVVV55B4FdkgRgTugMWtNYGE": {"geometry": {"location": {"lat": 51.49092, "lng": -0.1447253}, "viewport": {"northeast": {"lat": 51.4922298802915, "lng": -0.143345469708498}, "southwest": {"lat": 51.4895319197085, "lng": -0.146043430291502}}}, "name": "Investor & Occupier Limited", "place_id": "ChIJVVV55B4FdkgRgTugMWtNYGE", "types": ["point_of_interest", "establishment"]}, "ChIJH0lRlTcFdkgRXUXkXfg21Kc": {"geometry": {"location": {"lat": 51.4910206, "lng": -0.1437387}, "viewport": {"northeast": {"lat": 51.4922956302915, "lng": -0.142479669708498}, "southwest": {"lat": 51.4895976697085, "lng": -0.145177630291502}}}, "name": "Warwick Way Serviced Apartment", "place_id": "ChIJH0lRlTcFdkgRXUXkXfg21Kc", "types": ["lodging", "point_of_interest", "establishment"]}, "ChIJNe1BCNAZdkgRGnJug8XuE1Y": {"geometry": {"location": {"lat": 51.4906466, "lng": -0.1439202}, "viewport": {"northeast": {"lat": 51.49206678029149, "lng": -0.142484919708498}, "southwest": {"lat": 51.4893688197085, "lng": -0.145182880291502}}}, "name": "gREGORIES HOTEL", "place_id": "ChIJNe1BCNAZdkgRGnJug8XuE1Y", "types": ["lodging", "point_of_interest", "establishment"], "rating": 5, "user_ratings_total": 1}, "ChIJK96z4h4FdkgRkIytDG3-77Q": {"geometry": {"location": {"lat": 51.49110869999999, "lng": -0.1446684}, "viewport": {"northeast": {"lat": 51.4924784802915, "lng": -0.143292919708498}, "southwest": {"lat": 51.4897805197085, "lng": -0.145990880291502}}}, "name": "English Language Liturgical Consultation", "place_id": "ChIJK96z4h4FdkgRkIytDG3-77Q", "types": ["point_of_interest", "establishment"]}, "ChIJ2XL-4h4FdkgR21C9jYNWRmY": {"geometry": {"location": {"lat": 51.4911101, "lng": -0.1446826}, "viewport": {"northeast": {"lat": 51.4924842302915, "lng": -0.143304119708498}, "southwest": {"lat": 51.4897862697085, "lng": -0.146002080291502}}}, "name": "Roman Missal", "place_id": "ChIJ2XL-4h4FdkgR21C9jYNWRmY", "types": ["point_of_interest", "establishment"]}, "ChIJ2XL-4h4FdkgRw8XP-uWPWqk": {"geometry": {"location": {"lat": 51.4911101, "lng": -0.1446826}, "viewport": {"northeast": {"lat": 51.4924842302915, "lng": -0.143304119708498}, "southwest": {"lat": 51.4897862697085, "lng": -0.146002080291502}}}, "name": "Home Mission", "place_id": "ChIJ2XL-4h4FdkgRw8XP-uWPWqk", "types": ["point_of_interest", "establishment"]}, "ChIJ2XL-4h4FdkgRfXhM5QF8AZ4": {"geometry": {"location": {"lat": 51.4911101, "lng": -0.1446826}, "viewport": {"northeast": {"lat": 51.4924842302915, "lng": -0.143304119708498}, "southwest": {"lat": 51.4897862697085, "lng": -0.146002080291502}}}, "name": "Catholic Historic Churches", "place_id": "ChIJ2XL-4h4FdkgRfXhM5QF8AZ4", "types": ["point_of_interest", "establishment"]}, "ChIJ2XL-4h4FdkgRWEFAZaYPqwo": {"geometry": {"location": {"lat": 51.4911101, "lng": -0.1446826}, "viewport": {"northeast": {"lat": 51.4924842302915, "lng": -0.143304119708498}, "southwest": {"lat": 51.4897862697085, "lng": -0.146002080291502}}}, "name": "Catholic Gap Year", "place_id": "ChIJ2XL-4h4FdkgRWEFAZaYPqwo", "types": ["church", "place_of_worship", "point_of_interest", "establishment"]}, "ChIJxXL-4h4FdkgRQRTArgzI8_c": {"geometry": {"location": {"lat": 51.4911101, "lng": -0.1446827}, "viewport": {"northeast": {"lat": 51.4924821802915, "lng": -0.143306519708498}, "southwest": {"lat": 51.4897842197085, "lng": -0.146004480291502}}}, "name": "MARRIAGE & FAMILY LIFE", "place_id": "ChIJxXL-4h4FdkgRQRTArgzI8_c", "types": ["point_of_interest", "establishment"]}, "ChIJxXL-4h4FdkgRw1mbJyy4kT8": {"geometry": {"location": {"lat": 51.4911101, "lng": -0.1446827}, "viewport": {"northeast": {"lat": 51.4924842302915, "lng": -0.143304219708498}, "southwest": {"lat": 51.4897862697085, "lng": -0.146002180291502}}}, "name": "Stella Maris", "place_id": "ChIJxXL-4h4FdkgRw1mbJyy4kT8", "types": ["lodging", "point_of_interest", "establishment"]}, "ChIJGaJ7IcgFdkgRS4LysWzNklc": {"geometry": {"location": {"lat": 51.4911101, "lng": -0.1446827}, "viewport": {"northeast": {"lat": 51.4924842302915, "lng": -0.143304219708498}, "southwest": {"lat": 51.4897862697085, "lng": -0.146002180291502}}}, "name": "Formatio", "place_id": "ChIJGaJ7IcgFdkgRS4LysWzNklc", "types": ["point_of_interest", "establishment"]}, "ChIJxXL-4h4FdkgRWx9xSfRetqc": {"geometry": {"location": {"lat": 51.4911101, "lng": -0.1446827}, "viewport": {"northeast": {"lat": 51.4924842302915, "lng": -0.143304219708498}, "southwest": {"lat": 51.4897862697085, "lng": -0.146002180291502}}}, "name": "Cbcew", "place_id": "ChIJxXL-4h4FdkgRWx9xSfRetqc", "types": ["point_of_interest", "establishment"]}, "ChIJjeLA4h4FdkgRmPRdUcD6rkY": {"geometry": {"location": {"lat": 51.491177, "lng": -0.1445969}, "viewport": {"northeast": {"lat": 51.4925329302915, "lng": -0.143239719708498}, "southwest": {"lat": 51.4898349697085, "lng": -0.145937680291502}}},