{"E00023600": {"ChIJC6vu7ggQdkgRu7Xy4twxa-w": {"geometry": {"location": {"lat": 51.52699495002148, "lng": -0.1923097000523907}, "viewport": {"northeast": {"lat": 51.5283439302915, "lng": -0.190960719708498}, "southwest": {"lat": 51.5256459697085, "lng": -0.193658680291502}}}, "name": "144 Elgin Ave", "place_id": "ChIJC6vu7ggQdkgRu7Xy4twxa-w", "types": ["route"]}, "ChIJP1UN2wgQdkgRNGP9GP6h7w8": {"geometry": {"location": {"lat": 51.5274582, "lng": -0.1930103}, "viewport": {"northeast": {"lat": 51.5287236802915, "lng": -0.191736119708498}, "southwest": {"lat": 51.52602571970851, "lng": -0.194434080291502}}}, "name": "Rooster Advertising Ltd", "place_id": "ChIJP1UN2wgQdkgRNGP9GP6h7w8", "types": ["point_of_interest", "establishment"]}, "ChIJb_Km2wgQdkgR1hdyLCVoPMc": {"geometry": {"location": {"lat": 51.5274783, "lng": -0.1930331}, "viewport": {"northeast": {"lat": 51.5287391302915, "lng": -0.191763069708498}, "southwest": {"lat": 51.52604116970851, "lng": -0.194461030291502}}}, "name": "BrandingYou", "place_id": "ChIJb_Km2wgQdkgR1hdyLCVoPMc", "types": ["point_of_interest", "establishment"]}, "ChIJq-Y3JwkQdkgR7nj-CiQIIDM": {"geometry": {"location": {"lat": 51.5276431, "lng": -0.1927121}, "viewport": {"northeast": {"lat": 51.52905153029149, "lng": -0.191257369708498}, "southwest": {"lat": 51.52635356970849, "lng": -0.193955330291502}}}, "name": "Heneker Photography", "place_id": "ChIJq-Y3JwkQdkgR7nj-CiQIIDM", "types": ["point_of_interest", "establishment"]}, "ChIJ23RtjeYRdkgRoYiqd5zwuBs": {"geometry": {"location": {"lat": 51.5271418, "lng": -0.192729}, "viewport": {"northeast": {"lat": 51.52846368029149, "lng": -0.191405319708498}, "southwest": {"lat": 51.5257657197085, "lng": -0.194103280291502}}}, "name": "Lead LDN", "place_id": "ChIJ23RtjeYRdkgRoYiqd5zwuBs", "types": ["point_of_interest", "establishment"], "rating": 5, "user_ratings_total": 1}, "ChIJ_0818aoRdkgR0zu6jrVnmTE": {"geometry": {"location": {"lat": 51.52689030000001, "lng": -0.192229}, "viewport": {"northeast": {"lat": 51.5282643802915, "lng": -0.190849619708498}, "southwest": {"lat": 51.5255664197085, "lng": -0.193547580291502}}}, "name": "AgendaWallet", "place_id": "ChIJ_0818aoRdkgR0zu6jrVnmTE", "types": ["point_of_interest", "establishment"]}, "ChIJf-0X8AgQdkgRU5pEelxpHuY": {"geometry": {"location": {"lat": 51.52724240000001, "lng": -0.1920019}, "viewport": {"northeast": {"lat": 51.52856593029151, "lng": -0.190598619708498}, "southwest": {"lat": 51.52586796970851, "lng": -0.193296580291502}}}, "name": "ubitricity Charging Station", "place_id": "ChIJf-0X8AgQdkgRU5pEelxpHuY", "types": ["point_of_interest", "establishment"]}, "ChIJsyy8xggQdkgR7hdfusqBTCM": {"geometry": {"location": {"lat": 51.5269459, "lng": -0.1929948}, "viewport": {"northeast": {"lat": 51.5282948802915, "lng": -0.191645819708498}, "southwest": {"lat": 51.52559691970851, "lng": -0.194343780291502}}}, "name": "Westside Court", "place_id": "ChIJsyy8xggQdkgR7hdfusqBTCM", "types": ["point_of_interest", "establishment"]}, "ChIJGxtNwAgQdkgRmjxaR_wdY1E": {"geometry": {"location": {"lat": 51.526816, "lng": -0.1929155}, "viewport": {"northeast": {"lat": 51.5281339802915, "lng": -0.191528819708498}, "southwest": {"lat": 51.5254360197085, "lng": -0.194226780291502}}}, "name": "ubitricity Charging Station", "place_id": "ChIJGxtNwAgQdkgRmjxaR_wdY1E", "types": ["point_of_interest", "establishment"]}, "ChIJg4xMwAgQdkgRqzLoOsEGaCo": {"geometry": {"location": {"lat": 51.5267041, "lng": -0.1925144}, "viewport": {"northeast": {"lat": 51.52811773029151, "lng": -0.191241019708498}, "southwest": {"lat": 51.52541976970851, "lng": -0.193938980291502}}}, "name": "Ontologik Limited", "place_id": "ChIJg4xMwAgQdkgRqzLoOsEGaCo", "types": ["point_of_interest", "establishment"]}, "ChIJBcNvaNkRdkgRvcTfS-ZwQJw": {"geometry": {"location": {"lat": 51.5273997, "lng": -0.1930823}, "viewport": {"northeast": {"lat": 51.5286970302915, "lng": -0.191779569708498}, "southwest": {"lat": 51.5259990697085, "lng": -0.194477530291502}}}, "name": "Southwold Mansions", "place_id": "ChIJBcNvaNkRdkgRvcTfS-ZwQJw", "types": ["point_of_interest", "establishment"]}, "ChIJq6r6MAYGdkgR6lkRuyZda9c": {"geometry": {"location": {"lat": 51.5274582, "lng": -0.1930103}, "viewport": {"northeast": {"lat": 51.5287236802915, "lng": -0.191736119708498}, "southwest": {"lat": 51.52602571970851, "lng": -0.194434080291502}}}, "name": "Xvavi\u00ae", "place_id": "ChIJq6r6MAYGdkgR6lkRuyZda9c", "types": ["point_of_interest", "establishment"], "rating": 5, "user_ratings_total": 8}, "ChIJxURtPcARdkgRE0Rcb-dvlH8": {"geometry": {"location": {"lat": 51.5267759, "lng": -0.1928941}, "viewport": {"northeast": {"lat": 51.5281201302915, "lng": -0.191539569708498}, "southwest": {"lat": 51.5254221697085, "lng": -0.194237530291502}}}, "name": "Casa Ale Inglaterra", "place_id": "ChIJxURtPcARdkgRE0Rcb-dvlH8", "types": ["lodging", "point_of_interest", "establishment"]}, "ChIJZ00J2wgQdkgRZVjwrB9cYE0": {"geometry": {"location": {"lat": 51.52747869999999, "lng": -0.1930360999999999}, "viewport": {"northeast": {"lat": 51.52873978029149, "lng": -0.1917658697084979}, "southwest": {"lat": 51.52604181970849, "lng": -0.194463830291502}}}, "name": "PMB Experts", "place_id": "ChIJZ00J2wgQdkgRZVjwrB9cYE0", "types": ["electrician", "point_of_interest", "establishment"]}, "ChIJ35K4wAgQdkgRzKZkwsBkG44": {"geometry": {"location": {"lat": 51.52670479999999, "lng": -0.1927959}, "viewport": {"northeast": {"lat": 51.52807578029149, "lng": -0.191474669708498}, "southwest": {"lat": 51.5253778197085, "lng": -0.194172630291502}}}, "name": "ubitricity Charging Station", "place_id": "ChIJ35K4wAgQdkgRzKZkwsBkG44", "types": ["point_of_interest", "establishment"]}, "ChIJrfSW8QgQdkgRlPtHaZ4C24g": {"geometry": {"location": {"lat": 51.5271553, "lng": -0.1916224}, "viewport": {"northeast": {"lat": 51.5285563302915, "lng": -0.190336869708498}, "southwest": {"lat": 51.5258583697085, "lng": -0.193034830291502}}}, "name": "Cunnell Mary", "place_id": "ChIJrfSW8QgQdkgRlPtHaZ4C24g", "types": ["health", "point_of_interest", "establishment"]}, "ChIJDUZYtIwRdkgRExuw8Iqk0o4": {"geometry": {"location": {"lat": 51.5266291, "lng": -0.1926694}, "viewport": {"northeast": {"lat": 51.5280441302915, "lng": -0.191397819708498}, "southwest": {"lat": 51.52534616970851, "lng": -0.194095780291502}}}, "name": "Maida Hill Double Glazing Windows", "place_id": "ChIJDUZYtIwRdkgRExuw8Iqk0o4", "types": ["point_of_interest", "establishment"]}, "ChIJV7SFmQgQdkgRD-4cQj4Ozes": {"geometry": {"location": {"lat": 51.52588903670456, "lng": -0.192199939017512}, "viewport": {"northeast": {"lat": 51.5272377302915, "lng": -0.1905297}, "southwest": {"lat": 51.5245397697085, "lng": -0.1938709}}}, "name": "80-112 B413", "place_id": "ChIJV7SFmQgQdkgRD-4cQj4Ozes", "types": ["route"]}, "ChIJTzqBvggQdkgRnMlGrPTnVQU": {"geometry": {"location": {"lat": 51.5262761, "lng": -0.1926}, "viewport": {"northeast": {"lat": 51.52762508029149, "lng": -0.191251019708498}, "southwest": {"lat": 51.52492711970849, "lng": -0.193948980291502}}}, "name": "Properties Actually", "place_id": "ChIJTzqBvggQdkgRnMlGrPTnVQU", "types": ["real_estate_agency", "point_of_interest", "establishment"], "rating": 2.8, "user_ratings_total": 16}, "ChIJHTqBvggQdkgRVzPZeZ31Byk": {"geometry": {"location": {"lat": 51.5264909, "lng": -0.1929783}, "viewport": {"northeast": {"lat": 51.5279052802915, "lng": -0.191705969708498}, "southwest": {"lat": 51.5252073197085, "lng": -0.194403930291502}}}, "name": "Pines and Needles", "place_id": "ChIJHTqBvggQdkgRVzPZeZ31Byk", "types": ["point_of_interest", "store", "establishment"], "rating": 4.8, "user_ratings_total": 360}, "ChIJkZCDlhACdkgReq7ZIODc6ng": {"geometry": {"location": {"lat": 51.52582149999999, "lng": -0.1924405}, "viewport": {"northeast": {"lat": 51.5272277802915, "lng": -0.191019919708498}, "southwest": {"lat": 51.5245298197085, "lng": -0.193717880291502}}}, "name": "Dashee La MaQuilleuse - Professional Makeup Artist London", "place_id": "ChIJkZCDlhACdkgReq7ZIODc6ng", "types": ["point_of_interest", "establishment"], "rating": 3, "user_ratings_total": 2}, "ChIJZfT4oggQdkgRkRtE-gU8RcE": {"geometry": {"location": {"lat": 51.52586429999999, "lng": -0.1925994}, "viewport": {"northeast": {"lat": 51.5272811802915, "lng": -0.191165619708498}, "southwest": {"lat": 51.5245832197085, "lng": -0.193863580291502}}}, "name": "Thinking Man", "place_id": "ChIJZfT4oggQdkgRkRtE-gU8RcE", "types": ["clothing_store", "point_of_interest", "store", "establishment"], "rating": 3.5, "user_ratings_total": 2}, "ChIJ7aPmuggQdkgRwsMaZl3jwzI": {"geometry": {"location": {"lat": 51.5261212, "lng": -0.1931203}, "viewport": {"northeast": {"lat": 51.52753638029149, "lng": -0.1916889697084979}, "southwest": {"lat": 51.5248384197085, "lng": -0.194386930291502}}}, "name": "Rosine Jozef Perelberg", "place_id": "ChIJ7aPmuggQdkgRwsMaZl3jwzI", "types": ["health", "point_of_interest", "establishment"]}, "ChIJV9xLvAgQdkgR2Qz_imlMxT0": {"geometry": {"location": {"lat": 51.5263682, "lng": -0.1927281}, "viewport": {"northeast": {"lat": 51.5276490802915, "lng": -0.191470419708498}, "southwest": {"lat": 51.5249511197085, "lng": -0.194168380291502}}}, "name": "Darren Scott Salon", "place_id": "ChIJV9xLvAgQdkgR2Qz_imlMxT0", "types": ["hair_care", "health", "point_of_interest", "store", "establishment"], "rating": 4.3, "user_ratings_total": 73}, "ChIJh3RivAgQdkgRfW_mhI3uf4M": {"geometry": {"location": {"lat": 51.526186, "lng": -0.1928465}, "viewport": {"northeast": {"lat": 51.5275194802915, "lng": -0.191516819708498}, "southwest": {"lat": 51.5248215197085, "lng": -0.194214780291502}}}, "name": "Elgin Avenue Shirland Road", "place_id": "ChIJh3RivAgQdkgRfW_mhI3uf4M", "types": ["transit_station", "point_of_interest", "establishment"]}, "ChIJf47EFOoRdkgRXfnzlat16ZE": {"geometry": {"location": {"lat": 51.52623209999999, "lng": -0.1926129}, "viewport": {"northeast": {"lat": 51.5275362302915, "lng": -0.191319719708498}, "southwest": {"lat": 51.5248382697085, "lng": -0.194017680291502}}}, "name": "Beachcroft House Care Home", "place_id": "ChIJf47EFOoRdkgRXfnzlat16ZE", "types": ["point_of_interest", "establishment"]}, "ChIJr1S9fzcRdkgR2EI0c1OXv3Y": {"geometry": {"location": {"lat": 51.5260516, "lng": -0.1921485}, "viewport": {"northeast": {"lat": 51.5273421302915, "lng": -0.190872519708498}, "southwest": {"lat": 51.5246441697085, "lng": -0.193570480291502}}}, "name": "The Masefield", "place_id": "ChIJr1S9fzcRdkgR2EI0c1OXv3Y", "types": ["point_of_interest", "establishment"]}, "ChIJvXeWvAgQdkgRTnEyFDaQdno": {"geometry": {"location": {"lat": 51.5261, "lng": -0.192814}, "viewport": {"northeast": {"lat": 51.5274757302915, "lng": -0.191431769708498}, "southwest": {"lat": 51.52477776970851, "lng": -0.194129730291502}}}, "name": "Elgin Avenue (Stop MK)", "place_id": "ChIJvXeWvAgQdkgRTnEyFDaQdno", "types": ["transit_station", "point_of_interest", "establishment"]}, "ChIJJ00rE3ERdkgRyD-tk9xJbjU": {"geometry": {"location": {"lat": 51.52628869999999, "lng": -0.1926565}, "viewport": {"northeast": {"lat": 51.5275816802915, "lng": -0.1913771697084979}, "southwest": {"lat": 51.5248837197085, "lng": -0.194075130291502}}}, "name": "NOKA PROPERTY SERVICES LTD", "place_id": "ChIJJ00rE3ERdkgRyD-tk9xJbjU", "types": ["point_of_interest", "establishment"]}, "ChIJX-5Pb_ERdkgRFUo_Sfa78Aw": {"geometry": {"location": {"lat": 51.52585130000001, "lng": -0.192602}, "viewport": {"northeast": {"lat": 51.52720028029151, "lng": -0.191253019708498}, "southwest": {"lat": 51.52450231970851, "lng": -0.1939509802915021}}}, "name": "Skip Hire Maida Vale", "place_id": "ChIJX-5Pb_ERdkgRFUo_Sfa78Aw", "types": ["point_of_interest", "establishment"]}, "ChIJoSnhuwgQdkgR7DQ8sgKgrBE": {"geometry": {"location": {"lat": 51.526306, "lng": -0.192864}, "viewport": {"northeast": {"lat": 51.52762478029149, "lng": -0.191552569708498}, "southwest": {"lat": 51.5249268197085, "lng": -0.194250530291502}}}, "name": "Elgin Avenue (Stop MF)", "place_id": "ChIJoSnhuwgQdkgR7DQ8sgKgrBE", "types": ["transit_station", "point_of_interest", "establishment"], "rating": 4.5, "user_ratings_total": 2}, "ChIJ75sQEJARdkgRVQLNrU67pCw": {"geometry": {"location": {"lat": 51.52638169999999, "lng": -0.1928663}, "viewport": {"northeast": {"lat": 51.52767198029149, "lng": -0.191573119708498}, "southwest": {"lat": 51.52497401970849, "lng": -0.194271080291502}}}, "name": "WEZA", "place_id": "ChIJ75sQEJARdkgRVQLNrU67pCw", "types": ["restaurant", "food", "point_of_interest", "establishment"], "rating": 4.8, "user_ratings_total": 89}, "ChIJcd8FupgRdkgRQ0qDwuNfKTw": {"geometry": {"location": {"lat": 51.5261212, "lng": -0.1931203}, "viewport": {"northeast": {"lat": 51.52753638029149, "lng": -0.1916889697084979}, "southwest": {"lat": 51.5248384197085, "lng": -0.194386930291502}}}, "name": "Amal Building Services ltd", "place_id": "ChIJcd8FupgRdkgRQ0qDwuNfKTw", "types": ["point_of_interest", "establishment"], "rating": 4.9, "user_ratings_total": 38}, "ChIJ7aPmuggQdkgROIE68s-1W54": {"geometry": {"location": {"lat": 51.5261212, "lng": -0.1931203}, "viewport": {"northeast": {"lat": 51.52753638029149, "lng": -0.1916889697084979}, "southwest": {"lat": 51.5248384197085, "lng": -0.194386930291502}}}, "name": "Instute of Psychanalysis", "place_id": "ChIJ7aPmuggQdkgROIE68s-1W54", "types": ["place_of_worship", "point_of_interest", "establishment"]}, "ChIJg_VAtjMRdkgRLmCrEeAr1WI": {"geometry": {"location": {"lat": 51.5261507, "lng": -0.1931179}, "viewport": {"northeast": {"lat": 51.52755628029149, "lng": -0.191698519708498}, "southwest": {"lat": 51.5248583197085, "lng": -0.194396480291502}}}, "name": "Tree House", "place_id": "ChIJg_VAtjMRdkgRLmCrEeAr1WI", "types": ["lodging", "point_of_interest", "establishment"], "rating": 5, "user_ratings_total": 2}, "ChIJuU1QuQgQdkgR1CuPHlNkvnE": {"geometry": {"location": {"lat": 51.5263925, "lng": -0.1929414}, "viewport": {"northeast": {"lat": 51.5277414802915, "lng": -0.191592419708498}, "southwest": {"lat": 51.5250435197085, "lng": -0.194290380291502}}}, "name": "CV Building Services (UK) Ltd", "place_id": "ChIJuU1QuQgQdkgR1CuPHlNkvnE", "types": ["point_of_interest", "establishment"]}, "ChIJP9dLuQgQdkgRRLcDrip3CnA": {"geometry": {"location": {"lat": 51.52641860000001, "lng": -0.1929326}, "viewport": {"northeast": {"lat": 51.5277121802915, "lng": -0.191651619708498}, "southwest": {"lat": 51.5250142197085, "lng": -0.194349580291502}}}, "name": "2 airports", "place_id": "ChIJP9dLuQgQdkgRRLcDrip3CnA", "types": ["point_of_interest", "establishment"]}, "ChIJM2jG9a0RdkgRGXVkV-_aoto": {"geometry": {"location": {"lat": 51.5265905, "lng": -0.1927621}, "viewport": {"northeast": {"lat": 51.5280045802915, "lng": -0.191489269708498}, "southwest": {"lat": 51.5253066197085, "lng": -0.194187230291502}}}, "name": "Ceraudo", "place_id": "ChIJM2jG9a0RdkgRGXVkV-_aoto", "types": ["point_of_interest", "establishment"]}, "ChIJoW3UIwYQdkgRjae3_QW39LE": {"geometry": {"location": {"lat": 51.52503800001634, "lng": -0.192321600041393}, "viewport": {"northeast": {"lat": 51.52638698029149, "lng": -0.1909726197084979}, "southwest": {"lat": 51.52368901970849, "lng": -0.193670580291502}}}, "name": "Marylands Road", "place_id": "ChIJoW3UIwYQdkgRjae3_QW39LE", "types": ["route"]}, "ChIJh_xYGAYQdkgRoeZVTzEqcbQ": {"geometry": {"location": {"lat": 51.5248617, "lng": -0.1926561}, "viewport": {"northeast": {"lat": 51.5261996302915, "lng": -0.191294219708498}, "southwest": {"lat": 51.5235016697085, "lng": -0.193992180291502}}}, "name": "Dancing Tao", "place_id": "ChIJh_xYGAYQdkgRoeZVTzEqcbQ", "types": ["point_of_interest", "establishment"]}, "ChIJLbqnaCzyd0gRe2g3CKtzoHk": {"geometry": {"location": {"lat": 51.5248617, "lng": -0.1926561}, "viewport": {"northeast": {"lat": 51.5261996302915, "lng": -0.191294219708498}, "southwest": {"lat": 51.5235016697085, "lng": -0.193992180291502}}}, "name": "United Teaching", "place_id": "ChIJLbqnaCzyd0gRe2g3CKtzoHk", "types": ["point_of_interest", "establishment"]}, "ChIJjaTwLwYQdkgRsvLlgcTJWeI": {"geometry": {"location": {"lat": 51.5247532, "lng": -0.1918704}, "viewport": {"northeast": {"lat": 51.52607143029149, "lng": -0.190587119708498}, "southwest": {"lat": 51.5233734697085, "lng": -0.193285080291502}}}, "name": "CaseCheck Employment Lawyers London", "place_id": "ChIJjaTwLwYQdkgRsvLlgcTJWeI", "types": ["lawyer", "point_of_interest", "establishment"]}, "ChIJweb2GQYQdkgRif2tw1ijrGA": {"geometry": {"location": {"lat": 51.524759, "lng": -0.192883}, "viewport": {"northeast": {"lat": 51.52609683029149, "lng": -0.191521019708498}, "southwest": {"lat": 51.52339886970849, "lng": -0.194218980291502}}}, "name": "Caramelo Latin Dance", "place_id": "ChIJweb2GQYQdkgRif2tw1ijrGA", "types": ["point_of_interest", "establishment"], "rating": 4.4, "user_ratings_total": 81}, "ChIJ-eAoBkwRdkgRbLM5234JIg0": {"geometry": {"location": {"lat": 51.5248617, "lng": -0.1926561}, "viewport": {"northeast": {"lat": 51.5261996302915, "lng": -0.191294219708498}, "southwest": {"lat": 51.5235016697085, "lng": -0.193992180291502}}}, "name": "Bluebirds Ballet School", "place_id": "ChIJ-eAoBkwRdkgRbLM5234JIg0", "types": ["point_of_interest", "establishment"]}, "ChIJ9a9lxIgRdkgRJa2p4LHImHI": {"geometry": {"location": {"lat": 51.52462200000001, "lng": -0.1924624}, "viewport": {"northeast": {"lat": 51.52605243029151, "lng": -0.190939419708498}, "southwest": {"lat": 51.52335446970851, "lng": -0.193637380291502}}}, "name": "SA GLOBAL ENGINEERING", "place_id": "ChIJ9a9lxIgRdkgRJa2p4LHImHI", "types": ["plumber", "point_of_interest", "establishment"]}, "ChIJFQMcoAgQdkgRkQNH65pW1Lo": {"geometry": {"location": {"lat": 51.5254245, "lng": -0.1925562}, "viewport": {"northeast": {"lat": 51.5267245802915, "lng": -0.1912781197084979}, "southwest": {"lat": 51.5240266197085, "lng": -0.193976080291502}}}, "name": "Even Flow Lifestyle Fitness", "place_id": "ChIJFQMcoAgQdkgRkQNH65pW1Lo", "types": ["gym", "health", "point_of_interest", "establishment"]}, "ChIJvyMaujYRdkgRo5nP7cP5378": {"geometry": {"location": {"lat": 51.5244197, "lng": -0.1927177}, "viewport": {"northeast": {"lat": 51.52573383029149, "lng": -0.191447619708498}, "southwest": {"lat": 51.52303586970849, "lng": -0.194145580291502}}}, "name": "methodist church", "place_id": "ChIJvyMaujYRdkgRo5nP7cP5378", "types": ["church", "place_of_worship", "point_of_interest", "establishment"]}, "ChIJBV_TOw8QdkgRb3dZ-6Ph9yw": {"geometry": {"location": {"lat": 51.5270094650371, "lng": -0.1949015876891385}, "viewport": {"northeast": {"lat": 51.5283578302915, "lng": -0.193553169708498}, "southwest": {"lat": 51.5256598697085, "lng": -0.196251130291502}}}, "name": "169-151 B413", "place_id": "ChIJBV_TOw8QdkgRb3dZ-6Ph9yw", "types": ["route"]}, "ChIJFxax0QgQdkgRbUe_0s2ph70": {"geometry": {"location": {"lat": 51.5273023, "lng": -0.1939409}, "viewport": {"northeast": {"lat": 51.5287503302915, "lng": -0.192503169708498}, "southwest": {"lat": 51.5260523697085, "lng": -0.195201130291502}}}, "name": "Cristina Codina Alexander Technique Maida Vale", "place_id": "ChIJFxax0QgQdkgRbUe_0s2ph70", "types": ["health", "point_of_interest", "establishment"]}, "ChIJeTcCFw8QdkgRw8ZFXHseP6o": {"geometry": {"location": {"lat": 51.52695259999999, "lng": -0.1942376}, "viewport": {"northeast": {"lat": 51.5282348302915, "lng": -0.1929507697084979}, "southwest": {"lat": 51.5255368697085, "lng": -0.195648730291502}}}, "name": "THe Hype Bureau", "place_id": "ChIJeTcCFw8QdkgRw8ZFXHseP6o", "types": ["point_of_interest", "establishment"]}, "ChIJ3TZbzQgQdkgRE4EMXJGCAys": {"geometry": {"location": {"lat": 51.5272938, "lng": -0.1939592}, "viewport": {"northeast": {"lat": 51.5287475302915, "lng": -0.192516419708498}, "southwest": {"lat": 51.5260495697085, "lng": -0.195214380291502}}}, "name": "RBM Architects", "place_id": "ChIJ3TZbzQgQdkgRE4EMXJGCAys", "types": ["point_of_interest", "establishment"]}, "ChIJJ3FazggQdkgRFZJYM2hbWpo": {"geometry": {"location": {"lat": 51.5272923, "lng": -0.1939295}, "viewport": {"northeast": {"lat": 51.52874268029149, "lng": -0.192489719708498}, "southwest": {"lat": 51.52604471970849, "lng": -0.195187680291502}}}, "name": "Froggle Parties Ltd", "place_id": "ChIJJ3FazggQdkgRFZJYM2hbWpo", "types": ["point_of_interest", "establishment"], "rating": 5, "user_ratings_total": 7}, "ChIJV6wQNw8QdkgRsgZRuGq5tC4": {"geometry": {"location": {"lat": 51.5269, "lng": -0.194619}, "viewport": {"northeast": {"lat": 51.5282282302915, "lng": -0.1932890697084979}, "southwest": {"lat": 51.5255302697085, "lng": -0.195987030291502}}}, "name": "Cathleen Fox Hypnotherapy", "place_id": "ChIJV6wQNw8QdkgRsgZRuGq5tC4", "types": ["health", "point_of_interest", "establishment"]}, "ChIJ-d_QOw8QdkgRzJe6b-u8EMQ": {"geometry": {"location": {"lat": 51.527085, "lng": -0.1949207999999999}, "viewport": {"northeast": {"lat": 51.5284094302915, "lng": -0.193594069708498}, "southwest": {"lat": 51.5257114697085, "lng": -0.196292030291502}}}, "name": "Aware Alive Awake Professional Services", "place_id": "ChIJ-d_QOw8QdkgRzJe6b-u8EMQ", "types": ["electronics_store", "health", "point_of_interest", "store", "establishment"]}, "ChIJEQ-YLA8QdkgRiMOSYYfLWJo": {"geometry": {"location": {"lat": 51.52762329999999, "lng": -0.1941176}, "viewport": {"northeast": {"lat": 51.5289997302915, "lng": -0.192744019708498}, "southwest": {"lat": 51.5263017697085, "lng": -0.195441980291502}}}, "name": "CVRite", "place_id": "ChIJEQ-YLA8QdkgRiMOSYYfLWJo", "types": ["point_of_interest", "establishment"]}, "ChIJ3TZbzQgQdkgRjVE9PjZkosM": {"geometry": {"location": {"lat": 51.5272923, "lng": -0.1939295}, "viewport": {"northeast": {"lat": 51.52874268029149, "lng": -0.192489719708498}, "southwest": {"lat": 51.52604471970849, "lng": -0.195187680291502}}}, "name": "CP. Air-Con Services", "place_id": "ChIJ3TZbzQgQdkgRjVE9PjZkosM", "types": ["electrician", "plumber", "general_contractor", "point_of_interest", "establishment"], "rating": 5, "user_ratings_total": 1}, "ChIJmaWhKVARdkgRpR1x9AWW9wA": {"geometry": {"location": {"lat": 51.5273327, "lng": -0.19395}, "viewport": {"northeast": {"lat": 51.52877033029151, "lng": -0.192521619708498}, "southwest": {"lat": 51.52607236970851, "lng": -0.1952195802915021}}}, "name": "Legacy Tees London", "place_id": "ChIJmaWhKVARdkgRpR1x9AWW9wA", "types": ["point_of_interest", "clothing_store", "store", "establishment"]}, "ChIJE5vemPgRdkgRMeBffXiIVPs": {"geometry": {"location": {"lat": 51.5273327, "lng": -0.19395}, "viewport": {"northeast": {"lat": 51.5287703802915, "lng": -0.192521569708498}, "southwest": {"lat": 51.5260724197085, "lng": -0.195219530291502}}}, "name": "Josh Cawthorn - Director", "place_id": "ChIJE5vemPgRdkgRMeBffXiIVPs", "types": ["point_of_interest", "establishment"], "rating": 5, "user_ratings_total": 3}, "ChIJVVXRNA8QdkgR0ppg8i6Trds": {"geometry": {"location": {"lat": 51.5268606, "lng": -0.1940414}, "viewport": {"northeast": {"lat": 51.5281501802915, "lng": -0.192747219708498}, "southwest": {"lat": 51.5254522197085, "lng": -0.195445180291502}}}, "name": "Molly Ayton Upholstery", "place_id": "ChIJVVXRNA8QdkgR0ppg8i6Trds", "types": ["furniture_store", "home_goods_store", "point_of_interest", "store", "establishment"], "rating": 5, "user_ratings_total": 1}, "ChIJMYxVtQgQdkgRtGP9eIrqpDM": {"geometry": {"location": {"lat": 51.5267685, "lng": -0.1940297}, "viewport": {"northeast": {"lat": 51.52809173029149, "lng": -0.192705069708498}, "southwest": {"lat": 51.5253937697085, "lng": -0.195403030291502}}}, "name": "ubitricity Charging Station", "place_id": "ChIJMYxVtQgQdkgRtGP9eIrqpDM", "types": ["point_of_interest", "establishment"]}, "ChIJ4VNF0ggQdkgRcL3Hcm4Fq2Y": {"geometry": {"location": {"lat": 51.527455, "lng": -0.193791}, "viewport": {"northeast": {"lat": 51.5288184802915, "lng": -0.192429069708498}, "southwest": {"lat": 51.5261205197085, "lng": -0.195127030291502}}}, "name": "ubitricity Charging Station", "place_id": "ChIJ4VNF0ggQdkgRcL3Hcm4Fq2Y", "types": ["point_of_interest", "establishment"]}, "ChIJPQN00kMRdkgR7d_VOIhEVEU": {"geometry": {"location": {"lat": 51.5267423, "lng": -0.1945425}, "viewport": {"northeast": {"lat": 51.5281444302915, "lng": -0.193144069708498}, "southwest": {"lat": 51.5254464697085, "lng": -0.195842030291502}}}, "name": "Welford House", "place_id": "ChIJPQN00kMRdkgR7d_VOIhEVEU", "types": ["point_of_interest", "establishment"]}, "ChIJ4dr-tAgQdkgRw-yqSSR_ASs": {"geometry": {"location": {"lat": 51.5267811, "lng": -0.1946631}, "viewport": {"northeast": {"lat": 51.5281114302915, "lng": -0.193270219708498}, "southwest": {"lat": 51.5254134697085, "lng": -0.195968180291502}}}, "name": "Welford & Sons Dairy Chief Office", "place_id": "ChIJ4dr-tAgQdkgRw-yqSSR_ASs", "types": ["point_of_interest", "establishment"]}, "ChIJZ2z0tQgQdkgRFu4JzjWScCw": {"geometry": {"location": {"lat": 51.52676479999999, "lng": -0.1936581}, "viewport": {"northeast": {"lat": 51.52803908029149, "lng": -0.192378869708498}, "southwest": {"lat": 51.5253411197085, "lng": -0.1950768302915021}}}, "name": "Medimpex UK Ltd", "place_id": "ChIJZ2z0tQgQdkgRFu4JzjWScCw", "types": ["health", "point_of_interest", "establishment"]}, "ChIJZ2z0tQgQdkgRu5Mckpw7nK0": {"geometry": {"location": {"lat": 51.52676479999999, "lng": -0.1936581}, "viewport": {"northeast": {"lat": 51.52803908029149, "lng": -0.192378869708498}, "southwest": {"lat": 51.5253411197085, "lng": -0.1950768302915021}}}, "name": "Gedeon Richter UK Ltd", "place_id": "ChIJZ2z0tQgQdkgRu5Mckpw7nK0", "types": ["health", "point_of_interest", "establishment"], "rating": 1, "user_ratings_total": 1}, "ChIJVf0JjFIRdkgRFjn5C9gYfAM": {"geometry": {"location": {"lat": 51.5269064, "lng": -0.1948962}, "viewport": {"northeast": {"lat": 51.5282934802915, "lng": -0.193512169708498}, "southwest": {"lat": 51.5255955197085, "lng": -0.196210130291502}}}, "name": "Buy To Let Property Tax Advisors", "place_id": "ChIJVf0JjFIRdkgRFjn5C9gYfAM", "types": ["lawyer", "point_of_interest", "establishment"]}, "ChIJZ032oggQdkgRiZFf4QJsaHE": {"geometry": {"location": {"lat": 51.5266282, "lng": -0.1944091}, "viewport": {"northeast": {"lat": 51.5279087302915, "lng": -0.193120019708498}, "southwest": {"lat": 51.5252107697085, "lng": -0.195817980291502}}}, "name": "The Institute of Psychoanalysis", "place_id": "ChIJZ032oggQdkgRiZFf4QJsaHE", "types": ["health", "point_of_interest", "establishment"], "rating": 4, "user_ratings_total": 4}, "ChIJy8vwSQ8QdkgRHnKeNU4eHDM": {"geometry": {"location": {"lat": 51.5266282, "lng": -0.1944091}, "viewport": {"northeast": {"lat": 51.5279087302915, "lng": -0.193120019708498}, "southwest": {"lat": 51.5252107697085, "lng": -0.195817980291502}}}, "name": "Stephen Grosz", "place_id": "ChIJy8vwSQ8QdkgRHnKeNU4eHDM", "types": ["health", "point_of_interest", "establishment"]}, "ChIJSRP3TA8QdkgR3ROhy9AW-3g": {"geometry": {"location": {"lat": 51.52613175370337, "lng": -0.1944487750007839}, "viewport": {"northeast": {"lat": 51.5274830802915, "lng": -0.193101819708498}, "southwest": {"lat": 51.5247851197085, "lng": -0.195799780291502}}}, "name": "118-98 Elgin Ave", "place_id": "ChIJSRP3TA8QdkgR3ROhy9AW-3g", "types": ["route"]}, "ChIJ-U8zSQ8QdkgRkRSDQinOh4o": {"geometry": {"location": {"lat": 51.526491, "lng": -0.1939467}, "viewport": {"northeast": {"lat": 51.52776863029149, "lng": -0.192532869708498}, "southwest": {"lat": 51.5250706697085, "lng": -0.195230830291502}}}, "name": "Alexandra Soveral Limited", "place_id": "ChIJ-U8zSQ8QdkgRkRSDQinOh4o", "types": ["health", "point_of_interest", "store", "establishment"]}, "ChIJqbLQUwgQdkgRPoo-9sVwEgs": {"geometry": {"location": {"lat": 51.5259995, "lng": -0.1943522000000001}, "viewport": {"northeast": {"lat": 51.5274127302915, "lng": -0.193057269708498}, "southwest": {"lat": 51.5247147697085, "lng": -0.195755230291502}}}, "name": "Joana Senkute Photography", "place_id": "ChIJqbLQUwgQdkgRPoo-9sVwEgs", "types": ["point_of_interest", "establishment"], "rating": 5, "user_ratings_total": 2}, "ChIJNyJkswgQdkgRR_eh6iQLXas": {"geometry": {"location": {"lat": 51.52632120000001, "lng": -0.1938978}, "viewport": {"northeast": {"lat": 51.5276422802915, "lng": -0.192523419708498}, "southwest": {"lat": 51.5249443197085, "lng": -0.195221380291502}}}, "name": "W9design", "place_id": "ChIJNyJkswgQdkgRR_eh6iQLXas", "types": ["general_contractor", "point_of_interest", "establishment"]}, "ChIJq74fUg8QdkgRnqZHzNTkp0A": {"geometry": {"location": {"lat": 51.5258099, "lng": -0.1947442}, "viewport": {"northeast": {"lat": 51.5272470802915, "lng": -0.193469769708498}, "southwest": {"lat": 51.5245491197085, "lng": -0.196167730291502}}}, "name": "End Road Rage Ltd", "place_id": "ChIJq74fUg8QdkgRnqZHzNTkp0A", "types": ["health", "point_of_interest", "establishment"]}, "ChIJGxapqVURdkgRvQqXjS-plMM": {"geometry": {"location": {"lat": 51.5262749, "lng": -0.193924}, "viewport": {"northeast": {"lat": 51.5276235802915, "lng": -0.192574669708498}, "southwest": {"lat": 51.5249256197085, "lng": -0.195272630291502}}}, "name": "Van Recovery Maida Hill", "place_id": "ChIJGxapqVURdkgRvQqXjS-plMM", "types": ["car_repair", "point_of_interest", "establishment"]}, "ChIJQduVTw8QdkgRk4WLBg4v6-Y": {"geometry": {"location": {"lat": 51.52613880000001, "lng": -0.1946862}, "viewport": {"northeast": {"lat": 51.5274550302915, "lng": -0.193307769708498}, "southwest": {"lat": 51.52475706970851, "lng": -0.196005730291502}}}, "name": "ubitricity Charging Station", "place_id": "ChIJQduVTw8QdkgRk4WLBg4v6-Y", "types": ["point_of_interest", "establishment"]}, "ChIJ-U8zSQ8QdkgRZq4OCJtiG4g": {"geometry": {"location": {"lat": 51.5264631, "lng": -0.1938972}, "viewport": {"northeast": {"lat": 51.52777103029149, "lng": -0.192479669708498}, "southwest": {"lat": 51.52507306970849, "lng": -0.195177630291502}}}, "name": "Elgin Food & Wine", "place_id": "ChIJ-U8zSQ8QdkgRZq4OCJtiG4g", "types": ["grocery_or_supermarket", "food", "point_of_interest", "store", "establishment"], "rating": 4, "user_ratings_total": 38}, "ChIJabl_Sw8QdkgRuKJAFXN8AFo": {"geometry": {"location": {"lat": 51.526491, "lng": -0.1939467}, "viewport": {"northeast": {"lat": 51.52776863029149, "lng": -0.192532869708498}, "southwest": {"lat": 51.5250706697085, "lng": -0.195230830291502}}}, "name": "Slumberfleece Ltd", "place_id": "ChIJabl_Sw8QdkgRuKJAFXN8AFo", "types": ["home_goods_store", "point_of_interest", "store", "establishment"]}, "ChIJYfIuTEERdkgRlBq1qvHkVxA": {"geometry": {"location": {"lat": 51.5262439, "lng": -0.1948417}, "viewport": {"northeast": {"lat": 51.52749858029151, "lng": -0.193413019708498}, "southwest": {"lat": 51.52480061970851, "lng": -0.196110980291502}}}, "name": "Elgin Avenue", "place_id": "ChIJYfIuTEERdkgRlBq1qvHkVxA", "types": ["point_of_interest", "establishment"]}, "ChIJ3R7YWg8QdkgRX7Mj-MgorZ8": {"geometry": {"location": {"lat": 51.52597499999999, "lng": -0.1949278}, "viewport": {"northeast": {"lat": 51.52732398029148, "lng": -0.193578819708498}, "southwest": {"lat": 51.52462601970849, "lng": -0.196276780291502}}}, "name": "Soul Vibes Bed n Break", "place_id": "ChIJ3R7YWg8QdkgRX7Mj-MgorZ8", "types": ["lodging", "point_of_interest", "establishment"]}, "ChIJg0UnsQgQdkgRn9zi3OEwUb4": {"geometry": {"location": {"lat": 51.52628920000001, "lng": -0.1934657}, "viewport": {"northeast": {"lat": 51.52770743029151, "lng": -0.1921802697084979}, "southwest": {"lat": 51.52500946970851, "lng": -0.194878230291502}}}, "name": "Man with Van Maida Vale Ltd.", "place_id": "ChIJg0UnsQgQdkgRn9zi3OEwUb4", "types": ["moving_company", "point_of_interest", "establishment"], "rating": 2, "user_ratings_total": 1}, "ChIJeTcCFw8QdkgRxLqzwg2P3HA": {"geometry": {"location": {"lat": 51.5265727, "lng": -0.1942695}, "viewport": {"northeast": {"lat": 51.52785918029151, "lng": -0.192985819708498}, "southwest": {"lat": 51.52516121970851, "lng": -0.195683780291502}}}, "name": "Bird Of Prey Productions", "place_id": "ChIJeTcCFw8QdkgRxLqzwg2P3HA", "types": ["point_of_interest", "establishment"]}, "ChIJRxFlSA8QdkgROK2E4HEw_z8": {"geometry": {"location": {"lat": 51.5266332, "lng": -0.1948912}, "viewport": {"northeast": {"lat": 51.52789370025705, "lng": -0.1933501844084902}, "southwest": {"lat": 51.52519573967405, "lng": -0.1960481449914942}}}, "name": "Parking lot", "place_id": "ChIJRxFlSA8QdkgROK2E4HEw_z8", "types": ["parking", "premise", "point_of_interest", "establishment"]}, "ChIJS0pC_AUQdkgRa2_DpgUuLZk": {"geometry": {"location": {"lat": 51.52507171857035, "lng": -0.1945862140749344}, "viewport": {"northeast": {"lat": 51.5264232302915, "lng": -0.193234119708498}, "southwest": {"lat": 51.5237252697085, "lng": -0.195932080291502}}}, "name": "8-42 Oakington Rd", "place_id": "ChIJS0pC_AUQdkgRa2_DpgUuLZk", "types": ["route"]}, "ChIJgTtUJwYQdkgRlwYF0odeAs8": {"geometry": {"location": {"lat": 51.5252039, "lng": -0.1936398}, "viewport": {"northeast": {"lat": 51.5263824802915, "lng": -0.191821719708498}, "southwest": {"lat": 51.5236845197085, "lng": -0.194519680291502}}}, "name": "Paddington Academy", "place_id": "ChIJgTtUJwYQdkgRlwYF0odeAs8", "types": ["school", "point_of_interest", "establishment"], "rating": 2.7, "user_ratings_total": 70}, "ChIJrar3_AUQdkgRRpeFEQeUw0k": {"geometry": {"location": {"lat": 51.52485229999999, "lng": -0.1942444}, "viewport": {"northeast": {"lat": 51.52621998029149, "lng": -0.192870319708498}, "southwest": {"lat": 51.52352201970849, "lng": -0.195568280291502}}}, "name": "ubitricity Charging Station", "place_id": "ChIJrar3_AUQdkgRRpeFEQeUw0k", "types": ["point_of_interest", "establishment"]}, "ChIJGbaQgj8RdkgRCu5ICnu4a4M": {"geometry": {"location": {"lat": 51.524809, "lng": -0.194274}, "viewport": {"northeast": {"lat": 51.52619583029151, "lng": -0.192879769708498}, "southwest": {"lat": 51.52349786970851, "lng": -0.195577730291502}}}, "name": "SCHOOL", "place_id": "ChIJGbaQgj8RdkgRCu5ICnu4a4M", "types": ["school", "point_of_interest", "establishment"]}, "ChIJu4Jk9wUQdkgRnxFLJmRz84g": {"geometry": {"location": {"lat": 51.52514419999999, "lng": -0.1948726}, "viewport": {"northeast": {"lat": 51.52651343029149, "lng": -0.1934999697084979}, "southwest": {"lat": 51.5238154697085, "lng": -0.196197930291502}}}, "name": "ubitricity Charging Station", "place_id": "ChIJu4Jk9wUQdkgRnxFLJmRz84g", "types": ["point_of_interest", "establishment"]}, "ChIJtdbqG10RdkgR52HM08yu-TM": {"geometry": {"location": {"lat": 51.5251939, "lng": -0.1948448}, "viewport": {"northeast": {"lat": 51.5265679802915, "lng": -0.193465219708498}, "southwest": {"lat": 51.5238700197085, "lng": -0.196163180291502}}}, "name": "Matrix", "place_id": "ChIJtdbqG10RdkgR52HM08yu-TM", "types": ["point_of_interest", "establishment"]}, "ChIJ87oT-AUQdkgRMzCbthr7MLo": {"geometry": {"location": {"lat": 51.5253192, "lng": -0.194698}, "viewport": {"northeast": {"lat": 51.52664610529206, "lng": -0.1933178775452158}, "southwest": {"lat": 51.52394814470906, "lng": -0.1960158381282198}}}, "name": "Parking lot", "place_id": "ChIJ87oT-AUQdkgRMzCbthr7MLo", "types": ["parking", "premise", "point_of_interest", "establishment"]}, "ChIJLzheGg8QdkgRBgJtfFYcfMg": {"geometry": {"location": {"lat": 51.52747320051891, "lng": -0.1961910990361438}, "viewport": {"northeast": {"lat": 51.5288221802915, "lng": -0.194842119708498}, "southwest": {"lat": 51.5261242197085, "lng": -0.197540080291502}}}, "name": "150-170 B413", "place_id": "ChIJLzheGg8QdkgRBgJtfFYcfMg", "types": ["route"]}, "ChIJWbZpEA8QdkgRTaPDmJ0_xIQ": {"geometry": {"location": {"lat": 51.52725309999999, "lng": -0.1961057}, "viewport": {"northeast": {"lat": 51.5286730802915, "lng": -0.194690769708498}, "southwest": {"lat": 51.5259751197085, "lng": -0.197388730291502}}}, "name": "Shirland Apartments", "place_id": "ChIJWbZpEA8QdkgRTaPDmJ0_xIQ", "types": ["lodging", "point_of_interest", "establishment"]}, "ChIJwTHiPQ8QdkgRRfXT-FmBd28": {"geometry": {"location": {"lat": 51.527128, "lng": -0.195655}, "viewport": {"northeast": {"lat": 51.5285341802915, "lng": -0.194252919708498}, "southwest": {"lat": 51.5258362197085, "lng": -0.196950880291502}}}, "name": "Shirland Dental Practice", "place_id": "ChIJwTHiPQ8QdkgRRfXT-FmBd28", "types": ["dentist", "health", "point_of_interest", "establishment"], "rating": 4.9, "user_ratings_total": 83}, "ChIJ7S71Fg8QdkgRLsXIc88azjg": {"geometry": {"location": {"lat": 51.527094, "lng": -0.195699}, "viewport": {"northeast": {"lat": 51.5285188302915, "lng": -0.194279619708498}, "southwest": {"lat": 51.5258208697085, "lng": -0.196977580291502}}}, "name": "Dr Hamssa Mansour", "place_id": "ChIJ7S71Fg8QdkgRLsXIc88azjg", "types": ["dentist", "health", "point_of_interest", "establishment"], "rating": 5, "user_ratings_total": 11}, "ChIJG3GHuwgQdkgRoYPn6qE1BE0": {"geometry": {"location": {"lat": 51.5270322, "lng": -0.1953369}, "viewport": {"northeast": {"lat": 51.5284306302915, "lng": -0.193943119708498}, "southwest": {"lat": 51.5257326697085, "lng": -0.196641080291502}}}, "name": "Moving Day Ltd", "place_id": "ChIJG3GHuwgQdkgRoYPn6qE1BE0", "types": ["moving_company", "storage", "point_of_interest", "establishment"], "rating": 3, "user_ratings_total": 1}, "ChIJbe68Gw8QdkgRnEaywjErem8": {"geometry": {"location": {"lat": 51.5275782, "lng": -0.1959923}, "viewport": {"northeast": {"lat": 51.52886103029149, "lng": -0.194704769708498}, "southwest": {"lat": 51.5261630697085, "lng": -0.197402730291502}}}, "name": "Fly Joinery Ltd", "place_id": "ChIJbe68Gw8QdkgRnEaywjErem8", "types": ["general_contractor", "point_of_interest", "establishment"]}, "ChIJz53KoA8QdkgRh0wrLDB_0s0": {"geometry": {"location": {"lat": 51.5270335, "lng": -0.1967004}, "viewport": {"northeast": {"lat": 51.5283200302915, "lng": -0.195409319708498}, "southwest": {"lat": 51.5256220697085, "lng": -0.198107280291502}}}, "name": "Victoria Pets - dog walking & boarding", "place_id": "ChIJz53KoA8QdkgRh0wrLDB_0s0", "types": ["point_of_interest", "establishment"]}, "ChIJQRTlPQ8QdkgRWHnALqNGtOE": {"geometry": {"location": {"lat": 51.5274326, "lng": -0.1966519}, "viewport": {"northeast": {"lat": 51.52885888029149, "lng": -0.195231119708498}, "southwest": {"lat": 51.5261609197085, "lng": -0.197929080291502}}}, "name": "Kevin Thompson Sound Recordist London", "place_id": "ChIJQRTlPQ8QdkgRWHnALqNGtOE", "types": ["point_of_interest", "establishment"]}, "ChIJa_K0Gw8QdkgRJGBb2LFF03s": {"geometry": {"location": {"lat": 51.5275146, "lng": -0.195933}, "viewport": {"northeast": {"lat": 51.52881498029151, "lng": -0.194635469708498}, "southwest": {"lat": 51.52611701970851, "lng": -0.197333430291502}}}, "name": "Jamalouki Hair & Beauty Salon", "place_id": "ChIJa_K0Gw8QdkgRJGBb2LFF03s", "types": ["beauty_salon", "point_of_interest", "establishment"], "rating": 4.7, "user_ratings_total": 51}, "ChIJd2TJEA8QdkgRUy61KWxvY6w": {"geometry": {"location": {"lat": 51.527234, "lng": -0.1958865}, "viewport": {"northeast": {"lat": 51.5286316302915, "lng": -0.194492369708498}, "southwest": {"lat": 51.5259336697085, "lng": -0.197190330291502}}}, "name": "Kookii", "place_id": "ChIJd2TJEA8QdkgRUy61KWxvY6w", "types": ["point_of_interest", "establishment"]}, "ChIJHbWzEA8QdkgRufEwtkV8QNQ": {"geometry": {"location": {"lat": 51.5272781, "lng": -0.1958789}, "viewport": {"northeast": {"lat": 51.5286581802915, "lng": -0.194501069708498}, "southwest": {"lat": 51.5259602197085, "lng": -0.1971990302915021}}}, "name": "Zipcar", "place_id": "ChIJHbWzEA8QdkgRufEwtkV8QNQ", "types": ["car_rental", "point_of_interest", "establishment"]}, "ChIJYWhdqnoRdkgReXDGh__PVjM": {"geometry": {"location": {"lat": 51.5270073, "lng": -0.1954013}, "viewport": {"northeast": {"lat": 51.52842373029151, "lng": -0.193991169708498}, "southwest": {"lat": 51.52572576970851, "lng": -0.196689130291502}}}, "name": "catalysta.biz", "place_id": "ChIJYWhdqnoRdkgReXDGh__PVjM", "types": ["finance", "point_of_interest", "establishment"]}, "ChIJZ43RGg8QdkgRGotXhepgM7Y": {"geometry": {"location": {"lat": 51.52745799999999, "lng": -0.196206}, "viewport": {"northeast": {"lat": 51.5287951302915, "lng": -0.1948680197084979}, "southwest": {"lat": 51.5260971697085, "lng": -0.197565980291502}}}, "name": "Chippenham Road (Stop ME)", "place_id": "ChIJZ43RGg8QdkgRGotXhepgM7Y", "types": ["transit_station", "point_of_interest", "establishment"], "rating": 5, "user_ratings_total": 2}, "ChIJEzZX39oRdkgR44YeRn033i8": {"geometry": {"location": {"lat": 51.5273614, "lng": -0.1954141}, "viewport": {"northeast": {"lat": 51.5286475802915, "lng": -0.194123369708498}, "southwest": {"lat": 51.5259496197085, "lng": -0.196821330291502}}}, "name": "TandGo Web Development, Web Design, Graphic Design", "place_id": "ChIJEzZX39oRdkgR44YeRn033i8", "types": ["point_of_interest", "establishment"], "rating": 5, "user_ratings_total": 1}, "ChIJ0U5jkEMRdkgRSiNOKjvLIQQ": {"geometry": {"location": {"lat": 51.5275658, "lng": -0.1959909}, "viewport": {"northeast": {"lat": 51.5288518302915, "lng": -0.194695669708498}, "southwest": {"lat": 51.5261538697085, "lng": -0.197393630291502}}}, "name": "Air Control (UK) Ltd", "place_id": "ChIJ0U5jkEMRdkgRSiNOKjvLIQQ", "types": ["general_contractor", "point_of_interest", "establishment"]}, "ChIJI4Kv84URdkgRjhNhL0hOQKo": {"geometry": {"location": {"lat": 51.5275658, "lng": -0.1959909}, "viewport": {"northeast": {"lat": 51.5288530802915, "lng": -0.194699169708498}, "southwest": {"lat": 51.5261551197085, "lng": -0.197397130291502}}}, "name": "AC Total Building Services", "place_id": "ChIJI4Kv84URdkgRjhNhL0hOQKo", "types": ["point_of_interest", "establishment"]}, "ChIJv5H-aPMRdkgRAli7Rvh5crg": {"geometry": {"location": {"lat": 51.5275658, "lng": -0.1959909}, "viewport": {"northeast": {"lat": 51.5288530802915, "lng": -0.194699169708498}, "southwest": {"lat": 51.5261551197085, "lng": -0.197397130291502}}}, "name": "Carpet Cleaning Maida Vale", "place_id": "ChIJv5H-aPMRdkgRAli7Rvh5crg", "types": ["laundry", "point_of_interest", "establishment"]}, "ChIJlbLjBA8QdkgRmtNB3nyjxX8": {"geometry": {"location": {"lat": 51.52750400000001, "lng": -0.1963554999999999}, "viewport": {"northeast": {"lat": 51.5288469302915, "lng": -0.195012119708498}, "southwest": {"lat": 51.5261489697085, "lng": -0.197710080291502}}}, "name": "Chippenham Road", "place_id": "ChIJlbLjBA8QdkgRmtNB3nyjxX8", "types": ["transit_station", "point_of_interest", "establishment"]}, "ChIJyRUQDQ8QdkgRt2YovHG5Nek": {"geometry": {"location": {"lat": 51.526791, "lng": -0.19636}, "viewport": {"northeast": {"lat": 51.52813268029149, "lng": -0.1950178197084979}, "southwest": {"lat": 51.52543471970849, "lng": -0.197715780291502}}}, "name": "ubitricity Charging Station", "place_id": "ChIJyRUQDQ8QdkgRt2YovHG5Nek", "types": ["point_of_interest", "establishment"]}, "ChIJwTHiPQ8QdkgRPcKCM8sGILc": {"geometry": {"location": {"lat": 51.5269304, "lng": -0.195273}, "viewport": {"northeast": {"lat": 51.5281778802915, "lng": -0.193856669708498}, "southwest": {"lat": 51.5254799197085, "lng": -0.196554630291502}}}, "name": "Bare Natural Beauty", "place_id": "ChIJwTHiPQ8QdkgRPcKCM8sGILc", "types": ["beauty_salon", "point_of_interest", "establishment"]}, "ChIJae_VGw8QdkgRvx5ixPPR4J8": {"geometry": {"location": {"lat": 51.5276048, "lng": -0.1960569}, "viewport": {"northeast": {"lat": 51.5288863802915, "lng": -0.194770519708498}, "southwest": {"lat": 51.5261884197085, "lng": -0.197468480291502}}}, "name": "WEST 9 HAIRDRESSER\u2019S", "place_id": "ChIJae_VGw8QdkgRvx5ixPPR4J8", "types": ["hair_care", "health", "point_of_interest", "establishment"], "rating": 4.7, "user_ratings_total": 134}, "ChIJ2exHGw8QdkgRRUoLIV8g4Y0": {"geometry": {"location": {"lat": 51.5276067, "lng": -0.1961293}, "viewport": {"northeast": {"lat": 51.5288973302915, "lng": -0.194834519708498}, "southwest": {"lat": 51.5261993697085, "lng": -0.197532480291502}}}, "name": "Magic Touch Hair Salon", "place_id": "ChIJ2exHGw8QdkgRRUoLIV8g4Y0", "types": ["hair_care", "point_of_interest", "establishment"], "rating": 4.9, "user_ratings_total": 18}, "ChIJHxiwBA8QdkgRoG3IOLIqtXM": {"geometry": {"location": {"lat": 51.527607, "lng": -0.196226}, "viewport": {"northeast": {"lat": 51.52891528029149, "lng": -0.194929119708498}, "southwest": {"lat": 51.52621731970849, "lng": -0.197627080291502}}}, "name": "Noamans Cafe", "place_id": "ChIJHxiwBA8QdkgRoG3IOLIqtXM", "types": ["cafe", "meal_takeaway", "restaurant", "food", "point_of_interest", "establishment"], "rating": 4.3, "user_ratings_total": 40}, "ChIJwyorFQ8QdkgRphdHbIrHZew": {"geometry": {"location": {"lat": 51.52667329999999, "lng": -0.195662}, "viewport": {"northeast": {"lat": 51.5279549802915, "lng": -0.194375519708498}, "southwest": {"lat": 51.5252570197085, "lng": -0.197073480291502}}}, "name": "Technic Ltd", "place_id": "ChIJwyorFQ8QdkgRphdHbIrHZew", "types": ["general_contractor", "point_of_interest", "establishment"]}, "ChIJK-mLOw8QdkgRUpt1jQ_vf_I": {"geometry": {"location": {"lat": 51.5271606, "lng": -0.1951209}, "viewport": {"northeast": {"lat": 51.5284817802915, "lng": -0.193798019708498}, "southwest": {"lat": 51.5257838197085, "lng": -0.196495980291502}}}, "name": "ubitricity Charging Station", "place_id": "ChIJK-mLOw8QdkgRUpt1jQ_vf_I", "types": ["point_of_interest", "establishment"]}, "ChIJ5VLFQhsRdkgR8hL6WbMrNiE": {"geometry": {"location": {"lat": 51.52682839999999, "lng": -0.1965713}, "viewport": {"northeast": {"lat": 51.5281471802915, "lng": -0.195250319708498}, "southwest": {"lat": 51.5254492197085, "lng": -0.197948280291502}}}, "name": "Crane Transport Services Little Venice", "place_id": "ChIJ5VLFQhsRdkgR8hL6WbMrNiE", "types": ["point_of_interest", "establishment"]}, "ChIJbUr3XA8QdkgRLtLymdCy4N4": {"geometry": {"location": {"lat": 51.52580355004972, "lng": -0.1954612500825382}, "viewport": {"northeast": {"lat": 51.5271525302915, "lng": -0.194112269708498}, "southwest": {"lat": 51.5244545697085, "lng": -0.196810230291502}}}, "name": "86-84 Elgin Ave", "place_id": "ChIJbUr3XA8QdkgRLtLymdCy4N4", "types": ["route"]}, "ChIJUdB_RA8QdkgRciL-DXbFMoY": {"geometry": {"location": {"lat": 51.5263954, "lng": -0.1959137}, "viewport": {"northeast": {"lat": 51.5278159302915, "lng": -0.194498769708498}, "southwest": {"lat": 51.5251179697085, "lng": -0.197196730291502}}}, "name": "purpleberry catering", "place_id": "ChIJUdB_RA8QdkgRciL-DXbFMoY", "types": ["food", "point_of_interest", "establishment"]}, "ChIJ0YU9ZQ8QdkgRJgqHfo4i988": {"geometry": {"location": {"lat": 51.5259031, "lng": -0.1960341}, "viewport": {"northeast": {"lat": 51.52721813029149, "lng": -0.194789119708498}, "southwest": {"lat": 51.5245201697085, "lng": -0.197487080291502}}}, "name": "London Homes Invest", "place_id": "ChIJ0YU9ZQ8QdkgRJgqHfo4i988", "types": ["finance", "point_of_interest", "establishment"]}, "ChIJ55ZDZA8QdkgR9hG0F9XzEJo": {"geometry": {"location": {"lat": 51.5258097, "lng": -0.1959936}, "viewport": {"northeast": {"lat": 51.52709128029149, "lng": -0.194593669708498}, "southwest": {"lat": 51.52439331970849, "lng": -0.1972916302915021}}}, "name": "Melex Renovations", "place_id": "ChIJ55ZDZA8QdkgR9hG0F9XzEJo", "types": ["point_of_interest", "establishment"]}, "ChIJjV2-IDgRdkgRVmI1cn89G6s": {"geometry": {"location": {"lat": 51.5260352, "lng": -0.195618}, "viewport": {"northeast": {"lat": 51.52727288029149, "lng": -0.194176619708498}, "southwest": {"lat": 51.52457491970849, "lng": -0.196874580291502}}}, "name": "Stagecraft Theatre London CIC", "place_id": "ChIJjV2-IDgRdkgRVmI1cn89G6s", "types": ["point_of_interest", "establishment"], "rating": 5, "user_ratings_total": 1}, "ChIJ7Ul3aA8QdkgRUYc8jtIp9G8": {"geometry": {"location": {"lat": 51.526035, "lng": -0.195618}, "viewport": {"northeast": {"lat": 51.52727188029149, "lng": -0.194177919708498}, "southwest": {"lat": 51.52457391970849, "lng": -0.196875880291502}}}, "name": "Account Manager Tips | Key Account Management Training & Consulting", "place_id": "ChIJ7Ul3aA8QdkgRUYc8jtIp9G8", "types": ["point_of_interest", "establishment"]}, "ChIJ84lSZQ8QdkgRkbFUbJqLdAM": {"geometry": {"location": {"lat": 51.5259807, "lng": -0.196201}, "viewport": {"northeast": {"lat": 51.52728868029151, "lng": -0.194922619708498}, "southwest": {"lat": 51.52459071970851, "lng": -0.197620580291502}}}, "name": "Prints of London", "place_id": "ChIJ84lSZQ8QdkgRkbFUbJqLdAM", "types": ["art_gallery", "point_of_interest", "establishment"]}, "ChIJ0YU9ZQ8QdkgRn4krfKIrs9Y": {"geometry": {"location": {"lat": 51.5259042, "lng": -0.1961304}, "viewport": {"northeast": {"lat": 51.5272305802915, "lng": -0.194847419708498}, "southwest": {"lat": 51.52453261970851, "lng": -0.197545380291502}}}, "name": "Rediscovery", "place_id": "ChIJ0YU9ZQ8QdkgRn4krfKIrs9Y", "types": ["point_of_interest", "establishment"]}, "ChIJRUd_jykRdkgRKhyfqnk70fo": {"geometry": {"location": {"lat": 51.5258553, "lng": -0.195874}, "viewport": {"northeast": {"lat": 51.52713328029149, "lng": -0.194470919708498}, "southwest": {"lat": 51.52443531970849, "lng": -0.1971688802915021}}}, "name": "Transcend Chartered Accountants & Business Advisors", "place_id": "ChIJRUd_jykRdkgRKhyfqnk70fo", "types": ["accounting", "finance", "point_of_interest", "establishment"]}, "ChIJXUyeeg8QdkgRMJhsJ08adQc": {"geometry": {"location": {"lat": 51.526008, "lng": -0.196326}, "viewport": {"northeast": {"lat": 51.52734993029149, "lng": -0.194990369708498}, "southwest": {"lat": 51.5246519697085, "lng": -0.197688330291502}}}, "name": "ubitricity Charging Station", "place_id": "ChIJXUyeeg8QdkgRMJhsJ08adQc", "types": ["point_of_interest", "establishment"]}, "ChIJMRaYaQ8QdkgR1WVBFKbdOOE": {"geometry": {"location": {"lat": 51.52626730000001, "lng": -0.1956288}, "viewport": {"northeast": {"lat": 51.5276976802915, "lng": -0.194204319708498}, "southwest": {"lat": 51.5249997197085, "lng": -0.196902280291502}}}, "name": "Words", "place_id": "ChIJMRaYaQ8QdkgR1WVBFKbdOOE", "types": ["point_of_interest", "establishment"]}, "ChIJncbVcA8QdkgRx7jMU-saghU": {"geometry": {"location": {"lat": 51.5261718, "lng": -0.1965723}, "viewport": {"northeast": {"lat": 51.5274794302915, "lng": -0.1952621697084979}, "southwest": {"lat": 51.5247814697085, "lng": -0.197960130291502}}}, "name": "Alpha Fire", "place_id": "ChIJncbVcA8QdkgRx7jMU-saghU", "types": ["electronics_store", "home_goods_store", "point_of_interest", "store", "establishment"]}, "ChIJU0x4bQ8QdkgRGRWdfP6nyL4": {"geometry": {"location": {"lat": 51.5265174, "lng": -0.196187}, "viewport": {"northeast": {"lat": 51.5279285802915, "lng": -0.194780169708498}, "southwest": {"lat": 51.5252306197085, "lng": -0.197478130291502}}}, "name": "The Wave", "place_id": "ChIJU0x4bQ8QdkgRGRWdfP6nyL4", "types": ["health", "point_of_interest", "establishment"]}, "ChIJTWHZYw8QdkgRxriLdIYNM4w": {"geometry": {"location": {"lat": 51.5256029, "lng": -0.1959243}, "viewport": {"northeast": {"lat": 51.5269775302915, "lng": -0.194594619708498}, "southwest": {"lat": 51.5242795697085, "lng": -0.197292580291502}}}, "name": "ubitricity Charging Station", "place_id": "ChIJTWHZYw8QdkgRxriLdIYNM4w", "types": ["point_of_interest", "establishment"]}, "ChIJXyBudw8QdkgReuSHMEsdz2Y": {"geometry": {"location": {"lat": 51.52607, "lng": -0.1967279}, "viewport": {"northeast": {"lat": 51.52742758029149, "lng": -0.195370769708498}, "southwest": {"lat": 51.52472961970849, "lng": -0.198068730291502}}}, "name": "ubitricity Charging Station", "place_id": "ChIJXyBudw8QdkgReuSHMEsdz2Y", "types": ["point_of_interest", "establishment"]}, "ChIJiwLpeA8QdkgRYhQgZkNVwc8": {"geometry": {"location": {"lat": 51.5257264, "lng": -0.196818}, "viewport": {"northeast": {"lat": 51.52712865391756, "lng": -0.195481164817217}, "southwest": {"lat": 51.52443069333457, "lng": -0.1981791254002211}}}, "name": "Parking lot", "place_id": "ChIJiwLpeA8QdkgRYhQgZkNVwc8", "types": ["parking", "premise", "point_of_interest", "establishment"]}, "ChIJ7dYRiQUQdkgRv-V0Sl0QL-I": {"geometry": {"location": {"lat": 51.52494199385629, "lng": -0.1957916275750984}, "viewport": {"northeast": {"lat": 51.52629158029149, "lng": -0.194441919708498}, "southwest": {"lat": 51.52359361970849, "lng": -0.197139880291502}}}, "name": "33-51 Edbrooke Rd", "place_id": "ChIJ7dYRiQUQdkgRv-V0Sl0QL-I", "types": ["route"]}, "ChIJMRaYaQ8QdkgRTlmqw2rJ6NQ": {"geometry": {"location": {"lat": 51.5252768, "lng": -0.1953943}, "viewport": {"northeast": {"lat": 51.52667548029149, "lng": -0.193955319708498}, "southwest": {"lat": 51.5239775197085, "lng": -0.196653280291502}}}, "name": "Kamilian Creative Design Agency", "place_id": "ChIJMRaYaQ8QdkgRTlmqw2rJ6NQ", "types": ["point_of_interest", "establishment"]}, "ChIJQ5BwiQUQdkgRZ6RBgCM6Ow0": {"geometry": {"location": {"lat": 51.5251662, "lng": -0.1958968}, "viewport": {"northeast": {"lat": 51.5264612302915, "lng": -0.194620419708498}, "southwest": {"lat": 51.5237632697085, "lng": -0.197318380291502}}}, "name": "Would You Deny Limited", "place_id": "ChIJQ5BwiQUQdkgRZ6RBgCM6Ow0", "types": ["point_of_interest", "establishment"]}, "ChIJ8UlRfQ8QdkgRCwzENFvL4JU": {"geometry": {"location": {"lat": 51.52537969999999, "lng": -0.1962457}, "viewport": {"northeast": {"lat": 51.5268073802915, "lng": -0.1949560697084979}, "southwest": {"lat": 51.5241094197085, "lng": -0.197654030291502}}}, "name": "Hhf Services Ltd", "place_id": "ChIJ8UlRfQ8QdkgRCwzENFvL4JU", "types": ["point_of_interest", "establishment"]}, "ChIJ___QhAUQdkgR-9Xx2swljk8": {"geometry": {"location": {"lat": 51.5247311, "lng": -0.1964312}, "viewport": {"northeast": {"lat": 51.5260092302915, "lng": -0.195165269708498}, "southwest": {"lat": 51.5233112697085, "lng": -0.197863230291502}}}, "name": "RMAR Group", "place_id": "ChIJ___QhAUQdkgR-9Xx2swljk8", "types": ["point_of_interest", "establishment"]}, "ChIJaw_3ItMEdkgRfYD2k67DFy4": {"geometry": {"location": {"lat": 51.5248344, "lng": -0.1967262}, "viewport": {"northeast": {"lat": 51.5261344302915, "lng": -0.195435369708498}, "southwest": {"lat": 51.5234364697085, "lng": -0.198133330291502}}}, "name": "Urban Caprice Ltd", "place_id": "ChIJaw_3ItMEdkgRfYD2k67DFy4", "types": ["food", "point_of_interest", "establishment"], "rating": 4.3, "user_ratings_total": 12}, "ChIJA0rI7AUQdkgR_PlPez25Q14": {"geometry": {"location": {"lat": 51.5244556, "lng": -0.1953823}, "viewport": {"northeast": {"lat": 51.52582037923237, "lng": -0.194056260479099}, "southwest": {"lat": 51.52312241864938, "lng": -0.1967542210621031}}}, "name": "Edbrooke Road Gardens", "place_id": "ChIJA0rI7AUQdkgR_PlPez25Q14", "types": ["park", "premise", "point_of_interest", "establishment"]}, "ChIJkdt7XBARdkgRVoS6M-2AlUU": {"geometry": {"location": {"lat": 51.524382, "lng": -0.195594}, "viewport": {"northeast": {"lat": 51.52566118029151, "lng": -0.194329569708498}, "southwest": {"lat": 51.52296321970851, "lng": -0.1970275302915021}}}, "name": "Mike The Bike Guy", "place_id": "ChIJkdt7XBARdkgRVoS6M-2AlUU", "types": ["point_of_interest", "establishment"], "rating": 3.7, "user_ratings_total": 3}, "ChIJI6dcpg8QdkgRza3zC46QmOI": {"geometry": {"location": {"lat": 51.52724017783074, "lng": -0.197216041329523}, "viewport": {"northeast": {"lat": 51.5285891802915, "lng": -0.1958675697084979}, "southwest": {"lat": 51.5258912197085, "lng": -0.198565530291502}}}, "name": "110-116 Chippenham Rd", "place_id": "ChIJI6dcpg8QdkgRza3zC46QmOI", "types": ["route"]}, "ChIJ07hMqA8QdkgRTwIDPzqnFFg": {"geometry": {"location": {"lat": 51.5274188, "lng": -0.1970348}, "viewport": {"northeast": {"lat": 51.5287677802915, "lng": -0.1956858197084979}, "southwest": {"lat": 51.5260698197085, "lng": -0.1983837802915019}}}, "name": "Big Pizza and Chicken", "place_id": "ChIJ07hMqA8QdkgRTwIDPzqnFFg", "types": ["restaurant", "meal_delivery", "meal_takeaway", "food", "point_of_interest", "establishment"], "rating": 3.3, "user_ratings_total": 76}, "ChIJYSnPqQ8QdkgRhpxBkhgJ-mo": {"geometry": {"location": {"lat": 51.52752359999999, "lng": -0.1970226}, "viewport": {"northeast": {"lat": 51.5288760802915, "lng": -0.1957543697084979}, "southwest": {"lat": 51.5261781197085, "lng": -0.198452330291502}}}, "name": "W9 Carpets", "place_id": "ChIJYSnPqQ8QdkgRhpxBkhgJ-mo", "types": ["home_goods_store", "point_of_interest", "store", "establishment"], "rating": 4.8, "user_ratings_total": 57}, "ChIJA003pg8QdkgRqwQYnxICY2o": {"geometry": {"location": {"lat": 51.52726550000001, "lng": -0.1971935}, "viewport": {"northeast": {"lat": 51.5286131302915, "lng": -0.195815619708498}, "southwest": {"lat": 51.5259151697085, "lng": -0.198513580291502}}}, "name": "Chippenham Road Shirland Road", "place_id": "ChIJA003pg8QdkgRqwQYnxICY2o", "types": ["transit_station", "point_of_interest", "establishment"]}, "ChIJnyHmpQ8QdkgR3NVz6rjpatE": {"geometry": {"location": {"lat": 51.52732100000001, "lng": -0.197321}, "viewport": {"northeast": {"lat": 51.5286673802915, "lng": -0.195915569708498}, "southwest": {"lat": 51.5259694197085, "lng": -0.198613530291502}}}, "name": "Chippenham Road Shirland Road (Stop MR)", "place_id": "ChIJnyHmpQ8QdkgR3NVz6rjpatE", "types": ["transit_station", "point_of_interest", "establishment"]}, "ChIJORbvpw8QdkgROEcUxCd0mto": {"geometry": {"location": {"lat": 51.52727099999999, "lng": -0.197006}, "viewport": {"northeast": {"lat": 51.5286248302915, "lng": -0.195760719708498}, "southwest": {"lat": 51.5259268697085, "lng": -0.198458680291502}}}, "name": "Chippenham Road Shirland Road (Stop MM)", "place_id": "ChIJORbvpw8QdkgROEcUxCd0mto", "types": ["transit_station", "point_of_interest", "establishment"], "rating": 2, "user_ratings_total": 1}, "ChIJVVUYqA8QdkgRDHg4vm7UyGo": {"geometry": {"location": {"lat": 51.52739990000001, "lng": -0.1970024}, "viewport": {"northeast": {"lat": 51.5287532302915, "lng": -0.195751269708498}, "southwest": {"lat": 51.52605526970851, "lng": -0.198449230291502}}}, "name": "Nordic Light Nannies", "place_id": "ChIJVVUYqA8QdkgRDHg4vm7UyGo", "types": ["point_of_interest", "establishment"]}, "ChIJK_U2qA8QdkgREPYt-ZZZu64": {"geometry": {"location": {"lat": 51.5274626, "lng": -0.1970017}, "viewport": {"northeast": {"lat": 51.5288115802915, "lng": -0.195652719708498}, "southwest": {"lat": 51.5261136197085, "lng": -0.198350680291502}}}, "name": "Figaro Unisex Salon", "place_id": "ChIJK_U2qA8QdkgREPYt-ZZZu64", "types": ["beauty_salon", "point_of_interest", "establishment"], "rating": 4.7, "user_ratings_total": 41}, "ChIJ7T8qC2MRdkgR3ndKmzAfFp0": {"geometry": {"location": {"lat": 51.5268592, "lng": -0.1970339}, "viewport": {"northeast": {"lat": 51.5282130302915, "lng": -0.195796119708498}, "southwest": {"lat": 51.5255150697085, "lng": -0.198494080291502}}}, "name": "Wireless", "place_id": "ChIJ7T8qC2MRdkgR3ndKmzAfFp0", "types": ["point_of_interest", "store", "establishment"]}, "ChIJSVCLmw8QdkgRCKAF65PlTL0": {"geometry": {"location": {"lat": 51.52620160000001, "lng": -0.1973341000007678}, "viewport": {"northeast": {"lat": 51.5275505802915, "lng": -0.195985119708498}, "southwest": {"lat": 51.5248526197085, "lng": -0.198683080291502}}}, "name": "59 Chippenham Rd", "place_id": "ChIJSVCLmw8QdkgRCKAF65PlTL0", "types": ["route"]}, "ChIJF4M3dg8QdkgRdHNNYGPhb-k": {"geometry": {"location": {"lat": 51.526217, "lng": -0.196878}, "viewport": {"northeast": {"lat": 51.5275497302915, "lng": -0.195544119708498}, "southwest": {"lat": 51.5248517697085, "lng": -0.198242080291502}}}, "name": "ubitricity Charging Station", "place_id": "ChIJF4M3dg8QdkgRdHNNYGPhb-k", "types": ["point_of_interest", "establishment"]}, "ChIJVa-IfgUQdkgRbq0X-jHLTUE": {"geometry": {"location": {"lat": 51.52517370000001, "lng": -0.1972728}, "viewport": {"northeast": {"lat": 51.52657628029151, "lng": -0.195897769708498}, "southwest": {"lat": 51.52387831970851, "lng": -0.198595730291502}}}, "name": "Dhaba@49", "place_id": "ChIJVa-IfgUQdkgRbq0X-jHLTUE", "types": ["meal_delivery", "meal_takeaway", "restaurant", "food", "point_of_interest", "establishment"], "rating": 4.5, "user_ratings_total": 482}, "ChIJI5GFeAUQdkgRgn-o_ViNoMo": {"geometry": {"location": {"lat": 51.52496619999999, "lng": -0.1970197}, "viewport": {"northeast": {"lat": 51.5262673302915, "lng": -0.1957277197084979}, "southwest": {"lat": 51.5235693697085, "lng": -0.198425680291502}}}, "name": "Handyforce Ltd", "place_id": "ChIJI5GFeAUQdkgRgn-o_ViNoMo", "types": ["general_contractor", "point_of_interest", "establishment"], "rating": 5, "user_ratings_total": 1}, "ChIJbcEDegUQdkgR1hMWRh3VTbU": {"geometry": {"location": {"lat": 51.5247228, "lng": -0.1973201}, "viewport": {"northeast": {"lat": 51.52607328029151, "lng": -0.196057269708498}, "southwest": {"lat": 51.52337531970851, "lng": -0.198755230291502}}}, "name": "Sigma Services", "place_id": "ChIJbcEDegUQdkgR1hMWRh3VTbU", "types": ["point_of_interest", "establishment"]}, "ChIJC4aqcAUQdkgReVP28LkdDEw": {"geometry": {"location": {"lat": 51.5247007, "lng": -0.197295}, "viewport": {"northeast": {"lat": 51.5260522302915, "lng": -0.1960479697084979}, "southwest": {"lat": 51.5233542697085, "lng": -0.198745930291502}}}, "name": "Find Your Place", "place_id": "ChIJC4aqcAUQdkgReVP28LkdDEw", "types": ["point_of_interest", "establishment"], "rating": 3, "user_ratings_total": 2}, "ChIJYR7seAUQdkgRB3MSNFFntKE": {"geometry": {"location": {"lat": 51.52496619999999, "lng": -0.1970197}, "viewport": {"northeast": {"lat": 51.5262673302915, "lng": -0.1957277197084979}, "southwest": {"lat": 51.5235693697085, "lng": -0.198425680291502}}}, "name": "Homeconcepts Renovations", "place_id": "ChIJYR7seAUQdkgRB3MSNFFntKE", "types": ["general_contractor", "point_of_interest", "establishment"], "rating": 5, "user_ratings_total": 1}, "ChIJrSsbgA8QdkgRI3qr75IkqS0": {"geometry": {"location": {"lat": 51.5254523, "lng": -0.1972221}, "viewport": {"northeast": {"lat": 51.5267353302915, "lng": -0.195823269708498}, "southwest": {"lat": 51.5240373697085, "lng": -0.198521230291502}}}, "name": "Unigold Services", "place_id": "ChIJrSsbgA8QdkgRI3qr75IkqS0", "types": ["general_contractor", "point_of_interest", "establishment"]}, "ChIJGV0OdAUQdkgR_5cO2lMqiRM": {"geometry": {"location": {"lat": 51.5246464, "lng": -0.197316}, "viewport": {"northeast": {"lat": 51.5259984802915, "lng": -0.196057469708498}, "southwest": {"lat": 51.52330051970851, "lng": -0.198755430291502}}}, "name": "E.A. Langley (Paddington) Ltd", "place_id": "ChIJGV0OdAUQdkgR_5cO2lMqiRM", "types": ["funeral_home", "point_of_interest", "establishment"], "rating": 5, "user_ratings_total": 1}, "ChIJD8sMq3kQdkgRtPFTtbuPQGc": {"geometry": {"location": {"lat": 51.52468580000001, "lng": -0.1973092}, "viewport": {"northeast": {"lat": 51.52603638029151, "lng": -0.196052669708498}, "southwest": {"lat": 51.52333841970851, "lng": -0.198750630291502}}}, "name": "Find Your Place (UK) Limited", "place_id": "ChIJD8sMq3kQdkgRtPFTtbuPQGc", "types": ["point_of_interest", "establishment"], "rating": 3.5, "user_ratings_total": 13}, "ChIJmdMo41gRdkgRwwDUQ7HQvh8": {"geometry": {"location": {"lat": 51.52512329999999, "lng": -0.1972549}, "viewport": {"northeast": {"lat": 51.52647503029149, "lng": -0.196014169708498}, "southwest": {"lat": 51.52377706970849, "lng": -0.198712130291502}}}, "name": "BospHoruS Barber", "place_id": "ChIJmdMo41gRdkgRwwDUQ7HQvh8", "types": ["hair_care", "health", "point_of_interest", "establishment"], "rating": 5, "user_ratings_total": 4}, "ChIJVa-IfgUQdkgRYZvHU4_8F_k": {"geometry": {"location": {"lat": 51.52517370000001, "lng": -0.1972728}, "viewport": {"northeast": {"lat": 51.5265691302915, "lng": -0.1959264697084979}, "southwest": {"lat": 51.5238711697085, "lng": -0.198624430291502}}}, "name": "Maida Vale Tandoori", "place_id": "ChIJVa-IfgUQdkgRYZvHU4_8F_k", "types": ["meal_takeaway", "restaurant", "food", "point_of_interest", "establishment"], "rating": 4, "user_ratings_total": 1}, "ChIJHwoWW3ARdkgRNd58cdsabqk": {"geometry": {"location": {"lat": 51.5251302, "lng": -0.197205}, "viewport": {"northeast": {"lat": 51.5264825302915, "lng": -0.195988969708498}, "southwest": {"lat": 51.5237845697085, "lng": -0.1986869302915021}}}, "name": "Hot Rod Burger", "place_id": "ChIJHwoWW3ARdkgRNd58cdsabqk", "types": ["meal_takeaway", "restaurant", "food", "point_of_interest", "establishment"]}, "ChIJYTl5FpMRdkgRrDwCyT9LQQU": {"geometry": {"location": {"lat": 51.5251302, "lng": -0.197205}, "viewport": {"northeast": {"lat": 51.5264825302915, "lng": -0.195988969708498}, "southwest": {"lat": 51.5237845697085, "lng": -0.1986869302915021}}}, "name": "Moe's Burger Joint", "place_id": "ChIJYTl5FpMRdkgRrDwCyT9LQQU", "types": ["meal_takeaway", "restaurant", "food", "point_of_interest", "establishment"]}, "ChIJya7pfgUQdkgRVKrHcXNZ7ag": {"geometry": {"location": {"lat": 51.5251186, "lng": -0.1971952}, "viewport": {"northeast": {"lat": 51.52647108029149, "lng": -0.195984419708498}, "southwest": {"lat": 51.5237731197085, "lng": -0.198682380291502}}}, "name": "Crush & Shake", "place_id": "ChIJya7pfgUQdkgRVKrHcXNZ7ag", "types": ["point_of_interest", "establishment"], "rating": 1, "user_ratings_total": 1}, "ChIJSTtW7ggQdkgRP4Eh1F_Af5M": {"geometry": {"location": {"lat": 51.52710295010578, "lng": -0.1920808502579455}, "viewport": {"northeast": {"lat": 51.5284519302915, "lng": -0.190731869708498}, "southwest": {"lat": 51.5257539697085, "lng": -0.193429830291502}}}, "name": "117-127 Elgin Ave", "place_id": "ChIJSTtW7ggQdkgRP4Eh1F_Af5M", "types": ["route"]}, "ChIJF3YGgwgQdkgR2TiGcayMHqE": {"geometry": {"location": {"lat": 51.525564, "lng": -0.191639}, "viewport": {"northeast": {"lat": 51.52692173029151, "lng": -0.190279169708498}, "southwest": {"lat": 51.52422376970851, "lng": -0.192977130291502}}}, "name": "ubitricity Charging Station", "place_id": "ChIJF3YGgwgQdkgR2TiGcayMHqE", "types": ["point_of_interest", "establishment"]}, "ChIJDXgCKAYQdkgR09mS5moO8l4": {"geometry": {"location": {"lat": 51.525365, "lng": -0.191767}, "viewport": {"northeast": {"lat": 51.5266935302915, "lng": -0.190389569708498}, "southwest": {"lat": 51.5239955697085, "lng": -0.193087530291502}}}, "name": "ubitricity Charging Station", "place_id": "ChIJDXgCKAYQdkgR09mS5moO8l4", "types": ["point_of_interest", "establishment"]}, "ChIJq7GpfwgQdkgRaET40DHJ8Jo": {"geometry": {"location": {"lat": 51.5258553, "lng": -0.1916744}, "viewport": {"northeast": {"lat": 51.5271366802915, "lng": -0.190413419708498}, "southwest": {"lat": 51.5244387197085, "lng": -0.193111380291502}}}, "name": "LM Services", "place_id": "ChIJq7GpfwgQdkgRaET40DHJ8Jo", "types": ["accounting", "finance", "university", "point_of_interest", "establishment"]}, "ChIJjaTwLwYQdkgRz_NuGg87-hc": {"geometry": {"location": {"lat": 51.52443029999999, "lng": -0.1920341}, "viewport": {"northeast": {"lat": 51.5258313302915, "lng": -0.1905738697084979}, "southwest": {"lat": 51.5231333697085, "lng": -0.193271830291502}}}, "name": "Loft King Ltd", "place_id": "ChIJjaTwLwYQdkgRz_NuGg87-hc", "types": ["general_contractor", "point_of_interest", "establishment"], "rating": 2, "user_ratings_total": 3}, "ChIJlUYk0ggQdkgR0NsGxR8ZxIU": {"geometry": {"location": {"lat": 51.52743448919131, "lng": -0.1935732266244814}, "viewport": {"northeast": {"lat": 51.52876303029149, "lng": -0.1915704}, "southwest": {"lat": 51.5260650697085, "lng": -0.1956311999999999}}}, "name": "17-61 Widley Rd", "place_id": "ChIJlUYk0ggQdkgR0NsGxR8ZxIU", "types": ["route"]}, "ChIJC9-4wAgQdkgRyjeoVvgQCK4": {"geometry": {"location": {"lat": 51.52671435043105, "lng": -0.1929274510102914}, "viewport": {"northeast": {"lat": 51.52806333029149, "lng": -0.191578469708498}, "southwest": {"lat": 51.5253653697085, "lng": -0.194276430291502}}}, "name": "138-130 Elgin Ave", "place_id": "ChIJC9-4wAgQdkgRyjeoVvgQCK4", "types": ["route"]}, "ChIJXzuBvggQdkgRCY2Ml5KuTzo": {"geometry": {"location": {"lat": 51.5264979, "lng": -0.1930732}, "viewport": {"northeast": {"lat": 51.5279171802915, "lng": -0.191689369708498}, "southwest": {"lat": 51.5252192197085, "lng": -0.194387330291502}}}, "name": "123 Cleaners", "place_id": "ChIJXzuBvggQdkgRCY2Ml5KuTzo", "types": ["laundry", "point_of_interest", "establishment"], "rating": 3.7, "user_ratings_total": 158}, "ChIJEZI6tggQdkgRjRmXqdy6BRU": {"geometry": {"location": {"lat": 51.526628, "lng": -0.193515}, "viewport": {"northeast": {"lat": 51.52793398029149, "lng": -0.192207069708498}, "southwest": {"lat": 51.52523601970849, "lng": -0.194905030291502}}}, "name": "Dexters", "place_id": "ChIJEZI6tggQdkgRjRmXqdy6BRU", "types": ["point_of_interest", "establishment"]}, "ChIJ3TP9B5wRdkgRHh0dCSirvoU": {"geometry": {"location": {"lat": 51.52669160000001, "lng": -0.1936617}, "viewport": {"northeast": {"lat": 51.52799373029151, "lng": -0.192356469708498}, "southwest": {"lat": 51.52529576970851, "lng": -0.195054430291502}}}, "name": "Commercial Truck Jump Start Maida Hill", "place_id": "ChIJ3TP9B5wRdkgRHh0dCSirvoU", "types": ["car_repair", "point_of_interest", "establishment"]}, "ChIJnZeM2XQRdkgRiqoMC_UvZX4": {"geometry": {"location": {"lat": 51.5265751, "lng": -0.1928769}, "viewport": {"northeast": {"lat": 51.5279770302915, "lng": -0.191589969708498}, "southwest": {"lat": 51.5252790697085, "lng": -0.194287930291502}}}, "name": "Edward Ardizzone Blue Plaque", "place_id": "ChIJnZeM2XQRdkgRiqoMC_UvZX4", "types": ["point_of_interest", "establishment"], "rating": 5, "user_ratings_total": 1}, "ChIJadfHsAgQdkgR01HLtwIw7OI": {"geometry": {"location": {"lat": 51.52630600000001, "lng": -0.193379}, "viewport": {"northeast": {"lat": 51.5277294802915, "lng": -0.192098419708498}, "southwest": {"lat": 51.52503151970851, "lng": -0.194796380291502}}}, "name": "DAY TRUE", "place_id": "ChIJadfHsAgQdkgR01HLtwIw7OI", "types": ["furniture_store", "home_goods_store", "general_contractor", "point_of_interest", "store", "establishment"], "rating": 5, "user_ratings_total": 11}, "ChIJ6b2FsAgQdkgR-RKujMFHuYE": {"geometry": {"location": {"lat": 51.5262112, "lng": -0.1933174}, "viewport": {"northeast": {"lat": 51.5276280302915, "lng": -0.1918851697084979}, "southwest": {"lat": 51.5249300697085, "lng": -0.194583130291502}}}, "name": "DanteVino Ltd", "place_id": "ChIJ6b2FsAgQdkgR-RKujMFHuYE", "types": ["point_of_interest", "establishment"]}, "ChIJHznIHwYQdkgRPMsEDgwkXQ4": {"geometry": {"location": {"lat": 51.52530578742609, "lng": -0.192660726157263}, "viewport": {"northeast": {"lat": 51.52664403029149, "lng": -0.191326519708498}, "southwest": {"lat": 51.52394606970849, "lng": -0.194024480291502}}}, "name": "Thorngate Road", "place_id": "ChIJHznIHwYQdkgRPMsEDgwkXQ4", "types": ["route"]}, "ChIJaxnuqQgQdkgRP0JKxNFb-HM": {"geometry": {"location": {"lat": 51.52558310000001, "lng": -0.1929485}, "viewport": {"northeast": {"lat": 51.52689128029151, "lng": -0.191649219708498}, "southwest": {"lat": 51.52419331970851, "lng": -0.194347180291502}}}, "name": "ERH", "place_id": "ChIJaxnuqQgQdkgRP0JKxNFb-HM", "types": ["point_of_interest", "establishment"]}, "ChIJmbkPRkMRdkgRqMIIEHhG9hc": {"geometry": {"location": {"lat": 51.5246197, "lng": -0.1931123}, "viewport": {"northeast": {"lat": 51.5259774802915, "lng": -0.191774169708498}, "southwest": {"lat": 51.5232795197085, "lng": -0.194472130291502}}}, "name": "Central London Teaching School Hub", "place_id": "ChIJmbkPRkMRdkgRqMIIEHhG9hc", "types": ["point_of_interest", "establishment"]}, "ChIJb0ZUDgYQdkgROAqfWVrrSeI": {"geometry": {"location": {"lat": 51.524427, "lng": -0.1938108}, "viewport": {"northeast": {"lat": 51.52573013029149, "lng": -0.192364519708498}, "southwest": {"lat": 51.52303216970849, "lng": -0.195062480291502}}}, "name": "Lava Services", "place_id": "ChIJb0ZUDgYQdkgROAqfWVrrSeI", "types": ["point_of_interest", "establishment"]}, "ChIJs1d6Jg8QdkgR38MGsQjWkdY": {"geometry": {"location": {"lat": 51.52765455465434, "lng": -0.1949415605634744}, "viewport": {"northeast": {"lat": 51.5290024802915, "lng": -0.193588619708498}, "southwest": {"lat": 51.5263045197085, "lng": -0.196286580291502}}}, "name": "9-3 Essendine Rd", "place_id": "ChIJs1d6Jg8QdkgR38MGsQjWkdY", "types": ["route"]}, "ChIJE17-CDsRdkgRlxpHQz16AUs": {"geometry": {"location": {"lat": 51.52759769999999, "lng": -0.1950265}, "viewport": {"northeast": {"lat": 51.5289490802915, "lng": -0.1936859697084981}, "southwest": {"lat": 51.5262511197085, "lng": -0.1963839302915021}}}, "name": "By Chef Jen", "place_id": "ChIJE17-CDsRdkgRlxpHQz16AUs", "types": ["food", "point_of_interest", "establishment"], "rating": 5, "user_ratings_total": 12}, "ChIJ8XegJg8QdkgRxTRHzz36x5k": {"geometry": {"location": {"lat": 51.5275805, "lng": -0.1949037}, "viewport": {"northeast": {"lat": 51.5289412802915, "lng": -0.193593669708498}, "southwest": {"lat": 51.5262433197085, "lng": -0.196291630291502}}}, "name": "ubitricity Charging Station", "place_id": "ChIJ8XegJg8QdkgRxTRHzz36x5k", "types": ["point_of_interest", "establishment"]}, "ChIJcW9hL4oRdkgR9Zz6aDdvY1o": {"geometry": {"location": {"lat": 51.52760359999999, "lng": -0.1946989}, "viewport": {"northeast": {"lat": 51.52898568029149, "lng": -0.193465219708498}, "southwest": {"lat": 51.5262877197085, "lng": -0.196163180291502}}}, "name": "Out:Fit", "place_id": "ChIJcW9hL4oRdkgR9Zz6aDdvY1o", "types": ["health", "point_of_interest", "establishment"]}, "ChIJuaRMQQ8QdkgRXKw_xSRjpio": {"geometry": {"location": {"lat": 51.5264046, "lng": -0.1951237}, "viewport": {"northeast": {"lat": 51.5277152802915, "lng": -0.193829319708498}, "southwest": {"lat": 51.5250173197085, "lng": -0.196527280291502}}}, "name": "Byron Court", "place_id": "ChIJuaRMQQ8QdkgRXKw_xSRjpio", "types": ["primary_school", "school", "point_of_interest", "establishment"], "rating": 5, "user_ratings_total": 2}, "ChIJVVUZOQ8QdkgRbj2PoK0lq-g": {"geometry": {"location": {"lat": 51.52685899999999, "lng": -0.1950079}, "viewport": {"northeast": {"lat": 51.5281345802915, "lng": -0.1937299197084979}, "southwest": {"lat": 51.5254366197085, "lng": -0.196427880291502}}}, "name": "London School Of Journalism", "place_id": "ChIJVVUZOQ8QdkgRbj2PoK0lq-g", "types": ["point_of_interest", "establishment"]}, "ChIJNRGpUQURdkgRB23KtpPnpr8": {"geometry": {"location": {"lat": 51.52685899999999, "lng": -0.1950079}, "viewport": {"northeast": {"lat": 51.5281345802915, "lng": -0.1937299197084979}, "southwest": {"lat": 51.5254366197085, "lng": -0.196427880291502}}}, "name": "Promised Land", "place_id": "ChIJNRGpUQURdkgRB23KtpPnpr8", "types": ["electronics_store", "home_goods_store", "point_of_interest", "store", "establishment"]}, "ChIJVVUZOQ8QdkgR9NjrGwLShTM": {"geometry": {"location": {"lat": 51.52685899999999, "lng": -0.1950079}, "viewport": {"northeast": {"lat": 51.5281345802915, "lng": -0.1937299197084979}, "southwest": {"lat": 51.5254366197085, "lng": -0.196427880291502}}}, "name": "The London School of Journalism", "place_id": "ChIJVVUZOQ8QdkgR9NjrGwLShTM", "types": ["point_of_interest", "establishment"]}, "ChIJG_n7cysRdkgRqUxXa2h_o8g": {"geometry": {"location": {"lat": 51.5266679, "lng": -0.1946392}, "viewport": {"northeast": {"lat": 51.5281109302915, "lng": -0.193202669708498}, "southwest": {"lat": 51.5254129697085, "lng": -0.195900630291502}}}, "name": "Dr William Badenhorst", "place_id": "ChIJG_n7cysRdkgRqUxXa2h_o8g", "types": ["doctor", "health", "point_of_interest", "establishment"]}, "ChIJB66a8CoRdkgRtlrZ7P7iPoY": {"geometry": {"location": {"lat": 51.52688750000001, "lng": -0.1950686}, "viewport": {"northeast": {"lat": 51.5281564302915, "lng": -0.193780569708498}, "southwest": {"lat": 51.5254584697085, "lng": -0.196478530291502}}}, "name": "k1channelconsulting", "place_id": "ChIJB66a8CoRdkgRtlrZ7P7iPoY", "types": ["point_of_interest", "establishment"]}, "ChIJcfA6OQ8QdkgROebB5_mcck0": {"geometry": {"location": {"lat": 51.52688750000001, "lng": -0.1950686}, "viewport": {"northeast": {"lat": 51.5281564302915, "lng": -0.193780569708498}, "southwest": {"lat": 51.5254584697085, "lng": -0.196478530291502}}}, "name": "Capperi", "place_id": "ChIJcfA6OQ8QdkgROebB5_mcck0", "types": ["point_of_interest", "establishment"]}, "ChIJ6wDUOw8QdkgRmRwEY2b3_mM": {"geometry": {"location": {"lat": 51.5269941, "lng": -0.195042}, "viewport": {"northeast": {"lat": 51.52836818029149, "lng": -0.193672069708498}, "southwest": {"lat": 51.52567021970849, "lng": -0.196370030291502}}}, "name": "ubitricity Charging Station", "place_id": "ChIJ6wDUOw8QdkgRmRwEY2b3_mM", "types": ["point_of_interest", "establishment"]}, "ChIJbUr3XA8QdkgRKMl-3mTS55I": {"geometry": {"location": {"lat": 51.52590665019221, "lng": -0.195140450319212}, "viewport": {"northeast": {"lat": 51.5272556302915, "lng": -0.193791469708498}, "southwest": {"lat": 51.5245576697085, "lng": -0.196489430291502}}}, "name": "98-86 Elgin Ave", "place_id": "ChIJbUr3XA8QdkgRKMl-3mTS55I", "types": ["route"]}, "ChIJOXdKXA8QdkgRl17Bl1971Uo": {"geometry": {"location": {"lat": 51.5257163, "lng": -0.1952396}, "viewport": {"northeast": {"lat": 51.52712803029149, "lng": -0.193941919708498}, "southwest": {"lat": 51.52443006970849, "lng": -0.196639880291502}}}, "name": "Alex Young Recruitment Limited", "place_id": "ChIJOXdKXA8QdkgRl17Bl1971Uo", "types": ["point_of_interest", "establishment"]}, "ChIJWdcwQYMRdkgR1bq-2TYPxdA": {"geometry": {"location": {"lat": 51.5255447, "lng": -0.1956273}, "viewport": {"northeast": {"lat": 51.5269791802915, "lng": -0.194343469708498}, "southwest": {"lat": 51.5242812197085, "lng": -0.197041430291502}}}, "name": "FASCIA", "place_id": "ChIJWdcwQYMRdkgR1bq-2TYPxdA", "types": ["point_of_interest", "establishment"], "rating": 5, "user_ratings_total": 1}, "ChIJ13U9Yg8QdkgRjJU1MELJgug": {"geometry": {"location": {"lat": 51.5255525, "lng": -0.1956797}, "viewport": {"northeast": {"lat": 51.5269770302915, "lng": -0.194387569708498}, "southwest": {"lat": 51.5242790697085, "lng": -0.197085530291502}}}, "name": "Energy Strategy & Policy Consulting", "place_id": "ChIJ13U9Yg8QdkgRjJU1MELJgug", "types": ["point_of_interest", "establishment"]}, "ChIJh8QK7gUQdkgRsiDwHzW-J_k": {"geometry": {"location": {"lat": 51.52465285064023, "lng": -0.195159098483308}, "viewport": {"northeast": {"lat": 51.5260018302915, "lng": -0.193810119708498}, "southwest": {"lat": 51.5233038697085, "lng": -0.196508080291502}}}, "name": "11-31 Edbrooke Rd", "place_id": "ChIJh8QK7gUQdkgRsiDwHzW-J_k", "types": ["route"]}, "ChIJ69JNBw8QdkgRT88SJAePvow": {"geometry": {"location": {"lat": 51.5275893, "lng": -0.1970158}, "viewport": {"northeast": {"lat": 51.5289382802915, "lng": -0.1956668197084979}, "southwest": {"lat": 51.5262403197085, "lng": -0.198364780291502}}}, "name": "Momtaz Shisha Cafe", "place_id": "ChIJ69JNBw8QdkgRT88SJAePvow", "types": ["point_of_interest", "establishment"], "rating": 4, "user_ratings_total": 111}, "ChIJ19BhBw8QdkgRk0sNSWlBSGc": {"geometry": {"location": {"lat": 51.5275622, "lng": -0.1969674}, "viewport": {"northeast": {"lat": 51.5289111802915, "lng": -0.195618419708498}, "southwest": {"lat": 51.5262132197085, "lng": -0.198316380291502}}}, "name": "Mourjan", "place_id": "ChIJ19BhBw8QdkgRk0sNSWlBSGc", "types": ["restaurant", "food", "point_of_interest", "establishment"]}, "ChIJq6rfqQ8QdkgRcIgIbv_VsPc": {"geometry": {"location": {"lat": 51.5275642, "lng": -0.1969805}, "viewport": {"northeast": {"lat": 51.5289175802915, "lng": -0.195730869708498}, "southwest": {"lat": 51.5262196197085, "lng": -0.198428830291502}}}, "name": "The Vale", "place_id": "ChIJq6rfqQ8QdkgRcIgIbv_VsPc", "types": ["transit_station", "point_of_interest", "establishment"]}, "ChIJ246TqQ8QdkgRo7tkX0u3sV8": {"geometry": {"location": {"lat": 51.52751989999999, "lng": -0.1969832}, "viewport": {"northeast": {"lat": 51.52887333029149, "lng": -0.195734769708498}, "southwest": {"lat": 51.5261753697085, "lng": -0.198432730291502}}}, "name": "SULIMAN CARPET", "place_id": "ChIJ246TqQ8QdkgRo7tkX0u3sV8", "types": ["home_goods_store", "point_of_interest", "store", "establishment"], "rating": 4, "user_ratings_total": 8}, "ChIJqzm0BQ8QdkgRKXnpbHb7yh4": {"geometry": {"location": {"lat": 51.52755, "lng": -0.196505}, "viewport": {"northeast": {"lat": 51.52889873029149, "lng": -0.1951562197084979}, "southwest": {"lat": 51.5262007697085, "lng": -0.197854180291502}}}, "name": "Chippenham Road (Stop ML)", "place_id": "ChIJqzm0BQ8QdkgRKXnpbHb7yh4", "types": ["transit_station", "point_of_interest", "establishment"], "rating": 5, "user_ratings_total": 1}, "ChIJD1K2BA8QdkgR7oBWCj5ucBM": {"geometry": {"location": {"lat": 51.5276558, "lng": -0.1963598}, "viewport": {"northeast": {"lat": 51.5289534802915, "lng": -0.195024119708498}, "southwest": {"lat": 51.5262555197085, "lng": -0.197722080291502}}}, "name": "Browns", "place_id": "ChIJD1K2BA8QdkgR7oBWCj5ucBM", "types": ["pharmacy", "health", "point_of_interest", "store", "establishment"], "rating": 4, "user_ratings_total": 25}, "ChIJp5lXnw8QdkgR2Bc5OI8y5KQ": {"geometry": {"location": {"lat": 51.52654545000086, "lng": -0.1972927000394048}, "viewport": {"northeast": {"lat": 51.5278944302915, "lng": -0.195943719708498}, "southwest": {"lat": 51.5251964697085, "lng": -0.198641680291502}}}, "name": "90-96 Chippenham Rd", "place_id": "ChIJp5lXnw8QdkgR2Bc5OI8y5KQ", "types": ["route"]}, "ChIJExPpgo8RdkgRDcAK19Vpg9c": {"geometry": {"location": {"lat": 51.5267396, "lng": -0.1969068}, "viewport": {"northeast": {"lat": 51.5280964802915, "lng": -0.195738969708498}, "southwest": {"lat": 51.5253985197085, "lng": -0.198436930291502}}}, "name": "Paddington Plumbers", "place_id": "ChIJExPpgo8RdkgRDcAK19Vpg9c", "types": ["plumber", "point_of_interest", "establishment"], "rating": 5, "user_ratings_total": 1}, "ChIJ5Y3GDQ8QdkgRUUJGHIUO9pc": {"geometry": {"location": {"lat": 51.52661550000001, "lng": -0.1965182}, "viewport": {"northeast": {"lat": 51.52803428029151, "lng": -0.195104469708498}, "southwest": {"lat": 51.52533631970851, "lng": -0.197802430291502}}}, "name": "Maida Vale Singers", "place_id": "ChIJ5Y3GDQ8QdkgRUUJGHIUO9pc", "types": ["point_of_interest", "establishment"], "rating": 5, "user_ratings_total": 4}, "ChIJFWTGCQ8QdkgRXxjRrN5g79M": {"geometry": {"location": {"lat": 51.5267546, "lng": -0.1970066}, "viewport": {"northeast": {"lat": 51.5281092802915, "lng": -0.195788269708498}, "southwest": {"lat": 51.5254113197085, "lng": -0.198486230291502}}}, "name": "C & C Waste Services", "place_id": "ChIJFWTGCQ8QdkgRXxjRrN5g79M", "types": ["point_of_interest", "establishment"]}, "ChIJzW3ZoQ8QdkgR5YB4FrDwqic": {"geometry": {"location": {"lat": 51.52668689999999, "lng": -0.197208}, "viewport": {"northeast": {"lat": 51.52803668029149, "lng": -0.195877019708498}, "southwest": {"lat": 51.5253387197085, "lng": -0.198574980291502}}}, "name": "ubitricity Charging Station", "place_id": "ChIJzW3ZoQ8QdkgR5YB4FrDwqic", "types": ["point_of_interest", "establishment"]}, "ChIJE4kagA8QdkgRRH-kDIhbHiE": {"geometry": {"location": {"lat": 51.52536694334375, "lng": -0.1969631112611582}, "viewport": {"northeast": {"lat": 51.52671978029149, "lng": -0.195616669708498}, "southwest": {"lat": 51.52402181970849, "lng": -0.198314630291502}}}, "name": "59-61 Elgin Ave", "place_id": "ChIJE4kagA8QdkgRRH-kDIhbHiE", "types": ["route"]}, "ChIJEx9qfQUQdkgRTXcmdVF-0zc": {"geometry": {"location": {"lat": 51.5255071, "lng": -0.1972273}, "viewport": {"northeast": {"lat": 51.5267670302915, "lng": -0.195811019708498}, "southwest": {"lat": 51.5240690697085, "lng": -0.198508980291502}}}, "name": "PDT Enterprise", "place_id": "ChIJEx9qfQUQdkgRTXcmdVF-0zc", "types": ["point_of_interest", "establishment"], "rating": 3.9, "user_ratings_total": 10}, "ChIJ6f9FgAUQdkgRLY4xEI3oHf0": {"geometry": {"location": {"lat": 51.5252562, "lng": -0.1968381}, "viewport": {"northeast": {"lat": 51.5266654802915, "lng": -0.195534719708498}, "southwest": {"lat": 51.5239675197085, "lng": -0.198232680291502}}}, "name": "St Mungo's", "place_id": "ChIJ6f9FgAUQdkgRLY4xEI3oHf0", "types": ["point_of_interest", "establishment"], "rating": 4.5, "user_ratings_total": 4}, "ChIJmfBbhw8QdkgRnhSdky529qc": {"geometry": {"location": {"lat": 51.52561559999999, "lng": -0.1968611}, "viewport": {"northeast": {"lat": 51.52701283029149, "lng": -0.195549219708498}, "southwest": {"lat": 51.52431486970849, "lng": -0.198247180291502}}}, "name": "HR Payroll Bookkeeping", "place_id": "ChIJmfBbhw8QdkgRnhSdky529qc", "types": ["accounting", "finance", "point_of_interest", "establishment"]}, "ChIJ0R5_aA8QdkgRHi8hGKUxcgY": {"geometry": {"location": {"lat": 51.5255843, "lng": -0.1969543}, "viewport": {"northeast": {"lat": 51.5269870802915, "lng": -0.195629669708498}, "southwest": {"lat": 51.5242891197085, "lng": -0.198327630291502}}}, "name": "Educated Nannies", "place_id": "ChIJ0R5_aA8QdkgRHi8hGKUxcgY", "types": ["point_of_interest", "establishment"]}, "ChIJKx9_aA8QdkgRm3k9rwKxUHM": {"geometry": {"location": {"lat": 51.5254063, "lng": -0.1969579}, "viewport": {"northeast": {"lat": 51.5267527802915, "lng": -0.1956070697084979}, "southwest": {"lat": 51.5240548197085, "lng": -0.198305030291502}}}, "name": "Maida Vale Hypnotherapy Sean Browne", "place_id": "ChIJKx9_aA8QdkgRm3k9rwKxUHM", "types": ["health", "point_of_interest", "establishment"]}, "ChIJ09G8gQ8QdkgRSTebcFJY39M": {"geometry": {"location": {"lat": 51.5256289, "lng": -0.1968584}, "viewport": {"northeast": {"lat": 51.5270210302915, "lng": -0.195542569708498}, "southwest": {"lat": 51.52432306970851, "lng": -0.198240530291502}}}, "name": "St Peter's Church", "place_id": "ChIJ09G8gQ8QdkgRSTebcFJY39M", "types": ["church", "place_of_worship", "point_of_interest", "establishment"], "rating": 4.9, "user_ratings_total": 10}, "ChIJVfxhfw8QdkgRj6k5eFvwY_Y": {"geometry": {"location": {"lat": 51.5255843, "lng": -0.1969543}, "viewport": {"northeast": {"lat": 51.5269870802915, "lng": -0.195629669708498}, "southwest": {"lat": 51.5242891197085, "lng": -0.198327630291502}}}, "name": "Five Element Acupuncture Training (FEAT)", "place_id": "ChIJVfxhfw8QdkgRj6k5eFvwY_Y", "types": ["point_of_interest", "establishment"], "rating": 5, "user_ratings_total": 4}, "ChIJKx9_aA8QdkgRz8ZDetijcqk": {"geometry": {"location": {"lat": 51.5255843, "lng": -0.1969543}, "viewport": {"northeast": {"lat": 51.5269870802915, "lng": -0.195629669708498}, "southwest": {"lat": 51.5242891197085, "lng": -0.198327630291502}}}, "name": "London Acupuncture", "place_id": "ChIJKx9_aA8QdkgRz8ZDetijcqk", "types": ["health", "point_of_interest", "establishment"], "rating": 3.3, "user_ratings_total": 3}, "ChIJrfD-awQQdkgRr5xF7KjDJqU": {"geometry": {"location": {"lat": 51.5255618, "lng": -0.1970009}, "viewport": {"northeast": {"lat": 51.5269758302915, "lng": -0.195632169708498}, "southwest": {"lat": 51.5242778697085, "lng": -0.198330130291502}}}, "name": "Paddington Development Trust", "place_id": "ChIJrfD-awQQdkgRr5xF7KjDJqU", "types": ["point_of_interest", "establishment"], "rating": 5, "user_ratings_total": 1}, "ChIJeSnPfw8QdkgRPdYIILcFo-Y": {"geometry": {"location": {"lat": 51.5253928, "lng": -0.196796}, "viewport": {"northeast": {"lat": 51.5267738802915, "lng": -0.195471969708498}, "southwest": {"lat": 51.5240759197085, "lng": -0.198169930291502}}}, "name": "ubitricity Charging Station", "place_id": "ChIJeSnPfw8QdkgRPdYIILcFo-Y", "types": ["point_of_interest", "establishment"]}, "ChIJDSISfA8QdkgRnpdwBS0hpEk": {"geometry": {"location": {"lat": 51.5256575, "lng": -0.196529}, "viewport": {"northeast": {"lat": 51.5270778802915, "lng": -0.195234919708498}, "southwest": {"lat": 51.52437991970851, "lng": -0.197932880291502}}}, "name": "Ernest Harriss House", "place_id": "ChIJDSISfA8QdkgRnpdwBS0hpEk", "types": ["health", "point_of_interest", "establishment"], "rating": 4.7, "user_ratings_total": 3}, "ChIJPQIL2foRdkgRNtLyCdReFOU": {"geometry": {"location": {"lat": 51.52548710000001, "lng": -0.1971349}, "viewport": {"northeast": {"lat": 51.5267662802915, "lng": -0.195733169708498}, "southwest": {"lat": 51.5240683197085, "lng": -0.198431130291502}}}, "name": "Begna London", "place_id": "ChIJPQIL2foRdkgRNtLyCdReFOU", "types": ["jewelry_store", "point_of_interest", "store", "establishment"], "rating": 5, "user_ratings_total": 1}, "ChIJN-8S3rERdkgRWWizYe0ZH4w": {"geometry": {"location": {"lat": 51.52480250000001, "lng": -0.1967391}, "viewport": {"northeast": {"lat": 51.52611473029151, "lng": -0.195433719708498}, "southwest": {"lat": 51.52341676970851, "lng": -0.198131680291502}}}, "name": "The Vale Aesthetics", "place_id": "ChIJN-8S3rERdkgRWWizYe0ZH4w", "types": ["point_of_interest", "establishment"], "rating": 5, "user_ratings_total": 9}, "ChIJWRL8ggUQdkgREXSHqP7v68Y": {"geometry": {"location": {"lat": 51.52483899999999, "lng": -0.1967853}, "viewport": {"northeast": {"lat": 51.5261343802915, "lng": -0.195499169708498}, "southwest": {"lat": 51.5234364197085, "lng": -0.1981971302915021}}}, "name": "R O H Architects", "place_id": "ChIJWRL8ggUQdkgREXSHqP7v68Y", "types": ["point_of_interest", "establishment"]}}}