{"E00023481": {"ChIJAQ0WRwIQdkgRvkhH9hCPzu8": {"geometry": {"location": {"lat": 51.51657624975622, "lng": -0.1955082491171064}, "viewport": {"northeast": {"lat": 51.51837775000004, "lng": -0.194159269708498}, "southwest": {"lat": 51.51477474999996, "lng": -0.196857230291502}}}, "name": "7-61 Chepstow Rd", "place_id": "ChIJAQ0WRwIQdkgRvkhH9hCPzu8", "types": ["route"]}, "ChIJXXLCEwIQdkgRGiMHQ_ynPfw": {"geometry": {"location": {"lat": 51.5158417, "lng": -0.1951265}, "viewport": {"northeast": {"lat": 51.5171801302915, "lng": -0.193847469708498}, "southwest": {"lat": 51.5144821697085, "lng": -0.196545430291502}}}, "name": "Tawana Oriental Supermarket", "place_id": "ChIJXXLCEwIQdkgRGiMHQ_ynPfw", "types": ["supermarket", "grocery_or_supermarket", "food", "point_of_interest", "store", "establishment"], "rating": 3.8, "user_ratings_total": 195}, "ChIJx3S5EwIQdkgRYwfbiCRrTZI": {"geometry": {"location": {"lat": 51.5157309, "lng": -0.1951293}, "viewport": {"northeast": {"lat": 51.5170891802915, "lng": -0.193835519708498}, "southwest": {"lat": 51.51439121970851, "lng": -0.196533480291502}}}, "name": "Om Thai Massage & Spa", "place_id": "ChIJx3S5EwIQdkgRYwfbiCRrTZI", "types": ["point_of_interest", "establishment"], "rating": 4.4, "user_ratings_total": 81}, "ChIJ17gaEuQadkgR_6RLew8NKMw": {"geometry": {"location": {"lat": 51.51564399999999, "lng": -0.1951099}, "viewport": {"northeast": {"lat": 51.5169868802915, "lng": -0.1938056197084979}, "southwest": {"lat": 51.51428891970851, "lng": -0.196503580291502}}}, "name": "The Frankincense Store", "place_id": "ChIJ17gaEuQadkgR_6RLew8NKMw", "types": ["health", "point_of_interest", "store", "establishment"], "rating": 4.8, "user_ratings_total": 48}, "ChIJWZAGEwIQdkgRIgc7ZyTSojI": {"geometry": {"location": {"lat": 51.51571370000001, "lng": -0.19512}, "viewport": {"northeast": {"lat": 51.5170559802915, "lng": -0.193824969708498}, "southwest": {"lat": 51.5143580197085, "lng": -0.196522930291502}}}, "name": "Barrecore Notting Hill", "place_id": "ChIJWZAGEwIQdkgRIgc7ZyTSojI", "types": ["gym", "health", "point_of_interest", "establishment"], "rating": 4.4, "user_ratings_total": 37}, "ChIJrWXMFAIQdkgREV3WZqF_fmw": {"geometry": {"location": {"lat": 51.5159637, "lng": -0.1954057}, "viewport": {"northeast": {"lat": 51.51731798029149, "lng": -0.194011669708498}, "southwest": {"lat": 51.5146200197085, "lng": -0.196709630291502}}}, "name": "ubitricity Charging Station", "place_id": "ChIJrWXMFAIQdkgREV3WZqF_fmw", "types": ["point_of_interest", "establishment"]}, "ChIJqRxRPgIQdkgRQOlWU3hQSpE": {"geometry": {"location": {"lat": 51.516296, "lng": -0.1952}, "viewport": {"northeast": {"lat": 51.5176319302915, "lng": -0.193956119708498}, "southwest": {"lat": 51.5149339697085, "lng": -0.196654080291502}}}, "name": "SUNVIS SYSTEMS", "place_id": "ChIJqRxRPgIQdkgRQOlWU3hQSpE", "types": ["point_of_interest", "establishment"]}, "ChIJXWuqFAIQdkgRYLBqK5PHqCI": {"geometry": {"location": {"lat": 51.515835, "lng": -0.195397}, "viewport": {"northeast": {"lat": 51.5171866302915, "lng": -0.193985869708498}, "southwest": {"lat": 51.5144886697085, "lng": -0.196683830291502}}}, "name": "Artesian Road (Stop PC)", "place_id": "ChIJXWuqFAIQdkgRYLBqK5PHqCI", "types": ["transit_station", "point_of_interest", "establishment"]}, "ChIJtVmHQjQRdkgR-Gr82UjZDIE": {"geometry": {"location": {"lat": 51.5158827, "lng": -0.1951497}, "viewport": {"northeast": {"lat": 51.5172235302915, "lng": -0.193866419708498}, "southwest": {"lat": 51.5145255697085, "lng": -0.196564380291502}}}, "name": "RE:NU DENTAL & MEDISPA - Aesthetics Clinic & Dentist Notting Hill, West London", "place_id": "ChIJtVmHQjQRdkgR-Gr82UjZDIE", "types": ["beauty_salon", "dentist", "spa", "doctor", "health", "point_of_interest", "establishment"], "rating": 5, "user_ratings_total": 39}, "ChIJyxYVTikRdkgRJIrEeu-KgUE": {"geometry": {"location": {"lat": 51.51575, "lng": -0.1951037}, "viewport": {"northeast": {"lat": 51.51709063029151, "lng": -0.193822119708498}, "southwest": {"lat": 51.51439266970851, "lng": -0.196520080291502}}}, "name": "Diesel Pro", "place_id": "ChIJyxYVTikRdkgRJIrEeu-KgUE", "types": ["school", "point_of_interest", "establishment"]}, "ChIJ70nGEwIQdkgR--hmYYtxFaE": {"geometry": {"location": {"lat": 51.5157136, "lng": -0.1951239}, "viewport": {"northeast": {"lat": 51.5170561302915, "lng": -0.193827019708498}, "southwest": {"lat": 51.5143581697085, "lng": -0.196524980291502}}}, "name": "Barre Toned", "place_id": "ChIJ70nGEwIQdkgR--hmYYtxFaE", "types": ["point_of_interest", "establishment"]}, "ChIJ___QEwIQdkgRZUlx1Oi8cew": {"geometry": {"location": {"lat": 51.5156981, "lng": -0.1950794}, "viewport": {"northeast": {"lat": 51.5170382802915, "lng": -0.193801519708498}, "southwest": {"lat": 51.5143403197085, "lng": -0.196499480291502}}}, "name": "Legs", "place_id": "ChIJ___QEwIQdkgRZUlx1Oi8cew", "types": ["point_of_interest", "establishment"]}, "ChIJ026GMpURdkgRRLYpOqNcssU": {"geometry": {"location": {"lat": 51.5157497, "lng": -0.1948307}, "viewport": {"northeast": {"lat": 51.51710783029149, "lng": -0.193396169708498}, "southwest": {"lat": 51.5144098697085, "lng": -0.196094130291502}}}, "name": "Float", "place_id": "ChIJ026GMpURdkgRRLYpOqNcssU", "types": ["doctor", "health", "point_of_interest", "establishment"]}, "ChIJzRzsCAIQdkgRu4ZO20Tnihc": {"geometry": {"location": {"lat": 51.51508432629065, "lng": -0.1947665077090817}, "viewport": {"northeast": {"lat": 51.5164285302915, "lng": -0.193415319708498}, "southwest": {"lat": 51.51373056970851, "lng": -0.196113280291502}}}, "name": "112-110 A4206", "place_id": "ChIJzRzsCAIQdkgRu4ZO20Tnihc", "types": ["route"]}, "ChIJS1AMDQIQdkgR1mYGlnSPvKs": {"geometry": {"location": {"lat": 51.5154103, "lng": -0.195318}, "viewport": {"northeast": {"lat": 51.5167791302915, "lng": -0.193881169708498}, "southwest": {"lat": 51.5140811697085, "lng": -0.196579130291502}}}, "name": "Infusion Haberdashery & Party Shop", "place_id": "ChIJS1AMDQIQdkgR1mYGlnSPvKs", "types": ["laundry", "home_goods_store", "point_of_interest", "store", "establishment"], "rating": 4.2, "user_ratings_total": 70}, "ChIJ8bckdgIQdkgRb1f7eGiCZeI": {"geometry": {"location": {"lat": 51.514834, "lng": -0.196085}, "viewport": {"northeast": {"lat": 51.5162245802915, "lng": -0.194748969708498}, "southwest": {"lat": 51.5135266197085, "lng": -0.197446930291502}}}, "name": "Taqueria", "place_id": "ChIJ8bckdgIQdkgRb1f7eGiCZeI", "types": ["restaurant", "food", "point_of_interest", "establishment"], "rating": 4.2, "user_ratings_total": 905}, "ChIJrUmc9v0PdkgRchHJX7aAFFI": {"geometry": {"location": {"lat": 51.514692, "lng": -0.1951163}, "viewport": {"northeast": {"lat": 51.5159745802915, "lng": -0.193673169708498}, "southwest": {"lat": 51.5132766197085, "lng": -0.1963711302915021}}}, "name": "Chepstow Cars Ltd", "place_id": "ChIJrUmc9v0PdkgRchHJX7aAFFI", "types": ["point_of_interest", "establishment"], "rating": 2.8, "user_ratings_total": 19}, "ChIJ-ZstCAIQdkgRdRcFAICLpYU": {"geometry": {"location": {"lat": 51.5149094, "lng": -0.1947089}, "viewport": {"northeast": {"lat": 51.51615243029149, "lng": -0.193466369708498}, "southwest": {"lat": 51.5134544697085, "lng": -0.196164330291502}}}, "name": "Space NK Westbourne Grove", "place_id": "ChIJ-ZstCAIQdkgRdRcFAICLpYU", "types": ["point_of_interest", "store", "establishment"], "rating": 4.1, "user_ratings_total": 51}, "ChIJwwZ7dQIQdkgRAO6Fi_WPh_w": {"geometry": {"location": {"lat": 51.5148744, "lng": -0.1955558}, "viewport": {"northeast": {"lat": 51.51627628029149, "lng": -0.194223319708498}, "southwest": {"lat": 51.51357831970849, "lng": -0.196921280291502}}}, "name": "Keith Baugh", "place_id": "ChIJwwZ7dQIQdkgRAO6Fi_WPh_w", "types": ["point_of_interest", "establishment"]}, "ChIJxTV8dQIQdkgRCSbh5yXq-0o": {"geometry": {"location": {"lat": 51.5148565, "lng": -0.1955629}, "viewport": {"northeast": {"lat": 51.5162665802915, "lng": -0.194232969708498}, "southwest": {"lat": 51.5135686197085, "lng": -0.196930930291502}}}, "name": "Form & Content Productions", "place_id": "ChIJxTV8dQIQdkgRCSbh5yXq-0o", "types": ["point_of_interest", "establishment"]}, "ChIJA24Giv0PdkgRlnqS01Vv7mQ": {"geometry": {"location": {"lat": 51.5148269, "lng": -0.1957363}, "viewport": {"northeast": {"lat": 51.51609393029149, "lng": -0.194274719708498}, "southwest": {"lat": 51.5133959697085, "lng": -0.196972680291502}}}, "name": "Miolabs", "place_id": "ChIJA24Giv0PdkgRlnqS01Vv7mQ", "types": ["point_of_interest", "establishment"]}, "ChIJh0fMDgIQdkgR4Bz4JuOAgKo": {"geometry": {"location": {"lat": 51.51519010000001, "lng": -0.1949183}, "viewport": {"northeast": {"lat": 51.51658288029151, "lng": -0.193650419708498}, "southwest": {"lat": 51.51388491970851, "lng": -0.196348380291502}}}, "name": "Maddox Gallery - Westbourne Grove", "place_id": "ChIJh0fMDgIQdkgR4Bz4JuOAgKo", "types": ["art_gallery", "point_of_interest", "establishment"], "rating": 4.5, "user_ratings_total": 53}, "ChIJtfsSi_0PdkgRASxtu4dbli4": {"geometry": {"location": {"lat": 51.51467579999999, "lng": -0.1951907}, "viewport": {"northeast": {"lat": 51.5160447802915, "lng": -0.193915219708498}, "southwest": {"lat": 51.5133468197085, "lng": -0.196613180291502}}}, "name": "Seen Design Concrete", "place_id": "ChIJtfsSi_0PdkgRASxtu4dbli4", "types": ["home_goods_store", "point_of_interest", "store", "establishment"], "rating": 3.7, "user_ratings_total": 6}, "ChIJe7gN9P0PdkgRGvrIixKR__U": {"geometry": {"location": {"lat": 51.514594, "lng": -0.19524}, "viewport": {"northeast": {"lat": 51.5160040802915, "lng": -0.193976769708498}, "southwest": {"lat": 51.5133061197085, "lng": -0.196674730291502}}}, "name": "Westbourne Grove Dental and Implant centre", "place_id": "ChIJe7gN9P0PdkgRGvrIixKR__U", "types": ["dentist", "health", "point_of_interest", "establishment"], "rating": 4.9, "user_ratings_total": 50}, "ChIJxbERCAIQdkgRbwqJE082IQo": {"geometry": {"location": {"lat": 51.51489960000001, "lng": -0.1947257}, "viewport": {"northeast": {"lat": 51.5161563302915, "lng": -0.193501819708498}, "southwest": {"lat": 51.5134583697085, "lng": -0.196199780291502}}}, "name": "Margaret Dabbs London", "place_id": "ChIJxbERCAIQdkgRbwqJE082IQo", "types": ["beauty_salon", "doctor", "health", "point_of_interest", "establishment"], "rating": 4.6, "user_ratings_total": 16}, "ChIJI18LDgIQdkgRP96HTPb8ml0": {"geometry": {"location": {"lat": 51.51538009999999, "lng": -0.1949047}, "viewport": {"northeast": {"lat": 51.5167158302915, "lng": -0.193658419708498}, "southwest": {"lat": 51.5140178697085, "lng": -0.196356380291502}}}, "name": "1st Call Detectives", "place_id": "ChIJI18LDgIQdkgRP96HTPb8ml0", "types": ["point_of_interest", "establishment"], "rating": 5, "user_ratings_total": 4}, "ChIJe7gN9P0PdkgRwkNYk0P4i7Y": {"geometry": {"location": {"lat": 51.5146567, "lng": -0.1951588}, "viewport": {"northeast": {"lat": 51.5160461302915, "lng": -0.193899269708498}, "southwest": {"lat": 51.5133481697085, "lng": -0.196597230291502}}}, "name": "Farrow & Ball Notting Hill Showroom", "place_id": "ChIJe7gN9P0PdkgRwkNYk0P4i7Y", "types": ["home_goods_store", "point_of_interest", "store", "establishment"], "rating": 4.2, "user_ratings_total": 41}, "ChIJ8Tpv9v0PdkgRlEUqxCXctB8": {"geometry": {"location": {"lat": 51.51458079999999, "lng": -0.1954134}, "viewport": {"northeast": {"lat": 51.5159685302915, "lng": -0.194079819708498}, "southwest": {"lat": 51.5132705697085, "lng": -0.1967777802915021}}}, "name": "Gotham", "place_id": "ChIJ8Tpv9v0PdkgRlEUqxCXctB8", "types": ["general_contractor", "point_of_interest", "establishment"], "rating": 3.3, "user_ratings_total": 3}, "ChIJzxQUeQIQdkgRxmwn8LA7KNA": {"geometry": {"location": {"lat": 51.51515199999999, "lng": -0.1957182}, "viewport": {"northeast": {"lat": 51.5164106302915, "lng": -0.194341069708498}, "southwest": {"lat": 51.5137126697085, "lng": -0.197039030291502}}}, "name": "Dexters Westbourne Grove Estate Agents", "place_id": "ChIJzxQUeQIQdkgRxmwn8LA7KNA", "types": ["finance", "real_estate_agency", "point_of_interest", "establishment"], "rating": 4.9, "user_ratings_total": 240}, "ChIJu0NT8f0PdkgRNvD-81i1r_0": {"geometry": {"location": {"lat": 51.5146707, "lng": -0.1952200000000001}, "viewport": {"northeast": {"lat": 51.5160394802915, "lng": -0.193929869708498}, "southwest": {"lat": 51.5133415197085, "lng": -0.1966278302915021}}}, "name": "Seen Photo", "place_id": "ChIJu0NT8f0PdkgRNvD-81i1r_0", "types": ["point_of_interest", "establishment"], "rating": 3.3, "user_ratings_total": 3}, "ChIJ77SjdAIQdkgRrBjy_aCdZcE": {"geometry": {"location": {"lat": 51.51513250000001, "lng": -0.1956053}, "viewport": {"northeast": {"lat": 51.5164071302915, "lng": -0.194233169708498}, "southwest": {"lat": 51.51370916970851, "lng": -0.1969311302915021}}}, "name": "West Grove Cafe", "place_id": "ChIJ77SjdAIQdkgRrBjy_aCdZcE", "types": ["cafe", "food", "point_of_interest", "establishment"], "rating": 3.8, "user_ratings_total": 86}, "ChIJL7Z6dQIQdkgR3rZaSVMQ3Xo": {"geometry": {"location": {"lat": 51.5148812, "lng": -0.1955473}, "viewport": {"northeast": {"lat": 51.5162802802915, "lng": -0.1942139197084979}, "southwest": {"lat": 51.5135823197085, "lng": -0.196911880291502}}}, "name": "Opt Media", "place_id": "ChIJL7Z6dQIQdkgR3rZaSVMQ3Xo", "types": ["point_of_interest", "establishment"]}, "ChIJXSieDAIQdkgR-tDxmAtpWTw": {"geometry": {"location": {"lat": 51.5151746, "lng": -0.1953034}, "viewport": {"northeast": {"lat": 51.5164485302915, "lng": -0.193908869708498}, "southwest": {"lat": 51.5137505697085, "lng": -0.196606830291502}}}, "name": "Carter Jonas", "place_id": "ChIJXSieDAIQdkgR-tDxmAtpWTw", "types": ["real_estate_agency", "point_of_interest", "establishment"]}, "ChIJedviyDERdkgR3XWtHE-hbrs": {"geometry": {"location": {"lat": 51.51515389999999, "lng": -0.1952581}, "viewport": {"northeast": {"lat": 51.5164374302915, "lng": -0.193894469708498}, "southwest": {"lat": 51.5137394697085, "lng": -0.196592430291502}}}, "name": "Manikur", "place_id": "ChIJedviyDERdkgR3XWtHE-hbrs", "types": ["beauty_salon", "point_of_interest", "establishment"]}, "ChIJO8vsdQIQdkgR4RWJwYT8r_4": {"geometry": {"location": {"lat": 51.5148733, "lng": -0.1956699}, "viewport": {"northeast": {"lat": 51.51626908029151, "lng": -0.194335469708498}, "southwest": {"lat": 51.51357111970851, "lng": -0.197033430291502}}}, "name": "Objects Of Desire", "place_id": "ChIJO8vsdQIQdkgR4RWJwYT8r_4", "types": ["art_gallery", "point_of_interest", "establishment"]}, "ChIJxc-DCwIQdkgRqGv70fa3VE0": {"geometry": {"location": {"lat": 51.5151768, "lng": -0.1952131}, "viewport": {"northeast": {"lat": 51.5164510302915, "lng": -0.193861569708498}, "southwest": {"lat": 51.51375306970851, "lng": -0.196559530291502}}}, "name": "Le Beauty Boudoir", "place_id": "ChIJxc-DCwIQdkgRqGv70fa3VE0", "types": ["point_of_interest", "establishment"]}, "ChIJAxIJdgIQdkgRjz0Pg-AsUs0": {"geometry": {"location": {"lat": 51.51489600000001, "lng": -0.195794}, "viewport": {"northeast": {"lat": 51.51626943029151, "lng": -0.194460569708498}, "southwest": {"lat": 51.51357146970851, "lng": -0.197158530291502}}}, "name": "Chepstow Road (Stop PM)", "place_id": "ChIJAxIJdgIQdkgRjz0Pg-AsUs0", "types": ["bus_station", "transit_station", "point_of_interest", "establishment"]}, "ChIJI-Aai_0PdkgRdkvbvf40Wu0": {"geometry": {"location": {"lat": 51.51464999999999, "lng": -0.1955375}, "viewport": {"northeast": {"lat": 51.51602233029149, "lng": -0.194220619708498}, "southwest": {"lat": 51.51332436970849, "lng": -0.196918580291502}}}, "name": "Pembridge VillasWestbourne Gr", "place_id": "ChIJI-Aai_0PdkgRdkvbvf40Wu0", "types": ["transit_station", "point_of_interest", "establishment"]}, "ChIJh0fMDgIQdkgR2kgonV08_EE": {"geometry": {"location": {"lat": 51.51519010000001, "lng": -0.1949183}, "viewport": {"northeast": {"lat": 51.5165711302915, "lng": -0.193634369708498}, "southwest": {"lat": 51.5138731697085, "lng": -0.196332330291502}}}, "name": "Averys Property Management", "place_id": "ChIJh0fMDgIQdkgR2kgonV08_EE", "types": ["point_of_interest", "establishment"]}, "ChIJqbNOm6ARdkgRbSmVf7lTZe0": {"geometry": {"location": {"lat": 51.5152137, "lng": -0.1949305}, "viewport": {"northeast": {"lat": 51.51658323029149, "lng": -0.193644669708498}, "southwest": {"lat": 51.5138852697085, "lng": -0.196342630291502}}}, "name": "Maddox Gallery", "place_id": "ChIJqbNOm6ARdkgRbSmVf7lTZe0", "types": ["museum", "point_of_interest", "establishment"]}, "ChIJz47FWMsFdkgR44l9erunuAA": {"geometry": {"location": {"lat": 51.5147413, "lng": -0.1950617}, "viewport": {"northeast": {"lat": 51.5159943802915, "lng": -0.193652369708498}, "southwest": {"lat": 51.5132964197085, "lng": -0.196350330291502}}}, "name": "Arcvelop", "place_id": "ChIJz47FWMsFdkgR44l9erunuAA", "types": ["finance", "point_of_interest", "establishment"], "rating": 5, "user_ratings_total": 7}, "ChIJy3HvdwIQdkgRf2JImxvdudU": {"geometry": {"location": {"lat": 51.51488860000001, "lng": -0.1960834}, "viewport": {"northeast": {"lat": 51.5162373802915, "lng": -0.194734369708498}, "southwest": {"lat": 51.5135394197085, "lng": -0.197432330291502}}}, "name": "Zipcar", "place_id": "ChIJy3HvdwIQdkgRf2JImxvdudU", "types": ["car_rental", "point_of_interest", "establishment"]}, "ChIJOys6Cq0PdkgR8xYnkVb3a2A": {"geometry": {"location": {"lat": 51.514692, "lng": -0.1951163}, "viewport": {"northeast": {"lat": 51.51605308029151, "lng": -0.193673169708498}, "southwest": {"lat": 51.51335511970851, "lng": -0.1963711302915021}}}, "name": "House of Saab", "place_id": "ChIJOys6Cq0PdkgR8xYnkVb3a2A", "types": ["health", "point_of_interest", "establishment"]}, "ChIJo-tR7bgPdkgRrkO-fSQ3gGw": {"geometry": {"location": {"lat": 51.5147285, "lng": -0.1959231}, "viewport": {"northeast": {"lat": 51.5159973802915, "lng": -0.194451069708498}, "southwest": {"lat": 51.5132994197085, "lng": -0.197149030291502}}}, "name": "Amzolor Translation", "place_id": "ChIJo-tR7bgPdkgRrkO-fSQ3gGw", "types": ["point_of_interest", "establishment"]}, "ChIJ8YA4DgIQdkgRYiv3ErU_NsA": {"geometry": {"location": {"lat": 51.515317, "lng": -0.194976}, "viewport": {"northeast": {"lat": 51.5166932302915, "lng": -0.193694819708498}, "southwest": {"lat": 51.5139952697085, "lng": -0.196392780291502}}}, "name": "STIL Salon", "place_id": "ChIJ8YA4DgIQdkgRYiv3ErU_NsA", "types": ["hair_care", "point_of_interest", "establishment"], "rating": 4.9, "user_ratings_total": 68}, "ChIJTRnG9P0PdkgRCW5JrGCfMsY": {"geometry": {"location": {"lat": 51.5146051, "lng": -0.1953246}, "viewport": {"northeast": {"lat": 51.51600098029149, "lng": -0.194035119708498}, "southwest": {"lat": 51.51330301970849, "lng": -0.196733080291502}}}, "name": "Viscount Court", "place_id": "ChIJTRnG9P0PdkgRCW5JrGCfMsY", "types": ["point_of_interest", "establishment"]}, "ChIJrU5Ai_0PdkgRvDDES2Eag4Y": {"geometry": {"location": {"lat": 51.51458699999999, "lng": -0.19549}, "viewport": {"northeast": {"lat": 51.5159611802915, "lng": -0.1941756197084979}, "southwest": {"lat": 51.5132632197085, "lng": -0.196873580291502}}}, "name": "Westbourne Grove (Stop PW)", "place_id": "ChIJrU5Ai_0PdkgRvDDES2Eag4Y", "types": ["transit_station", "point_of_interest", "establishment"], "rating": 5, "user_ratings_total": 1}, "ChIJJTNIdgIQdkgRtE1mpWm5I8U": {"geometry": {"location": {"lat": 51.51482889999999, "lng": -0.1961543}, "viewport": {"northeast": {"lat": 51.51621788029149, "lng": -0.194817769708498}, "southwest": {"lat": 51.51351991970849, "lng": -0.197515730291502}}}, "name": "Jusu Brothers", "place_id": "ChIJJTNIdgIQdkgRtE1mpWm5I8U", "types": ["cafe", "restaurant", "food", "point_of_interest", "store", "establishment"], "rating": 4.2, "user_ratings_total": 288}, "ChIJ22d6qr8RdkgRbOrhXVqhy4U": {"geometry": {"location": {"lat": 51.51542689999999, "lng": -0.1950002}, "viewport": {"northeast": {"lat": 51.51674818029149, "lng": -0.193715619708498}, "southwest": {"lat": 51.5140502197085, "lng": -0.196413580291502}}}, "name": "Pera Studios", "place_id": "ChIJ22d6qr8RdkgRbOrhXVqhy4U", "types": ["furniture_store", "art_gallery", "home_goods_store", "point_of_interest", "store", "establishment"], "rating": 5, "user_ratings_total": 2}, "ChIJG1pFbgIQdkgRTsp_FP8Ii3A": {"geometry": {"location": {"lat": 51.5155048, "lng": -0.1957595}, "viewport": {"northeast": {"lat": 51.5169221302915, "lng": -0.194421219708498}, "southwest": {"lat": 51.51422416970851, "lng": -0.197119180291502}}}, "name": "DigitalPeo", "place_id": "ChIJG1pFbgIQdkgRTsp_FP8Ii3A", "types": ["point_of_interest", "establishment"], "rating": 5, "user_ratings_total": 1}, "ChIJn7SKDQIQdkgRnZrPRAAay8E": {"geometry": {"location": {"lat": 51.515499, "lng": -0.195136}, "viewport": {"northeast": {"lat": 51.51685163029149, "lng": -0.193759169708498}, "southwest": {"lat": 51.5141536697085, "lng": -0.196457130291502}}}, "name": "Westbourne Grove (Stop Z)", "place_id": "ChIJn7SKDQIQdkgRnZrPRAAay8E", "types": ["transit_station", "point_of_interest", "establishment"]}, "ChIJW6Oxu5EPdkgRb-w972JtetY": {"geometry": {"location": {"lat": 51.5147863, "lng": -0.1962477}, "viewport": {"northeast": {"lat": 51.51619038029149, "lng": -0.1949158697084979}, "southwest": {"lat": 51.5134924197085, "lng": -0.197613830291502}}}, "name": "Design Your Vision Photography Studio", "place_id": "ChIJW6Oxu5EPdkgRb-w972JtetY", "types": ["point_of_interest", "establishment"], "rating": 5, "user_ratings_total": 1}, "ChIJX3WqquUPdkgRPjqAXG_UaWw": {"geometry": {"location": {"lat": 51.5147863, "lng": -0.1962477}, "viewport": {"northeast": {"lat": 51.51619038029149, "lng": -0.1949158697084979}, "southwest": {"lat": 51.5134924197085, "lng": -0.197613830291502}}}, "name": "Design Your Vision", "place_id": "ChIJX3WqquUPdkgRPjqAXG_UaWw", "types": ["point_of_interest", "establishment"], "rating": 5, "user_ratings_total": 3}, "ChIJN52ai_0PdkgRN8cs8JUeLDg": {"geometry": {"location": {"lat": 51.51458494593066, "lng": -0.1956490296411184}, "viewport": {"northeast": {"lat": 51.51592273029151, "lng": -0.1942844697084979}, "southwest": {"lat": 51.51322476970851, "lng": -0.196982430291502}}}, "name": "1-7 A4206", "place_id": "ChIJN52ai_0PdkgRN8cs8JUeLDg", "types": ["route"]}, "ChIJhyFTHhAPdkgRXF0mCwuuxaU": {"geometry": {"location": {"lat": 51.51418229999999, "lng": -0.1949387}, "viewport": {"northeast": {"lat": 51.5155408802915, "lng": -0.193498869708498}, "southwest": {"lat": 51.5128429197085, "lng": -0.1961968302915021}}}, "name": "Enterprise Car Club - 8 Chepstow Place London W2 4TA", "place_id": "ChIJhyFTHhAPdkgRXF0mCwuuxaU", "types": ["car_rental", "point_of_interest", "establishment"]}, "ChIJORxq9AIQdkgRWANDO3lB9iY": {"geometry": {"location": {"lat": 51.5163818023455, "lng": -0.1971526479499646}, "viewport": {"northeast": {"lat": 51.51801245000004, "lng": -0.195805719708498}, "southwest": {"lat": 51.51475064999998, "lng": -0.198503680291502}}}, "name": "17-40 Sutherland Pl", "place_id": "ChIJORxq9AIQdkgRWANDO3lB9iY", "types": ["route"]}, "ChIJRRxq9AIQdkgRS1mlS9xHPDQ": {"geometry": {"location": {"lat": 51.51638330000001, "lng": -0.19717}, "viewport": {"northeast": {"lat": 51.51772828029149, "lng": -0.195853319708498}, "southwest": {"lat": 51.51503031970849, "lng": -0.198551280291502}}}, "name": "Sally Osullivan Psychotherapy", "place_id": "ChIJRRxq9AIQdkgRS1mlS9xHPDQ", "types": ["health", "point_of_interest", "establishment"]}, "ChIJ893VjQIQdkgRq6NFJrjCm_Q": {"geometry": {"location": {"lat": 51.5158294, "lng": -0.1974585}, "viewport": {"northeast": {"lat": 51.5170987302915, "lng": -0.196090269708498}, "southwest": {"lat": 51.5144007697085, "lng": -0.198788230291502}}}, "name": "Barre&Baby", "place_id": "ChIJ893VjQIQdkgRq6NFJrjCm_Q", "types": ["point_of_interest", "establishment"], "rating": 5, "user_ratings_total": 7}, "ChIJ5VHakAIQdkgR5tjjCt5PwgA": {"geometry": {"location": {"lat": 51.5157037, "lng": -0.1973106}, "viewport": {"northeast": {"lat": 51.51705073029149, "lng": -0.196021069708498}, "southwest": {"lat": 51.51435276970849, "lng": -0.198719030291502}}}, "name": "Cherry Tree Pre-nursery", "place_id": "ChIJ5VHakAIQdkgR5tjjCt5PwgA", "types": ["school", "point_of_interest", "establishment"]}, "ChIJCfvV9QIQdkgR6NG-joxNysQ": {"geometry": {"location": {"lat": 51.5164888, "lng": -0.1970105}, "viewport": {"northeast": {"lat": 51.5178271802915, "lng": -0.195745869708498}, "southwest": {"lat": 51.5151292197085, "lng": -0.198443830291502}}}, "name": "Laurence Brown Solicitor", "place_id": "ChIJCfvV9QIQdkgR6NG-joxNysQ", "types": ["point_of_interest", "establishment"]}, "ChIJObx_jgIQdkgR9f8buBUZi1w": {"geometry": {"location": {"lat": 51.5156989, "lng": -0.1971884}, "viewport": {"northeast": {"lat": 51.51705073029149, "lng": -0.195959969708498}, "southwest": {"lat": 51.51435276970849, "lng": -0.198657930291502}}}, "name": "St Mary of the Angels Catholic Church, Notting Hill", "place_id": "ChIJObx_jgIQdkgR9f8buBUZi1w", "types": ["church", "place_of_worship", "point_of_interest", "establishment"], "rating": 4.7, "user_ratings_total": 73}, "ChIJOVdiYgIQdkgRTzFccPY_Nlw": {"geometry": {"location": {"lat": 51.5157184, "lng": -0.1966266}, "viewport": {"northeast": {"lat": 51.51700158029149, "lng": -0.195267069708498}, "southwest": {"lat": 51.51430361970849, "lng": -0.197965030291502}}}, "name": "Ana Ruivo", "place_id": "ChIJOVdiYgIQdkgRTzFccPY_Nlw", "types": ["point_of_interest", "establishment"], "rating": 5, "user_ratings_total": 10}, "ChIJS38UigIQdkgRT7MRxM53hnY": {"geometry": {"location": {"lat": 51.515899, "lng": -0.196956}, "viewport": {"northeast": {"lat": 51.51724593029151, "lng": -0.195624619708498}, "southwest": {"lat": 51.51454796970851, "lng": -0.198322580291502}}}, "name": "ubitricity Charging Station", "place_id": "ChIJS38UigIQdkgRT7MRxM53hnY", "types": ["point_of_interest", "establishment"]}, "ChIJmwT0a98RdkgR9SS7pHRU_io": {"geometry": {"location": {"lat": 51.5156842, "lng": -0.1972302}, "viewport": {"northeast": {"lat": 51.5169952302915, "lng": -0.195973269708498}, "southwest": {"lat": 51.5142972697085, "lng": -0.198671230291502}}}, "name": "Notting Hill Nursery School", "place_id": "ChIJmwT0a98RdkgR9SS7pHRU_io", "types": ["school", "point_of_interest", "establishment"], "rating": 5, "user_ratings_total": 3}, "ChIJqdHZkQIQdkgRf0wr2kDM0n4": {"geometry": {"location": {"lat": 51.51570599999999, "lng": -0.197635}, "viewport": {"northeast": {"lat": 51.5170252802915, "lng": -0.196242019708498}, "southwest": {"lat": 51.5143273197085, "lng": -0.198939980291502}}}, "name": "The Bard School", "place_id": "ChIJqdHZkQIQdkgRf0wr2kDM0n4", "types": ["point_of_interest", "establishment"]}, "ChIJCQl2lAIQdkgREdqc4ULz6k8": {"geometry": {"location": {"lat": 51.5159627, "lng": -0.1979779}, "viewport": {"northeast": {"lat": 51.5172971302915, "lng": -0.196576319708498}, "southwest": {"lat": 51.5145991697085, "lng": -0.199274280291502}}}, "name": "ubitricity Charging Station", "place_id": "ChIJCQl2lAIQdkgREdqc4ULz6k8", "types": ["point_of_interest", "establishment"]}, "ChIJ5_yyjwIQdkgRL5K4Oq7eHw4": {"geometry": {"location": {"lat": 51.5156427, "lng": -0.197506}, "viewport": {"northeast": {"lat": 51.51700103254223, "lng": -0.1961447415217766}, "southwest": {"lat": 51.51430307195923, "lng": -0.1988427021047806}}}, "name": "Parking lot", "place_id": "ChIJ5_yyjwIQdkgRL5K4Oq7eHw4", "types": ["parking", "premise", "point_of_interest", "establishment"]}, "ChIJb4_AdwIQdkgRXjwOev-_v6k": {"geometry": {"location": {"lat": 51.51492584045267, "lng": -0.1960389466789626}, "viewport": {"northeast": {"lat": 51.5162686802915, "lng": -0.19396935}, "southwest": {"lat": 51.5135707197085, "lng": -0.19810475}}}, "name": "145-165 Westbourne Grove", "place_id": "ChIJb4_AdwIQdkgRXjwOev-_v6k", "types": ["route"]}, "ChIJOT3_hgIQdkgRtkfWhXtAtSo": {"geometry": {"location": {"lat": 51.51527120000001, "lng": -0.1975211}, "viewport": {"northeast": {"lat": 51.5166392802915, "lng": -0.196034319708498}, "southwest": {"lat": 51.51394131970851, "lng": -0.1987322802915021}}}, "name": "Pentagram Design", "place_id": "ChIJOT3_hgIQdkgRtkfWhXtAtSo", "types": ["point_of_interest", "establishment"], "rating": 4.7, "user_ratings_total": 26}, "ChIJr12ohQIQdkgRuotHCQjm7OQ": {"geometry": {"location": {"lat": 51.5153387, "lng": -0.1974514}, "viewport": {"northeast": {"lat": 51.5167005802915, "lng": -0.196009319708498}, "southwest": {"lat": 51.5140026197085, "lng": -0.198707280291502}}}, "name": "The London Hair Extension Company Ltd", "place_id": "ChIJr12ohQIQdkgRuotHCQjm7OQ", "types": ["hair_care", "point_of_interest", "establishment"], "rating": 5, "user_ratings_total": 1}, "ChIJ26mphQIQdkgRMDxUyfP7BhA": {"geometry": {"location": {"lat": 51.5153244, "lng": -0.1974923}, "viewport": {"northeast": {"lat": 51.5166893302915, "lng": -0.196028319708498}, "southwest": {"lat": 51.5139913697085, "lng": -0.198726280291502}}}, "name": "ILITHYIA", "place_id": "ChIJ26mphQIQdkgRMDxUyfP7BhA", "types": ["point_of_interest", "establishment"]}, "ChIJmXdZhgIQdkgRIx8UCZy-3As": {"geometry": {"location": {"lat": 51.515353, "lng": -0.197125}, "viewport": {"northeast": {"lat": 51.5166929802915, "lng": -0.195840819708498}, "southwest": {"lat": 51.5139950197085, "lng": -0.198538780291502}}}, "name": "Blessed & Cursed Ltd.", "place_id": "ChIJmXdZhgIQdkgRIx8UCZy-3As", "types": ["point_of_interest", "clothing_store", "store", "establishment"]}, "ChIJ1UvgabUPdkgR_wTsyORgUiM": {"geometry": {"location": {"lat": 51.5153557, "lng": -0.197451}, "viewport": {"northeast": {"lat": 51.51671718029149, "lng": -0.196012019708498}, "southwest": {"lat": 51.51401921970849, "lng": -0.198709980291502}}}, "name": "IHS Hair Replacement London", "place_id": "ChIJ1UvgabUPdkgR_wTsyORgUiM", "types": ["hair_care", "health", "point_of_interest", "establishment"], "rating": 5, "user_ratings_total": 9}, "ChIJpTINLx0QdkgRNIEtsmM9NWQ": {"geometry": {"location": {"lat": 51.5148618, "lng": -0.1978686}, "viewport": {"northeast": {"lat": 51.51613113029151, "lng": -0.196495419708498}, "southwest": {"lat": 51.51343316970851, "lng": -0.199193380291502}}}, "name": "Panama Wildlife Conservation", "place_id": "ChIJpTINLx0QdkgRNIEtsmM9NWQ", "types": ["travel_agency", "point_of_interest", "establishment"]}, "ChIJ2a_YgP0PdkgRNihL17R08kE": {"geometry": {"location": {"lat": 51.5146029, "lng": -0.1975419}, "viewport": {"northeast": {"lat": 51.5159481802915, "lng": -0.196239669708498}, "southwest": {"lat": 51.5132502197085, "lng": -0.198937630291502}}}, "name": "SHOW Dry Hair Salon", "place_id": "ChIJ2a_YgP0PdkgRNihL17R08kE", "types": ["beauty_salon", "hair_care", "point_of_interest", "establishment"], "rating": 3.8, "user_ratings_total": 23}, "ChIJOT3_hgIQdkgRPIhhFDhDrjM": {"geometry": {"location": {"lat": 51.51506800000001, "lng": -0.1973639}, "viewport": {"northeast": {"lat": 51.51642898029151, "lng": -0.195920069708498}, "southwest": {"lat": 51.51373101970851, "lng": -0.198618030291502}}}, "name": "Flow Gallery", "place_id": "ChIJOT3_hgIQdkgRPIhhFDhDrjM", "types": ["art_gallery", "point_of_interest", "store", "establishment"], "rating": 4.4, "user_ratings_total": 27}, "ChIJuVzxggIQdkgRBkpYvQXczJU": {"geometry": {"location": {"lat": 51.5149032, "lng": -0.1974255}, "viewport": {"northeast": {"lat": 51.51617968029149, "lng": -0.196052269708498}, "southwest": {"lat": 51.51348171970849, "lng": -0.198750230291502}}}, "name": "Keep Smiling Dental Practice", "place_id": "ChIJuVzxggIQdkgRBkpYvQXczJU", "types": ["dentist", "doctor", "health", "point_of_interest", "establishment"], "rating": 5, "user_ratings_total": 23}, "ChIJ26mphQIQdkgR9hbu6loXC2A": {"geometry": {"location": {"lat": 51.5153244, "lng": -0.1974923}, "viewport": {"northeast": {"lat": 51.5166893302915, "lng": -0.196028319708498}, "southwest": {"lat": 51.5139913697085, "lng": -0.198726280291502}}}, "name": "Alternative Living Nutritionist", "place_id": "ChIJ26mphQIQdkgR9hbu6loXC2A", "types": ["health", "point_of_interest", "establishment"]}, "ChIJA3ljhQIQdkgRA33c922UUwI": {"geometry": {"location": {"lat": 51.515423, "lng": -0.1975556}, "viewport": {"northeast": {"lat": 51.5168132802915, "lng": -0.196086669708498}, "southwest": {"lat": 51.5141153197085, "lng": -0.198784630291502}}}, "name": "Cock & Bottle", "place_id": "ChIJA3ljhQIQdkgRA33c922UUwI", "types": ["bar", "restaurant", "food", "point_of_interest", "establishment"], "rating": 4.3, "user_ratings_total": 426}, "ChIJi5x7fwIQdkgRWe5FrFaXzz0": {"geometry": {"location": {"lat": 51.5149064, "lng": -0.1968826}, "viewport": {"northeast": {"lat": 51.5162160302915, "lng": -0.195518269708498}, "southwest": {"lat": 51.5135180697085, "lng": -0.198216230291502}}}, "name": "ubitricity Charging Station", "place_id": "ChIJi5x7fwIQdkgRWe5FrFaXzz0", "types": ["point_of_interest", "establishment"]}, "ChIJ4ZIyfv0PdkgRYTx6q45Ay2E": {"geometry": {"location": {"lat": 51.5147968, "lng": -0.1970709}, "viewport": {"northeast": {"lat": 51.5161457802915, "lng": -0.195721919708498}, "southwest": {"lat": 51.5134478197085, "lng": -0.198419880291502}}}, "name": "Znayka Russian Centre", "place_id": "ChIJ4ZIyfv0PdkgRYTx6q45Ay2E", "types": ["point_of_interest", "establishment"]}, "ChIJoQW4B_EPdkgRdk-KluV4f7o": {"geometry": {"location": {"lat": 51.5147968, "lng": -0.1970709}, "viewport": {"northeast": {"lat": 51.5161457802915, "lng": -0.195721919708498}, "southwest": {"lat": 51.5134478197085, "lng": -0.198419880291502}}}, "name": "Westborne Grove Electrician", "place_id": "ChIJoQW4B_EPdkgRdk-KluV4f7o", "types": ["electrician", "point_of_interest", "establishment"]}, "ChIJE4bcf_0PdkgRvzRs8dM8U2c": {"geometry": {"location": {"lat": 51.5148109, "lng": -0.1969915}, "viewport": {"northeast": {"lat": 51.5161291802915, "lng": -0.195632169708498}, "southwest": {"lat": 51.5134312197085, "lng": -0.198330130291502}}}, "name": "funny turtle", "place_id": "ChIJE4bcf_0PdkgRvzRs8dM8U2c", "types": ["point_of_interest", "clothing_store", "store", "establishment"]}, "ChIJASTqLt4PdkgR1_xM7wHsnZQ": {"geometry": {"location": {"lat": 51.5148109, "lng": -0.1969915}, "viewport": {"northeast": {"lat": 51.5161295802915, "lng": -0.195628619708498}, "southwest": {"lat": 51.51343161970851, "lng": -0.198326580291502}}}, "name": "Priv\u00e9 Aesthetics", "place_id": "ChIJASTqLt4PdkgR1_xM7wHsnZQ", "types": ["beauty_salon", "point_of_interest", "establishment"], "rating": 5, "user_ratings_total": 2}, "ChIJJbFBrpQRdkgRy7pZte0IQ8E": {"geometry": {"location": {"lat": 51.5148662, "lng": -0.1976036}, "viewport": {"northeast": {"lat": 51.5161493302915, "lng": -0.196232619708498}, "southwest": {"lat": 51.5134513697085, "lng": -0.198930580291502}}}, "name": "London Finder", "place_id": "ChIJJbFBrpQRdkgRy7pZte0IQ8E", "types": ["real_estate_agency", "point_of_interest", "establishment"]}, "ChIJnT3hhgIQdkgRD9GGL3nrJg4": {"geometry": {"location": {"lat": 51.51522130000001, "lng": -0.1967911}, "viewport": {"northeast": {"lat": 51.51660793029151, "lng": -0.195494969708498}, "southwest": {"lat": 51.51390996970851, "lng": -0.198192930291502}}}, "name": "The Doggy Room", "place_id": "ChIJnT3hhgIQdkgRD9GGL3nrJg4", "types": ["point_of_interest", "establishment"]}, "ChIJpfvQhQIQdkgRkA3chuNK7G8": {"geometry": {"location": {"lat": 51.51532109999999, "lng": -0.1974192}, "viewport": {"northeast": {"lat": 51.51668128029149, "lng": -0.195989469708498}, "southwest": {"lat": 51.5139833197085, "lng": -0.198687430291502}}}, "name": "Alan Power Architects Ltd", "place_id": "ChIJpfvQhQIQdkgRkA3chuNK7G8", "types": ["point_of_interest", "establishment"]}, "ChIJPSnofQIQdkgRjwNRHDQfJXo": {"geometry": {"location": {"lat": 51.5151849, "lng": -0.1967121}, "viewport": {"northeast": {"lat": 51.51658973029151, "lng": -0.195455469708498}, "southwest": {"lat": 51.51389176970851, "lng": -0.198153430291502}}}, "name": "Alexander Hobbs Associates _ Architect", "place_id": "ChIJPSnofQIQdkgRjwNRHDQfJXo", "types": ["point_of_interest", "establishment"]}, "ChIJS3CyLXARdkgR-Ow40v8_Zm0": {"geometry": {"location": {"lat": 51.51537729999999, "lng": -0.1971442}, "viewport": {"northeast": {"lat": 51.51671798029149, "lng": -0.1958550197084979}, "southwest": {"lat": 51.51402001970849, "lng": -0.198552980291502}}}, "name": "foundry.london", "place_id": "ChIJS3CyLXARdkgR-Ow40v8_Zm0", "types": ["furniture_store", "home_goods_store", "point_of_interest", "store", "establishment"], "rating": 5, "user_ratings_total": 1}, "ChIJURprnQIQdkgR6AU58I9CylQ": {"geometry": {"location": {"lat": 51.51491670000001, "lng": -0.1977217}, "viewport": {"northeast": {"lat": 51.51616833029151, "lng": -0.196340169708498}, "southwest": {"lat": 51.51347036970851, "lng": -0.199038130291502}}}, "name": "Waste Removal Kensington", "place_id": "ChIJURprnQIQdkgR6AU58I9CylQ", "types": ["point_of_interest", "establishment"]}, "ChIJURprnQIQdkgRRkMZ5Qdh1kc": {"geometry": {"location": {"lat": 51.51491670000001, "lng": -0.1977217}, "viewport": {"northeast": {"lat": 51.51616833029151, "lng": -0.196340169708498}, "southwest": {"lat": 51.51347036970851, "lng": -0.199038130291502}}}, "name": "Giles House", "place_id": "ChIJURprnQIQdkgRRkMZ5Qdh1kc", "types": ["point_of_interest", "establishment"]}, "ChIJq6rjhAIQdkgRn2FKoKdrbUM": {"geometry": {"location": {"lat": 51.5153244, "lng": -0.1974923}, "viewport": {"northeast": {"lat": 51.5166893302915, "lng": -0.196028319708498}, "southwest": {"lat": 51.5139913697085, "lng": -0.198726280291502}}}, "name": "Kinesiology Notting Hill", "place_id": "ChIJq6rjhAIQdkgRn2FKoKdrbUM", "types": ["health", "point_of_interest", "establishment"]}, "ChIJx9QUhgIQdkgRX-OOcN1oE6w": {"geometry": {"location": {"lat": 51.5154176, "lng": -0.1971719}, "viewport": {"northeast": {"lat": 51.51675918029149, "lng": -0.195876419708498}, "southwest": {"lat": 51.51406121970849, "lng": -0.198574380291502}}}, "name": "Zensend Limited", "place_id": "ChIJx9QUhgIQdkgRX-OOcN1oE6w", "types": ["point_of_interest", "establishment"]}, "ChIJpfIV6SkRdkgRs5zehRUhuJw": {"geometry": {"location": {"lat": 51.5154226, "lng": -0.1971317}, "viewport": {"northeast": {"lat": 51.5167613802915, "lng": -0.195856219708498}, "southwest": {"lat": 51.5140634197085, "lng": -0.198554180291502}}}, "name": "Li Choi Ling (Family) UK Hair Care House International Limited", "place_id": "ChIJpfIV6SkRdkgRs5zehRUhuJw", "types": ["beauty_salon", "point_of_interest", "establishment"]}, "ChIJOZc9hgIQdkgRrloctXTE3DQ": {"geometry": {"location": {"lat": 51.5154453, "lng": -0.197155}, "viewport": {"northeast": {"lat": 51.5167850802915, "lng": -0.1958723197084979}, "southwest": {"lat": 51.5140871197085, "lng": -0.198570280291502}}}, "name": "Anthony Hill & Co Estate Agents Ltd", "place_id": "ChIJOZc9hgIQdkgRrloctXTE3DQ", "types": ["real_estate_agency", "point_of_interest", "establishment"]}, "ChIJq6o9hgIQdkgRpb_oXLmfHlg": {"geometry": {"location": {"lat": 51.51544819999999, "lng": -0.1971481}, "viewport": {"northeast": {"lat": 51.5167874802915, "lng": -0.195869169708498}, "southwest": {"lat": 51.5140895197085, "lng": -0.198567130291502}}}, "name": "FaFio", "place_id": "ChIJq6o9hgIQdkgRpb_oXLmfHlg", "types": ["general_contractor", "point_of_interest", "establishment"]}, "ChIJrTMRhgIQdkgRv-p-UXpwmYw": {"geometry": {"location": {"lat": 51.5154663, "lng": -0.1971676}, "viewport": {"northeast": {"lat": 51.5168064302915, "lng": -0.195882469708498}, "southwest": {"lat": 51.5141084697085, "lng": -0.198580430291502}}}, "name": "Mimi et Mina - Hair Couture", "place_id": "ChIJrTMRhgIQdkgRv-p-UXpwmYw", "types": ["hair_care", "point_of_interest", "establishment"], "rating": 4.6, "user_ratings_total": 129}, "ChIJjccoff0PdkgRwZTwvgGXwZ0": {"geometry": {"location": {"lat": 51.51460289999999, "lng": -0.1975418}, "viewport": {"northeast": {"lat": 51.5159481802915, "lng": -0.196239669708498}, "southwest": {"lat": 51.5132502197085, "lng": -0.198937630291502}}}, "name": "Home House Estates", "place_id": "ChIJjccoff0PdkgRwZTwvgGXwZ0", "types": ["real_estate_agency", "point_of_interest", "establishment"]}, "ChIJ___7nQIQdkgRR9awgTdg8KQ": {"geometry": {"location": {"lat": 51.5148617, "lng": -0.1979605}, "viewport": {"northeast": {"lat": 51.51612583029151, "lng": -0.196585719708498}, "southwest": {"lat": 51.51342786970851, "lng": -0.199283680291502}}}, "name": "Priestlands Birch", "place_id": "ChIJ___7nQIQdkgRR9awgTdg8KQ", "types": ["point_of_interest", "establishment"]}, "ChIJNw5rUZMRdkgRricOEJXQYCE": {"geometry": {"location": {"lat": 51.5148617, "lng": -0.1979605999999999}, "viewport": {"northeast": {"lat": 51.51612583029149, "lng": -0.196585819708498}, "southwest": {"lat": 51.51342786970849, "lng": -0.199283780291502}}}, "name": "kale Clinic Studio", "place_id": "ChIJNw5rUZMRdkgRricOEJXQYCE", "types": ["gym", "health", "point_of_interest", "establishment"]}, "ChIJXwchitcPdkgRnbtI-UCzjeA": {"geometry": {"location": {"lat": 51.5138492, "lng": -0.196871}, "viewport": {"northeast": {"lat": 51.51517048029149, "lng": -0.1954542697084979}, "southwest": {"lat": 51.5124725197085, "lng": -0.198152230291502}}}, "name": "Daniela Henao Films & Events", "place_id": "ChIJXwchitcPdkgRnbtI-UCzjeA", "types": ["point_of_interest", "establishment"]}, "ChIJ0eiigv0PdkgRXf3P6SaUXac": {"geometry": {"location": {"lat": 51.51426089999999, "lng": -0.1968362}, "viewport": {"northeast": {"lat": 51.51552528029148, "lng": -0.195404769708498}, "southwest": {"lat": 51.51282731970849, "lng": -0.198102730291502}}}, "name": "Pure Logistics & Consultancy Limited", "place_id": "ChIJ0eiigv0PdkgRXf3P6SaUXac", "types": ["point_of_interest", "establishment"]}, "ChIJ97IYnP0PdkgRbvuYPyIaXxc": {"geometry": {"location": {"lat": 51.513879, "lng": -0.196593}, "viewport": {"northeast": {"lat": 51.5152252802915, "lng": -0.195237569708498}, "southwest": {"lat": 51.5125273197085, "lng": -0.197935530291502}}}, "name": "ubitricity Charging Station", "place_id": "ChIJ97IYnP0PdkgRbvuYPyIaXxc", "types": ["point_of_interest", "establishment"]}, "ChIJ_8XEdP0PdkgRlan3dSAk5Aw": {"geometry": {"location": {"lat": 51.5135836, "lng": -0.1971033}, "viewport": {"northeast": {"lat": 51.5149114802915, "lng": -0.195690069708498}, "southwest": {"lat": 51.5122135197085, "lng": -0.198388030291502}}}, "name": "Concordia Renewables", "place_id": "ChIJ_8XEdP0PdkgRlan3dSAk5Aw", "types": ["point_of_interest", "establishment"]}, "ChIJGcV9bf0PdkgRD7jEZvYVFjw": {"geometry": {"location": {"lat": 51.5136684, "lng": -0.1976151}, "viewport": {"northeast": {"lat": 51.5150748802915, "lng": -0.196297019708498}, "southwest": {"lat": 51.5123769197085, "lng": -0.198994980291502}}}, "name": "Planalysis Computing Consultancy", "place_id": "ChIJGcV9bf0PdkgRD7jEZvYVFjw", "types": ["point_of_interest", "establishment"]}, "ChIJezwLm_0PdkgRPWb5LNazl2Q": {"geometry": {"location": {"lat": 51.514036, "lng": -0.196409}, "viewport": {"northeast": {"lat": 51.5153875802915, "lng": -0.1950659197084979}, "southwest": {"lat": 51.5126896197085, "lng": -0.197763880291502}}}, "name": "ubitricity Charging Station", "place_id": "ChIJezwLm_0PdkgRPWb5LNazl2Q", "types": ["point_of_interest", "establishment"]}, "ChIJ86VxsIEPdkgR8XWfbdpFmWU": {"geometry": {"location": {"lat": 51.51445649999999, "lng": -0.1971243999999999}, "viewport": {"northeast": {"lat": 51.51580628029151, "lng": -0.195779719708498}, "southwest": {"lat": 51.51310831970851, "lng": -0.198477680291502}}}, "name": "Vivienne Cozens", "place_id": "ChIJ86VxsIEPdkgR8XWfbdpFmWU", "types": ["point_of_interest", "establishment"]}, "ChIJc-s7ef0PdkgR_bKc9AXg9h4": {"geometry": {"location": {"lat": 51.51445649999999, "lng": -0.1971243999999999}, "viewport": {"northeast": {"lat": 51.51580628029151, "lng": -0.195779719708498}, "southwest": {"lat": 51.51310831970851, "lng": -0.198477680291502}}}, "name": "Paul Todd", "place_id": "ChIJc-s7ef0PdkgR_bKc9AXg9h4", "types": ["school", "point_of_interest", "establishment"]}, "ChIJ9chAywIQdkgR8DlDYTpUtjY": {"geometry": {"location": {"lat": 51.51641469459591, "lng": -0.1997416183173807}, "viewport": {"northeast": {"lat": 51.5177638802915, "lng": -0.198390969708498}, "southwest": {"lat": 51.5150659197085, "lng": -0.201088930291502}}}, "name": "101-127 Ledbury Rd", "place_id": "ChIJ9chAywIQdkgR8DlDYTpUtjY", "types": ["route"]}, "ChIJ5758uwIQdkgRxIr9oQLWNq4": {"geometry": {"location": {"lat": 51.5156474, "lng": -0.1988358}, "viewport": {"northeast": {"lat": 51.5170073302915, "lng": -0.197396519708498}, "southwest": {"lat": 51.5143093697085, "lng": -0.200094480291502}}}, "name": "Espace Prive", "place_id": "ChIJ5758uwIQdkgRxIr9oQLWNq4", "types": ["beauty_salon", "hair_care", "spa", "health", "point_of_interest", "establishment"], "rating": 4.8, "user_ratings_total": 4}, "ChIJZZsZtgIQdkgRNw3pFMt3Rcc": {"geometry": {"location": {"lat": 51.5161587, "lng": -0.1994364}, "viewport": {"northeast": {"lat": 51.5174941802915, "lng": -0.198193669708498}, "southwest": {"lat": 51.5147962197085, "lng": -0.200891630291502}}}, "name": "Gambia Tourism Board Ltd", "place_id": "ChIJZZsZtgIQdkgRNw3pFMt3Rcc", "types": ["travel_agency", "point_of_interest", "establishment"]}, "ChIJhUrGjP8PdkgRZdDQT1IcVFw": {"geometry": {"location": {"lat": 51.5160412, "lng": -0.1986016}, "viewport": {"northeast": {"lat": 51.5173809302915, "lng": -0.197332469708498}, "southwest": {"lat": 51.5146829697085, "lng": -0.200030430291502}}}, "name": "Holland Park Motor Services", "place_id": "ChIJhUrGjP8PdkgRZdDQT1IcVFw", "types": ["car_repair", "point_of_interest", "establishment"], "rating": 4.9, "user_ratings_total": 8}, "ChIJcexfvwIQdkgRnMm0nniIU9k": {"geometry": {"location": {"lat": 51.5161504, "lng": -0.1986417}, "viewport": {"northeast": {"lat": 51.51748978029151, "lng": -0.1973718697084979}, "southwest": {"lat": 51.51479181970851, "lng": -0.200069830291502}}}, "name": "Gabrielle Pinto", "place_id": "ChIJcexfvwIQdkgRnMm0nniIU9k", "types": ["health", "point_of_interest", "establishment"]}, "ChIJpWbLddUadkgRZ3Q6I7hB1ws": {"geometry": {"location": {"lat": 51.51620409999999, "lng": -0.199454}, "viewport": {"northeast": {"lat": 51.51753978029149, "lng": -0.1982099697084979}, "southwest": {"lat": 51.51484181970849, "lng": -0.200907930291502}}}, "name": "Juliette Andre MBACP", "place_id": "ChIJpWbLddUadkgRZ3Q6I7hB1ws", "types": ["health", "point_of_interest", "establishment"]}, "ChIJJRpB3QIQdkgRaXaiRKXXszg": {"geometry": {"location": {"lat": 51.5164192, "lng": -0.1987389}, "viewport": {"northeast": {"lat": 51.5180462302915, "lng": -0.197490319708498}, "southwest": {"lat": 51.5153482697085, "lng": -0.200188280291502}}}, "name": "Ht Line Express", "place_id": "ChIJJRpB3QIQdkgRaXaiRKXXszg", "types": ["point_of_interest", "establishment"], "rating": 3.5, "user_ratings_total": 2}, "ChIJAfsSuAIQdkgRyhpDbMpjgu8": {"geometry": {"location": {"lat": 51.515698, "lng": -0.1988451}, "viewport": {"northeast": {"lat": 51.5170575302915, "lng": -0.197409019708498}, "southwest": {"lat": 51.5143595697085, "lng": -0.200106980291502}}}, "name": "C D D I Ltd", "place_id": "ChIJAfsSuAIQdkgRyhpDbMpjgu8", "types": ["health", "point_of_interest", "establishment"]}, "ChIJ58a1ywIQdkgRyQkeTpvR3WA": {"geometry": {"location": {"lat": 51.51640399999999, "lng": -0.1995111}, "viewport": {"northeast": {"lat": 51.5177391302915, "lng": -0.198271119708498}, "southwest": {"lat": 51.5150411697085, "lng": -0.200969080291502}}}, "name": "Notting Hill Guitar School", "place_id": "ChIJ58a1ywIQdkgRyQkeTpvR3WA", "types": ["school", "point_of_interest", "establishment"]}, "ChIJUeYQvwIQdkgRM5nb8znxW1Y": {"geometry": {"location": {"lat": 51.5160412, "lng": -0.1986016}, "viewport": {"northeast": {"lat": 51.5173842302915, "lng": -0.197333519708498}, "southwest": {"lat": 51.5146862697085, "lng": -0.200031480291502}}}, "name": "Holland Park Motor Services", "place_id": "ChIJUeYQvwIQdkgRM5nb8znxW1Y", "types": ["car_repair", "point_of_interest", "establishment"], "rating": 4.7, "user_ratings_total": 18}, "ChIJq2HKvgIQdkgRTKhQZ1eqOPI": {"geometry": {"location": {"lat": 51.5159169, "lng": -0.198795}, "viewport": {"northeast": {"lat": 51.51726938029149, "lng": -0.197413669708498}, "southwest": {"lat": 51.5145714197085, "lng": -0.200111630291502}}}, "name": "ubitricity Charging Station", "place_id": "ChIJq2HKvgIQdkgRTKhQZ1eqOPI", "types": ["point_of_interest", "establishment"]}, "ChIJgQdduQIQdkgRs6ENN3UCu10": {"geometry": {"location": {"lat": 51.5158815, "lng": -0.1988229}, "viewport": {"northeast": {"lat": 51.5172363302915, "lng": -0.197426169708498}, "southwest": {"lat": 51.5145383697085, "lng": -0.200124130291502}}}, "name": "Vive Unique House Courtnell Street Notting Hill", "place_id": "ChIJgQdduQIQdkgRs6ENN3UCu10", "types": ["lodging", "point_of_interest", "establishment"]}, "ChIJB8MgxwIQdkgRLG6tSKaExno": {"geometry": {"location": {"lat": 51.516311, "lng": -0.198804}, "viewport": {"northeast": {"lat": 51.5176572302915, "lng": -0.197478819708498}, "southwest": {"lat": 51.51495926970851, "lng": -0.200176780291502}}}, "name": "ubitricity Charging Station", "place_id": "ChIJB8MgxwIQdkgRLG6tSKaExno", "types": ["point_of_interest", "establishment"]}, "ChIJT53oxgIQdkgR9goH5XMACh0": {"geometry": {"location": {"lat": 51.5163673, "lng": -0.1989922}, "viewport": {"northeast": {"lat": 51.5177237302915, "lng": -0.1975864697084979}, "southwest": {"lat": 51.5150257697085, "lng": -0.200284430291502}}}, "name": "Tara Michelle Interiors", "place_id": "ChIJT53oxgIQdkgR9goH5XMACh0", "types": ["general_contractor", "point_of_interest", "establishment"], "rating": 5, "user_ratings_total": 1}, "ChIJlcJKNf8RdkgRhp0xRaoB4H0": {"geometry": {"location": {"lat": 51.51620409999999, "lng": -0.199454}, "viewport": {"northeast": {"lat": 51.51753978029149, "lng": -0.1982099697084979}, "southwest": {"lat": 51.51484181970849, "lng": -0.200907930291502}}}, "name": "Notting Hill Psychotherapy", "place_id": "ChIJlcJKNf8RdkgRhp0xRaoB4H0", "types": ["health", "point_of_interest", "establishment"]}, "ChIJh7UzsQIQdkgRvYfMz_6RWD4": {"geometry": {"location": {"lat": 51.515809, "lng": -0.199337}, "viewport": {"northeast": {"lat": 51.5171449302915, "lng": -0.198084869708498}, "southwest": {"lat": 51.5144469697085, "lng": -0.200782830291502}}}, "name": "Confablo Ltd", "place_id": "ChIJh7UzsQIQdkgRvYfMz_6RWD4", "types": ["point_of_interest", "establishment"]}, "ChIJmdQpm5ERdkgRD08cU4ndNAk": {"geometry": {"location": {"lat": 51.5159697, "lng": -0.1995958}, "viewport": {"northeast": {"lat": 51.5173186802915, "lng": -0.1982468197084979}, "southwest": {"lat": 51.5146207197085, "lng": -0.200944780291502}}}, "name": "Intelligent Rooters & Heating", "place_id": "ChIJmdQpm5ERdkgRD08cU4ndNAk", "types": ["plumber", "general_contractor", "point_of_interest", "establishment"]}, "ChIJPxUasQIQdkgRRC9y731Jyp4": {"geometry": {"location": {"lat": 51.5157169, "lng": -0.1993186}, "viewport": {"northeast": {"lat": 51.5170536802915, "lng": -0.198059919708498}, "southwest": {"lat": 51.5143557197085, "lng": -0.200757880291502}}}, "name": "Duchess & Alleycat", "place_id": "ChIJPxUasQIQdkgRRC9y731Jyp4", "types": ["point_of_interest", "establishment"]}, "ChIJlYTPywIQdkgR2YPOeXN4MIM": {"geometry": {"location": {"lat": 51.5163557, "lng": -0.1995223}, "viewport": {"northeast": {"lat": 51.5176924802915, "lng": -0.1982693197084979}, "southwest": {"lat": 51.5149945197085, "lng": -0.200967280291502}}}, "name": "SUSANNAH POLLEN LIMITED", "place_id": "ChIJlYTPywIQdkgR2YPOeXN4MIM", "types": ["point_of_interest", "establishment"]}, "ChIJ9QJTxAIQdkgROsIa7hflDNA": {"geometry": {"location": {"lat": 51.5166178, "lng": -0.198905}, "viewport": {"northeast": {"lat": 51.5179640302915, "lng": -0.197578019708498}, "southwest": {"lat": 51.5152660697085, "lng": -0.200275980291502}}}, "name": "ubitricity Charging Station", "place_id": "ChIJ9QJTxAIQdkgROsIa7hflDNA", "types": ["point_of_interest", "establishment"]}, "ChIJWe2cHp8RdkgRUHMJ_975CyI": {"geometry": {"location": {"lat": 51.51556619999999, "lng": -0.1991007}, "viewport": {"northeast": {"lat": 51.5169441802915, "lng": -0.197752519708498}, "southwest": {"lat": 51.5142462197085, "lng": -0.200450480291502}}}, "name": "Enterprise Car Club - 131 Ledbury Road London W11 1HR", "place_id": "ChIJWe2cHp8RdkgRUHMJ_975CyI", "types": ["car_rental", "point_of_interest", "establishment"]}, "ChIJ-QYwXv0PdkgRYNI0_LH3Rww": {"geometry": {"location": {"lat": 51.51463610726068, "lng": -0.1983841225073874}, "viewport": {"northeast": {"lat": 51.5159851802915, "lng": -0.19696845}, "southwest": {"lat": 51.5132872197085, "lng": -0.19979985}}}, "name": "176-160 Westbourne Grove", "place_id": "ChIJ-QYwXv0PdkgRYNI0_LH3Rww", "types": ["route"]}, "ChIJzUEcVv0PdkgRnjCbG6MhVxc": {"geometry": {"location": {"lat": 51.51486119999999, "lng": -0.1994666}, "viewport": {"northeast": {"lat": 51.5162150802915, "lng": -0.198011469708498}, "southwest": {"lat": 51.5135171197085, "lng": -0.200709430291502}}}, "name": "Ottolenghi", "place_id": "ChIJzUEcVv0PdkgRnjCbG6MhVxc", "types": ["bakery", "restaurant", "food", "point_of_interest", "store", "establishment"], "rating": 4.5, "user_ratings_total": 775}, "ChIJk1u7qAIQdkgRP_8Y1WZh0jA": {"geometry": {"location": {"lat": 51.5151779, "lng": -0.1991706}, "viewport": {"northeast": {"lat": 51.5165257302915, "lng": -0.197903719708498}, "southwest": {"lat": 51.5138277697085, "lng": -0.200601680291502}}}, "name": "The Walmer Castle", "place_id": "ChIJk1u7qAIQdkgRP_8Y1WZh0jA", "types": ["bar", "restaurant", "food", "point_of_interest", "establishment"], "rating": 4.4, "user_ratings_total": 391}, "ChIJQbHOWf0PdkgRTD7A4soyRvQ": {"geometry": {"location": {"lat": 51.51469530000001, "lng": -0.1987894}, "viewport": {"northeast": {"lat": 51.5159884802915, "lng": -0.197596919708498}, "southwest": {"lat": 51.5132905197085, "lng": -0.200294880291502}}}, "name": "Westbourne Grove Church", "place_id": "ChIJQbHOWf0PdkgRTD7A4soyRvQ", "types": ["church", "place_of_worship", "point_of_interest", "establishment"], "rating": 4.4, "user_ratings_total": 30}, "ChIJbXJXoLACdkgRQwb-apHi-gI": {"geometry": {"location": {"lat": 51.515178, "lng": -0.199171}, "viewport": {"northeast": {"lat": 51.5165258302915, "lng": -0.197903919708498}, "southwest": {"lat": 51.5138278697085, "lng": -0.200601880291502}}}, "name": "Aces Hi!", "place_id": "ChIJbXJXoLACdkgRQwb-apHi-gI", "types": ["point_of_interest", "establishment"]}, "ChIJ6bge0jQFdkgR721p0g8CBLs": {"geometry": {"location": {"lat": 51.51467109999999, "lng": -0.1990341}, "viewport": {"northeast": {"lat": 51.5160394802915, "lng": -0.197772769708498}, "southwest": {"lat": 51.5133415197085, "lng": -0.200470730291502}}}, "name": "Paolita Concept", "place_id": "ChIJ6bge0jQFdkgR721p0g8CBLs", "types": ["point_of_interest", "clothing_store", "store", "establishment"], "rating": 4.7, "user_ratings_total": 22}, "ChIJ49OgsgIQdkgR0Kx8pS0JYPY": {"geometry": {"location": {"lat": 51.5151972, "lng": -0.1995055999999999}, "viewport": {"northeast": {"lat": 51.5164962802915, "lng": -0.1981349697084979}, "southwest": {"lat": 51.5137983197085, "lng": -0.200832930291502}}}, "name": "Petit Bateau", "place_id": "ChIJ49OgsgIQdkgR0Kx8pS0JYPY", "types": ["point_of_interest", "clothing_store", "store", "establishment"], "rating": 3, "user_ratings_total": 2}, "ChIJGS8OqQIQdkgRIFkc50hyWtI": {"geometry": {"location": {"lat": 51.5150654, "lng": -0.1991553}, "viewport": {"northeast": {"lat": 51.51640363029149, "lng": -0.197882869708498}, "southwest": {"lat": 51.51370566970849, "lng": -0.200580830291502}}}, "name": "Le Creuset (UK) Ltd - London/Notting Hill", "place_id": "ChIJGS8OqQIQdkgRIFkc50hyWtI", "types": ["furniture_store", "home_goods_store", "point_of_interest", "store", "establishment"], "rating": 4.7, "user_ratings_total": 11}, "ChIJz0K6qAIQdkgRUjnglAYNUuY": {"geometry": {"location": {"lat": 51.515121, "lng": -0.1991502}, "viewport": {"northeast": {"lat": 51.5164575302915, "lng": -0.197889769708498}, "southwest": {"lat": 51.5137595697085, "lng": -0.200587730291502}}}, "name": "ME+EM", "place_id": "ChIJz0K6qAIQdkgRUjnglAYNUuY", "types": ["clothing_store", "point_of_interest", "store", "establishment"], "rating": 4.5, "user_ratings_total": 4}, "ChIJHX-PX_0PdkgRm0eL2B5h6Q0": {"geometry": {"location": {"lat": 51.514714, "lng": -0.198643}, "viewport": {"northeast": {"lat": 51.5160106802915, "lng": -0.197278169708498}, "southwest": {"lat": 51.5133127197085, "lng": -0.199976130291502}}}, "name": "Martin Moore", "place_id": "ChIJHX-PX_0PdkgRm0eL2B5h6Q0", "types": ["furniture_store", "home_goods_store", "general_contractor", "point_of_interest", "store", "establishment"], "rating": 3, "user_ratings_total": 4}, "ChIJA9TvX_0PdkgRKcQeDCZlzYM": {"geometry": {"location": {"lat": 51.5147827, "lng": -0.1984401}, "viewport": {"northeast": {"lat": 51.5160563302915, "lng": -0.197081969708498}, "southwest": {"lat": 51.5133583697085, "lng": -0.199779930291502}}}, "name": "ba&sh", "place_id": "ChIJA9TvX_0PdkgRKcQeDCZlzYM", "types": ["point_of_interest", "clothing_store", "store", "establishment"], "rating": 3, "user_ratings_total": 2}, "ChIJC1jwX_0PdkgR9Uf3zBqFXzE": {"geometry": {"location": {"lat": 51.51478519999999, "lng": -0.1983951}, "viewport": {"northeast": {"lat": 51.51606393029149, "lng": -0.197004069708498}, "southwest": {"lat": 51.5133659697085, "lng": -0.199702030291502}}}, "name": "LOVE BRAND & Co.", "place_id": "ChIJC1jwX_0PdkgR9Uf3zBqFXzE", "types": ["point_of_interest", "clothing_store", "store", "establishment"], "rating": 4.8, "user_ratings_total": 4}, "ChIJkSOsV_0PdkgRB3XvSw5ORfU": {"geometry": {"location": {"lat": 51.5147014, "lng": -0.1993852}, "viewport": {"northeast": {"lat": 51.5160206802915, "lng": -0.197951069708498}, "southwest": {"lat": 51.5133227197085, "lng": -0.200649030291502}}}, "name": "Derek Rose, Notting Hill", "place_id": "ChIJkSOsV_0PdkgRB3XvSw5ORfU", "types": ["clothing_store", "point_of_interest", "store", "establishment"], "rating": 4.8, "user_ratings_total": 5}, "ChIJBy_RWf0PdkgRiAllqI7O1lA": {"geometry": {"location": {"lat": 51.51462300000001, "lng": -0.1994427}, "viewport": {"northeast": {"lat": 51.51591783029151, "lng": -0.198075519708498}, "southwest": {"lat": 51.51321986970851, "lng": -0.200773480291502}}}, "name": "Sandro Menswear", "place_id": "ChIJBy_RWf0PdkgRiAllqI7O1lA", "types": ["point_of_interest", "establishment"]}, "ChIJk1u7qAIQdkgRuWKMgr2BeoQ": {"geometry": {"location": {"lat": 51.5149176, "lng": -0.1990793}, "viewport": {"northeast": {"lat": 51.5162574802915, "lng": -0.197821469708498}, "southwest": {"lat": 51.5135595197085, "lng": -0.200519430291502}}}, "name": "Melissa Odabash", "place_id": "ChIJk1u7qAIQdkgRuWKMgr2BeoQ", "types": ["point_of_interest", "clothing_store", "store", "establishment"], "rating": 5, "user_ratings_total": 8}, "ChIJzdFAVP0PdkgRk-ZFg8in6So": {"geometry": {"location": {"lat": 51.5146436, "lng": -0.1995227}, "viewport": {"northeast": {"lat": 51.51592318029149, "lng": -0.198153319708498}, "southwest": {"lat": 51.5132252197085, "lng": -0.200851280291502}}}, "name": "Zadig&Voltaire", "place_id": "ChIJzdFAVP0PdkgRk-ZFg8in6So", "types": ["point_of_interest", "clothing_store", "store", "establishment"], "rating": 4.9, "user_ratings_total": 8}, "ChIJIbMlqeIPdkgRx3EfwD2mGUY": {"geometry": {"location": {"lat": 51.514611, "lng": -0.1993143}, "viewport": {"northeast": {"lat": 51.51597253029149, "lng": -0.197904969708498}, "southwest": {"lat": 51.51327456970849, "lng": -0.200602930291502}}}, "name": "Winkworth Notting Hill Estate Agents", "place_id": "ChIJIbMlqeIPdkgRx3EfwD2mGUY", "types": ["finance", "real_estate_agency", "point_of_interest", "establishment"], "rating": 4.8, "user_ratings_total": 67}, "ChIJCXrkqQIQdkgRFQC6pGAtZl4": {"geometry": {"location": {"lat": 51.51481080000001, "lng": -0.1994453}, "viewport": {"northeast": {"lat": 51.5161723302915, "lng": -0.197996269708498}, "southwest": {"lat": 51.5134743697085, "lng": -0.200694230291502}}}, "name": "Anya Hindmarch", "place_id": "ChIJCXrkqQIQdkgRFQC6pGAtZl4", "types": ["point_of_interest", "store", "establishment"], "rating": 4, "user_ratings_total": 3}, "ChIJA16SMFMRdkgRq0J0dyZRw-U": {"geometry": {"location": {"lat": 51.51497260000001, "lng": -0.1991006}, "viewport": {"northeast": {"lat": 51.5163114302915, "lng": -0.197838969708498}, "southwest": {"lat": 51.5136134697085, "lng": -0.200536930291502}}}, "name": "Emergency", "place_id": "ChIJA16SMFMRdkgRq0J0dyZRw-U", "types": ["point_of_interest", "store", "establishment"]}, "ChIJu4dzBrwRdkgR7DVmJMslNdI": {"geometry": {"location": {"lat": 51.51497260000001, "lng": -0.1991006}, "viewport": {"northeast": {"lat": 51.5163114302915, "lng": -0.197838969708498}, "southwest": {"lat": 51.5136134697085, "lng": -0.200536930291502}}}, "name": "Emergency Plumbers/Heating 24hrs", "place_id": "ChIJu4dzBrwRdkgR7DVmJMslNdI", "types": ["plumber", "electrician", "general_contractor", "point_of_interest", "establishment"], "rating": 5, "user_ratings_total": 1}, "ChIJn_9mkxURdkgRlmck4y0nX3U": {"geometry": {"location": {"lat": 51.5150137, "lng": -0.1991234}, "viewport": {"northeast": {"lat": 51.5163510302915, "lng": -0.197857219708498}, "southwest": {"lat": 51.5136530697085, "lng": -0.200555180291502}}}, "name": "Arissa Green Law", "place_id": "ChIJn_9mkxURdkgRlmck4y0nX3U", "types": ["lawyer", "point_of_interest", "establishment"]}, "ChIJgRfq9TARdkgRRdnPrg31ZzM": {"geometry": {"location": {"lat": 51.5150137, "lng": -0.1991234}, "viewport": {"northeast": {"lat": 51.5163510302915, "lng": -0.197857219708498}, "southwest": {"lat": 51.5136530697085, "lng": -0.200555180291502}}}, "name": "Caudalie Boutique SPA", "place_id": "ChIJgRfq9TARdkgRRdnPrg31ZzM", "types": ["point_of_interest", "store", "establishment"], "rating": 5, "user_ratings_total": 8}, "ChIJUV4PpgIQdkgRX_tPRq7ODQI": {"geometry": {"location": {"lat": 51.5151289, "lng": -0.1990361}, "viewport": {"northeast": {"lat": 51.5164633802915, "lng": -0.1976849697084979}, "southwest": {"lat": 51.5137654197085, "lng": -0.200382930291502}}}, "name": "Bespoke Yoga", "place_id": "ChIJUV4PpgIQdkgRX_tPRq7ODQI", "types": ["gym", "health", "point_of_interest", "establishment"]}, "ChIJqwH_pQIQdkgRXZo2W2YRvzk": {"geometry": {"location": {"lat": 51.51491409999999, "lng": -0.1991027}, "viewport": {"northeast": {"lat": 51.5162551302915, "lng": -0.197833019708498}, "southwest": {"lat": 51.51355716970851, "lng": -0.200530980291502}}}, "name": "Penelope Chilvers", "place_id": "ChIJqwH_pQIQdkgRXZo2W2YRvzk", "types": ["shoe_store", "point_of_interest", "store", "establishment"], "rating": 4, "user_ratings_total": 4}, "ChIJyyvjqwIQdkgRzDP_nvIXIEQ": {"geometry": {"location": {"lat": 51.5151163, "lng": -0.1991701}, "viewport": {"northeast": {"lat": 51.51645428029151, "lng": -0.197899419708498}, "southwest": {"lat": 51.51375631970851, "lng": -0.200597380291502}}}, "name": "Veronique Delachaux", "place_id": "ChIJyyvjqwIQdkgRzDP_nvIXIEQ", "types": ["point_of_interest", "clothing_store", "store", "establishment"]}, "ChIJXaw1rAIQdkgRa6q8Bb58tQ8": {"geometry": {"location": {"lat": 51.51514479999999, "lng": -0.1991842}, "viewport": {"northeast": {"lat": 51.5164927302915, "lng": -0.197909919708498}, "southwest": {"lat": 51.5137947697085, "lng": -0.200607880291502}}}, "name": "Wellington Antiques", "place_id": "ChIJXaw1rAIQdkgRa6q8Bb58tQ8", "types": ["home_goods_store", "point_of_interest", "store", "establishment"]}, "ChIJ88JWZxIRdkgRjyL5Oayx99s": {"geometry": {"location": {"lat": 51.51529619999999, "lng": -0.1992557}, "viewport": {"northeast": {"lat": 51.51663848029149, "lng": -0.197961669708498}, "southwest": {"lat": 51.5139405197085, "lng": -0.200659630291502}}}, "name": "Emergency Tow Truck Service Notting Hill", "place_id": "ChIJ88JWZxIRdkgRjyL5Oayx99s", "types": ["point_of_interest", "establishment"], "rating": 5, "user_ratings_total": 1}, "ChIJmUK7roIPdkgRYsq53Z6Udws": {"geometry": {"location": {"lat": 51.5147827, "lng": -0.1984401}, "viewport": {"northeast": {"lat": 51.51605773029149, "lng": -0.197068669708498}, "southwest": {"lat": 51.51335976970849, "lng": -0.199766630291502}}}, "name": "slowimo", "place_id": "ChIJmUK7roIPdkgRYsq53Z6Udws", "types": ["point_of_interest", "establishment"]}, "ChIJ1e6Wlb0PdkgRkZ-6QyYl93A": {"geometry": {"location": {"lat": 51.5147827, "lng": -0.1984401}, "viewport": {"northeast": {"lat": 51.51605773029149, "lng": -0.197068669708498}, "southwest": {"lat": 51.51335976970849, "lng": -0.199766630291502}}}, "name": "2SLOWCO LTD", "place_id": "ChIJ1e6Wlb0PdkgRkZ-6QyYl93A", "types": ["point_of_interest", "establishment"]}, "ChIJ02X--x8PdkgR-EMBF8rcCwk": {"geometry": {"location": {"lat": 51.5147827, "lng": -0.1984401}, "viewport": {"northeast": {"lat": 51.51605773029149, "lng": -0.197068669708498}, "southwest": {"lat": 51.51335976970849, "lng": -0.199766630291502}}}, "name": "Trefuly", "place_id": "ChIJ02X--x8PdkgR-EMBF8rcCwk", "types": ["health", "point_of_interest", "establishment"]}, "ChIJqUQND-MRdkgRJO4uYjdZe0M": {"geometry": {"location": {"lat": 51.515435, "lng": -0.1988848}, "viewport": {"northeast": {"lat": 51.5168466302915, "lng": -0.197535969708498}, "southwest": {"lat": 51.5141486697085, "lng": -0.200233930291502}}}, "name": "Notting Hill Psychotherapy and Counselling", "place_id": "ChIJqUQND-MRdkgRJO4uYjdZe0M", "types": ["health", "point_of_interest", "establishment"]}, "ChIJ7bqIVv0PdkgRKj6KouCbL3g": {"geometry": {"location": {"lat": 51.5147014, "lng": -0.1993662}, "viewport": {"northeast": {"lat": 51.51601978029149, "lng": -0.197941319708498}, "southwest": {"lat": 51.51332181970849, "lng": -0.200639280291502}}}, "name": "Home Made estate agency Notting Hill", "place_id": "ChIJ7bqIVv0PdkgRKj6KouCbL3g", "types": ["real_estate_agency", "point_of_interest", "establishment"]}, "ChIJV34-suIPdkgRvgC3OtxHkGg": {"geometry": {"location": {"lat": 51.5145509, "lng": -0.1987196}, "viewport": {"northeast": {"lat": 51.51566348029149, "lng": -0.197913619708498}, "southwest": {"lat": 51.51296551970849, "lng": -0.200611580291502}}}, "name": "Homesite Estate Agents", "place_id": "ChIJV34-suIPdkgRvgC3OtxHkGg", "types": ["real_estate_agency", "point_of_interest", "establishment"], "rating": 4.7, "user_ratings_total": 61}, "ChIJZ2dLrgIQdkgR5Q0u1AqkG3I": {"geometry": {"location": {"lat": 51.5153949, "lng": -0.1992815}, "viewport": {"northeast": {"lat": 51.5167368802915, "lng": -0.197990019708498}, "southwest": {"lat": 51.5140389197085, "lng": -0.200687980291502}}}, "name": "Just Jooste", "place_id": "ChIJZ2dLrgIQdkgR5Q0u1AqkG3I", "types": ["point_of_interest", "establishment"]}, "ChIJ3whBpEIRdkgR7P3Zm2zlFBc": {"geometry": {"location": {"lat": 51.51545099999999, "lng": -0.1990392999999999}, "viewport": {"northeast": {"lat": 51.51685453029149, "lng": -0.1976904697084979}, "southwest": {"lat": 51.51415656970849, "lng": -0.200388430291502}}}, "name": "Zipcar", "place_id": "ChIJ3whBpEIRdkgR7P3Zm2zlFBc", "types": ["car_rental", "point_of_interest", "establishment"]}, "ChIJCZgXqhMRdkgR0Lc4qdxIsZg": {"geometry": {"location": {"lat": 51.51517709999999, "lng": -0.1996307}, "viewport": {"northeast": {"lat": 51.51647773029149, "lng": -0.1982671197084979}, "southwest": {"lat": 51.51377976970849, "lng": -0.200965080291502}}}, "name": "Taymour Grahne Projects l Notting Hill", "place_id": "ChIJCZgXqhMRdkgR0Lc4qdxIsZg", "types": ["art_gallery", "point_of_interest", "establishment"]}, "ChIJ0_zMa7kRdkgRr5FwSk3z8Qc": {"geometry": {"location": {"lat": 51.5154446, "lng": -0.1992645}, "viewport": {"northeast": {"lat": 51.5167846302915, "lng": -0.197988769708498}, "southwest": {"lat": 51.5140866697085, "lng": -0.200686730291502}}}, "name": "Spring to Go", "place_id": "ChIJ0_zMa7kRdkgRr5FwSk3z8Qc", "types": ["restaurant", "food", "point_of_interest", "establishment"], "rating": 3.3, "user_ratings_total": 4}, "ChIJJ1hM2dUbdkgRRI1954YBf2k": {"geometry": {"location": {"lat": 51.51528159999999, "lng": -0.1995614}, "viewport": {"northeast": {"lat": 51.51664213029149, "lng": -0.198117969708498}, "southwest": {"lat": 51.51394416970849, "lng": -0.200815930291502}}}, "name": "MMBP & Associates", "place_id": "ChIJJ1hM2dUbdkgRRI1954YBf2k", "types": ["point_of_interest", "establishment"], "rating": 5, "user_ratings_total": 1}, "ChIJO643Xv0PdkgRR_r2pQTV2qY": {"geometry": {"location": {"lat": 51.5147686, "lng": -0.1982567}, "viewport": {"northeast": {"lat": 51.5160608802915, "lng": -0.196890469708498}, "southwest": {"lat": 51.51336291970851, "lng": -0.199588430291502}}}, "name": "Savills Notting Hill Estate Agents", "place_id": "ChIJO643Xv0PdkgRR_r2pQTV2qY", "types": ["real_estate_agency", "point_of_interest", "establishment"], "rating": 5, "user_ratings_total": 38}, "ChIJUwH-rwIQdkgR0F7bKXd5d2o": {"geometry": {"location": {"lat": 51.5154958, "lng": -0.1989879}, "viewport": {"northeast": {"lat": 51.5168793302915, "lng": -0.197639619708498}, "southwest": {"lat": 51.5141813697085, "lng": -0.200337580291502}}}, "name": "Chargemaster Charging Station", "place_id": "ChIJUwH-rwIQdkgR0F7bKXd5d2o", "types": ["point_of_interest", "establishment"]}, "ChIJR4cnYP0PdkgRCU4vctWsgX8": {"geometry": {"location": {"lat": 51.5148404, "lng": -0.1982233}, "viewport": {"northeast": {"lat": 51.51609988029151, "lng": -0.196847119708498}, "southwest": {"lat": 51.51340191970851, "lng": -0.199545080291502}}}, "name": "Workthere Notting Hill", "place_id": "ChIJR4cnYP0PdkgRCU4vctWsgX8", "types": ["real_estate_agency", "point_of_interest", "establishment"]}, "ChIJ97SNrgIQdkgRggKQuxk41XI": {"geometry": {"location": {"lat": 51.5152756, "lng": -0.1996192}, "viewport": {"northeast": {"lat": 51.5166396302915, "lng": -0.1981470197084979}, "southwest": {"lat": 51.5139416697085, "lng": -0.200844980291502}}}, "name": "Lyon Choy", "place_id": "ChIJ97SNrgIQdkgRggKQuxk41XI", "types": ["store", "point_of_interest", "establishment"]}, "ChIJ35QpVP0PdkgRVvpOz-i2_II": {"geometry": {"location": {"lat": 51.514613, "lng": -0.199411}, "viewport": {"northeast": {"lat": 51.5159145802915, "lng": -0.1980461197084979}, "southwest": {"lat": 51.5132166197085, "lng": -0.200744080291502}}}, "name": "Sandro", "place_id": "ChIJ35QpVP0PdkgRVvpOz-i2_II", "types": ["clothing_store", "point_of_interest", "store", "establishment"], "rating": 3.9, "user_ratings_total": 7}, "ChIJjclrIm4FdkgR38oEYvnuOYM": {"geometry": {"location": {"lat": 51.515175, "lng": -0.199705}, "viewport": {"northeast": {"lat": 51.5164734302915, "lng": -0.198341619708498}, "southwest": {"lat": 51.5137754697085, "lng": -0.201039580291502}}}, "name": "Lilly Hastedt", "place_id": "ChIJjclrIm4FdkgR38oEYvnuOYM", "types": ["jewelry_store", "point_of_interest", "store", "establishment"], "rating": 5, "user_ratings_total": 4}, "ChIJF5RmYP0PdkgR4bWbncdYkwU": {"geometry": {"location": {"lat": 51.514703, "lng": -0.198277}, "viewport": {"northeast": {"lat": 51.5160259302915, "lng": -0.196918919708498}, "southwest": {"lat": 51.5133279697085, "lng": -0.199616880291502}}}, "name": "ubitricity Charging Station", "place_id": "ChIJF5RmYP0PdkgR4bWbncdYkwU", "types": ["point_of_interest", "establishment"]}, "ChIJbzkFWx0QdkgRUA8eAmqi6Hs": {"geometry": {"location": {"lat": 51.51451180000001, "lng": -0.1988036}, "viewport": {"northeast": {"lat": 51.5158970302915, "lng": -0.197465619708498}, "southwest": {"lat": 51.5131990697085, "lng": -0.200163580291502}}}, "name": "Pippa Small", "place_id": "ChIJbzkFWx0QdkgRUA8eAmqi6Hs", "types": ["jewelry_store", "point_of_interest", "store", "establishment"], "rating": 5, "user_ratings_total": 2}, "ChIJXaw1rAIQdkgRbQtXD9a-50Y": {"geometry": {"location": {"lat": 51.51531970000001, "lng": -0.1996495}, "viewport": {"northeast": {"lat": 51.5166846802915, "lng": -0.198169419708498}, "southwest": {"lat": 51.51398671970851, "lng": -0.200867380291502}}}, "name": "Caramel", "place_id": "ChIJXaw1rAIQdkgRbQtXD9a-50Y", "types": ["clothing_store", "point_of_interest", "store", "establishment"], "rating": 4.3, "user_ratings_total": 7}, "ChIJkUfHRf0PdkgRAQncqQ741WQ": {"geometry": {"location": {"lat": 51.513897611301, "lng": -0.1989453478231031}, "viewport": {"northeast": {"lat": 51.5152460802915, "lng": -0.197599969708498}, "southwest": {"lat": 51.51254811970851, "lng": -0.2002979302915021}}}, "name": "43-53 Ledbury Rd", "place_id": "ChIJkUfHRf0PdkgRAQncqQ741WQ", "types": ["route"]}, "ChIJtWDzWv0PdkgRvBp-zlg-X8c": {"geometry": {"location": {"lat": 51.513792, "lng": -0.199155}, "viewport": {"northeast": {"lat": 51.5151409802915, "lng": -0.1978060197084979}, "southwest": {"lat": 51.5124430197085, "lng": -0.200503980291502}}}, "name": "Beach Blanket Babylon", "place_id": "ChIJtWDzWv0PdkgRvBp-zlg-X8c", "types": ["bar", "restaurant", "food", "point_of_interest", "establishment"], "rating": 3.8, "user_ratings_total": 493}, "ChIJ9cweT_0PdkgRy6_UmtNE8U8": {"geometry": {"location": {"lat": 51.5141247, "lng": -0.1992918}, "viewport": {"northeast": {"lat": 51.51547368029149, "lng": -0.197942819708498}, "southwest": {"lat": 51.5127757197085, "lng": -0.2006407802915021}}}, "name": "Melt Chocolates", "place_id": "ChIJ9cweT_0PdkgRy6_UmtNE8U8", "types": ["food", "point_of_interest", "store", "establishment"], "rating": 4.3, "user_ratings_total": 76}, "ChIJ97FRRP0PdkgRNxliSNH2Jjk": {"geometry": {"location": {"lat": 51.51392909999999, "lng": -0.1987877}, "viewport": {"northeast": {"lat": 51.51526808029149, "lng": -0.197519369708498}, "southwest": {"lat": 51.51257011970849, "lng": -0.200217330291502}}}, "name": "Aim\u00e9", "place_id": "ChIJ97FRRP0PdkgRNxliSNH2Jjk", "types": ["point_of_interest", "clothing_store", "store", "establishment"], "rating": 4.1, "user_ratings_total": 7}, "ChIJZdawQv0PdkgRfeWZQILWDmE": {"geometry": {"location": {"lat": 51.514152, "lng": -0.198414}, "viewport": {"northeast": {"lat": 51.51552333029149, "lng": -0.197073019708498}, "southwest": {"lat": 51.5128253697085, "lng": -0.199770980291502}}}, "name": "Sraymax Construction", "place_id": "ChIJZdawQv0PdkgRfeWZQILWDmE", "types": ["general_contractor", "point_of_interest", "establishment"], "rating": 4.4, "user_ratings_total": 7}, "ChIJM9awQv0PdkgRSWVbGewisEs": {"geometry": {"location": {"lat": 51.5142141, "lng": -0.198565}, "viewport": {"northeast": {"lat": 51.5155678302915, "lng": -0.197217719708498}, "southwest": {"lat": 51.5128698697085, "lng": -0.199915680291502}}}, "name": "Silver Seed", "place_id": "ChIJM9awQv0PdkgRSWVbGewisEs", "types": ["point_of_interest", "establishment"]}, "ChIJM9awQv0PdkgRqnP1EFfG6S0": {"geometry": {"location": {"lat": 51.5142141, "lng": -0.198565}, "viewport": {"northeast": {"lat": 51.5155678302915, "lng": -0.197217719708498}, "southwest": {"lat": 51.5128698697085, "lng": -0.199915680291502}}}, "name": "Web Studio Design", "place_id": "ChIJM9awQv0PdkgRqnP1EFfG6S0", "types": ["point_of_interest", "establishment"]}, "ChIJKVW7RP0PdkgRmZMAyBKnGaI": {"geometry": {"location": {"lat": 51.51387099999999, "lng": -0.198802}, "viewport": {"northeast": {"lat": 51.51521193029149, "lng": -0.197517869708498}, "southwest": {"lat": 51.51251396970849, "lng": -0.200215830291502}}}, "name": "Chestertons Notting Hill", "place_id": "ChIJKVW7RP0PdkgRmZMAyBKnGaI", "types": ["real_estate_agency", "finance", "point_of_interest", "establishment"], "rating": 4.9, "user_ratings_total": 115}, "ChIJKVW7RP0PdkgRB6FkduHfPHs": {"geometry": {"location": {"lat": 51.5142031, "lng": -0.1988301}, "viewport": {"northeast": {"lat": 51.5155520802915, "lng": -0.197481119708498}, "southwest": {"lat": 51.5128541197085, "lng": -0.200179080291502}}}, "name": "Sweaty Betty", "place_id": "ChIJKVW7RP0PdkgRB6FkduHfPHs", "types": ["gym", "health", "point_of_interest", "clothing_store", "store", "establishment"], "rating": 4.3, "user_ratings_total": 3}, "ChIJy3P7Qv0PdkgRuSZtREXEq7s": {"geometry": {"location": {"lat": 51.51405200000001, "lng": -0.198502}, "viewport": {"northeast": {"lat": 51.51546938029151, "lng": -0.197177469708498}, "southwest": {"lat": 51.51277141970851, "lng": -0.1998754302915021}}}, "name": "Booxscale", "place_id": "ChIJy3P7Qv0PdkgRuSZtREXEq7s", "types": ["point_of_interest", "establishment"], "rating": 5, "user_ratings_total": 1}, "ChIJPbKpR_0PdkgRCec4C_7KdgI": {"geometry": {"location": {"lat": 51.51365370000001, "lng": -0.1990572}, "viewport": {"northeast": {"lat": 51.5150359802915, "lng": -0.197689669708498}, "southwest": {"lat": 51.5123380197085, "lng": -0.200387630291502}}}, "name": "Hari's Hairdressers Notting Hill", "place_id": "ChIJPbKpR_0PdkgRCec4C_7KdgI", "types": ["hair_care", "point_of_interest", "establishment"], "rating": 4.7, "user_ratings_total": 110}, "ChIJPU0rUP0PdkgR3hM3CKw3uBU": {"geometry": {"location": {"lat": 51.5141994, "lng": -0.1992668}, "viewport": {"northeast": {"lat": 51.5155614802915, "lng": -0.197817519708498}, "southwest": {"lat": 51.5128635197085, "lng": -0.200515480291502}}}, "name": "La Coqueta", "place_id": "ChIJPU0rUP0PdkgR3hM3CKw3uBU", "types": ["point_of_interest", "clothing_store", "store", "establishment"], "rating": 4.3, "user_ratings_total": 17}, "ChIJ3VHpWv0PdkgRo59ouetHCYo": {"geometry": {"location": {"lat": 51.5143187, "lng": -0.1989073}, "viewport": {"northeast": {"lat": 51.5156523802915, "lng": -0.197648319708498}, "southwest": {"lat": 51.5129544197085, "lng": -0.200346280291502}}}, "name": "Robin Martin Antiques", "place_id": "ChIJ3VHpWv0PdkgRo59ouetHCYo", "types": ["furniture_store", "home_goods_store", "point_of_interest", "store", "establishment"], "rating": 4, "user_ratings_total": 4}, "ChIJl2G0Qv0PdkgRdCn5sqdhm78": {"geometry": {"location": {"lat": 51.51417300000001, "lng": -0.19842}, "viewport": {"northeast": {"lat": 51.5155235302915, "lng": -0.197071619708498}, "southwest": {"lat": 51.5128255697085, "lng": -0.199769580291502}}}, "name": "Rui Ribeiro Interiors Ltd", "place_id": "ChIJl2G0Qv0PdkgRdCn5sqdhm78", "types": ["general_contractor", "point_of_interest", "establishment"], "rating": 5, "user_ratings_total": 1}, "ChIJHRJl8fsPdkgR-lwWCmsNIFc": {"geometry": {"location": {"lat": 51.51422679999999, "lng": -0.1984606}, "viewport": {"northeast": {"lat": 51.5155822302915, "lng": -0.197113919708498}, "southwest": {"lat": 51.5128842697085, "lng": -0.199811880291502}}}, "name": "Little Dish", "place_id": "ChIJHRJl8fsPdkgR-lwWCmsNIFc", "types": ["food", "point_of_interest", "establishment"], "rating": 4.7, "user_ratings_total": 7}, "ChIJ5eqJUP0PdkgRRJmEUjp43PA": {"geometry": {"location": {"lat": 51.51435379999999, "lng": -0.1990497}, "viewport": {"northeast": {"lat": 51.5157017302915, "lng": -0.197708469708498}, "southwest": {"lat": 51.5130037697085, "lng": -0.200406430291502}}}, "name": "Zipcar", "place_id": "ChIJ5eqJUP0PdkgRRJmEUjp43PA", "types": ["car_rental", "point_of_interest", "establishment"]}, "ChIJUWu4oM4IdkgRVnbQB5gJYR8": {"geometry": {"location": {"lat": 51.5143808, "lng": -0.1988853}, "viewport": {"northeast": {"lat": 51.51571518029149, "lng": -0.197648069708498}, "southwest": {"lat": 51.51301721970849, "lng": -0.200346030291502}}}, "name": "Rkade", "place_id": "ChIJUWu4oM4IdkgRVnbQB5gJYR8", "types": ["home_goods_store", "point_of_interest", "store", "establishment"], "rating": 4.5, "user_ratings_total": 2}, "ChIJNVeFmS8CdkgR0c-jtKV4KXo": {"geometry": {"location": {"lat": 51.5137657, "lng": -0.1982913}, "viewport": {"northeast": {"lat": 51.51505958029149, "lng": -0.196898019708498}, "southwest": {"lat": 51.5123616197085, "lng": -0.199595980291502}}}, "name": "Eesti Kool Londonis", "place_id": "ChIJNVeFmS8CdkgR0c-jtKV4KXo", "types": ["school", "point_of_interest", "establishment"]}, "ChIJMWO7suIPdkgRVt6A4cf7Nws": {"geometry": {"location": {"lat": 51.5140229, "lng": -0.1997465}, "viewport": {"northeast": {"lat": 51.51539883029151, "lng": -0.198403819708498}, "southwest": {"lat": 51.51270086970851, "lng": -0.201101780291502}}}, "name": "Asthetik London Skin Clinic", "place_id": "ChIJMWO7suIPdkgRVt6A4cf7Nws", "types": ["beauty_salon", "hair_care", "spa", "doctor", "health", "point_of_interest", "establishment"], "rating": 5, "user_ratings_total": 23}, "ChIJy0QeRf0PdkgROk1pB3Loi7M": {"geometry": {"location": {"lat": 51.51400169999999, "lng": -0.1988318}, "viewport": {"northeast": {"lat": 51.5153395302915, "lng": -0.197553469708498}, "southwest": {"lat": 51.5126415697085, "lng": -0.200251430291502}}}, "name": "Bodas London", "place_id": "ChIJy0QeRf0PdkgROk1pB3Loi7M", "types": ["point_of_interest", "clothing_store", "store", "establishment"], "rating": 5, "user_ratings_total": 1}, "ChIJKVW7RP0PdkgRQPQzcynb6as": {"geometry": {"location": {"lat": 51.51405579999999, "lng": -0.1988657}, "viewport": {"northeast": {"lat": 51.51540478029149, "lng": -0.197516719708498}, "southwest": {"lat": 51.5127068197085, "lng": -0.2002146802915021}}}, "name": "David Clulow Opticians", "place_id": "ChIJKVW7RP0PdkgRQPQzcynb6as", "types": ["health", "point_of_interest", "store", "establishment"], "rating": 3.5, "user_ratings_total": 2}, "ChIJB-KARv0PdkgRnONWRQpwrwA": {"geometry": {"location": {"lat": 51.5140223, "lng": -0.1989184}, "viewport": {"northeast": {"lat": 51.51536043029151, "lng": -0.197601069708498}, "southwest": {"lat": 51.51266246970851, "lng": -0.200299030291502}}}, "name": "ubitricity Charging Station", "place_id": "ChIJB-KARv0PdkgRnONWRQpwrwA", "types": ["point_of_interest", "establishment"]}, "ChIJDSctRf0PdkgRxtx4C2TDqyI": {"geometry": {"location": {"lat": 51.5139671, "lng": -0.1987479}, "viewport": {"northeast": {"lat": 51.5153030302915, "lng": -0.197504569708498}, "southwest": {"lat": 51.5126050697085, "lng": -0.2002025302915021}}}, "name": "APC", "place_id": "ChIJDSctRf0PdkgRxtx4C2TDqyI", "types": ["clothing_store", "point_of_interest", "store", "establishment"], "rating": 4.6, "user_ratings_total": 12}, "ChIJk_1CT_0PdkgRTizTXpKbmIY": {"geometry": {"location": {"lat": 51.5139256, "lng": -0.1991368}, "viewport": {"northeast": {"lat": 51.5152854302915, "lng": -0.197700019708498}, "southwest": {"lat": 51.51258746970851, "lng": -0.200397980291502}}}, "name": "Blink Brow Bar", "place_id": "ChIJk_1CT_0PdkgRTizTXpKbmIY", "types": ["beauty_salon", "point_of_interest", "establishment"], "rating": 4.8, "user_ratings_total": 77}, "ChIJXwHDRP0PdkgRUHmayoX-CFk": {"geometry": {"location": {"lat": 51.5141117, "lng": -0.1988423}, "viewport": {"northeast": {"lat": 51.5154606802915, "lng": -0.197493319708498}, "southwest": {"lat": 51.5127627197085, "lng": -0.200191280291502}}}, "name": "Caramel", "place_id": "ChIJXwHDRP0PdkgRUHmayoX-CFk", "types": ["clothing_store", "point_of_interest", "store", "establishment"]}, "ChIJ07IHT_0PdkgRUF875-SQ9ZA": {"geometry": {"location": {"lat": 51.5140106, "lng": -0.1992055}, "viewport": {"northeast": {"lat": 51.51537603029149, "lng": -0.197753369708498}, "southwest": {"lat": 51.5126780697085, "lng": -0.200451330291502}}}, "name": "Maison SL", "place_id": "ChIJ07IHT_0PdkgRUF875-SQ9ZA", "types": ["point_of_interest", "clothing_store", "store", "establishment"], "rating": 5, "user_ratings_total": 13}, "ChIJyc21SP0PdkgRQciJMC_ny3I": {"geometry": {"location": {"lat": 51.5138361, "lng": -0.1991621}, "viewport": {"northeast": {"lat": 51.5152009802915, "lng": -0.197698219708498}, "southwest": {"lat": 51.5125030197085, "lng": -0.200396180291502}}}, "name": "AASHNI + CO", "place_id": "ChIJyc21SP0PdkgRQciJMC_ny3I", "types": ["clothing_store", "point_of_interest", "store", "establishment"]}, "ChIJ7bG7ZxwPdkgR1ABeGBh4wZU": {"geometry": {"location": {"lat": 51.5138361, "lng": -0.1991621}, "viewport": {"northeast": {"lat": 51.5152009802915, "lng": -0.197698219708498}, "southwest": {"lat": 51.5125030197085, "lng": -0.200396180291502}}}, "name": "Gaurang at AASHNI+CO", "place_id": "ChIJ7bG7ZxwPdkgR1ABeGBh4wZU", "types": ["point_of_interest", "clothing_store", "store", "establishment"], "rating": 5, "user_ratings_total": 1}, "ChIJud2QpfkPdkgRvMhuyd0tpPk": {"geometry": {"location": {"lat": 51.5140992, "lng": -0.1992693}, "viewport": {"northeast": {"lat": 51.5154633302915, "lng": -0.197802569708498}, "southwest": {"lat": 51.5127653697085, "lng": -0.200500530291502}}}, "name": "FACEGYM Notting Hill", "place_id": "ChIJud2QpfkPdkgRvMhuyd0tpPk", "types": ["beauty_salon", "point_of_interest", "establishment"], "rating": 3.7, "user_ratings_total": 17}, "ChIJy19H2tcPdkgRv5OLFFk8Sd0": {"geometry": {"location": {"lat": 51.5142453, "lng": -0.1989065}, "viewport": {"northeast": {"lat": 51.5155838802915, "lng": -0.1976372197084979}, "southwest": {"lat": 51.5128859197085, "lng": -0.200335180291502}}}, "name": "Finlay - Notting Hill", "place_id": "ChIJy19H2tcPdkgRv5OLFFk8Sd0", "types": ["health", "point_of_interest", "store", "establishment"], "rating": 5, "user_ratings_total": 21}, "ChIJG0QbUf0PdkgRbT1MWArlCwM": {"geometry": {"location": {"lat": 51.5143452, "lng": -0.1993147}, "viewport": {"northeast": {"lat": 51.5157761802915, "lng": -0.198010969708498}, "southwest": {"lat": 51.5130782197085, "lng": -0.200708930291502}}}, "name": "Emma Hope", "place_id": "ChIJG0QbUf0PdkgRbT1MWArlCwM", "types": ["shoe_store", "point_of_interest", "store", "establishment"], "rating": 4, "user_ratings_total": 3}, "ChIJzymxQv0PdkgRbACCB2vnuZ0": {"geometry": {"location": {"lat": 51.51422119999999, "lng": -0.1985521}, "viewport": {"northeast": {"lat": 51.51556993029149, "lng": -0.197203019708498}, "southwest": {"lat": 51.5128719697085, "lng": -0.199900980291502}}}, "name": "Floral Ltd", "place_id": "ChIJzymxQv0PdkgRbACCB2vnuZ0", "types": ["florist", "point_of_interest", "store", "establishment"]}, "ChIJl7arPgUPdkgRlExma69V8XE": {"geometry": {"location": {"lat": 51.51360729999999, "lng": -0.1990868}, "viewport": {"northeast": {"lat": 51.5149699802915, "lng": -0.1976250697084979}, "southwest": {"lat": 51.5122720197085, "lng": -0.200323030291502}}}, "name": "Best Chiropractor", "place_id": "ChIJl7arPgUPdkgRlExma69V8XE", "types": ["health", "point_of_interest", "establishment"]}, "ChIJ05noR_0PdkgRGkvFHniPJ60": {"geometry": {"location": {"lat": 51.51360829999999, "lng": -0.1991066}, "viewport": {"northeast": {"lat": 51.5149721302915, "lng": -0.197635469708498}, "southwest": {"lat": 51.5122741697085, "lng": -0.200333430291502}}}, "name": "Fara Kids Charity Shop", "place_id": "ChIJ05noR_0PdkgRGkvFHniPJ60", "types": ["point_of_interest", "establishment"], "rating": 4.3, "user_ratings_total": 43}, "ChIJGSqxQv0PdkgRFPlqnKSH5kY": {"geometry": {"location": {"lat": 51.5141528, "lng": -0.1984143}, "viewport": {"northeast": {"lat": 51.51552333029149, "lng": -0.197073019708498}, "southwest": {"lat": 51.5128253697085, "lng": -0.199770980291502}}}, "name": "Notion Capital Partners Llp", "place_id": "ChIJGSqxQv0PdkgRFPlqnKSH5kY", "types": ["finance", "point_of_interest", "establishment"]}, "ChIJGSqxQv0PdkgRJTkjh7kS0lw": {"geometry": {"location": {"lat": 51.5141528, "lng": -0.1984143}, "viewport": {"northeast": {"lat": 51.51552333029149, "lng": -0.197073019708498}, "southwest": {"lat": 51.5128253697085, "lng": -0.199770980291502}}}, "name": "Expectation Entertainment", "place_id": "ChIJGSqxQv0PdkgRJTkjh7kS0lw", "types": ["point_of_interest", "establishment"]}, "ChIJGSqxQv0PdkgR834-iBWKQME": {"geometry": {"location": {"lat": 51.5141528, "lng": -0.1984143}, "viewport": {"northeast": {"lat": 51.51552333029149, "lng": -0.197073019708498}, "southwest": {"lat": 51.5128253697085, "lng": -0.199770980291502}}}, "name": "Banneya London", "place_id": "ChIJGSqxQv0PdkgR834-iBWKQME", "types": ["jewelry_store", "point_of_interest", "store", "establishment"]}, "ChIJKRWGQRIPdkgRm439v3eSImk": {"geometry": {"location": {"lat": 51.5141524, "lng": -0.1984135}, "viewport": {"northeast": {"lat": 51.5155234302915, "lng": -0.197072419708498}, "southwest": {"lat": 51.5128254697085, "lng": -0.199770380291502}}}, "name": "Ledbury Studio", "place_id": "ChIJKRWGQRIPdkgRm439v3eSImk", "types": ["point_of_interest", "establishment"]}, "ChIJLdawQv0PdkgRY1cpFoecY1Q": {"geometry": {"location": {"lat": 51.5141524, "lng": -0.1984135}, "viewport": {"northeast": {"lat": 51.5155234302915, "lng": -0.197072419708498}, "southwest": {"lat": 51.5128254697085, "lng": -0.199770380291502}}}, "name": "Julien Macdonald", "place_id": "ChIJLdawQv0PdkgRY1cpFoecY1Q", "types": ["point_of_interest", "establishment"], "rating": 5, "user_ratings_total": 1}, "ChIJzymxQv0PdkgRJEq-9L8cGWM": {"geometry": {"location": {"lat": 51.5141527, "lng": -0.1984136}, "viewport": {"northeast": {"lat": 51.5155234302915, "lng": -0.197072419708498}, "southwest": {"lat": 51.5128254697085, "lng": -0.199770380291502}}}, "name": "Cartils", "place_id": "ChIJzymxQv0PdkgRJEq-9L8cGWM", "types": ["point_of_interest", "establishment"]}, "ChIJQYk_Xf0PdkgRUazT26spCDY": {"geometry": {"location": {"lat": 51.5142587, "lng": -0.1984405}, "viewport": {"northeast": {"lat": 51.5155864302915, "lng": -0.197083919708498}, "southwest": {"lat": 51.5128884697085, "lng": -0.199781880291502}}}, "name": "Muza Lab", "place_id": "ChIJQYk_Xf0PdkgRUazT26spCDY", "types": ["general_contractor", "point_of_interest", "establishment"], "rating": 5, "user_ratings_total": 1}, "ChIJNVLWFK4PdkgRe2Zu2cWD5Ts": {"geometry": {"location": {"lat": 51.5143808, "lng": -0.1988853}, "viewport": {"northeast": {"lat": 51.51571518029149, "lng": -0.197648069708498}, "southwest": {"lat": 51.51301721970849, "lng": -0.200346030291502}}}, "name": "AWAYTOMARS", "place_id": "ChIJNVLWFK4PdkgRe2Zu2cWD5Ts", "types": ["clothing_store", "point_of_interest", "store", "establishment"], "rating": 5, "user_ratings_total": 1}, "ChIJf8oju_cPdkgR7rh5xdD5wow": {"geometry": {"location": {"lat": 51.5143808, "lng": -0.1988853}, "viewport": {"northeast": {"lat": 51.51571518029149, "lng": -0.197648069708498}, "southwest": {"lat": 51.51301721970849, "lng": -0.200346030291502}}}, "name": "Velveteen", "place_id": "ChIJf8oju_cPdkgR7rh5xdD5wow", "types": ["clothing_store", "point_of_interest", "store", "establishment"], "rating": 5, "user_ratings_total": 1}, "ChIJ__-MTf0PdkgRrYDCMH0hi48": {"geometry": {"location": {"lat": 51.5141612, "lng": -0.1995404}, "viewport": {"northeast": {"lat": 51.5154716802915, "lng": -0.198221369708498}, "southwest": {"lat": 51.51277371970851, "lng": -0.200919330291502}}}, "name": "Copasetik Recordings", "place_id": "ChIJ__-MTf0PdkgRrYDCMH0hi48", "types": ["electronics_store", "home_goods_store", "point_of_interest", "store", "establishment"]}, "ChIJ__-MTf0PdkgR0P9GUAzM6GU": {"geometry": {"location": {"lat": 51.5141612, "lng": -0.1995404}, "viewport": {"northeast": {"lat": 51.5154716802915, "lng": -0.198221369708498}, "southwest": {"lat": 51.51277371970851, "lng": -0.200919330291502}}}, "name": "This Modern Love Films Limited", "place_id": "ChIJ__-MTf0PdkgR0P9GUAzM6GU", "types": ["point_of_interest", "establishment"]}, "ChIJ4bRn2kEFdkgRug6RzOvmGqc": {"geometry": {"location": {"lat": 51.5140217, "lng": -0.1997715}, "viewport": {"northeast": {"lat": 51.5153967302915, "lng": -0.198427619708498}, "southwest": {"lat": 51.5126987697085, "lng": -0.201125580291502}}}, "name": "Kensington Physio & Sports Medicine", "place_id": "ChIJ4bRn2kEFdkgRug6RzOvmGqc", "types": ["physiotherapist", "gym", "health", "point_of_interest", "establishment"], "rating": 4.8, "user_ratings_total": 19}, "ChIJI9DHW_0PdkgRpYWdtYQ4cqU": {"geometry": {"location": {"lat": 51.5144597, "lng": -0.1988894}, "viewport": {"northeast": {"lat": 51.5158652302915, "lng": -0.197557569708498}, "southwest": {"lat": 51.5131672697085, "lng": -0.200255530291502}}}, "name": "Lacy Gallery", "place_id": "ChIJI9DHW_0PdkgRpYWdtYQ4cqU", "types": ["art_gallery", "home_goods_store", "point_of_interest", "store", "establishment"], "rating": 4.8, "user_ratings_total": 4}, "ChIJO6wnWv0PdkgR0S6com4-_9E": {"geometry": {"location": {"lat": 51.51448, "lng": -0.198982}, "viewport": {"northeast": {"lat": 51.5158494302915, "lng": -0.197690619708498}, "southwest": {"lat": 51.5131514697085, "lng": -0.2003885802915021}}}, "name": "Bective Leslie Marsh", "place_id": "ChIJO6wnWv0PdkgR0S6com4-_9E", "types": ["real_estate_agency", "finance", "point_of_interest", "establishment"], "rating": 4.6, "user_ratings_total": 31}, "ChIJ9ysFMXsPdkgRiCkU-da-WOo": {"geometry": {"location": {"lat": 51.514027, "lng": -0.1997604999999999}, "viewport": {"northeast": {"lat": 51.5153976302915, "lng": -0.198416619708498}, "southwest": {"lat": 51.5126996697085, "lng": -0.201114580291502}}}, "name": "Hypnotic Breakthrough", "place_id": "ChIJ9ysFMXsPdkgRiCkU-da-WOo", "types": ["health", "point_of_interest", "establishment"], "rating": 5, "user_ratings_total": 3}, "ChIJ9X86QLcPdkgRk-XN6TTw1ag": {"geometry": {"location": {"lat": 51.514027, "lng": -0.1997604999999999}, "viewport": {"northeast": {"lat": 51.5153976302915, "lng": -0.198416619708498}, "southwest": {"lat": 51.5126996697085, "lng": -0.201114580291502}}}, "name": "MAHAAH - Private GP, Nutritionist and Fitness Doctor Clinic", "place_id": "ChIJ9X86QLcPdkgRk-XN6TTw1ag", "types": ["doctor", "health", "point_of_interest", "establishment"], "rating": 5, "user_ratings_total": 10}, "ChIJQbSWmkAPdkgR5zemphAJ0Fc": {"geometry": {"location": {"lat": 51.514027, "lng": -0.1997604999999999}, "viewport": {"northeast": {"lat": 51.5153976302915, "lng": -0.198416619708498}, "southwest": {"lat": 51.5126996697085, "lng": -0.201114580291502}}}, "name": "dr alika goodwin", "place_id": "ChIJQbSWmkAPdkgR5zemphAJ0Fc", "types": ["health", "point_of_interest", "establishment"]}, "ChIJTxf6W_0PdkgRNwHdnF4qfho": {"geometry": {"location": {"lat": 51.5144742, "lng": -0.1987431}, "viewport": {"northeast": {"lat": 51.51588098029149, "lng": -0.197411619708498}, "southwest": {"lat": 51.5131830197085, "lng": -0.200109580291502}}}, "name": "Bleu comme gris", "place_id": "ChIJTxf6W_0PdkgRNwHdnF4qfho", "types": ["point_of_interest", "clothing_store", "store", "establishment"], "rating": 4, "user_ratings_total": 2}, "ChIJz-KTSx0QdkgRQB4R0uUp-Po": {"geometry": {"location": {"lat": 51.51589848342658, "lng": -0.2000641306095286}, "viewport": {"northeast": {"lat": 51.5172383802915, "lng": -0.198711119708498}, "southwest": {"lat": 51.5145404197085, "lng": -0.201409080291502}}}, "name": "42-40 Colville Terrace", "place_id": "ChIJz-KTSx0QdkgRQB4R0uUp-Po", "types": ["route"]}, "ChIJL6f2OB0QdkgR_r3jvL44TRo": {"geometry": {"location": {"lat": 51.51596, "lng": -0.2008023}, "viewport": {"northeast": {"lat": 51.51732703029149, "lng": -0.199361919708498}, "southwest": {"lat": 51.5146290697085, "lng": -0.202059880291502}}}, "name": "Caprera", "place_id": "ChIJL6f2OB0QdkgR_r3jvL44TRo", "types": ["food", "health", "point_of_interest", "store", "establishment"]}, "ChIJgaw-RB0QdkgRTqf82WZEAzc": {"geometry": {"location": {"lat": 51.5156779, "lng": -0.2001537}, "viewport": {"northeast": {"lat": 51.5171201302915, "lng": -0.198853419708498}, "southwest": {"lat": 51.5144221697085, "lng": -0.201551380291502}}}, "name": "Notting Hill Estates", "place_id": "ChIJgaw-RB0QdkgRTqf82WZEAzc", "types": ["real_estate_agency", "point_of_interest", "establishment"], "rating": 4, "user_ratings_total": 1}, "ChIJ8fstTB0QdkgRIuhlBCTAP2A": {"geometry": {"location": {"lat": 51.5156779, "lng": -0.2001536}, "viewport": {"northeast": {"lat": 51.5171201302915, "lng": -0.198853369708498}, "southwest": {"lat": 51.5144221697085, "lng": -0.201551330291502}}}, "name": "The Home Finding Team", "place_id": "ChIJ8fstTB0QdkgRIuhlBCTAP2A", "types": ["point_of_interest", "establishment"]}, "ChIJ8fDwW1MFdkgR6yHGoa56UL8": {"geometry": {"location": {"lat": 51.5156596, "lng": -0.2010976}, "viewport": {"northeast": {"lat": 51.5170106802915, "lng": -0.199749719708498}, "southwest": {"lat": 51.5143127197085, "lng": -0.202447680291502}}}, "name": "Studio St\u00f6dberg", "place_id": "ChIJ8fDwW1MFdkgR6yHGoa56UL8", "types": ["point_of_interest", "establishment"]}, "ChIJ-bqBOh0QdkgRPWaERGHyxa8": {"geometry": {"location": {"lat": 51.5166231, "lng": -0.2005498}, "viewport": {"northeast": {"lat": 51.51803733029149, "lng": -0.199231219708498}, "southwest": {"lat": 51.5153393697085, "lng": -0.201929180291502}}}, "name": "WILLSHOOT4FOOD | PHOTOGRAPHY", "place_id": "ChIJ-bqBOh0QdkgRPWaERGHyxa8", "types": ["point_of_interest", "establishment"]}, "ChIJ16t5z4kRdkgRQx5qwhYoGfg": {"geometry": {"location": {"lat": 51.5161939, "lng": -0.2007157}, "viewport": {"northeast": {"lat": 51.5175515802915, "lng": -0.199322819708498}, "southwest": {"lat": 51.5148536197085, "lng": -0.202020780291502}}}, "name": "Petite Performers Notting Hill", "place_id": "ChIJ16t5z4kRdkgRQx5qwhYoGfg", "types": ["point_of_interest", "establishment"]}, "ChIJUej3Nx0QdkgRxSszHLvuoJs": {"geometry": {"location": {"lat": 51.5161965, "lng": -0.2005663}, "viewport": {"northeast": {"lat": 51.5175315302915, "lng": -0.199287919708498}, "southwest": {"lat": 51.5148335697085, "lng": -0.201985880291502}}}, "name": "Global Assets Investments Limited", "place_id": "ChIJUej3Nx0QdkgRxSszHLvuoJs", "types": ["point_of_interest", "establishment"]}, "ChIJkyduOB0QdkgRK_9JQC7LiLs": {"geometry": {"location": {"lat": 51.51624830000001, "lng": -0.2008436}, "viewport": {"northeast": {"lat": 51.51760378029151, "lng": -0.199450369708498}, "southwest": {"lat": 51.51490581970851, "lng": -0.202148330291502}}}, "name": "ubitricity Charging Station", "place_id": "ChIJkyduOB0QdkgRK_9JQC7LiLs", "types": ["point_of_interest", "establishment"]}, "ChIJwehwSR0QdkgRpHRgFyC1_hk": {"geometry": {"location": {"lat": 51.5159604, "lng": -0.2002542}, "viewport": {"northeast": {"lat": 51.5172649302915, "lng": -0.198884419708498}, "southwest": {"lat": 51.5145669697085, "lng": -0.201582380291502}}}, "name": "Hestia", "place_id": "ChIJwehwSR0QdkgRpHRgFyC1_hk", "types": ["point_of_interest", "establishment"], "rating": 2, "user_ratings_total": 2}, "ChIJG2ooM_MRdkgR_KOGrCv_kRY": {"geometry": {"location": {"lat": 51.51602560000001, "lng": -0.2001598000000001}, "viewport": {"northeast": {"lat": 51.51730798029151, "lng": -0.198779619708498}, "southwest": {"lat": 51.51461001970851, "lng": -0.2014775802915021}}}, "name": "Digitransformer", "place_id": "ChIJG2ooM_MRdkgR_KOGrCv_kRY", "types": ["point_of_interest", "establishment"]}, "ChIJIygySR0QdkgRxXQDsAnkO6w": {"geometry": {"location": {"lat": 51.51584829999999, "lng": -0.2003305}, "viewport": {"northeast": {"lat": 51.5172272302915, "lng": -0.198997169708498}, "southwest": {"lat": 51.5145292697085, "lng": -0.201695130291502}}}, "name": "Motclar Limited", "place_id": "ChIJIygySR0QdkgRxXQDsAnkO6w", "types": ["point_of_interest", "establishment"]}, "ChIJIygySR0QdkgRfblGs_xEZlE": {"geometry": {"location": {"lat": 51.51584829999999, "lng": -0.2003305}, "viewport": {"northeast": {"lat": 51.5172272302915, "lng": -0.198997169708498}, "southwest": {"lat": 51.5145292697085, "lng": -0.201695130291502}}}, "name": "Rework Studio Llp", "place_id": "ChIJIygySR0QdkgRfblGs_xEZlE", "types": ["point_of_interest", "establishment"]}, "ChIJObcnPx0QdkgRQK8dN2Iuyx8": {"geometry": {"location": {"lat": 51.5163063, "lng": -0.2009916}, "viewport": {"northeast": {"lat": 51.5176745802915, "lng": -0.1995458697084979}, "southwest": {"lat": 51.5149766197085, "lng": -0.202243830291502}}}, "name": "Josie Jenkinson", "place_id": "ChIJObcnPx0QdkgRQK8dN2Iuyx8", "types": ["health", "point_of_interest", "establishment"]}, "ChIJa-uROR0QdkgRbnuLgOnrJi8": {"geometry": {"location": {"lat": 51.5164693, "lng": -0.2007082}, "viewport": {"northeast": {"lat": 51.5178043802915, "lng": -0.199429069708498}, "southwest": {"lat": 51.5151064197085, "lng": -0.202127030291502}}}, "name": "Tactile Wonderland", "place_id": "ChIJa-uROR0QdkgRbnuLgOnrJi8", "types": ["general_contractor", "point_of_interest", "establishment"]}, "ChIJ03jiTh0QdkgRT_71-tdvr70": {"geometry": {"location": {"lat": 51.515711, "lng": -0.2003816}, "viewport": {"northeast": {"lat": 51.51711743029149, "lng": -0.199062619708498}, "southwest": {"lat": 51.51441946970849, "lng": -0.201760580291502}}}, "name": "Sensational Life", "place_id": "ChIJ03jiTh0QdkgRT_71-tdvr70", "types": ["health", "point_of_interest", "establishment"], "rating": 5, "user_ratings_total": 12}, "ChIJ__8rOh0QdkgRwj-uLPAtKh0": {"geometry": {"location": {"lat": 51.5164996, "lng": -0.200733}, "viewport": {"northeast": {"lat": 51.5178354802915, "lng": -0.1994496697084979}, "southwest": {"lat": 51.5151375197085, "lng": -0.202147630291502}}}, "name": "Pilgrim", "place_id": "ChIJ__8rOh0QdkgRwj-uLPAtKh0", "types": ["point_of_interest", "establishment"]}, "ChIJ70JKakURdkgRA5dbi_dRlxk": {"geometry": {"location": {"lat": 51.5164996, "lng": -0.200733}, "viewport": {"northeast": {"lat": 51.5178354802915, "lng": -0.1994496697084979}, "southwest": {"lat": 51.5151375197085, "lng": -0.202147630291502}}}, "name": "Cavalli Property Service Limited", "place_id": "ChIJ70JKakURdkgRA5dbi_dRlxk", "types": ["point_of_interest", "establishment"], "rating": 5, "user_ratings_total": 2}, "ChIJWeXROx0QdkgRx4oGQFzKjAo": {"geometry": {"location": {"lat": 51.5165175, "lng": -0.2007822}, "viewport": {"northeast": {"lat": 51.51785718029151, "lng": -0.199480069708498},