{"E00023839": {"ChIJrQwxSNIadkgRfDGzizBpJ5g": {"geometry": {"location": {"lat": 51.51880460092548, "lng": -0.1503927007581257}, "viewport": {"northeast": {"lat": 51.5201535802915, "lng": -0.149043719708498}, "southwest": {"lat": 51.5174556197085, "lng": -0.151741680291502}}}, "name": "40-18 New Cavendish St", "place_id": "ChIJrQwxSNIadkgRfDGzizBpJ5g", "types": ["route"]}, "ChIJldR_SdIadkgR0Tl2fFAqP2Y": {"geometry": {"location": {"lat": 51.51874879999999, "lng": -0.1501133}, "viewport": {"northeast": {"lat": 51.5201447802915, "lng": -0.148783569708498}, "southwest": {"lat": 51.5174468197085, "lng": -0.151481530291502}}}, "name": "Ainsworths", "place_id": "ChIJldR_SdIadkgR0Tl2fFAqP2Y", "types": ["pharmacy", "health", "point_of_interest", "store", "establishment"], "rating": 4.1, "user_ratings_total": 46}, "ChIJj8spStIadkgRCUrT37ACV5U": {"geometry": {"location": {"lat": 51.518743, "lng": -0.150174}, "viewport": {"northeast": {"lat": 51.52013718029149, "lng": -0.148843519708498}, "southwest": {"lat": 51.51743921970849, "lng": -0.151541480291502}}}, "name": "Homeopathy in London", "place_id": "ChIJj8spStIadkgRCUrT37ACV5U", "types": ["health", "point_of_interest", "establishment"]}, "ChIJv6KDQNIadkgRa1uYcX9xZP4": {"geometry": {"location": {"lat": 51.518802, "lng": -0.1510321}, "viewport": {"northeast": {"lat": 51.52010458029151, "lng": -0.149664119708498}, "southwest": {"lat": 51.51740661970851, "lng": -0.152362080291502}}}, "name": "Margaret Dabbs London", "place_id": "ChIJv6KDQNIadkgRa1uYcX9xZP4", "types": ["beauty_salon", "doctor", "health", "point_of_interest", "establishment"], "rating": 3.4, "user_ratings_total": 56}, "ChIJhcL3GCoFdkgRj0HvGnZterM": {"geometry": {"location": {"lat": 51.5185865, "lng": -0.1507986}, "viewport": {"northeast": {"lat": 51.5200076302915, "lng": -0.149479169708498}, "southwest": {"lat": 51.5173096697085, "lng": -0.152177130291502}}}, "name": "N E I L C O R N E L I U S @ AthertonCox", "place_id": "ChIJhcL3GCoFdkgRj0HvGnZterM", "types": ["hair_care", "point_of_interest", "establishment"], "rating": 4.4, "user_ratings_total": 21}, "ChIJvcspStIadkgRVenv0KnBSQQ": {"geometry": {"location": {"lat": 51.51871060000001, "lng": -0.1501097}, "viewport": {"northeast": {"lat": 51.5201247802915, "lng": -0.148787419708498}, "southwest": {"lat": 51.51742681970851, "lng": -0.151485380291502}}}, "name": "Noam Bar RSHom, Registered Homeopath", "place_id": "ChIJvcspStIadkgRVenv0KnBSQQ", "types": ["hospital", "health", "point_of_interest", "establishment"]}, "ChIJQVICNdIadkgR71H8YoRJr-g": {"geometry": {"location": {"lat": 51.5189766, "lng": -0.1499163}, "viewport": {"northeast": {"lat": 51.5202803802915, "lng": -0.148548519708498}, "southwest": {"lat": 51.5175824197085, "lng": -0.151246480291502}}}, "name": "Jeremy James & Company", "place_id": "ChIJQVICNdIadkgR71H8YoRJr-g", "types": ["point_of_interest", "establishment"], "rating": 4.8, "user_ratings_total": 40}, "ChIJne0UONIadkgRwG-kvuLBkZw": {"geometry": {"location": {"lat": 51.51889469999999, "lng": -0.1506853}, "viewport": {"northeast": {"lat": 51.5201795802915, "lng": -0.149310069708498}, "southwest": {"lat": 51.5174816197085, "lng": -0.152008030291502}}}, "name": "Cafe Gallery Ltd", "place_id": "ChIJne0UONIadkgRwG-kvuLBkZw", "types": ["restaurant", "food", "point_of_interest", "establishment"], "rating": 5, "user_ratings_total": 4}, "ChIJne0UONIadkgRe-jLxrmz99k": {"geometry": {"location": {"lat": 51.5189318, "lng": -0.1500868}, "viewport": {"northeast": {"lat": 51.52024383029151, "lng": -0.148722669708498}, "southwest": {"lat": 51.51754586970851, "lng": -0.151420630291502}}}, "name": "OSKA Marylebone", "place_id": "ChIJne0UONIadkgRe-jLxrmz99k", "types": ["point_of_interest", "clothing_store", "store", "establishment"], "rating": 4.6, "user_ratings_total": 13}, "ChIJne0UONIadkgRTyDOLTE3YRM": {"geometry": {"location": {"lat": 51.5189785, "lng": -0.1507518}, "viewport": {"northeast": {"lat": 51.5202190802915, "lng": -0.149355719708498}, "southwest": {"lat": 51.5175211197085, "lng": -0.1520536802915021}}}, "name": "Zadah", "place_id": "ChIJne0UONIadkgRTyDOLTE3YRM", "types": ["home_goods_store", "point_of_interest", "store", "establishment"]}, "ChIJ--YtC9cadkgRFZykp15d5rU": {"geometry": {"location": {"lat": 51.5188566, "lng": -0.1506657}, "viewport": {"northeast": {"lat": 51.52016083029149, "lng": -0.149298369708498}, "southwest": {"lat": 51.5174628697085, "lng": -0.151996330291502}}}, "name": "Marylebone Library", "place_id": "ChIJ--YtC9cadkgRFZykp15d5rU", "types": ["library", "point_of_interest", "establishment"], "rating": 3.9, "user_ratings_total": 27}, "ChIJF2MYSdIadkgRIFAGI-B2XXo": {"geometry": {"location": {"lat": 51.51869080000001, "lng": -0.1502989}, "viewport": {"northeast": {"lat": 51.5201001802915, "lng": -0.148974669708498}, "southwest": {"lat": 51.5174022197085, "lng": -0.151672630291502}}}, "name": "Thomas Legal Group", "place_id": "ChIJF2MYSdIadkgRIFAGI-B2XXo", "types": ["lawyer", "point_of_interest", "establishment"]}, "ChIJP16nSdIadkgRrZnZpUNA_Ho": {"geometry": {"location": {"lat": 51.51869080000001, "lng": -0.1502989}, "viewport": {"northeast": {"lat": 51.5201001802915, "lng": -0.148974669708498}, "southwest": {"lat": 51.5174022197085, "lng": -0.151672630291502}}}, "name": "Castellain Capital LLP", "place_id": "ChIJP16nSdIadkgRrZnZpUNA_Ho", "types": ["finance", "point_of_interest", "establishment"]}, "ChIJry8uAgAFdkgRD76uVlE9mV8": {"geometry": {"location": {"lat": 51.5186582, "lng": -0.1504747}, "viewport": {"northeast": {"lat": 51.5200698302915, "lng": -0.1491513697084979}, "southwest": {"lat": 51.5173718697085, "lng": -0.151849330291502}}}, "name": "W1 Watches", "place_id": "ChIJry8uAgAFdkgRD76uVlE9mV8", "types": ["jewelry_store", "point_of_interest", "store", "establishment"], "rating": 4.3, "user_ratings_total": 83}, "ChIJz9qASdIadkgR76X9MkEkvh4": {"geometry": {"location": {"lat": 51.5187075, "lng": -0.1501874}, "viewport": {"northeast": {"lat": 51.5201173802915, "lng": -0.148863369708498}, "southwest": {"lat": 51.5174194197085, "lng": -0.151561330291502}}}, "name": "Caroline Gaskin MCPH", "place_id": "ChIJz9qASdIadkgR76X9MkEkvh4", "types": ["health", "point_of_interest", "establishment"], "rating": 5, "user_ratings_total": 6}, "ChIJtbEvRtIadkgRoaPKoA2OlPg": {"geometry": {"location": {"lat": 51.51864, "lng": -0.1506282}, "viewport": {"northeast": {"lat": 51.5200487302915, "lng": -0.149303669708498}, "southwest": {"lat": 51.5173507697085, "lng": -0.152001630291502}}}, "name": "Database Answers Ltd.", "place_id": "ChIJtbEvRtIadkgRoaPKoA2OlPg", "types": ["point_of_interest", "establishment"]}, "ChIJqz5hNtIadkgRmw1-PN4-Pd0": {"geometry": {"location": {"lat": 51.5187331, "lng": -0.1500863}, "viewport": {"northeast": {"lat": 51.5201384802915, "lng": -0.148760419708498}, "southwest": {"lat": 51.5174405197085, "lng": -0.151458380291502}}}, "name": "Caravane Marylebone", "place_id": "ChIJqz5hNtIadkgRmw1-PN4-Pd0", "types": ["home_goods_store", "point_of_interest", "store", "establishment"], "rating": 3.8, "user_ratings_total": 12}, "ChIJRZWyVNIadkgRE54sRT5U6tU": {"geometry": {"location": {"lat": 51.5186488, "lng": -0.1503162}, "viewport": {"northeast": {"lat": 51.5200766302915, "lng": -0.148999519708498}, "southwest": {"lat": 51.5173786697085, "lng": -0.151697480291502}}}, "name": "Sport Options", "place_id": "ChIJRZWyVNIadkgRE54sRT5U6tU", "types": ["point_of_interest", "establishment"], "rating": 5, "user_ratings_total": 1}, "ChIJJ0b1QNIadkgRA3ZF-HYnxkg": {"geometry": {"location": {"lat": 51.51877150000001, "lng": -0.151159}, "viewport": {"northeast": {"lat": 51.52007898029151, "lng": -0.149793069708498}, "southwest": {"lat": 51.51738101970851, "lng": -0.152491030291502}}}, "name": "Gloucester Room and RG Framing London", "place_id": "ChIJJ0b1QNIadkgRA3ZF-HYnxkg", "types": ["art_gallery", "point_of_interest", "store", "establishment"], "rating": 4.4, "user_ratings_total": 7}, "ChIJVaui68gadkgR92JM6NxF3kw": {"geometry": {"location": {"lat": 51.5188746, "lng": -0.1498955}, "viewport": {"northeast": {"lat": 51.5202014802915, "lng": -0.148537319708498}, "southwest": {"lat": 51.5175035197085, "lng": -0.151235280291502}}}, "name": "London Mistress School", "place_id": "ChIJVaui68gadkgR92JM6NxF3kw", "types": ["school", "point_of_interest", "establishment"]}, "ChIJgyZsRtIadkgR18qxBhodVjk": {"geometry": {"location": {"lat": 51.5186311, "lng": -0.150668}, "viewport": {"northeast": {"lat": 51.5200410302915, "lng": -0.149343969708498}, "southwest": {"lat": 51.5173430697085, "lng": -0.152041930291502}}}, "name": "Romanian National Tourist Office", "place_id": "ChIJgyZsRtIadkgR18qxBhodVjk", "types": ["travel_agency", "point_of_interest", "establishment"]}, "ChIJg1PQR9IadkgRGFgDtpPo_ck": {"geometry": {"location": {"lat": 51.5186311, "lng": -0.150668}, "viewport": {"northeast": {"lat": 51.5200410302915, "lng": -0.149343969708498}, "southwest": {"lat": 51.5173430697085, "lng": -0.152041930291502}}}, "name": "MHL.", "place_id": "ChIJg1PQR9IadkgRGFgDtpPo_ck", "types": ["clothing_store", "point_of_interest", "store", "establishment"], "rating": 4.6, "user_ratings_total": 5}, "ChIJBzaLjtQadkgR5j6MrkPjGtU": {"geometry": {"location": {"lat": 51.5188958, "lng": -0.1498579}, "viewport": {"northeast": {"lat": 51.52021138029149, "lng": -0.148495019708498}, "southwest": {"lat": 51.51751341970849, "lng": -0.151192980291502}}}, "name": "Dottore Psoriasi", "place_id": "ChIJBzaLjtQadkgR5j6MrkPjGtU", "types": ["health", "point_of_interest", "establishment"], "rating": 3, "user_ratings_total": 4}, "ChIJ964VP9IadkgRMdk6gCInrUg": {"geometry": {"location": {"lat": 51.5189734, "lng": -0.1511297}, "viewport": {"northeast": {"lat": 51.5203291802915, "lng": -0.149665069708498}, "southwest": {"lat": 51.5176312197085, "lng": -0.152363030291502}}}, "name": "Tecno Travel Ltd", "place_id": "ChIJ964VP9IadkgRMdk6gCInrUg", "types": ["travel_agency", "point_of_interest", "establishment"]}, "ChIJRzIzMtIadkgRwADi_naI9vI": {"geometry": {"location": {"lat": 51.51934809999999, "lng": -0.1501213}, "viewport": {"northeast": {"lat": 51.5206489802915, "lng": -0.148752519708498}, "southwest": {"lat": 51.51795101970851, "lng": -0.151450480291502}}}, "name": "CrossENHANCE", "place_id": "ChIJRzIzMtIadkgRwADi_naI9vI", "types": ["point_of_interest", "establishment"]}, "ChIJcQYMQNIadkgRUEZQzrOATWg": {"geometry": {"location": {"lat": 51.51881210000001, "lng": -0.1512116}, "viewport": {"northeast": {"lat": 51.5200966302915, "lng": -0.149836319708498}, "southwest": {"lat": 51.5173986697085, "lng": -0.152534280291502}}}, "name": "Eye Form", "place_id": "ChIJcQYMQNIadkgRUEZQzrOATWg", "types": ["health", "point_of_interest", "store", "establishment"]}, "ChIJtQSi89IEdkgR9XIXkkatrn0": {"geometry": {"location": {"lat": 51.5186839, "lng": -0.1504422}, "viewport": {"northeast": {"lat": 51.5200858802915, "lng": -0.149114919708498}, "southwest": {"lat": 51.5173879197085, "lng": -0.151812880291502}}}, "name": "Pawnbrokers London", "place_id": "ChIJtQSi89IEdkgR9XIXkkatrn0", "types": ["jewelry_store", "finance", "point_of_interest", "store", "establishment"], "rating": 4.6, "user_ratings_total": 9}, "ChIJFXW8XtIadkgRR3xRT9DPLyI": {"geometry": {"location": {"lat": 51.5186834, "lng": -0.1503246}, "viewport": {"northeast": {"lat": 51.5200943302915, "lng": -0.149001019708498}, "southwest": {"lat": 51.5173963697085, "lng": -0.151698980291502}}}, "name": "Content Beauty Wellbeing", "place_id": "ChIJFXW8XtIadkgRR3xRT9DPLyI", "types": ["health", "point_of_interest", "clothing_store", "store", "establishment"], "rating": 4.1, "user_ratings_total": 30}, "ChIJYRb7RtIadkgRoawp-nAjip4": {"geometry": {"location": {"lat": 51.51863329999999, "lng": -0.150775}, "viewport": {"northeast": {"lat": 51.52003423029149, "lng": -0.1494473197084979}, "southwest": {"lat": 51.51733626970849, "lng": -0.152145280291502}}}, "name": "Atherton Cox", "place_id": "ChIJYRb7RtIadkgRoawp-nAjip4", "types": ["beauty_salon", "hair_care", "point_of_interest", "establishment"], "rating": 4.4, "user_ratings_total": 73}, "ChIJ445GQdIadkgRg0rcZ753M-8": {"geometry": {"location": {"lat": 51.51858959999999, "lng": -0.1509729}, "viewport": {"northeast": {"lat": 51.51999633029149, "lng": -0.149647569708498}, "southwest": {"lat": 51.51729836970849, "lng": -0.152345530291502}}}, "name": "David Mellor - Marylebone", "place_id": "ChIJ445GQdIadkgRg0rcZ753M-8", "types": ["furniture_store", "home_goods_store", "point_of_interest", "store", "establishment"], "rating": 4.2, "user_ratings_total": 13}, "ChIJ-_gFNtIadkgRAVsxIooOW1g": {"geometry": {"location": {"lat": 51.5189285, "lng": -0.150271}, "viewport": {"northeast": {"lat": 51.5202311802915, "lng": -0.148884319708498}, "southwest": {"lat": 51.5175332197085, "lng": -0.151582280291502}}}, "name": "Cubex Ltd - Independent Hearing Healthcare since 1964", "place_id": "ChIJ-_gFNtIadkgRAVsxIooOW1g", "types": ["physiotherapist", "doctor", "health", "point_of_interest", "store", "establishment"], "rating": 4.7, "user_ratings_total": 29}, "ChIJB70pb9UadkgRxp8WfaLQD_o": {"geometry": {"location": {"lat": 51.5189734, "lng": -0.1511297}, "viewport": {"northeast": {"lat": 51.5203291802915, "lng": -0.149665069708498}, "southwest": {"lat": 51.5176312197085, "lng": -0.152363030291502}}}, "name": "Just the Ticket", "place_id": "ChIJB70pb9UadkgRxp8WfaLQD_o", "types": ["travel_agency", "point_of_interest", "establishment"], "rating": 5, "user_ratings_total": 1}, "ChIJQdF5tdMadkgRf96ECmlejYA": {"geometry": {"location": {"lat": 51.518757, "lng": -0.1497398}, "viewport": {"northeast": {"lat": 51.5200455802915, "lng": -0.148438319708498}, "southwest": {"lat": 51.5173476197085, "lng": -0.151136280291502}}}, "name": "Goodwin Dr Stephanie", "place_id": "ChIJQdF5tdMadkgRf96ECmlejYA", "types": ["doctor", "health", "point_of_interest", "establishment"]}, "ChIJbdF5tdMadkgRQiwf9IwOiYE": {"geometry": {"location": {"lat": 51.518757, "lng": -0.1497398}, "viewport": {"northeast": {"lat": 51.5200455802915, "lng": -0.148438319708498}, "southwest": {"lat": 51.5173476197085, "lng": -0.151136280291502}}}, "name": "Goodwin Medical Associates Ltd", "place_id": "ChIJbdF5tdMadkgRQiwf9IwOiYE", "types": ["health", "point_of_interest", "establishment"]}, "ChIJG5q0SNIadkgRtM4oeNUl7Ag": {"geometry": {"location": {"lat": 51.51858499999999, "lng": -0.150494}, "viewport": {"northeast": {"lat": 51.5200295302915, "lng": -0.149184169708498}, "southwest": {"lat": 51.5173315697085, "lng": -0.151882130291502}}}, "name": "KJ West One", "place_id": "ChIJG5q0SNIadkgRtM4oeNUl7Ag", "types": ["electronics_store", "home_goods_store", "point_of_interest", "store", "establishment"], "rating": 4.6, "user_ratings_total": 35}, "ChIJGZA4QNIadkgRY_M0X86Vpgw": {"geometry": {"location": {"lat": 51.5187507, "lng": -0.1512234}, "viewport": {"northeast": {"lat": 51.52006318029149, "lng": -0.149859519708498}, "southwest": {"lat": 51.51736521970849, "lng": -0.152557480291502}}}, "name": "Little Greene Marylebone Showroom", "place_id": "ChIJGZA4QNIadkgRY_M0X86Vpgw", "types": ["home_goods_store", "point_of_interest", "store", "establishment"], "rating": 3.8, "user_ratings_total": 25}, "ChIJVcUMLdIadkgR4UMOTjvLnYA": {"geometry": {"location": {"lat": 51.51947570000001, "lng": -0.1501305}, "viewport": {"northeast": {"lat": 51.5208444302915, "lng": -0.148678369708498}, "southwest": {"lat": 51.5181464697085, "lng": -0.151376330291502}}}, "name": "West Moreland Street London", "place_id": "ChIJVcUMLdIadkgR4UMOTjvLnYA", "types": ["hospital", "health", "point_of_interest", "establishment"]}, "ChIJoVotNNIadkgRTCi0dIjqsJ0": {"geometry": {"location": {"lat": 51.51897940000001, "lng": -0.150069}, "viewport": {"northeast": {"lat": 51.5202704302915, "lng": -0.148696269708498}, "southwest": {"lat": 51.5175724697085, "lng": -0.151394230291502}}}, "name": "LK Leon Opticians", "place_id": "ChIJoVotNNIadkgRTCi0dIjqsJ0", "types": ["health", "point_of_interest", "store", "establishment"], "rating": 5, "user_ratings_total": 6}, "ChIJNRNVQdIadkgRXanHYzhXzM0": {"geometry": {"location": {"lat": 51.5185453, "lng": -0.1509363}, "viewport": {"northeast": {"lat": 51.51997558029149, "lng": -0.149620569708498}, "southwest": {"lat": 51.51727761970849, "lng": -0.152318530291502}}}, "name": "mobile/ home hairdresser", "place_id": "ChIJNRNVQdIadkgRXanHYzhXzM0", "types": ["hair_care", "point_of_interest", "establishment"], "rating": 5, "user_ratings_total": 15}, "ChIJne0UONIadkgRdA6oK5lCD6s": {"geometry": {"location": {"lat": 51.518914, "lng": -0.150388}, "viewport": {"northeast": {"lat": 51.52021198029149, "lng": -0.149018119708498}, "southwest": {"lat": 51.5175140197085, "lng": -0.151716080291502}}}, "name": "Hani Dajani Pharmacies", "place_id": "ChIJne0UONIadkgRdA6oK5lCD6s", "types": ["pharmacy", "health", "point_of_interest", "store", "establishment"], "rating": 4.1, "user_ratings_total": 8}, "ChIJHxWyONIadkgRXU8OftceDKg": {"geometry": {"location": {"lat": 51.5189546, "lng": -0.1507623}, "viewport": {"northeast": {"lat": 51.5202056302915, "lng": -0.149360969708498}, "southwest": {"lat": 51.5175076697085, "lng": -0.1520589302915021}}}, "name": "William Vintage", "place_id": "ChIJHxWyONIadkgRXU8OftceDKg", "types": ["point_of_interest", "clothing_store", "store", "establishment"], "rating": 4.1, "user_ratings_total": 13}, "ChIJ1TZrddMadkgRjE-TY2K3eRM": {"geometry": {"location": {"lat": 51.51869080000001, "lng": -0.1502989}, "viewport": {"northeast": {"lat": 51.5201001802915, "lng": -0.148974669708498}, "southwest": {"lat": 51.5174022197085, "lng": -0.151672630291502}}}, "name": "Pall Mall Hospitality & Events", "place_id": "ChIJ1TZrddMadkgRjE-TY2K3eRM", "types": ["point_of_interest", "store", "establishment"], "rating": 5, "user_ratings_total": 1}, "ChIJExA9RtIadkgRgUsmKcIOwf0": {"geometry": {"location": {"lat": 51.5185867, "lng": -0.1506607}, "viewport": {"northeast": {"lat": 51.5200180302915, "lng": -0.1493454697084979}, "southwest": {"lat": 51.5173200697085, "lng": -0.152043430291502}}}, "name": "Abacus Business Sales", "place_id": "ChIJExA9RtIadkgRgUsmKcIOwf0", "types": ["real_estate_agency", "point_of_interest", "establishment"]}, "ChIJA-1dN9IadkgR1IEfUd9xP5k": {"geometry": {"location": {"lat": 51.51908100000001, "lng": -0.150524}, "viewport": {"northeast": {"lat": 51.5204772302915, "lng": -0.149194319708498}, "southwest": {"lat": 51.51777926970851, "lng": -0.151892280291502}}}, "name": "Andrew Gasson", "place_id": "ChIJA-1dN9IadkgR1IEfUd9xP5k", "types": ["health", "point_of_interest", "store", "establishment"], "rating": 5, "user_ratings_total": 2}, "ChIJper_1aEbdkgR8jF5Stwzjg0": {"geometry": {"location": {"lat": 51.5189052, "lng": -0.1504487}, "viewport": {"northeast": {"lat": 51.52020278029151, "lng": -0.149078669708498}, "southwest": {"lat": 51.51750481970851, "lng": -0.151776630291502}}}, "name": "Oka Marylebone", "place_id": "ChIJper_1aEbdkgR8jF5Stwzjg0", "types": ["restaurant", "food", "point_of_interest", "establishment"], "rating": 4.8, "user_ratings_total": 38}, "ChIJMfMEONIadkgReIrR1QoLp6Q": {"geometry": {"location": {"lat": 51.51888629999999, "lng": -0.1505762}, "viewport": {"northeast": {"lat": 51.5201832802915, "lng": -0.149205919708498}, "southwest": {"lat": 51.5174853197085, "lng": -0.151903880291502}}}, "name": "Truth Corps Limited", "place_id": "ChIJMfMEONIadkgReIrR1QoLp6Q", "types": ["point_of_interest", "establishment"]}, "ChIJr4wEONIadkgRRzBNPjLN1Lk": {"geometry": {"location": {"lat": 51.518886, "lng": -0.150576}, "viewport": {"northeast": {"lat": 51.5201831302915, "lng": -0.149205769708498}, "southwest": {"lat": 51.5174851697085, "lng": -0.1519037302915021}}}, "name": "NU Marylebone", "place_id": "ChIJr4wEONIadkgRRzBNPjLN1Lk", "types": ["clothing_store", "point_of_interest", "store", "establishment"], "rating": 4.6, "user_ratings_total": 10}, "ChIJi2XOWIwbdkgRIaxxS94Bs-E": {"geometry": {"location": {"lat": 51.5188554, "lng": -0.1506197}, "viewport": {"northeast": {"lat": 51.52016363029151, "lng": -0.149254019708498}, "southwest": {"lat": 51.51746566970851, "lng": -0.1519519802915021}}}, "name": "GDPR in Schools Ltd", "place_id": "ChIJi2XOWIwbdkgRIaxxS94Bs-E", "types": ["point_of_interest", "establishment"], "rating": 5, "user_ratings_total": 1}, "ChIJlaHvONIadkgRYCwdSC2oXiY": {"geometry": {"location": {"lat": 51.5189712, "lng": -0.1507881}, "viewport": {"northeast": {"lat": 51.5203170302915, "lng": -0.149492569708498}, "southwest": {"lat": 51.5176190697085, "lng": -0.152190530291502}}}, "name": "Carltone", "place_id": "ChIJlaHvONIadkgRYCwdSC2oXiY", "types": ["point_of_interest", "establishment"]}, "ChIJ5WkHSNIadkgRXRhtBwdmlGg": {"geometry": {"location": {"lat": 51.51873450000001, "lng": -0.1504143}, "viewport": {"northeast": {"lat": 51.5201145302915, "lng": -0.149079669708498}, "southwest": {"lat": 51.51741656970851, "lng": -0.151777630291502}}}, "name": "ubitricity Charging Station", "place_id": "ChIJ5WkHSNIadkgRXRhtBwdmlGg", "types": ["point_of_interest", "establishment"]}, "ChIJkUi9SIUbdkgRF_Kgc3QilQM": {"geometry": {"location": {"lat": 51.51889370000001, "lng": -0.1508905}, "viewport": {"northeast": {"lat": 51.5202401302915, "lng": -0.149585619708498}, "southwest": {"lat": 51.51754216970851, "lng": -0.152283580291502}}}, "name": "dpto Marylebonde", "place_id": "ChIJkUi9SIUbdkgRF_Kgc3QilQM", "types": ["lodging", "point_of_interest", "establishment"]}, "ChIJU9kzOtIadkgRZoAfxULJYmk": {"geometry": {"location": {"lat": 51.5192373, "lng": -0.1507115}, "viewport": {"northeast": {"lat": 51.5205461802915, "lng": -0.149346169708498}, "southwest": {"lat": 51.5178482197085, "lng": -0.152044130291502}}}, "name": "W1 Psychotherapy", "place_id": "ChIJU9kzOtIadkgRZoAfxULJYmk", "types": ["health", "point_of_interest", "establishment"]}, "ChIJVVWpNdIadkgRcJxzoiBKOXw": {"geometry": {"location": {"lat": 51.5189982, "lng": -0.1500193}, "viewport": {"northeast": {"lat": 51.52028408029149, "lng": -0.148644469708498}, "southwest": {"lat": 51.5175861197085, "lng": -0.151342430291502}}}, "name": "K-Med", "place_id": "ChIJVVWpNdIadkgRcJxzoiBKOXw", "types": ["point_of_interest", "establishment"]}, "ChIJ5_BR_OsbdkgRmTYGoiEnlJ4": {"geometry": {"location": {"lat": 51.5189982, "lng": -0.1500193}, "viewport": {"northeast": {"lat": 51.52028408029149, "lng": -0.148644469708498}, "southwest": {"lat": 51.5175861197085, "lng": -0.151342430291502}}}, "name": "Mr and Mrs Small", "place_id": "ChIJ5_BR_OsbdkgRmTYGoiEnlJ4", "types": ["cafe", "food", "point_of_interest", "establishment"], "rating": 5, "user_ratings_total": 18}, "ChIJaXwB89IEdkgROK4Cu7qun8Q": {"geometry": {"location": {"lat": 51.51868409999999, "lng": -0.1505246}, "viewport": {"northeast": {"lat": 51.52007983029149, "lng": -0.149194769708498}, "southwest": {"lat": 51.51738186970849, "lng": -0.151892730291502}}}, "name": "Sell Patek Philippe Watch", "place_id": "ChIJaXwB89IEdkgROK4Cu7qun8Q", "types": ["point_of_interest", "store", "establishment"], "rating": 5, "user_ratings_total": 3}, "ChIJP16nSdIadkgRxS_TTl03Mv0": {"geometry": {"location": {"lat": 51.51869080000001, "lng": -0.1502989}, "viewport": {"northeast": {"lat": 51.5201001802915, "lng": -0.148974669708498}, "southwest": {"lat": 51.5174022197085, "lng": -0.151672630291502}}}, "name": "OneReceipt", "place_id": "ChIJP16nSdIadkgRxS_TTl03Mv0", "types": ["point_of_interest", "establishment"]}, "ChIJP16nSdIadkgROFxk-PDNXOc": {"geometry": {"location": {"lat": 51.51869080000001, "lng": -0.1502989}, "viewport": {"northeast": {"lat": 51.5201001802915, "lng": -0.148974669708498}, "southwest": {"lat": 51.5174022197085, "lng": -0.151672630291502}}}, "name": "Global Brand Investments Limited", "place_id": "ChIJP16nSdIadkgROFxk-PDNXOc", "types": ["finance", "point_of_interest", "establishment"]}, "ChIJn-IbgwUQdkgRK2HrulOfSJA": {"geometry": {"location": {"lat": 51.51869080000001, "lng": -0.1502989}, "viewport": {"northeast": {"lat": 51.5201001802915, "lng": -0.148974669708498}, "southwest": {"lat": 51.5174022197085, "lng": -0.151672630291502}}}, "name": "Sunuva", "place_id": "ChIJn-IbgwUQdkgRK2HrulOfSJA", "types": ["clothing_store", "point_of_interest", "store", "establishment"], "rating": 4.8, "user_ratings_total": 19}, "ChIJwT2mSdIadkgR0Amfzq_yne8": {"geometry": {"location": {"lat": 51.51868339999999, "lng": -0.1503245}, "viewport": {"northeast": {"lat": 51.5200943802915, "lng": -0.149000919708498}, "southwest": {"lat": 51.5173964197085, "lng": -0.151698880291502}}}, "name": "The Jane Packer Foundation", "place_id": "ChIJwT2mSdIadkgR0Amfzq_yne8", "types": ["point_of_interest", "establishment"]}, "ChIJtxrbW9IadkgRJV5wiuvySuQ": {"geometry": {"location": {"lat": 51.51791837003187, "lng": -0.1507233530609227}, "viewport": {"northeast": {"lat": 51.51926183029151, "lng": -0.149406169708498}, "southwest": {"lat": 51.51656386970851, "lng": -0.152104130291502}}}, "name": "116-106 Marylebone Ln", "place_id": "ChIJtxrbW9IadkgRJV5wiuvySuQ", "types": ["route"]}, "ChIJYwXPXNIadkgRhqBqxBm5ddA": {"geometry": {"location": {"lat": 51.5181694, "lng": -0.1510531}, "viewport": {"northeast": {"lat": 51.51948773029149, "lng": -0.149657619708498}, "southwest": {"lat": 51.5167897697085, "lng": -0.152355580291502}}}, "name": "Le Relais De Venise L'Entrecote", "place_id": "ChIJYwXPXNIadkgRhqBqxBm5ddA", "types": ["bar", "restaurant", "food", "point_of_interest", "establishment"], "rating": 4.4, "user_ratings_total": 1243}, "ChIJgTyZrdMadkgRUH_pQcbYT7A": {"geometry": {"location": {"lat": 51.5179789, "lng": -0.1499343}, "viewport": {"northeast": {"lat": 51.51935983029149, "lng": -0.148397519708498}, "southwest": {"lat": 51.5166618697085, "lng": -0.151095480291502}}}, "name": "The Marylebone Hotel", "place_id": "ChIJgTyZrdMadkgRUH_pQcbYT7A", "types": ["lodging", "gym", "health", "point_of_interest", "establishment"], "rating": 4.4, "user_ratings_total": 734}, "ChIJMdRcXNIadkgRbP2CvZv70ng": {"geometry": {"location": {"lat": 51.5180089, "lng": -0.1510111}, "viewport": {"northeast": {"lat": 51.5193998802915, "lng": -0.149642819708498}, "southwest": {"lat": 51.5167019197085, "lng": -0.152340780291502}}}, "name": "The Golden Hind Restaurant Marylebone - Fish & Chips", "place_id": "ChIJMdRcXNIadkgRbP2CvZv70ng", "types": ["restaurant", "food", "point_of_interest", "establishment"], "rating": 4.3, "user_ratings_total": 781}, "ChIJ_U_LWNIadkgRUC44jN3GJN8": {"geometry": {"location": {"lat": 51.5176392, "lng": -0.1509057}, "viewport": {"northeast": {"lat": 51.5190367302915, "lng": -0.149568219708498}, "southwest": {"lat": 51.5163387697085, "lng": -0.152266180291502}}}, "name": "El Kozy Farolito", "place_id": "ChIJ_U_LWNIadkgRUC44jN3GJN8", "types": ["lodging", "point_of_interest", "establishment"]}, "ChIJMSKUT9IadkgRW3dkocP_m5o": {"geometry": {"location": {"lat": 51.51810099999999, "lng": -0.150332}, "viewport": {"northeast": {"lat": 51.5194778802915, "lng": -0.148994319708498}, "southwest": {"lat": 51.5167799197085, "lng": -0.151692280291502}}}, "name": "Third Space Marylebone", "place_id": "ChIJMSKUT9IadkgRW3dkocP_m5o", "types": ["gym", "spa", "health", "point_of_interest", "establishment"], "rating": 4.7, "user_ratings_total": 253}, "ChIJ377FWNIadkgRl8dspO5TY24": {"geometry": {"location": {"lat": 51.5176993, "lng": -0.1507756}, "viewport": {"northeast": {"lat": 51.5190151802915, "lng": -0.149422519708498}, "southwest": {"lat": 51.5163172197085, "lng": -0.152120480291502}}}, "name": "Golden Eagle", "place_id": "ChIJ377FWNIadkgRl8dspO5TY24", "types": ["bar", "point_of_interest", "establishment"], "rating": 4.3, "user_ratings_total": 293}, "ChIJdcePYNIadkgRLQBVyL3jIYs": {"geometry": {"location": {"lat": 51.5177693, "lng": -0.1512705}, "viewport": {"northeast": {"lat": 51.5191104302915, "lng": -0.150015269708498}, "southwest": {"lat": 51.5164124697085, "lng": -0.152713230291502}}}, "name": "Diwan Lebanese Restaurant", "place_id": "ChIJdcePYNIadkgRLQBVyL3jIYs", "types": ["meal_takeaway", "restaurant", "food", "point_of_interest", "establishment"], "rating": 4.1, "user_ratings_total": 190}, "ChIJ8dF1rNMadkgRjtAtMAzre0M": {"geometry": {"location": {"lat": 51.5180427, "lng": -0.1500191}, "viewport": {"northeast": {"lat": 51.51942813029149, "lng": -0.148455919708498}, "southwest": {"lat": 51.5167301697085, "lng": -0.151153880291502}}}, "name": "Ereira Mendoza", "place_id": "ChIJ8dF1rNMadkgRjtAtMAzre0M", "types": ["point_of_interest", "establishment"]}, "ChIJ8dF1rNMadkgRcpcx6fNH0yw": {"geometry": {"location": {"lat": 51.51799219999999, "lng": -0.149945}, "viewport": {"northeast": {"lat": 51.5193735302915, "lng": -0.148405919708498}, "southwest": {"lat": 51.5166755697085, "lng": -0.151103880291502}}}, "name": "Atlas Interactive Ltd", "place_id": "ChIJ8dF1rNMadkgRcpcx6fNH0yw", "types": ["point_of_interest", "establishment"]}, "ChIJIckEWtIadkgR0jqFi7ItZbA": {"geometry": {"location": {"lat": 51.5179528, "lng": -0.1506056}, "viewport": {"northeast": {"lat": 51.51928703029149, "lng": -0.1493167697084979}, "southwest": {"lat": 51.51658906970849, "lng": -0.152014730291502}}}, "name": "108 Brasserie", "place_id": "ChIJIckEWtIadkgR0jqFi7ItZbA", "types": ["bar", "restaurant", "food", "point_of_interest", "establishment"], "rating": 4.3, "user_ratings_total": 578}, "ChIJ0XSvrdMadkgReIdSsojW1Qo": {"geometry": {"location": {"lat": 51.51799219999999, "lng": -0.149945}, "viewport": {"northeast": {"lat": 51.5193735302915, "lng": -0.148405919708498}, "southwest": {"lat": 51.5166755697085, "lng": -0.151103880291502}}}, "name": "Pound International Ltd", "place_id": "ChIJ0XSvrdMadkgReIdSsojW1Qo", "types": ["health", "point_of_interest", "establishment"], "rating": 1, "user_ratings_total": 1}, "ChIJMabHXtIadkgR3UWaABRBbds": {"geometry": {"location": {"lat": 51.517778, "lng": -0.1509658}, "viewport": {"northeast": {"lat": 51.5191139302915, "lng": -0.149613769708498}, "southwest": {"lat": 51.5164159697085, "lng": -0.1523117302915021}}}, "name": "Roz Kidd", "place_id": "ChIJMabHXtIadkgR3UWaABRBbds", "types": ["health", "point_of_interest", "establishment"]}, "ChIJgT3QW9IadkgRCPtz_q_rhlY": {"geometry": {"location": {"lat": 51.5175872, "lng": -0.1504629}, "viewport": {"northeast": {"lat": 51.5189478802915, "lng": -0.149245719708498}, "southwest": {"lat": 51.5162499197085, "lng": -0.151943680291502}}}, "name": "Wetherby Senior School (Marylebone Lane)", "place_id": "ChIJgT3QW9IadkgRCPtz_q_rhlY", "types": ["school", "point_of_interest", "establishment"], "rating": 3.6, "user_ratings_total": 8}, "ChIJ63S_T9IadkgRC56xCohidz0": {"geometry": {"location": {"lat": 51.5182838, "lng": -0.1504397}, "viewport": {"northeast": {"lat": 51.5196941302915, "lng": -0.149115669708498}, "southwest": {"lat": 51.5169961697085, "lng": -0.151813630291502}}}, "name": "True Student Living", "place_id": "ChIJ63S_T9IadkgRC56xCohidz0", "types": ["point_of_interest", "establishment"], "rating": 5, "user_ratings_total": 1}, "ChIJFXW8XtIadkgRYJI2Snt-lrc": {"geometry": {"location": {"lat": 51.5177822, "lng": -0.1509666}, "viewport": {"northeast": {"lat": 51.5191140302915, "lng": -0.149613569708498}, "southwest": {"lat": 51.5164160697085, "lng": -0.152311530291502}}}, "name": "The Wigmore Barbers & Grooming Salon", "place_id": "ChIJFXW8XtIadkgRYJI2Snt-lrc", "types": ["beauty_salon", "hair_care", "health", "point_of_interest", "establishment"], "rating": 4.8, "user_ratings_total": 102}, "ChIJfwSWWNIadkgRv5_P-uFomeY": {"geometry": {"location": {"lat": 51.51758460000001, "lng": -0.1508355}, "viewport": {"northeast": {"lat": 51.5189290802915, "lng": -0.149436019708498}, "southwest": {"lat": 51.51623111970851, "lng": -0.152133980291502}}}, "name": "Skytrail", "place_id": "ChIJfwSWWNIadkgRv5_P-uFomeY", "types": ["point_of_interest", "establishment"]}, "ChIJAW75Ms0adkgRajs8FmaXo2g": {"geometry": {"location": {"lat": 51.5183467, "lng": -0.1504655}, "viewport": {"northeast": {"lat": 51.5197241802915, "lng": -0.149126469708498}, "southwest": {"lat": 51.51702621970851, "lng": -0.151824430291502}}}, "name": "Cairngorm Capital Partners LLP", "place_id": "ChIJAW75Ms0adkgRajs8FmaXo2g", "types": ["finance", "point_of_interest", "establishment"]}, "ChIJ20qdmlYbdkgRoSeLziM-0AY": {"geometry": {"location": {"lat": 51.5183651, "lng": -0.1504835}, "viewport": {"northeast": {"lat": 51.51972268029149, "lng": -0.149137519708498}, "southwest": {"lat": 51.51702471970849, "lng": -0.151835480291502}}}, "name": "Meri Media", "place_id": "ChIJ20qdmlYbdkgRoSeLziM-0AY", "types": ["point_of_interest", "establishment"]}, "ChIJdzl2T9IadkgRPAb9pax160Q": {"geometry": {"location": {"lat": 51.5183651, "lng": -0.1504835}, "viewport": {"northeast": {"lat": 51.5197226802915, "lng": -0.149137469708498}, "southwest": {"lat": 51.5170247197085, "lng": -0.151835430291502}}}, "name": "Whistlers Ltd", "place_id": "ChIJdzl2T9IadkgRPAb9pax160Q", "types": ["general_contractor", "point_of_interest", "establishment"], "rating": 3.7, "user_ratings_total": 3}, "ChIJYwXPXNIadkgRwVR-bAXWofY": {"geometry": {"location": {"lat": 51.5182181, "lng": -0.1510784}, "viewport": {"northeast": {"lat": 51.5195169802915, "lng": -0.149751069708498}, "southwest": {"lat": 51.51681901970851, "lng": -0.152449030291502}}}, "name": "D S Dental Laboratory", "place_id": "ChIJYwXPXNIadkgRwVR-bAXWofY", "types": ["dentist", "health", "point_of_interest", "establishment"]}, "ChIJecXp99IadkgRnWOHbk1a1Ec": {"geometry": {"location": {"lat": 51.517492, "lng": -0.150627}, "viewport": {"northeast": {"lat": 51.5188446802915, "lng": -0.149340269708498}, "southwest": {"lat": 51.5161467197085, "lng": -0.152038230291502}}}, "name": "The Ivy Cafe Marylebone", "place_id": "ChIJecXp99IadkgRnWOHbk1a1Ec", "types": ["cafe", "bar", "restaurant", "food", "point_of_interest", "establishment"], "rating": 4.4, "user_ratings_total": 1204}, "ChIJ46ISmiobdkgRMU8BHs6LIZU": {"geometry": {"location": {"lat": 51.5175312, "lng": -0.1508613}, "viewport": {"northeast": {"lat": 51.5188751302915, "lng": -0.149455169708498}, "southwest": {"lat": 51.5161771697085, "lng": -0.152153130291502}}}, "name": "Sidan Media", "place_id": "ChIJ46ISmiobdkgRMU8BHs6LIZU", "types": ["point_of_interest", "establishment"]}, "ChIJx7NBnPsPdkgRNePyTcqMuVI": {"geometry": {"location": {"lat": 51.5175312, "lng": -0.1508613}, "viewport": {"northeast": {"lat": 51.5188751302915, "lng": -0.149455169708498}, "southwest": {"lat": 51.5161771697085, "lng": -0.152153130291502}}}, "name": "Color Wow", "place_id": "ChIJx7NBnPsPdkgRNePyTcqMuVI", "types": ["point_of_interest", "establishment"]}, "ChIJQ2cpQ9IadkgRV4qItpv0L1M": {"geometry": {"location": {"lat": 51.5182181, "lng": -0.1510784}, "viewport": {"northeast": {"lat": 51.5195169802915, "lng": -0.149751069708498}, "southwest": {"lat": 51.51681901970851, "lng": -0.152449030291502}}}, "name": "Birkett Green Lees LLP", "place_id": "ChIJQ2cpQ9IadkgRV4qItpv0L1M", "types": ["point_of_interest", "establishment"]}, "ChIJQ2cpQ9IadkgRX__i24h8bFM": {"geometry": {"location": {"lat": 51.5182181, "lng": -0.1510784}, "viewport": {"northeast": {"lat": 51.5195169802915, "lng": -0.149751069708498}, "southwest": {"lat": 51.51681901970851, "lng": -0.152449030291502}}}, "name": "Montana Investments", "place_id": "ChIJQ2cpQ9IadkgRX__i24h8bFM", "types": ["point_of_interest", "establishment"]}, "ChIJBwDQRNIadkgRbz9jqbdYwZs": {"geometry": {"location": {"lat": 51.51818840000001, "lng": -0.1508902}, "viewport": {"northeast": {"lat": 51.5194854802915, "lng": -0.149514969708498}, "southwest": {"lat": 51.5167875197085, "lng": -0.152212930291502}}}, "name": "Caldesi In Marylebone - Italian Restaurant", "place_id": "ChIJBwDQRNIadkgRbz9jqbdYwZs", "types": ["bar", "restaurant", "food", "point_of_interest", "establishment"], "rating": 4.4, "user_ratings_total": 349}, "ChIJ6YqRstMadkgR_1Mw8YXRqo0": {"geometry": {"location": {"lat": 51.5182233, "lng": -0.1498269}, "viewport": {"northeast": {"lat": 51.5195872302915, "lng": -0.148390019708498}, "southwest": {"lat": 51.5168892697085, "lng": -0.1510879802915021}}}, "name": "Sostenya Group", "place_id": "ChIJ6YqRstMadkgR_1Mw8YXRqo0", "types": ["finance", "point_of_interest", "establishment"]}, "ChIJ-VO3r9EadkgRW1QG27g7T84": {"geometry": {"location": {"lat": 51.5182582, "lng": -0.1506129}, "viewport": {"northeast": {"lat": 51.51954173029151, "lng": -0.149237419708498}, "southwest": {"lat": 51.51684376970851, "lng": -0.151935380291502}}}, "name": "Dr Ralph Rogers London Sports Medicine", "place_id": "ChIJ-VO3r9EadkgRW1QG27g7T84", "types": ["doctor", "health", "point_of_interest", "establishment"]}, "ChIJFXW8XtIadkgRsLedrdazWxM": {"geometry": {"location": {"lat": 51.517813, "lng": -0.150806}, "viewport": {"northeast": {"lat": 51.5191699302915, "lng": -0.149395269708498}, "southwest": {"lat": 51.5164719697085, "lng": -0.152093230291502}}}, "name": "French Sole", "place_id": "ChIJFXW8XtIadkgRsLedrdazWxM", "types": ["shoe_store", "point_of_interest", "store", "establishment"], "rating": 3.6, "user_ratings_total": 17}, "ChIJe9Xg-NIadkgRcZEW28YZ_kU": {"geometry": {"location": {"lat": 51.51741610000001, "lng": -0.1502656}, "viewport": {"northeast": {"lat": 51.5187796302915, "lng": -0.148923119708498}, "southwest": {"lat": 51.5160816697085, "lng": -0.151621080291502}}}, "name": "International Stadia Group", "place_id": "ChIJe9Xg-NIadkgRcZEW28YZ_kU", "types": ["stadium", "finance", "point_of_interest", "establishment"]}, "ChIJm8lerdMadkgREtUpPFhtgzc": {"geometry": {"location": {"lat": 51.5181829, "lng": -0.1497375}, "viewport": {"northeast": {"lat": 51.51954118029149, "lng": -0.148333969708498}, "southwest": {"lat": 51.51684321970849, "lng": -0.151031930291502}}}, "name": "Spanish Tax Planning", "place_id": "ChIJm8lerdMadkgREtUpPFhtgzc", "types": ["finance", "point_of_interest", "establishment"]}, "ChIJm8lerdMadkgR4y8WI08giow": {"geometry": {"location": {"lat": 51.5181829, "lng": -0.1497375}, "viewport": {"northeast": {"lat": 51.51954118029149, "lng": -0.148333969708498}, "southwest": {"lat": 51.51684321970849, "lng": -0.151031930291502}}}, "name": "Fiduciary Wealth Management", "place_id": "ChIJm8lerdMadkgR4y8WI08giow", "types": ["finance", "point_of_interest", "establishment"]}, "ChIJ-7uaZ9IadkgRNn8OvMAhWNE": {"geometry": {"location": {"lat": 51.518052, "lng": -0.1513014}, "viewport": {"northeast": {"lat": 51.5194476802915, "lng": -0.149930369708498}, "southwest": {"lat": 51.5167497197085, "lng": -0.152628330291502}}}, "name": "Psychotherapy Central London/ Dr Sally Moore", "place_id": "ChIJ-7uaZ9IadkgRNn8OvMAhWNE", "types": ["health", "point_of_interest", "establishment"]}, "ChIJQUD4icQEdkgRqqEwSgwvbVw": {"geometry": {"location": {"lat": 51.518238, "lng": -0.1497722}, "viewport": {"northeast": {"lat": 51.5195970802915, "lng": -0.148363769708498}, "southwest": {"lat": 51.5168991197085, "lng": -0.151061730291502}}}, "name": "Smith Smalley Architects Ltd", "place_id": "ChIJQUD4icQEdkgRqqEwSgwvbVw", "types": ["point_of_interest", "establishment"]}, "ChIJK3kGdigbdkgRKKaJD6m7wdY": {"geometry": {"location": {"lat": 51.518238, "lng": -0.1497722}, "viewport": {"northeast": {"lat": 51.5195970802915, "lng": -0.148363769708498}, "southwest": {"lat": 51.5168991197085, "lng": -0.151061730291502}}}, "name": "Context Consulting", "place_id": "ChIJK3kGdigbdkgRKKaJD6m7wdY", "types": ["point_of_interest", "establishment"], "rating": 5, "user_ratings_total": 1}, "ChIJ96OTstMadkgR5QrT9ksGHWY": {"geometry": {"location": {"lat": 51.518238, "lng": -0.1497722}, "viewport": {"northeast": {"lat": 51.5195970802915, "lng": -0.148363769708498}, "southwest": {"lat": 51.5168991197085, "lng": -0.151061730291502}}}, "name": "Redkite Property Asset Management", "place_id": "ChIJ96OTstMadkgR5QrT9ksGHWY", "types": ["point_of_interest", "establishment"]}, "ChIJ6YqRstMadkgRNtUqURrhaRs": {"geometry": {"location": {"lat": 51.518238, "lng": -0.1497722}, "viewport": {"northeast": {"lat": 51.5195970802915, "lng": -0.148363769708498}, "southwest": {"lat": 51.5168991197085, "lng": -0.151061730291502}}}, "name": "Apptitude Development Ltd", "place_id": "ChIJ6YqRstMadkgRNtUqURrhaRs", "types": ["point_of_interest", "establishment"]}, "ChIJk3ykYNIadkgRoG1UmdiQ_50": {"geometry": {"location": {"lat": 51.5178028, "lng": -0.1513112}, "viewport": {"northeast": {"lat": 51.51914543029149, "lng": -0.150039469708498}, "southwest": {"lat": 51.5164474697085, "lng": -0.152737430291502}}}, "name": "NetBop Technologies Ltd", "place_id": "ChIJk3ykYNIadkgRoG1UmdiQ_50", "types": ["point_of_interest", "establishment"]}, "ChIJk6LpTtIadkgRAjv-V508SEg": {"geometry": {"location": {"lat": 51.51844299999999, "lng": -0.1502144}, "viewport": {"northeast": {"lat": 51.51978803029149, "lng": -0.148888819708498}, "southwest": {"lat": 51.51709006970849, "lng": -0.151586780291502}}}, "name": "Anna Valentine Ltd", "place_id": "ChIJk6LpTtIadkgRAjv-V508SEg", "types": ["point_of_interest", "establishment"], "rating": 5, "user_ratings_total": 3}, "ChIJpVJCZ9IadkgRkrUhj_9e77A": {"geometry": {"location": {"lat": 51.5179392, "lng": -0.151338}, "viewport": {"northeast": {"lat": 51.5192817302915, "lng": -0.150067319708498}, "southwest": {"lat": 51.5165837697085, "lng": -0.152765280291502}}}, "name": "MOMO Jewel", "place_id": "ChIJpVJCZ9IadkgRkrUhj_9e77A", "types": ["jewelry_store", "point_of_interest", "store", "establishment"], "rating": 1, "user_ratings_total": 2}, "ChIJYwTdBKIadkgRYwek3q-d7j8": {"geometry": {"location": {"lat": 51.51766079999999, "lng": -0.1508845}, "viewport": {"northeast": {"lat": 51.51900978029148, "lng": -0.149535519708498}, "southwest": {"lat": 51.51631181970849, "lng": -0.152233480291502}}}, "name": "Sixty 6", "place_id": "ChIJYwTdBKIadkgRYwek3q-d7j8", "types": ["point_of_interest", "clothing_store", "store", "establishment"], "rating": 3.7, "user_ratings_total": 3}, "ChIJy6qrUJobdkgRlv707yoOnC8": {"geometry": {"location": {"lat": 51.5179528, "lng": -0.1506056}, "viewport": {"northeast": {"lat": 51.51928958029149, "lng": -0.149318069708498}, "southwest": {"lat": 51.51659161970849, "lng": -0.152016030291502}}}, "name": "LSBU Kurdish Society", "place_id": "ChIJy6qrUJobdkgRlv707yoOnC8", "types": ["point_of_interest", "establishment"]}, "ChIJrYPupNMadkgR4j_XxhV3Vtw": {"geometry": {"location": {"lat": 51.5179965, "lng": -0.1506463}, "viewport": {"northeast": {"lat": 51.5193337802915, "lng": -0.149350819708498}, "southwest": {"lat": 51.5166358197085, "lng": -0.152048780291502}}}, "name": "Io 8 Bar", "place_id": "ChIJrYPupNMadkgR4j_XxhV3Vtw", "types": ["bar", "point_of_interest", "establishment"]}, "ChIJd7mEWdIadkgRSj2tC4w4OzI": {"geometry": {"location": {"lat": 51.5178302, "lng": -0.150698}, "viewport": {"northeast": {"lat": 51.51917468029151, "lng": -0.149384169708498}, "southwest": {"lat": 51.51647671970851, "lng": -0.152082130291502}}}, "name": "Kayvan Seyri Personal training Marylebone, Mayfair", "place_id": "ChIJd7mEWdIadkgRSj2tC4w4OzI", "types": ["health", "point_of_interest", "establishment"], "rating": 5, "user_ratings_total": 4}, "ChIJnTsKVNIadkgRoooRoEgkYDk": {"geometry": {"location": {"lat": 51.5179064, "lng": -0.1501964}, "viewport": {"northeast": {"lat": 51.5192187302915, "lng": -0.1488305197084979}, "southwest": {"lat": 51.5165207697085, "lng": -0.151528480291502}}}, "name": "Number Six", "place_id": "ChIJnTsKVNIadkgRoooRoEgkYDk", "types": ["point_of_interest", "establishment"], "rating": 4.5, "user_ratings_total": 6}, "ChIJCYrTpv4bdkgRBHqo35qtHK4": {"geometry": {"location": {"lat": 51.5178947, "lng": -0.1508653}, "viewport": {"northeast": {"lat": 51.5192436802915, "lng": -0.149516319708498}, "southwest": {"lat": 51.5165457197085, "lng": -0.152214280291502}}}, "name": "Ottolenghi Marylebone", "place_id": "ChIJCYrTpv4bdkgRBHqo35qtHK4", "types": ["food", "point_of_interest", "store", "establishment"], "rating": 1, "user_ratings_total": 1}, "ChIJg3bG2oQFdkgRp4XUatX161E": {"geometry": {"location": {"lat": 51.5178883, "lng": -0.1508868}, "viewport": {"northeast": {"lat": 51.5192533802915, "lng": -0.149456669708498}, "southwest": {"lat": 51.5165554197085, "lng": -0.152154630291502}}}, "name": "THE HOUR | UK14 to 28", "place_id": "ChIJg3bG2oQFdkgRp4XUatX161E", "types": ["point_of_interest", "clothing_store", "store", "establishment"], "rating": 5, "user_ratings_total": 3}, "ChIJJZ-MW9IadkgRdJegPJc4qaw": {"geometry": {"location": {"lat": 51.517943, "lng": -0.1509033}, "viewport": {"northeast": {"lat": 51.5193082302915, "lng": -0.149480019708498}, "southwest": {"lat": 51.5166102697085, "lng": -0.152177980291502}}}, "name": "The Good Life Eatery", "place_id": "ChIJJZ-MW9IadkgRdJegPJc4qaw", "types": ["restaurant", "food", "point_of_interest", "establishment"], "rating": 4.1, "user_ratings_total": 201}, "ChIJST6rcYEbdkgRFjRRItXeQu8": {"geometry": {"location": {"lat": 51.517987, "lng": -0.1509002}, "viewport": {"northeast": {"lat": 51.5193532802915, "lng": -0.149492369708498}, "southwest": {"lat": 51.51665531970851, "lng": -0.152190330291502}}}, "name": "Marylebone Paving & Driveways", "place_id": "ChIJST6rcYEbdkgRFjRRItXeQu8", "types": ["general_contractor", "point_of_interest", "establishment"], "rating": 5, "user_ratings_total": 2}, "ChIJ0UYyjqQmfUgRXAumdbAzIhI": {"geometry": {"location": {"lat": 51.5176516, "lng": -0.1505759}, "viewport": {"northeast": {"lat": 51.51902098029149, "lng": -0.1492928697084979}, "southwest": {"lat": 51.51632301970849, "lng": -0.151990830291502}}}, "name": "V V Rouleaux", "place_id": "ChIJ0UYyjqQmfUgRXAumdbAzIhI", "types": ["point_of_interest", "clothing_store", "store", "establishment"], "rating": 4.4, "user_ratings_total": 80}, "ChIJ8dF1rNMadkgRGH_9QSJ8hEo": {"geometry": {"location": {"lat": 51.51799219999999, "lng": -0.149945}, "viewport": {"northeast": {"lat": 51.5193735302915, "lng": -0.148405919708498}, "southwest": {"lat": 51.5166755697085, "lng": -0.151103880291502}}}, "name": "Rosen Steven Associates", "place_id": "ChIJ8dF1rNMadkgRGH_9QSJ8hEo", "types": ["point_of_interest", "establishment"]}, "ChIJQyJcRdIadkgRLpXDdYUsMPM": {"geometry": {"location": {"lat": 51.5182638, "lng": -0.1505689}, "viewport": {"northeast": {"lat": 51.5196753302915, "lng": -0.149241719708498}, "southwest": {"lat": 51.5169773697085, "lng": -0.151939680291502}}}, "name": "National Timber Group Midco Limited", "place_id": "ChIJQyJcRdIadkgRLpXDdYUsMPM", "types": ["point_of_interest", "establishment"]}, "ChIJt6XoDQkbdkgRIk9IKfzWT88": {"geometry": {"location": {"lat": 51.5182638, "lng": -0.1505689}, "viewport": {"northeast": {"lat": 51.5196753302915, "lng": -0.149241719708498}, "southwest": {"lat": 51.5169773697085, "lng": -0.151939680291502}}}, "name": "Blandford Capital LLP", "place_id": "ChIJt6XoDQkbdkgRIk9IKfzWT88", "types": ["finance", "point_of_interest", "establishment"]}, "ChIJQyJcRdIadkgRtrvxKL55ExU": {"geometry": {"location": {"lat": 51.5182638, "lng": -0.1505689}, "viewport": {"northeast": {"lat": 51.5196753302915, "lng": -0.149241719708498}, "southwest": {"lat": 51.5169773697085, "lng": -0.151939680291502}}}, "name": "Hff Real Estate Limited", "place_id": "ChIJQyJcRdIadkgRtrvxKL55ExU", "types": ["real_estate_agency", "point_of_interest", "establishment"]}, "ChIJAQBERdIadkgRcR8g_x8fh5o": {"geometry": {"location": {"lat": 51.5182582, "lng": -0.1506129}, "viewport": {"northeast": {"lat": 51.51954173029151, "lng": -0.149237419708498}, "southwest": {"lat": 51.51684376970851, "lng": -0.151935380291502}}}, "name": "Metabolic Health Clinic", "place_id": "ChIJAQBERdIadkgRcR8g_x8fh5o", "types": ["health", "point_of_interest", "establishment"]}, "ChIJZffg4X8bdkgR34s4ixHM0N4": {"geometry": {"location": {"lat": 51.5182582, "lng": -0.1506129}, "viewport": {"northeast": {"lat": 51.51954173029151, "lng": -0.149237419708498}, "southwest": {"lat": 51.51684376970851, "lng": -0.151935380291502}}}, "name": "One Heart Clinic Marylebone", "place_id": "ChIJZffg4X8bdkgR34s4ixHM0N4", "types": ["doctor", "health", "point_of_interest", "establishment"]}, "ChIJX2TJVNIbdkgRwMNzeVh9E48": {"geometry": {"location": {"lat": 51.5182582, "lng": -0.1506129}, "viewport": {"northeast": {"lat": 51.51954173029151, "lng": -0.149237419708498}, "southwest": {"lat": 51.51684376970851, "lng": -0.151935380291502}}}, "name": "London Doctors Clinic Private GP", "place_id": "ChIJX2TJVNIbdkgRwMNzeVh9E48", "types": ["doctor", "hospital", "health", "point_of_interest", "establishment"], "rating": 4.2, "user_ratings_total": 36}, "ChIJ4-oQFx0bdkgRUJuFhbx7M7c": {"geometry": {"location": {"lat": 51.5182582, "lng": -0.1506129}, "viewport": {"northeast": {"lat": 51.51954173029151, "lng": -0.149237419708498}, "southwest": {"lat": 51.51684376970851, "lng": -0.151935380291502}}}, "name": "Rogers Regenerative Medical Group", "place_id": "ChIJ4-oQFx0bdkgRUJuFhbx7M7c", "types": ["health", "point_of_interest", "establishment"], "rating": 5, "user_ratings_total": 2}, "ChIJ52zE79IadkgRxXQaKPX-MoE": {"geometry": {"location": {"lat": 51.51683834448981, "lng": -0.1506351819696901}, "viewport": {"northeast": {"lat": 51.5181873302915, "lng": -0.149286169708498}, "southwest": {"lat": 51.5154893697085, "lng": -0.151984130291502}}}, "name": "29-35 Marylebone Ln", "place_id": "ChIJ52zE79IadkgRxXQaKPX-MoE", "types": ["route"]}, "ChIJAQAk5NIadkgR1lhS0Kd3MkE": {"geometry": {"location": {"lat": 51.51657489999999, "lng": -0.1502821}, "viewport": {"northeast": {"lat": 51.51788413029149, "lng": -0.149012719708498}, "southwest": {"lat": 51.51518616970849, "lng": -0.151710680291502}}}, "name": "The Residence at Marylebone Lane", "place_id": "ChIJAQAk5NIadkgR1lhS0Kd3MkE", "types": ["lodging", "point_of_interest", "establishment"]}, "ChIJBd6VAwANdkgRXTefNOU90nw": {"geometry": {"location": {"lat": 51.51676569999999, "lng": -0.1510916}, "viewport": {"northeast": {"lat": 51.5181041302915, "lng": -0.1498255697084979}, "southwest": {"lat": 51.5154061697085, "lng": -0.152523530291502}}}, "name": "DeVille", "place_id": "ChIJBd6VAwANdkgRXTefNOU90nw", "types": ["restaurant", "food", "point_of_interest", "establishment"], "rating": 4.6, "user_ratings_total": 7}, "ChIJ87bq-9IadkgR5J-sJHTYVGk": {"geometry": {"location": {"lat": 51.51721209999999, "lng": -0.1503481}, "viewport": {"northeast": {"lat": 51.5185030802915, "lng": -0.148973269708498}, "southwest": {"lat": 51.5158051197085, "lng": -0.151671230291502}}}, "name": "L D I C", "place_id": "ChIJ87bq-9IadkgR5J-sJHTYVGk", "types": ["finance", "point_of_interest", "establishment"]}, "ChIJazv69tIadkgRIshflhWehZY": {"geometry": {"location": {"lat": 51.5171857, "lng": -0.1506163}, "viewport": {"northeast": {"lat": 51.5185276302915, "lng": -0.149337719708498}, "southwest": {"lat": 51.5158296697085, "lng": -0.152035680291502}}}, "name": "The Coach Makers Arms Pub Marylebone", "place_id": "ChIJazv69tIadkgRIshflhWehZY", "types": ["bar", "restaurant", "food", "point_of_interest", "establishment"], "rating": 4.2, "user_ratings_total": 582}, "ChIJYSPk6NIadkgRVGdc__YU0cA": {"geometry": {"location": {"lat": 51.5163103, "lng": -0.1506251}, "viewport": {"northeast": {"lat": 51.5175459802915, "lng": -0.149204319708498}, "southwest": {"lat": 51.5148480197085, "lng": -0.151902280291502}}}, "name": "Levant", "place_id": "ChIJYSPk6NIadkgRVGdc__YU0cA", "types": ["bar", "restaurant", "food", "point_of_interest", "establishment"], "rating": 4.1, "user_ratings_total": 645}, "ChIJNe6E5tIadkgRixEiVsl8KYg": {"geometry": {"location": {"lat": 51.5164784, "lng": -0.1502204}, "viewport": {"northeast": {"lat": 51.5177959302915, "lng": -0.148927669708498}, "southwest": {"lat": 51.5150979697085, "lng": -0.151625630291502}}}, "name": "David Penton and Son", "place_id": "ChIJNe6E5tIadkgRixEiVsl8KYg", "types": ["hardware_store", "locksmith", "home_goods_store", "point_of_interest", "store", "establishment"], "rating": 4.3, "user_ratings_total": 34}, "ChIJv-7L79IadkgRVnn0UlIeZIw": {"geometry": {"location": {"lat": 51.51672610000001, "lng": -0.1507548}, "viewport": {"northeast": {"lat": 51.5181047302915, "lng": -0.149334269708498}, "southwest": {"lat": 51.5154067697085, "lng": -0.152032230291502}}}, "name": "Cocoro", "place_id": "ChIJv-7L79IadkgRVnn0UlIeZIw", "types": ["bar", "restaurant", "food", "point_of_interest", "establishment"], "rating": 4.1, "user_ratings_total": 410}, "ChIJm6Wy9tIadkgRV7ukJ-KUopE": {"geometry": {"location": {"lat": 51.5168974, "lng": -0.1507857}, "viewport": {"northeast": {"lat": 51.51830183029151, "lng": -0.149456519708498}, "southwest": {"lat": 51.51560386970851, "lng": -0.152154480291502}}}, "name": "Express Glazing", "place_id": "ChIJm6Wy9tIadkgRV7ukJ-KUopE", "types": ["locksmith", "general_contractor", "point_of_interest", "establishment"], "rating": 4.7, "user_ratings_total": 35}, "ChIJ5-OP_NIadkgR9WnBAIwkweM": {"geometry": {"location": {"lat": 51.5169539, "lng": -0.15015}, "viewport": {"northeast": {"lat": 51.5183806302915, "lng": -0.148835719708498}, "southwest": {"lat": 51.5156826697085, "lng": -0.151533680291502}}}, "name": "1st Choice Business Solutions Ltd", "place_id": "ChIJ5-OP_NIadkgR9WnBAIwkweM", "types": ["point_of_interest", "establishment"], "rating": 1.3, "user_ratings_total": 4}, "ChIJX3ZU8dIadkgRC8-oMAE7BjE": {"geometry": {"location": {"lat": 51.5169061, "lng": -0.1507953}, "viewport": {"northeast": {"lat": 51.51830573029149, "lng": -0.1494644197084979}, "southwest": {"lat": 51.5156077697085, "lng": -0.152162380291502}}}, "name": "Management Accountants Ltd", "place_id": "ChIJX3ZU8dIadkgRC8-oMAE7BjE", "types": ["accounting", "finance", "point_of_interest", "establishment"]}, "ChIJX3ZU8dIadkgRpiqjT7GAJeg": {"geometry": {"location": {"lat": 51.5169061, "lng": -0.1507953}, "viewport": {"northeast": {"lat": 51.51830573029149, "lng": -0.1494644197084979}, "southwest": {"lat": 51.5156077697085, "lng": -0.152162380291502}}}, "name": "Preside", "place_id": "ChIJX3ZU8dIadkgRpiqjT7GAJeg", "types": ["point_of_interest", "establishment"], "rating": 2.2, "user_ratings_total": 20}, "ChIJaTFcAtMadkgRQQiwFlXMKqc": {"geometry": {"location": {"lat": 51.5165787, "lng": -0.1506578}, "viewport": {"northeast": {"lat": 51.5178303302915, "lng": -0.149246469708498}, "southwest": {"lat": 51.5151323697085, "lng": -0.151944430291502}}}, "name": "W L Commercial", "place_id": "ChIJaTFcAtMadkgRQQiwFlXMKqc", "types": ["point_of_interest", "establishment"]}, "ChIJh7XR-tIadkgRMkRh5sMGmNw": {"geometry": {"location": {"lat": 51.51687990000001, "lng": -0.1505758}, "viewport": {"northeast": {"lat": 51.5183236302915, "lng": -0.149149269708498}, "southwest": {"lat": 51.5156256697085, "lng": -0.151847230291502}}}, "name": "Visa Medicals", "place_id": "ChIJh7XR-tIadkgRMkRh5sMGmNw", "types": ["hospital", "doctor", "health", "point_of_interest", "establishment"], "rating": 3.9, "user_ratings_total": 25}, "ChIJ-_RE7tIadkgRLKV0MFnuOfI": {"geometry": {"location": {"lat": 51.51676899999999, "lng": -0.150782}, "viewport": {"northeast": {"lat": 51.51813213029149, "lng": -0.1493505197084979}, "southwest": {"lat": 51.51543416970849, "lng": -0.152048480291502}}}, "name": "City & Central Barber Shop", "place_id": "ChIJ-_RE7tIadkgRLKV0MFnuOfI", "types": ["hair_care", "health", "point_of_interest", "establishment"], "rating": 4.5, "user_ratings_total": 69}, "ChIJsQYKLfAadkgRjeg_0raWWDk": {"geometry": {"location": {"lat": 51.5166744, "lng": -0.1506965}, "viewport": {"northeast": {"lat": 51.5180340302915, "lng": -0.149285269708498}, "southwest": {"lat": 51.5153360697085, "lng": -0.151983230291502}}}, "name": "Tracey Neuls West", "place_id": "ChIJsQYKLfAadkgRjeg_0raWWDk", "types": ["shoe_store", "point_of_interest", "store", "establishment"]}, "ChIJhz3c8dIadkgRrI7Ht-rxRu0": {"geometry": {"location": {"lat": 51.5169061, "lng": -0.1507953}, "viewport": {"northeast": {"lat": 51.51830573029149, "lng": -0.1494644197084979}, "southwest": {"lat": 51.5156077697085, "lng": -0.152162380291502}}}, "name": "Aveiroe Europe LLP", "place_id": "ChIJhz3c8dIadkgRrI7Ht-rxRu0", "types": ["accounting", "finance", "point_of_interest", "establishment"]}, "ChIJz9OM_tIadkgR4QjSgpVX04Y": {"geometry": {"location": {"lat": 51.517124, "lng": -0.1506232}, "viewport": {"northeast": {"lat": 51.5184337802915, "lng": -0.149256719708498}, "southwest": {"lat": 51.5157358197085, "lng": -0.151954680291502}}}, "name": "AKA Marylebone", "place_id": "ChIJz9OM_tIadkgR4QjSgpVX04Y", "types": ["lodging", "point_of_interest", "establishment"], "rating": 4.1, "user_ratings_total": 10}, "ChIJ3Xt2_NIadkgRMWYK1c88Nww": {"geometry": {"location": {"lat": 51.5169735, "lng": -0.1500595}, "viewport": {"northeast": {"lat": 51.5183984302915, "lng": -0.148744369708498}, "southwest": {"lat": 51.5157004697085, "lng": -0.151442330291502}}}, "name": "Fortius Surgical Centre", "place_id": "ChIJ3Xt2_NIadkgRMWYK1c88Nww", "types": ["doctor", "health", "point_of_interest", "establishment"], "rating": 4.4, "user_ratings_total": 5}, "ChIJNe6E5tIadkgRSMknCdjFMww": {"geometry": {"location": {"lat": 51.5164784, "lng": -0.1502204}, "viewport": {"northeast": {"lat": 51.5177959302915, "lng": -0.148927669708498}, "southwest": {"lat": 51.5150979697085, "lng": -0.151625630291502}}}, "name": "Brainstar Ltd", "place_id": "ChIJNe6E5tIadkgRSMknCdjFMww", "types": ["point_of_interest", "establishment"]}, "ChIJteg9-tIadkgRF2texsfqOLE": {"geometry": {"location": {"lat": 51.51719780000001, "lng": -0.1504376}, "viewport": {"northeast": {"lat": 51.51848828029151, "lng": -0.149062469708498}, "southwest": {"lat": 51.51579031970851, "lng": -0.151760430291502}}}, "name": "Aptaker & Partners Ltd", "place_id": "ChIJteg9-tIadkgRF2texsfqOLE", "types": ["point_of_interest", "establishment"]}, "ChIJD9R6-dIadkgRtCwkznKkjoI": {"geometry": {"location": {"lat": 51.51722909999999, "lng": -0.1502568}, "viewport": {"northeast": {"lat": 51.5185195302915, "lng": -0.148881719708498}, "southwest": {"lat": 51.5158215697085, "lng": -0.151579680291502}}}, "name": "Freeman Box", "place_id": "ChIJD9R6-dIadkgRtCwkznKkjoI", "types": ["lawyer", "point_of_interest", "establishment"]}, "ChIJIXfi8dIadkgR4jq-kyPRM-s": {"geometry": {"location": {"lat": 51.51686950000001, "lng": -0.1511377}, "viewport": {"northeast": {"lat": 51.5182640302915, "lng": -0.149805019708498}, "southwest": {"lat": 51.51556606970851, "lng": -0.152502980291502}}}, "name": "George Ide LLP", "place_id": "ChIJIXfi8dIadkgR4jq-kyPRM-s", "types": ["lawyer", "finance", "point_of_interest", "establishment"]}, "ChIJZYKj4NIadkgRV2T0QRpAKYo": {"geometry": {"location": {"lat": 51.5165822, "lng": -0.1500052}, "viewport": {"northeast": {"lat": 51.5177395802915, "lng": -0.148565069708498}, "southwest": {"lat": 51.51504161970851, "lng": -0.1512630302915021}}}, "name": "Saharas International Ltd", "place_id": "ChIJZYKj4NIadkgRV2T0QRpAKYo", "types": ["point_of_interest", "establishment"]}, "ChIJ1YFv-dIadkgRLSqviNh2hHM": {"geometry": {"location": {"lat": 51.5172126, "lng": -0.1503053}, "viewport": {"northeast": {"lat": 51.5185067802915, "lng": -0.1489318697084979}, "southwest": {"lat": 51.5158088197085, "lng": -0.151629830291502}}}, "name": "DGstudio", "place_id": "ChIJ1YFv-dIadkgRLSqviNh2hHM", "types": ["point_of_interest", "establishment"], "rating": 5, "user_ratings_total": 1}, "ChIJwTeaNLMEdkgR79xIdRI0P54": {"geometry": {"location": {"lat": 51.51638149999999, "lng": -0.1504676}, "viewport": {"northeast": {"lat": 51.5177588802915, "lng": -0.149067769708498}, "southwest": {"lat": 51.5150609197085, "lng": -0.151765730291502}}}, "name": "28-50 Wine Workshop & Kitchen", "place_id": "ChIJwTeaNLMEdkgR79xIdRI0P54", "types": ["bar", "restaurant", "food", "point_of_interest", "establishment"], "rating": 4.4, "user_ratings_total": 366}, "ChIJ9-2jqNIadkgRS9YIkskkc6E": {"geometry": {"location": {"lat": 51.5162941, "lng": -0.1503832}, "viewport": {"northeast": {"lat": 51.51755333029151, "lng": -0.148994019708498}, "southwest": {"lat": 51.51485536970851, "lng": -0.151691980291502}}}, "name": "Dar Al-Handasah", "place_id": "ChIJ9-2jqNIadkgRS9YIkskkc6E", "types": ["point_of_interest", "establishment"], "rating": 5, "user_ratings_total": 5}, "ChIJiwcZti8FdkgRWnXPUX2ApPY": {"geometry": {"location": {"lat": 51.5170872, "lng": -0.1498831}, "viewport": {"northeast": {"lat": 51.5184735802915, "lng": -0.148550919708498}, "southwest": {"lat": 51.5157756197085, "lng": -0.151248880291502}}}, "name": "TDR Capital LLP", "place_id": "ChIJiwcZti8FdkgRWnXPUX2ApPY", "types": ["finance", "point_of_interest", "establishment"]}, "ChIJi9NnAtMadkgRnnIcbtDRnRo": {"geometry": {"location": {"lat": 51.51701869999999, "lng": -0.149766}, "viewport": {"northeast": {"lat": 51.5184462802915, "lng": -0.1484527697084979}, "southwest": {"lat": 51.5157483197085, "lng": -0.151150730291502}}}, "name": "Serendipity Villas Limited", "place_id": "ChIJi9NnAtMadkgRnnIcbtDRnRo", "types": ["real_estate_agency", "point_of_interest", "establishment"]}, "ChIJ7SJmAtMadkgRtO9PcjuqDCk": {"geometry": {"location": {"lat": 51.5170222, "lng": -0.1497669}, "viewport": {"northeast": {"lat": 51.5184480802915, "lng": -0.148452919708498}, "southwest": {"lat": 51.5157501197085, "lng": -0.151150880291502}}}, "name": "Marketing for law Firms - Law Firm Marketing - Web Design", "place_id": "ChIJ7SJmAtMadkgRtO9PcjuqDCk", "types": ["point_of_interest", "establishment"]}, "ChIJteg9-tIadkgRFMaToL5MLIM": {"geometry": {"location": {"lat": 51.51719780000001, "lng": -0.1504376}, "viewport": {"northeast": {"lat": 51.51848828029151, "lng": -0.149062469708498}, "southwest": {"lat": 51.51579031970851, "lng": -0.151760430291502}}}, "name": "Cruickshanks", "place_id": "ChIJteg9-tIadkgRFMaToL5MLIM", "types": ["lawyer", "point_of_interest", "establishment"]}, "ChIJozvr-9IadkgRiQNLO75fLQc": {"geometry": {"location": {"lat": 51.51721209999999, "lng": -0.1503481}, "viewport": {"northeast": {"lat": 51.5185030802915, "lng": -0.148973269708498}, "southwest": {"lat": 51.5158051197085, "lng": -0.151671230291502}}}, "name": "Levinson & Co", "place_id": "ChIJozvr-9IadkgRiQNLO75fLQc", "types": ["point_of_interest", "establishment"]}, "ChIJV6EC79IadkgRKGqk5JB-DjU": {"geometry": {"location": {"lat": 51.5166772, "lng": -0.1507241}, "viewport": {"northeast": {"lat": 51.5180389802915, "lng": -0.149300619708498}, "southwest": {"lat": 51.5153410197085, "lng": -0.151998580291502}}}, "name": "The Music Studios", "place_id": "ChIJV6EC79IadkgRKGqk5JB-DjU", "types": ["point_of_interest", "establishment"], "rating": 4.4, "user_ratings_total": 39}, "ChIJs8Ne8dIadkgRrGPzPYUQjjU": {"geometry": {"location": {"lat": 51.5171326, "lng": -0.1508631}, "viewport": {"northeast": {"lat": 51.5184872802915, "lng": -0.149457519708498}, "southwest": {"lat": 51.5157893197085, "lng": -0.152155480291502}}}, "name": "Burlingtons Dry Cleaners Marylebone", "place_id": "ChIJs8Ne8dIadkgRrGPzPYUQjjU", "types": ["laundry", "point_of_interest", "establishment"], "rating": 3.8, "user_ratings_total": 17}, "ChIJw0ve4NIadkgRF__dh9LL2V8": {"geometry": {"location": {"lat": 51.516792, "lng": -0.150526}, "viewport": {"northeast": {"lat": 51.5182636802915, "lng": -0.149179319708498}, "southwest": {"lat": 51.5155657197085, "lng": -0.151877280291502}}}, "name": "Marylebone Associates", "place_id": "ChIJw0ve4NIadkgRF__dh9LL2V8", "types": ["point_of_interest", "establishment"]}, "ChIJnVvd9tIadkgRFQfUj0gMZxQ": {"geometry": {"location": {"lat": 51.5166517, "lng": -0.1504202}, "viewport": {"northeast": {"lat": 51.5179856802915, "lng": -0.149131469708498}, "southwest": {"lat": 51.5152877197085, "lng": -0.151829430291502}}}, "name": "Kj's Laundry", "place_id": "ChIJnVvd9tIadkgRFQfUj0gMZxQ", "types": ["clothing_store", "point_of_interest", "store", "establishment"], "rating": 4.2, "user_ratings_total": 11}, "ChIJ7cG279IadkgRDloNpDdVSv8": {"geometry": {"location": {"lat": 51.5166917, "lng": -0.1506739}, "viewport": {"northeast": {"lat": 51.5180496802915, "lng": -0.149278019708498}, "southwest": {"lat": 51.5153517197085, "lng": -0.151975980291502}}}, "name": "Deborah Hudson", "place_id": "ChIJ7cG279IadkgRDloNpDdVSv8", "types": ["school", "point_of_interest", "establishment"]}, "ChIJod2E69IadkgR2BCUTOKYKYs": {"geometry": {"location": {"lat": 51.5165248, "lng": -0.1510425}, "viewport": {"northeast": {"lat": 51.51782603029149, "lng": -0.149729069708498}, "southwest": {"lat": 51.5151280697085, "lng": -0.152427030291502}}}, "name": "Reform Social & Grill", "place_id": "ChIJod2E69IadkgR2BCUTOKYKYs", "types": ["bar", "restaurant", "food", "point_of_interest", "establishment"], "rating": 4, "user_ratings_total": 139}, "ChIJ7cG279IadkgRvaTGvVIEn18": {"geometry": {"location": {"lat": 51.51669180000001, "lng": -0.1506739}, "viewport": {"northeast": {"lat": 51.51804893029149, "lng": -0.1492774197084979}, "southwest": {"lat": 51.51535096970849, "lng": -0.151975380291502}}}, "name": "Tracey Neuls", "place_id": "ChIJ7cG279IadkgRvaTGvVIEn18", "types": ["shoe_store", "point_of_interest", "store", "establishment"], "rating": 4, "user_ratings_total": 12}, "ChIJn9sW7tIadkgRqnlRntLDb-8": {"geometry": {"location": {"lat": 51.51682899999999, "lng": -0.1508311}, "viewport": {"northeast": {"lat": 51.5181939302915, "lng": -0.149389119708498}, "southwest": {"lat": 51.5154959697085, "lng": -0.152087080291502}}}, "name": "Paul Rothe & Son", "place_id": "ChIJn9sW7tIadkgRqnlRntLDb-8", "types": ["cafe", "restaurant", "food", "point_of_interest", "store", "establishment"], "rating": 4.8, "user_ratings_total": 181}, "ChIJATOJwtIadkgR-zdo4al2b3Y": {"geometry": {"location": {"lat": 51.5162941, "lng": -0.1503832}, "viewport": {"northeast": {"lat": 51.51755333029151, "lng": -0.148994019708498}, "southwest": {"lat": 51.51485536970851, "lng": -0.151691980291502}}}, "name": "Garguz", "place_id": "ChIJATOJwtIadkgR-zdo4al2b3Y", "types": ["point_of_interest", "establishment"], "rating": 1, "user_ratings_total": 1}, "ChIJ-_0b89IadkgRuO4ROoRzT1Y": {"geometry": {"location": {"lat": 51.5170669, "lng": -0.1511288}, "viewport": {"northeast": {"lat": 51.51840798029149, "lng": -0.149859169708498}, "southwest": {"lat": 51.51571001970849, "lng": -0.152557130291502}}}, "name": "Hinde Street Methodist Church", "place_id": "ChIJ-_0b89IadkgRuO4ROoRzT1Y", "types": ["church", "place_of_worship", "point_of_interest", "establishment"], "rating": 4.4, "user_ratings_total": 58}, "ChIJQXSZ59IadkgRqlBLX7UrlXo": {"geometry": {"location": {"lat": 51.51629149999999, "lng": -0.150383}, "viewport": {"northeast": {"lat": 51.5175519302915, "lng": -0.1489943697084979}, "southwest": {"lat": 51.5148539697085, "lng": -0.151692330291502}}}, "name": "KeyNest - Smart Key Exchange", "place_id": "ChIJQXSZ59IadkgRqlBLX7UrlXo", "types": ["point_of_interest", "store", "establishment"], "rating": 5, "user_ratings_total": 1}, "ChIJozvr-9IadkgRFXm8WlIXjE0": {"geometry": {"location": {"lat": 51.51721209999999, "lng": -0.1503481}, "viewport": {"northeast": {"lat": 51.5185030802915, "lng": -0.148973269708498}, "southwest": {"lat": 51.5158051197085, "lng": -0.151671230291502}}}, "name": "Glass Logic", "place_id": "ChIJozvr-9IadkgRFXm8WlIXjE0", "types": ["furniture_store", "home_goods_store", "point_of_interest", "store", "establishment"], "rating": 5, "user_ratings_total": 2}, "ChIJxeYv-9IadkgRsA6wQnoFwD4": {"geometry": {"location": {"lat": 51.5171815, "lng": -0.1505258}, "viewport": {"northeast": {"lat": 51.5184724302915, "lng": -0.1491508697084979}, "southwest": {"lat": 51.5157744697085, "lng": -0.151848830291502}}}, "name": "Dr G S Dymond", "place_id": "ChIJxeYv-9IadkgRsA6wQnoFwD4", "types": ["doctor", "health", "point_of_interest", "establishment"], "rating": 5, "user_ratings_total": 1}, "ChIJozvr-9IadkgRPC9Z7SCcIZw": {"geometry": {"location": {"lat": 51.51721209999999, "lng": -0.1503481}, "viewport": {"northeast": {"lat": 51.5185030802915, "lng": -0.148973269708498}, "southwest": {"lat": 51.5158051197085, "lng": -0.151671230291502}}}, "name": "iMOVIEi.com", "place_id": "ChIJozvr-9IadkgRPC9Z7SCcIZw", "types": ["library", "point_of_interest", "establishment"]}, "ChIJozvr-9IadkgRyMK9a3xNPzo": {"geometry": {"location": {"lat": 51.51721209999999, "lng": -0.1503481}, "viewport": {"northeast": {"lat": 51.5185030802915, "lng": -0.148973269708498}, "southwest": {"lat": 51.5158051197085, "lng": -0.151671230291502}}}, "name": "Optimus Resource Group", "place_id": "ChIJozvr-9IadkgRyMK9a3xNPzo", "types": ["point_of_interest", "establishment"]}, "ChIJozvr-9IadkgRAa5U65VHV2o": {"geometry": {"location": {"lat": 51.51723200000001, "lng": -0.1502856}, "viewport": {"northeast": {"lat": 51.5185187802915, "lng": -0.148908869708498}, "southwest": {"lat": 51.51582081970851, "lng": -0.151606830291502}}}, "name": "Lelens Group Limited", "place_id": "ChIJozvr-9IadkgRAa5U65VHV2o", "types": ["point_of_interest", "establishment"]}, "ChIJ26OGmNIadkgRdM6YEPW84RY": {"geometry": {"location": {"lat": 51.5164366, "lng": -0.1506378}, "viewport": {"northeast": {"lat": 51.51782593029149, "lng": -0.149204069708498}, "southwest": {"lat": 51.51512796970849, "lng": -0.151902030291502}}}, "name": "Vits\u0153", "place_id": "ChIJ26OGmNIadkgRdM6YEPW84RY", "types": ["furniture_store", "home_goods_store", "point_of_interest", "store", "establishment"], "rating": 5, "user_ratings_total": 14}, "ChIJ_1UdUQIbdkgRj-FgJU8l9RA": {"geometry": {"location": {"lat": 51.5166914, "lng": -0.1504864}, "viewport": {"northeast": {"lat": 51.5180354302915, "lng": -0.149166419708498}, "southwest": {"lat": 51.5153374697085, "lng": -0.151864380291502}}}, "name": "Bonnet \u00e0 Pompon", "place_id": "ChIJ_1UdUQIbdkgRj-FgJU8l9RA", "types": ["point_of_interest", "clothing_store", "store", "establishment"], "rating": 5, "user_ratings_total": 1}, "ChIJ35Vp7tIadkgRh0tvT1wQKLI": {"geometry": {"location": {"lat": 51.51676860000001, "lng": -0.1507824}, "viewport": {"northeast": {"lat": 51.5181317802915, "lng": -0.149350669708498}, "southwest": {"lat": 51.5154338197085, "lng": -0.152048630291502}}}, "name": "Vip Tailors", "place_id": "ChIJ35Vp7tIadkgRh0tvT1wQKLI", "types": ["point_of_interest", "establishment"], "rating": 4.3, "user_ratings_total": 29}, "ChIJiWPQ8dIadkgRxZwAkggr-h8": {"geometry": {"location": {"lat": 51.5169143, "lng": -0.1507628}, "viewport": {"northeast": {"lat": 51.51831218029149, "lng": -0.149431319708498}, "southwest": {"lat": 51.5156142197085, "lng": -0.152129280291502}}}, "name": "galapark", "place_id": "ChIJiWPQ8dIadkgRxZwAkggr-h8", "types": ["general_contractor", "point_of_interest", "establishment"]}, "ChIJoY1es2cbdkgRmX9hOxNxv98": {"geometry": {"location": {"lat": 51.5166378, "lng": -0.1504528}, "viewport": {"northeast": {"lat": 51.5179793302915, "lng": -0.149143119708498}, "southwest": {"lat": 51.5152813697085, "lng": -0.151841080291502}}}, "name": "Clergerie", "place_id": "ChIJoY1es2cbdkgRmX9hOxNxv98", "types": ["shoe_store", "point_of_interest", "store", "establishment"], "rating": 3, "user_ratings_total": 1}, "ChIJ7cG279IadkgRMGVlGXGAyDY": {"geometry": {"location": {"lat": 51.5166873, "lng": -0.1507309}, "viewport": {"northeast": {"lat": 51.5180492302915, "lng": -0.149306369708498}, "southwest": {"lat": 51.5153512697085, "lng": -0.152004330291502}}}, "name": "Kelly MacKenzie-Thurley", "place_id": "ChIJ7cG279IadkgRMGVlGXGAyDY", "types": ["point_of_interest", "establishment"], "rating": 1, "user_ratings_total": 1}, "ChIJO0v97tIadkgRvcStI-3rwF8": {"geometry": {"location": {"lat": 51.5166772, "lng": -0.1507241}, "viewport": {"northeast": {"lat": 51.5180389802915, "lng": -0.149300619708498}, "southwest": {"lat": 51.5153410197085, "lng": -0.151998580291502}}}, "name": "MICHAEL VICKERS VOICE TEACHER", "place_id": "ChIJO0v97tIadkgRvcStI-3rwF8", "types": ["school", "point_of_interest", "establishment"]}, "ChIJs5ghX7scdkgRwyCL_Oj01TU": {"geometry": {"location": {"lat": 51.5166772, "lng": -0.1507241}, "viewport": {"northeast": {"lat": 51.5180389802915, "lng": -0.149300619708498}, "southwest": {"lat": 51.5153410197085, "lng": -0.151998580291502}}}, "name": "Singing Studio London", "place_id": "ChIJs5ghX7scdkgRwyCL_Oj01TU", "types": ["school", "point_of_interest", "establishment"], "rating": 5, "user_ratings_total": 2}, "ChIJIXfi8dIadkgRQoYgR5oZkMM": {"geometry": {"location": {"lat": 51.5169061, "lng": -0.1507953}, "viewport": {"northeast": {"lat": 51.51830573029149, "lng": -0.1494644197084979}, "southwest": {"lat": 51.5156077697085, "lng": -0.152162380291502}}}, "name": "Consultancy & Legal Services", "place_id": "ChIJIXfi8dIadkgRQoYgR5oZkMM", "types": ["point_of_interest", "establishment"]}, "ChIJ18pla7obdkgRIM7xIClRYNI": {"geometry": {"location": {"lat": 51.5166208, "lng": -0.1504593}, "viewport": {"northeast": {"lat": 51.5179642302915, "lng": -0.1491352697084979}, "southwest": {"lat": 51.5152662697085, "lng": -0.151833230291502}}}, "name": "Lulu Curations Pop Store", "place_id": "ChIJ18pla7obdkgRIM7xIClRYNI", "types": ["clothing_store", "point_of_interest", "store", "establishment"], "rating": 4, "user_ratings_total": 1}, "ChIJIXfi8dIadkgRZ0Pk29Qef2c": {"geometry": {"location": {"lat": 51.5168832, "lng": -0.1508433}, "viewport": {"northeast": {"lat": 51.5182905802915, "lng": -0.149515219708498}, "southwest": {"lat": 51.5155926197085, "lng": -0.152213180291502}}}, "name": "ArtisanPro Events", "place_id": "ChIJIXfi8dIadkgRZ0Pk29Qef2c", "types": ["point_of_interest", "establishment"], "rating": 5, "user_ratings_total": 1}, "ChIJqbXSwtIadkgRrzdpYq2YSmw": {"geometry": {"location": {"lat": 51.5160797500055, "lng": -0.150504750004775}, "viewport": {"northeast": {"lat": 51.5174287302915, "lng": -0.1491557697084979}, "southwest": {"lat": 51.51473076970851, "lng": -0.151853730291502}}}, "name": "69 Wigmore St", "place_id": "ChIJqbXSwtIadkgRrzdpYq2YSmw", "types": ["route"]}, "ChIJ08cNz9IadkgREjcza9bTcVc": {"geometry": {"location": {"lat": 51.5154177, "lng": -0.1506404}, "viewport": {"northeast": {"lat": 51.5167709302915, "lng": -0.149360869708498}, "southwest": {"lat": 51.5140729697085, "lng": -0.152058830291502}}}, "name": "Cocochan", "place_id": "ChIJ08cNz9IadkgREjcza9bTcVc", "types": ["bar", "restaurant", "food", "point_of_interest", "establishment"], "rating": 4, "user_ratings_total": 413}, "ChIJ0wKU3NIadkgRKwHhlzQtVsg": {"geometry": {"location": {"lat": 51.5160168, "lng": -0.1504397}, "viewport": {"northeast": {"lat": 51.5174015802915, "lng": -0.149095019708498}, "southwest": {"lat": 51.5147036197085, "lng": -0.151792980291502}}}, "name": "Costa Coffee", "place_id": "ChIJ0wKU3NIadkgRKwHhlzQtVsg", "types": ["cafe", "food", "point_of_interest", "store", "establishment"], "rating": 3.8, "user_ratings_total": 256}, "ChIJPfQJz9IadkgR3J3-BnclrBU": {"geometry": {"location": {"lat": 51.5157544, "lng": -0.150796}, "viewport": {"northeast": {"lat": 51.5170918302915, "lng": -0.149510819708498}, "southwest": {"lat": 51.5143938697085, "lng": -0.152208780291502}}}, "name": "Patty & Bun - James Street", "place_id": "ChIJPfQJz9IadkgR3J3-BnclrBU", "types": ["restaurant", "food", "point_of_interest", "establishment"], "rating": 4.4, "user_ratings_total": 1760}, "ChIJe_9V3NIadkgRfGTfoy3DLb8": {"geometry": {"location": {"lat": 51.5160217, "lng": -0.1502407}, "viewport": {"northeast": {"lat": 51.5174187802915, "lng": -0.148913269708498}, "southwest": {"lat": 51.5147208197085, "lng": -0.151611230291502}}}, "name": "Comptoir Libanais Wigmore Street", "place_id": "ChIJe_9V3NIadkgRfGTfoy3DLb8", "types": ["restaurant", "food", "point_of_interest", "establishment"], "rating": 4, "user_ratings_total": 618}, "ChIJNe1H2tIadkgR3cUmbSeMbSY": {"geometry": {"location": {"lat": 51.5156869, "lng": -0.1502576}, "viewport": {"northeast": {"lat": 51.51722043029149, "lng": -0.149050169708498}, "southwest": {"lat": 51.5145224697085, "lng": -0.151748130291502}}}, "name": "Ristorante Olivelli", "place_id": "ChIJNe1H2tIadkgR3cUmbSeMbSY", "types": ["restaurant", "food", "point_of_interest", "establishment"], "rating": 4.3, "user_ratings_total": 284}, "ChIJx_Wiw9IadkgRS2Mu5akU_6o": {"geometry": {"location": {"lat": 51.515933, "lng": -0.1507662}, "viewport": {"northeast": {"lat": 51.51728198029149, "lng": -0.1494172197084979}, "southwest": {"lat": 51.51458401970849, "lng": -0.152115180291502}}}, "name": "Wigmore Street Apartments", "place_id": "ChIJx_Wiw9IadkgRS2Mu5akU_6o", "types": ["lodging", "point_of_interest", "establishment"]}, "ChIJT5njg8wEdkgRHfU7PvhK4I4": {"geometry": {"location": {"lat": 51.51531900000001, "lng": -0.150901}, "viewport": {"northeast": {"lat": 51.5167064302915, "lng": -0.149475619708498}, "southwest": {"lat": 51.5140084697085, "lng": -0.152173580291502}}}, "name": "Ping Pong St Christopher's Place", "place_id": "ChIJT5njg8wEdkgRHfU7PvhK4I4", "types": ["bar", "restaurant", "food", "point_of_interest", "establishment"], "rating": 3.9, "user_ratings_total": 345}, "ChIJnSGvz9IadkgRW0aZYMELc5c": {"geometry": {"location": {"lat": 51.51534890000001, "lng": -0.1506409}, "viewport": {"northeast": {"lat": 51.5166889302915, "lng": -0.149342269708498}, "southwest": {"lat": 51.51399096970851, "lng": -0.152040230291502}}}, "name": "T Burrows", "place_id": "ChIJnSGvz9IadkgRW0aZYMELc5c", "types": ["point_of_interest", "clothing_store", "store", "establishment"], "rating": 4.9, "user_ratings_total": 8}, "ChIJuxsWw9IadkgRTAK6I3zgRMw": {"geometry": {"location": {"lat": 51.515833, "lng": -0.1503574}, "viewport": {"northeast": {"lat": 51.51729628029149, "lng": -0.149086319708498}, "southwest": {"lat": 51.5145983197085, "lng": -0.151784280291502}}}, "name": "Acuitus", "place_id": "ChIJuxsWw9IadkgRTAK6I3zgRMw", "types": ["point_of_interest", "establishment"], "rating": 5, "user_ratings_total": 3}, "ChIJTXUuxNIadkgRIonicXGWFz0": {"geometry": {"location": {"lat": 51.5157319, "lng": -0.1508219}, "viewport": {"northeast": {"lat": 51.5170732802915, "lng": -0.149519219708498}, "southwest": {"lat": 51.51437531970851, "lng": -0.1522171802915021}}}, "name": "Acupuncture and Sports Massage in W1", "place_id": "ChIJTXUuxNIadkgRIonicXGWFz0", "types": ["health", "point_of_interest", "establishment"], "rating": 3.7, "user_ratings_total": 3}, "ChIJEa-L3NIadkgRsCqH_GT1hkc": {"geometry": {"location": {"lat": 51.5159832, "lng": -0.1503302}, "viewport": {"northeast": {"lat": 51.5173321802915, "lng": -0.148981219708498}, "southwest": {"lat": 51.5146342197085, "lng": -0.151679180291502}}}, "name": "Clergerie - London Wigmore Street", "place_id": "ChIJEa-L3NIadkgRsCqH_GT1hkc", "types": ["shoe_store", "point_of_interest", "store", "establishment"], "rating": 4.7, "user_ratings_total": 9}, "ChIJYZN3xdIadkgRmNikwMVeQIU": {"geometry": {"location": {"lat": 51.5155875, "lng": -0.1507386}, "viewport": {"northeast": {"lat": 51.5169263802915, "lng": -0.149445719708498}, "southwest": {"lat": 51.5142284197085, "lng": -0.152143680291502}}}, "name": "A B B Property Consultancy", "place_id": "ChIJYZN3xdIadkgRmNikwMVeQIU", "types": ["point_of_interest", "establishment"]}, "ChIJXTfK0NIadkgR0AOV12eEw20": {"geometry": {"location": {"lat": 51.515851, "lng": -0.150368}, "viewport": {"northeast": {"lat": 51.5173054802915, "lng": -0.149090469708498}, "southwest": {"lat": 51.5146075197085, "lng": -0.151788430291502}}}, "name": "Curson Sowerby Partners", "place_id": "ChIJXTfK0NIadkgR0AOV12eEw20", "types": ["finance", "real_estate_agency", "point_of_interest", "establishment"]}, "ChIJYZN3xdIadkgRIDuZlsNaPkI": {"geometry": {"location": {"lat": 51.5155875, "lng": -0.1507386}, "viewport": {"northeast": {"lat": 51.5169263802915, "lng": -0.149445719708498}, "southwest": {"lat": 51.5142284197085, "lng": -0.152143680291502}}}, "name": "Mason Owen", "place_id": "ChIJYZN3xdIadkgRIDuZlsNaPkI", "types": ["point_of_interest", "establishment"], "rating": 2.3, "user_ratings_total": 3}, "ChIJ0wKU3NIadkgREu6lYEDetho": {"geometry": {"location": {"lat": 51.5159637, "lng": -0.1504417}, "viewport": {"northeast": {"lat": 51.5173716802915, "lng": -0.149118369708498}, "southwest": {"lat": 51.51467371970851, "lng": -0.151816330291502}}}, "name": "Danobe Securities", "place_id": "ChIJ0wKU3NIadkgREu6lYEDetho", "types": ["finance", "point_of_interest", "establishment"]}, "ChIJjd8b0NIadkgRSR6xJvv3rJg": {"geometry": {"location": {"lat": 51.5158205, "lng": -0.1504789}, "viewport": {"northeast": {"lat": 51.51729188029149, "lng": -0.149136169708498}, "southwest": {"lat": 51.5145939197085, "lng": -0.151834130291502}}}, "name": "Velvet by Graham & Spencer", "place_id": "ChIJjd8b0NIadkgRSR6xJvv3rJg", "types": ["clothing_store", "point_of_interest", "store", "establishment"], "rating": 4.3, "user_ratings_total": 3}, "ChIJj3e3xNIadkgRUn-NpoHRJcQ": {"geometry": {"location": {"lat": 51.5158255, "lng": -0.1505738}, "viewport": {"northeast": {"lat": 51.5172985802915, "lng": -0.149157869708498}, "southwest": {"lat": 51.5146006197085, "lng": -0.151855830291502}}}, "name": "SHIRO St Christopher's Place", "place_id": "ChIJj3e3xNIadkgRUn-NpoHRJcQ", "types": ["point_of_interest", "store", "establishment"], "rating": 4.8, "user_ratings_total": 6}, "ChIJiwQc29IadkgR_nP_ShDCU7M": {"geometry": {"location": {"lat": 51.5157687, "lng": -0.1503120000000001}, "viewport": {"northeast": {"lat": 51.5172627802915, "lng": -0.149071319708498}, "southwest": {"lat": 51.5145648197085, "lng": -0.151769280291502}}}, "name": "Diverso", "place_id": "ChIJiwQc29IadkgR_nP_ShDCU7M", "types": ["point_of_interest", "clothing_store", "store", "establishment"], "rating": 4.3, "user_ratings_total": 15}, "ChIJn30WWUcFdkgRd585ot3g7eY": {"geometry": {"location": {"lat": 51.51562789999999, "lng": -0.150505}, "viewport": {"northeast": {"lat": 51.51719978029149, "lng": -0.149097769708498}, "southwest": {"lat": 51.51450181970849, "lng": -0.151795730291502}}}, "name": "Lulu Sophia London", "place_id": "ChIJn30WWUcFdkgRd585ot3g7eY", "types": ["clothing_store", "point_of_interest", "store", "establishment"], "rating": 5, "user_ratings_total": 1}, "ChIJ_RaaxdIadkgRrV9WYjuuLxI": {"geometry": {"location": {"lat": 51.5156265, "lng": -0.1507547}, "viewport": {"northeast": {"lat": 51.5169652302915, "lng": -0.149462769708498}, "southwest": {"lat": 51.5142672697085, "lng": -0.152160730291502}}}, "name": "Bone Daddies Bond St", "place_id": "ChIJ_RaaxdIadkgRrV9WYjuuLxI", "types": ["restaurant", "food", "point_of_interest", "establishment"], "rating": 4.3, "user_ratings_total": 538}, "ChIJFWp20NIadkgR-v2VOAej4iE": {"geometry": {"location": {"lat": 51.51556249999999, "lng": -0.1504091}, "viewport": {"northeast": {"lat": 51.51714353029149, "lng": -0.149080019708498}, "southwest": {"lat": 51.51444556970849, "lng": -0.1517779802915021}}}, "name": "Castle Fine Art, London", "place_id": "ChIJFWp20NIadkgR-v2VOAej4iE", "types": ["art_gallery", "point_of_interest", "establishment"], "rating": 4.4, "user_ratings_total": 15}, "ChIJ1aiGxdIadkgR5jg11s9Y5Cc": {"geometry": {"location": {"lat": 51.5155875, "lng": -0.1507386}, "viewport": {"northeast": {"lat": 51.5169263802915, "lng": -0.149445719708498}, "southwest": {"lat": 51.5142284197085, "lng": -0.152143680291502}}}, "name": "Gain", "place_id": "ChIJ1aiGxdIadkgR5jg11s9Y5Cc", "types": ["finance", "point_of_interest", "establishment"]}, "ChIJYZN3xdIadkgRNnWoqkE6fXs": {"geometry": {"location": {"lat": 51.5155875, "lng": -0.1507386}, "viewport": {"northeast": {"lat": 51.5169263802915, "lng": -0.149445719708498}, "southwest": {"lat": 51.5142284197085, "lng": -0.152143680291502}}}, "name": "Bywater Properties", "place_id": "ChIJYZN3xdIadkgRNnWoqkE6fXs", "types": ["point_of_interest", "establishment"], "rating": 5, "user_ratings_total": 1}, "ChIJM3vF3NIadkgRP8nBocBAWN0": {"geometry": {"location": {"lat": 51.5159714, "lng": -0.1504102}, "viewport": {"northeast": {"lat": 51.5173781802915, "lng": -0.149087119708498}, "southwest": {"lat": 51.5146802197085, "lng": -0.151785080291502}}}, "name": "Percor Capital", "place_id": "ChIJM3vF3NIadkgRP8nBocBAWN0", "types": ["finance", "point_of_interest", "establishment"]}, "ChIJCY8IxNIadkgRvnDxY6e7La8": {"geometry": {"location": {"lat": 51.5158844, "lng": -0.1508496}, "viewport": {"northeast": {"lat": 51.5172964302915, "lng": -0.149528769708498}, "southwest": {"lat": 51.5145984697085, "lng": -0.152226730291502}}}, "name": "Tunisia", "place_id": "ChIJCY8IxNIadkgRvnDxY6e7La8", "types": ["point_of_interest", "establishment"]}, "ChIJC9vYQtIadkgRZ6R74zbZ7c0": {"geometry": {"location": {"lat": 51.51547970000001, "lng": -0.1503588}, "viewport": {"northeast": {"lat": 51.51712398029149, "lng": -0.149061719708498}, "southwest": {"lat": 51.51442601970849, "lng": -0.151759680291502}}}, "name": "Montana Investments", "place_id": "ChIJC9vYQtIadkgRZ6R74zbZ7c0", "types": ["finance", "point_of_interest", "establishment"]}, "ChIJ-aANz9IadkgRIvz78VoOP9Y": {"geometry": {"location": {"lat": 51.5154177, "lng": -0.1506404}, "viewport": {"northeast": {"lat": 51.5167551302915, "lng": -0.1493565697084979}, "southwest": {"lat": 51.5140571697085, "lng": -0.152054530291502}}}, "name": "Michael May & Partners", "place_id": "ChIJ-aANz9IadkgRIvz78VoOP9Y", "types": ["real_estate_agency", "point_of_interest", "establishment"]}, "ChIJq1AG0NIadkgRJ2iLRsbAOvE": {"geometry": {"location": {"lat": 51.5154594, "lng": -0.1503922}, "viewport": {"northeast": {"lat": 51.5171156302915, "lng": -0.149058019708498}, "southwest": {"lat": 51.5144176697085, "lng": -0.151755980291502}}}, "name": "Steven Stone", "place_id": "ChIJq1AG0NIadkgRJ2iLRsbAOvE", "types": ["jewelry_store", "point_of_interest", "store", "establishment"], "rating": 5, "user_ratings_total": 168}, "ChIJO3Q83NIadkgRs3uNqYwGVxI": {"geometry": {"location": {"lat": 51.51601119999999, "lng": -0.1501522}, "viewport": {"northeast": {"lat": 51.51742028029149, "lng": -0.148830119708498}, "southwest": {"lat": 51.5147223197085, "lng": -0.151528080291502}}}, "name": "Ruffians Marylebone", "place_id": "ChIJO3Q83NIadkgRs3uNqYwGVxI", "types": ["hair_care", "health", "point_of_interest", "establishment"], "rating": 4.9, "user_ratings_total": 191}, "ChIJO3Q83NIadkgRunvOoe-jctc": {"geometry": {"location": {"lat": 51.51601119999999, "lng": -0.1501522}, "viewport": {"northeast": {"lat": 51.51742028029149, "lng": -0.148830119708498}, "southwest": {"lat": 51.5147223197085, "lng": -0.151528080291502}}}, "name": "Hesso Media", "place_id": "ChIJO3Q83NIadkgRunvOoe-jctc", "types": ["point_of_interest", "establishment"]}, "ChIJR0Ep3NIadkgRrqfpNWFdKDI": {"geometry": {"location": {"lat": 51.516037, "lng": -0.1501827}, "viewport": {"northeast": {"lat": 51.5174316302915, "lng": -0.148854169708498}, "southwest": {"lat": 51.5147336697085, "lng": -0.151552130291502}}}, "name": "RE/MAX GRAND", "place_id": "ChIJR0Ep3NIadkgRrqfpNWFdKDI", "types": ["real_estate_agency", "point_of_interest", "establishment"]}, "ChIJCZz72NIadkgRv8YneHh7JYs": {"geometry": {"location": {"lat": 51.5157656, "lng": -0.1499342}, "viewport": {"northeast": {"lat": 51.5172073802915, "lng": -0.148617369708498}, "southwest": {"lat": 51.5145094197085, "lng": -0.151315330291502}}}, "name": "The UK Business Directory", "place_id": "ChIJCZz72NIadkgRv8YneHh7JYs", "types": ["point_of_interest", "establishment"]}, "ChIJGTvQ0NIadkgROhSc0_BQM_Q": {"geometry": {"location": {"lat": 51.5154427, "lng": -0.1501993}, "viewport": {"northeast": {"lat": 51.5165823802915, "lng": -0.149028019708498}, "southwest": {"lat": 51.5138844197085, "lng": -0.151725980291502}}}, "name": "Astrid & Miyu", "place_id": "ChIJGTvQ0NIadkgROhSc0_BQM_Q", "types": ["jewelry_store", "point_of_interest", "store", "establishment"], "rating": 4.7, "user_ratings_total": 353}, "ChIJAUdQ0dIadkgRouKZt9r8Wec": {"geometry": {"location": {"lat": 51.5154059, "lng": -0.1503173}, "viewport": {"northeast": {"lat": 51.51656593029149, "lng": -0.149073219708498}, "southwest": {"lat": 51.5138679697085, "lng": -0.151771180291502}}}, "name": "Kurt Geiger St Christophers Place", "place_id": "ChIJAUdQ0dIadkgRouKZt9r8Wec", "types": ["point_of_interest", "store", "establishment"], "rating": 4, "user_ratings_total": 37}, "ChIJB45quSsbdkgRtbp1M14UAP8": {"geometry": {"location": {"lat": 51.5153926, "lng": -0.1503541}, "viewport": {"northeast": {"lat": 51.5165631802915, "lng": -0.149071969708498}, "southwest": {"lat": 51.5138652197085, "lng": -0.151769930291502}}}, "name": "Trinity Investment Management", "place_id": "ChIJB45quSsbdkgRtbp1M14UAP8", "types": ["general_contractor", "point_of_interest", "establishment"]}, "ChIJmY280dIadkgRZespWgc8Tws": {"geometry": {"location": {"lat": 51.5153384, "lng": -0.1503993}, "viewport": {"northeast": {"lat": 51.5165416802915, "lng": -0.149062319708498}, "southwest": {"lat": 51.5138437197085, "lng": -0.151760280291502}}}, "name": "BCM Real Estate Ltd", "place_id": "ChIJmY280dIadkgRZespWgc8Tws", "types": ["real_estate_agency", "point_of_interest", "establishment"]}, "ChIJZVTc3dIadkgR8yfDP0BABBk": {"geometry": {"location": {"lat": 51.5161328, "lng": -0.1501981}, "viewport": {"northeast": {"lat": 51.5175121302915, "lng": -0.148862719708498}, "southwest": {"lat": 51.5148141697085, "lng": -0.151560680291502}}}, "name": "Royal Art House", "place_id": "ChIJZVTc3dIadkgR8yfDP0BABBk", "types": ["point_of_interest", "establishment"], "rating": 5, "user_ratings_total": 1}, "ChIJfd5gwtIadkgR4DiD4FKy6I8": {"geometry": {"location": {"lat": 51.5161801, "lng": -0.1507421}, "viewport": {"northeast": {"lat": 51.5174635302915, "lng": -0.149312419708498}, "southwest": {"lat": 51.5147655697085, "lng": -0.152010380291502}}}, "name": "MBI & Partners", "place_id": "ChIJfd5gwtIadkgR4DiD4FKy6I8", "types": ["point_of_interest", "establishment"], "rating": 5, "user_ratings_total": 2}, "ChIJywE13NIadkgRpcCGdMmaZnw": {"geometry": {"location": {"lat": 51.51604139999999, "lng": -0.1499575}, "viewport": {"northeast": {"lat": 51.5174521302915, "lng": -0.148636219708498}, "southwest": {"lat": 51.5147541697085, "lng": -0.151334180291502}}}, "name": "Datland Properties", "place_id": "ChIJywE13NIadkgRpcCGdMmaZnw", "types": ["point_of_interest", "establishment"]}, "ChIJaaNkwtIadkgRomrHbPxd5k4": {"geometry": {"location": {"lat": 51.5161801, "lng": -0.1507421}, "viewport": {"northeast": {"lat": 51.5174635302915, "lng": -0.149312419708498}, "southwest": {"lat": 51.5147655697085, "lng": -0.152010380291502}}}, "name": "MBI Alumni Association", "place_id": "ChIJaaNkwtIadkgRomrHbPxd5k4", "types": ["point_of_interest", "establishment"]}, "ChIJaaNkwtIadkgRFCTXWdol7_w": {"geometry": {"location": {"lat": 51.5161801, "lng": -0.1507421}, "viewport": {"northeast": {"lat": 51.5174635302915, "lng": -0.149312419708498}, "southwest": {"lat": 51.5147655697085, "lng": -0.152010380291502}}}, "name": "MBI INTERNATIONAL", "place_id": "ChIJaaNkwtIadkgRFCTXWdol7_w", "types": ["finance", "university", "point_of_interest", "establishment"], "rating": 2.3, "user_ratings_total": 3}, "ChIJiXaQudIadkgROWvvj2GzJAQ": {"geometry": {"location": {"lat": 51.5157668, "lng": -0.1512679}, "viewport": {"northeast": {"lat": 51.5170067302915, "lng": -0.150315969708498}, "southwest": {"lat": 51.5143087697085, "lng": -0.153013930291502}}}, "name": "Devonshire Property", "place_id": "ChIJiXaQudIadkgROWvvj2GzJAQ", "types": ["general_contractor", "point_of_interest", "establishment"]}, "ChIJzTKWP1ADdkgRFydcQc1RrnQ": {"geometry": {"location": {"lat": 51.5156022, "lng": -0.1502897}, "viewport": {"northeast": {"lat": 51.51718338029149, "lng": -0.149061869708498}, "southwest": {"lat": 51.5144854197085, "lng": -0.151759830291502}}}, "name": "Cote - St Christopher's Place", "place_id": "ChIJzTKWP1ADdkgRFydcQc1RrnQ", "types": ["restaurant", "food", "point_of_interest", "establishment"], "rating": 4.3, "user_ratings_total": 827}, "ChIJ3amyxdIadkgROAw91t6icsQ": {"geometry": {"location": {"lat": 51.5157187, "lng": -0.1507888}, "viewport": {"northeast": {"lat": 51.51705758029151, "lng": -0.149500119708498}, "southwest": {"lat": 51.51435961970851, "lng": -0.152198080291502}}}, "name": "The Tanning Shop Bond Street", "place_id": "ChIJ3amyxdIadkgROAw91t6icsQ", "types": ["point_of_interest", "establishment"], "rating": 3.8, "user_ratings_total": 32}, "ChIJuxsWw9IadkgRPsS12or2lns": {"geometry": {"location": {"lat": 51.5158285, "lng": -0.1503136}, "viewport": {"northeast": {"lat": 51.5172906302915, "lng": -0.149078169708498}, "southwest": {"lat": 51.5145926697085, "lng": -0.151776130291502}}}, "name": "Whistles", "place_id": "ChIJuxsWw9IadkgRPsS12or2lns", "types": ["shoe_store", "point_of_interest", "clothing_store", "store", "establishment"], "rating": 4.5, "user_ratings_total": 23}, "ChIJyesW0NIadkgR04wElBOqmiQ": {"geometry": {"location": {"lat": 51.5155754, "lng": -0.15042}, "viewport": {"northeast": {"lat": 51.51717333029149, "lng": -0.149083819708498}, "southwest": {"lat": 51.5144753697085, "lng": -0.151781780291502}}}, "name": "23 Greengarden House", "place_id": "ChIJyesW0NIadkgR04wElBOqmiQ", "types": ["lodging", "point_of_interest", "establishment"], "rating": 3.8, "user_ratings_total": 6}, "ChIJOR1NFdIadkgR_yQNY7G1F4M": {"geometry": {"location": {"lat": 51.51612180000001, "lng": -0.1508521}, "viewport": {"northeast": {"lat": 51.5174234302915, "lng": -0.149481969708498}, "southwest": {"lat": 51.5147254697085, "lng": -0.152179930291502}}}, "name": "TONI&GUY Wigmore Street", "place_id": "ChIJOR1NFdIadkgR_yQNY7G1F4M", "types": ["hair_care", "point_of_interest", "establishment"], "rating": 3.9, "user_ratings_total": 47}, "ChIJlVCx2tIadkgRhX0IaZKMivU": {"geometry": {"location": {"lat": 51.5155168, "lng": -0.1503981}, "viewport": {"northeast": {"lat": 51.5171443302915, "lng": -0.149070169708498}, "southwest": {"lat": 51.5144463697085, "lng": -0.151768130291502}}}, "name": "St Christopher's Serviced Apartments", "place_id": "ChIJlVCx2tIadkgRhX0IaZKMivU", "types": ["real_estate_agency", "lodging", "point_of_interest", "establishment"], "rating": 4, "user_ratings_total": 4}, "ChIJ19-4Ea8EdkgRcbi7ne6DQ3s": {"geometry": {"location": {"lat": 51.5155875, "lng": -0.1507386}, "viewport": {"northeast": {"lat": 51.5169263802915, "lng": -0.149445719708498}, "southwest": {"lat": 51.5142284197085, "lng": -0.152143680291502}}}, "name": "Nicholas Taylor + Associates", "place_id": "ChIJ19-4Ea8EdkgRcbi7ne6DQ3s", "types": ["local_government_office", "point_of_interest", "establishment"], "rating": 5, "user_ratings_total": 6}, "ChIJQ3MFHSsbdkgRqQbtV0_bxtg": {"geometry": {"location": {"lat": 51.5160084, "lng": -0.1501625}, "viewport": {"northeast": {"lat": 51.5174179302915, "lng": -0.148840669708498}, "southwest": {"lat": 51.5147199697085, "lng": -0.151538630291502}}}, "name": "Open Associates Ltd", "place_id": "ChIJQ3MFHSsbdkgRqQbtV0_bxtg", "types": ["point_of_interest", "establishment"]}, "ChIJXUnPdNUadkgRJU3Y0Otroto": {"geometry": {"location": {"lat": 51.5159637, "lng": -0.1504417}, "viewport": {"northeast": {"lat": 51.5173716802915, "lng": -0.149118369708498}, "southwest": {"lat": 51.51467371970851, "lng": -0.151816330291502}}}, "name": "Clifton Chase Property Recruitment", "place_id": "ChIJXUnPdNUadkgRJU3Y0Otroto", "types": ["point_of_interest", "establishment"]}, "ChIJdxS32tIadkgRRSnQZ4fKvKo": {"geometry": {"location": {"lat": 51.515708, "lng": -0.150448}, "viewport": {"northeast": {"lat": 51.5172370802915, "lng": -0.149112369708498}, "southwest": {"lat": 51.5145391197085, "lng": -0.151810330291502}}}, "name": "Christys' London", "place_id": "ChIJdxS32tIadkgRRSnQZ4fKvKo", "types": ["point_of_interest", "clothing_store", "store", "establishment"], "rating": 4.6, "user_ratings_total": 27}, "ChIJ8b2mmdEbdkgRtqkEVeATydw": {"geometry": {"location": {"lat": 51.5156722, "lng": -0.1504247}, "viewport": {"northeast": {"lat": 51.5172186302915, "lng": -0.149104119708498}, "southwest": {"lat": 51.5145206697085, "lng": -0.151802080291502}}}, "name": "Georgia Hardinge", "place_id": "ChIJ8b2mmdEbdkgRtqkEVeATydw", "types": ["clothing_store", "point_of_interest", "store", "establishment"], "rating": 3.7, "user_ratings_total": 3}, "ChIJe0X7srQbdkgRyBFaP5rTQME": {"geometry": {"location": {"lat": 51.51571, "lng": -0.1503354}, "viewport": {"northeast": {"lat": 51.51723743029149, "lng": -0.149059969708498}, "southwest": {"lat": 51.5145394697085, "lng": -0.151757930291502}}}, "name": "Emma Hyacinth", "place_id": "ChIJe0X7srQbdkgRyBFaP5rTQME", "types": ["shoe_store", "point_of_interest", "store", "establishment"], "rating": 3.8, "user_ratings_total": 16}, "ChIJEaCv29IadkgRcst6CUrSzUk": {"geometry": {"location": {"lat": 51.5157687, "lng": -0.1503119}, "viewport": {"northeast": {"lat": 51.5172627802915, "lng": -0.149071319708498}, "southwest": {"lat": 51.5145648197085, "lng": -0.151769280291502}}}, "name": "Clay Street Ltd", "place_id": "ChIJEaCv29IadkgRcst6CUrSzUk", "types": ["general_contractor", "point_of_interest", "establishment"], "rating": 5, "user_ratings_total": 1}, "ChIJ2RgT2xQbdkgRmwIA62lMpcw": {"geometry": {"location": {"lat": 51.5156364, "lng": -0.1503911}, "viewport": {"northeast": {"lat": 51.5171992802915, "lng": -0.149095469708498}, "southwest": {"lat": 51.51450131970851, "lng": -0.1517934302915021}}}, "name": "JING Tea", "place_id": "ChIJ2RgT2xQbdkgRmwIA62lMpcw", "types": ["food", "point_of_interest", "store", "establishment"], "rating": 4.9, "user_ratings_total": 13}, "ChIJt6-62tIadkgRNbuT12Rm84w": {"geometry": {"location": {"lat": 51.5156116, "lng": -0.1504813}, "viewport": {"northeast": {"lat": 51.5171916302915, "lng": -0.149093569708498}, "southwest": {"lat": 51.51449366970851, "lng": -0.151791530291502}}}, "name": "Lockglide Ltd", "place_id": "ChIJt6-62tIadkgRNbuT12Rm84w", "types": ["general_contractor", "point_of_interest", "establishment"]}, "ChIJ6xOcJIkbdkgRi-TjdH5UWFU": {"geometry": {"location": {"lat": 51.515864, "lng": -0.1503477}, "viewport": {"northeast": {"lat": 51.5172129802915, "lng": -0.148998719708498}, "southwest": {"lat": 51.5145150197085, "lng": -0.151696680291502}}}, "name": "Festok", "place_id": "ChIJ6xOcJIkbdkgRi-TjdH5UWFU", "types": ["food", "point_of_interest", "store", "establishment"]}, "ChIJl9tWJS0FdkgRl57CbfWc4b0": {"geometry": {"location": {"lat": 51.51425026850043, "lng": -0.1504572940276797}, "viewport": {"northeast": {"lat": 51.5155992802915, "lng": -0.149108319708498}, "southwest": {"lat": 51.5129013197085, "lng": -0.151806280291502}}}, "name": "399-405 A40", "place_id": "ChIJl9tWJS0FdkgRl57CbfWc4b0", "types": ["route"]}, "ChIJ0wglLS0FdkgRQK2bFA76KBM": {"geometry": {"location": {"lat": 51.51486329999999, "lng": -0.1503777}, "viewport": {"northeast": {"lat": 51.5162000802915, "lng": -0.1491036697084979}, "southwest": {"lat": 51.5135021197085, "lng": -0.151801630291502}}}, "name": "Selfridges Apartments On Oxford Street", "place_id": "ChIJ0wglLS0FdkgRQK2bFA76KBM", "types": ["lodging", "point_of_interest", "establishment"], "rating": 1, "user_ratings_total": 1}, "ChIJT_Ot0tIadkgRe21eEIM7OzQ": {"geometry": {"location": {"lat": 51.5149335, "lng": -0.150422}, "viewport": {"northeast": {"lat": 51.51627378029151, "lng": -0.149141069708498}, "southwest": {"lat": 51.51357581970851, "lng": -0.151839030291502}}}, "name": "Lamb & Flag", "place_id": "ChIJT_Ot0tIadkgRe21eEIM7OzQ", "types": ["bar", "point_of_interest", "establishment"], "rating": 3.9, "user_ratings_total": 968}, "ChIJWzusKy0FdkgRdkGj_IavhOk": {"geometry": {"location": {"lat": 51.51482279999999, "lng": -0.1500552}, "viewport": {"northeast": {"lat": 51.51591408029149, "lng": -0.148641919708498}, "southwest": {"lat": 51.5132161197085, "lng": -0.151339880291502}}}, "name": "Rituals", "place_id": "ChIJWzusKy0FdkgRdkGj_IavhOk", "types": ["point_of_interest", "store", "establishment"], "rating": 4.8, "user_ratings_total": 60}, "ChIJyQXeLi0FdkgRDGC9bhDTA4A": {"geometry": {"location": {"lat": 51.5144244, "lng": -0.150207}, "viewport": {"northeast": {"lat": 51.5157475802915, "lng": -0.148879969708498}, "southwest": {"lat": 51.5130496197085, "lng": -0.151577930291502}}}, "name": "The Body Shop", "place_id": "ChIJyQXeLi0FdkgRDGC9bhDTA4A", "types": ["point_of_interest", "store", "establishment"], "rating": 4.3, "user_ratings_total": 155}, "ChIJWd5AyisFdkgRxRwqC4UwuJU": {"geometry": {"location": {"lat": 51.5145965, "lng": -0.1499812}, "viewport": {"northeast": {"lat": 51.51569893029149, "lng": -0.149014919708498}, "southwest": {"lat": 51.5130009697085, "lng": -0.151712880291502}}}, "name": "Ingle & Rhode", "place_id": "ChIJWd5AyisFdkgRxRwqC4UwuJU", "types": ["jewelry_store", "point_of_interest", "store", "establishment"], "rating": 4.9, "user_ratings_total": 94}, "ChIJn6Yu09IadkgRn4Me1fvPNi4": {"geometry": {"location": {"lat": 51.5149157, "lng": -0.1503002}, "viewport": {"northeast": {"lat": 51.5163366802915, "lng": -0.149098319708498}, "southwest": {"lat": 51.5136387197085, "lng": -0.151796280291502}}}, "name": "Pizza Express", "place_id": "ChIJn6Yu09IadkgRn4Me1fvPNi4", "types": ["meal_takeaway", "restaurant", "food", "point_of_interest", "establishment"], "rating": 3.9, "user_ratings_total": 479},