{"E00023972": {"ChIJo0W2PO8EdkgRVLXkTAOW_go": {"geometry": {"location": {"lat": 51.48721595538443, "lng": -0.126052892966079}, "viewport": {"northeast": {"lat": 51.4885656302915, "lng": -0.124703119708498}, "southwest": {"lat": 51.4858676697085, "lng": -0.127401080291502}}}, "name": "Vauxhall Bridge", "place_id": "ChIJo0W2PO8EdkgRVLXkTAOW_go", "types": ["route"]}, "ChIJdTMeAe8EdkgRO7KknSdsEx8": {"geometry": {"location": {"lat": 51.48627633883392, "lng": -0.1262985625414151}, "viewport": {"northeast": {"lat": 51.4876245302915, "lng": -0.124948169708498}, "southwest": {"lat": 51.48492656970851, "lng": -0.127646130291502}}}, "name": "Riverside Walk", "place_id": "ChIJdTMeAe8EdkgRO7KknSdsEx8", "types": ["route"]}, "ChIJFQZLUu4EdkgRvlw8zZSQpSU": {"geometry": {"location": {"lat": 51.48581139999999, "lng": -0.1257502}, "viewport": {"northeast": {"lat": 51.4867619802915, "lng": -0.1243836197084979}, "southwest": {"lat": 51.48406401970851, "lng": -0.127081580291502}}}, "name": "Dreamhouse Apartments - Vauxhall", "place_id": "ChIJFQZLUu4EdkgRvlw8zZSQpSU", "types": ["lodging", "point_of_interest", "establishment"]}, "ChIJFQZLUu4EdkgR4qDiHN-Cy7Y": {"geometry": {"location": {"lat": 51.4857123, "lng": -0.1269905}, "viewport": {"northeast": {"lat": 51.48704303029149, "lng": -0.125712619708498}, "southwest": {"lat": 51.4843450697085, "lng": -0.128410580291502}}}, "name": "The Riverside", "place_id": "ChIJFQZLUu4EdkgR4qDiHN-Cy7Y", "types": ["bar", "point_of_interest", "establishment"], "rating": 3.8, "user_ratings_total": 1335}, "ChIJSwtWVO4EdkgRdADDGTjxAn4": {"geometry": {"location": {"lat": 51.4856256, "lng": -0.126039}, "viewport": {"northeast": {"lat": 51.4866690802915, "lng": -0.124512019708498}, "southwest": {"lat": 51.4839711197085, "lng": -0.127209980291502}}}, "name": "Monaco Consultants LTD", "place_id": "ChIJSwtWVO4EdkgRdADDGTjxAn4", "types": ["point_of_interest", "establishment"]}, "ChIJFQZLUu4EdkgRLww3JVUsCrU": {"geometry": {"location": {"lat": 51.4858981, "lng": -0.1258547}, "viewport": {"northeast": {"lat": 51.4868053302915, "lng": -0.1243836197084979}, "southwest": {"lat": 51.4841073697085, "lng": -0.127081580291502}}}, "name": "Maxwell Stanley Consulting Ltd", "place_id": "ChIJFQZLUu4EdkgRLww3JVUsCrU", "types": ["health", "point_of_interest", "establishment"]}, "ChIJcwFLUu4EdkgRza0rkBC6Z3k": {"geometry": {"location": {"lat": 51.48587430000001, "lng": -0.1264868}, "viewport": {"northeast": {"lat": 51.4867892802915, "lng": -0.1255240697084979}, "southwest": {"lat": 51.4840913197085, "lng": -0.128222030291502}}}, "name": "Cottons Vauxhall", "place_id": "ChIJcwFLUu4EdkgRza0rkBC6Z3k", "types": ["bar", "restaurant", "food", "point_of_interest", "establishment"], "rating": 3.9, "user_ratings_total": 566}, "ChIJFQZLUu4EdkgRhY-nb809P24": {"geometry": {"location": {"lat": 51.48578939999999, "lng": -0.1264068}, "viewport": {"northeast": {"lat": 51.4867509802915, "lng": -0.124708919708498}, "southwest": {"lat": 51.4840530197085, "lng": -0.127406880291502}}}, "name": "Technique Physiotherapy and Sports Medicine", "place_id": "ChIJFQZLUu4EdkgRhY-nb809P24", "types": ["physiotherapist", "health", "point_of_interest", "establishment"], "rating": 5, "user_ratings_total": 13}, "ChIJ2SDaAe8EdkgRua0wJIY0qRQ": {"geometry": {"location": {"lat": 51.486247, "lng": -0.126157}, "viewport": {"northeast": {"lat": 51.4869797802915, "lng": -0.124512519708498}, "southwest": {"lat": 51.48428181970851, "lng": -0.127210480291502}}}, "name": "Waterfront London Vauxhall Restaurant", "place_id": "ChIJ2SDaAe8EdkgRua0wJIY0qRQ", "types": ["meal_delivery", "restaurant", "food", "point_of_interest", "establishment"], "rating": 4, "user_ratings_total": 374}, "ChIJ2SDaAe8EdkgRvL0vQkwkM_0": {"geometry": {"location": {"lat": 51.4862474, "lng": -0.1261572}, "viewport": {"northeast": {"lat": 51.4869799802915, "lng": -0.1245126197084979}, "southwest": {"lat": 51.4842820197085, "lng": -0.127210580291502}}}, "name": "Smoke Lab", "place_id": "ChIJ2SDaAe8EdkgRvL0vQkwkM_0", "types": ["point_of_interest", "establishment"], "rating": 3.9, "user_ratings_total": 199}, "ChIJT3zDV-4EdkgR7yosvyikWSM": {"geometry": {"location": {"lat": 51.4859903, "lng": -0.1256614}, "viewport": {"northeast": {"lat": 51.4868514302915, "lng": -0.1243836197084979}, "southwest": {"lat": 51.4841534697085, "lng": -0.127081580291502}}}, "name": "Move Your Butt Personal Training", "place_id": "ChIJT3zDV-4EdkgR7yosvyikWSM", "types": ["health", "point_of_interest", "establishment"]}, "ChIJQ6J7U-4EdkgROdDixYaH-n4": {"geometry": {"location": {"lat": 51.4856817, "lng": -0.1259799}, "viewport": {"northeast": {"lat": 51.48669713029151, "lng": -0.124447669708498}, "southwest": {"lat": 51.48399916970851, "lng": -0.127145630291502}}}, "name": "Lucricious Consultancy Ltd", "place_id": "ChIJQ6J7U-4EdkgROdDixYaH-n4", "types": ["accounting", "finance", "point_of_interest", "establishment"]}, "ChIJU2UEte8EdkgR4w1VLQX6hv0": {"geometry": {"location": {"lat": 51.4856572, "lng": -0.125984}, "viewport": {"northeast": {"lat": 51.48668488029151, "lng": -0.1244603197084979}, "southwest": {"lat": 51.48398691970851, "lng": -0.127158280291502}}}, "name": "The Art Partners Limited", "place_id": "ChIJU2UEte8EdkgR4w1VLQX6hv0", "types": ["point_of_interest", "establishment"]}, "ChIJ2xtNue8EdkgRaswnCwvpgYE": {"geometry": {"location": {"lat": 51.4856256, "lng": -0.126039}, "viewport": {"northeast": {"lat": 51.4866690802915, "lng": -0.124512019708498}, "southwest": {"lat": 51.4839711197085, "lng": -0.127209980291502}}}, "name": "Uber London Riverside", "place_id": "ChIJ2xtNue8EdkgRaswnCwvpgYE", "types": ["lodging", "point_of_interest", "establishment"], "rating": 4.3, "user_ratings_total": 6}, "ChIJq6qqqikbdkgRGToGDol7N38": {"geometry": {"location": {"lat": 51.48565529999999, "lng": -0.1258413}, "viewport": {"northeast": {"lat": 51.4866839302915, "lng": -0.124388419708498}, "southwest": {"lat": 51.4839859697085, "lng": -0.127086380291502}}}, "name": "The Magistrates Association", "place_id": "ChIJq6qqqikbdkgRGToGDol7N38", "types": ["point_of_interest", "establishment"], "rating": 5, "user_ratings_total": 1}, "ChIJFQZLUu4EdkgRVUTkp1zbbqo": {"geometry": {"location": {"lat": 51.48553439999999, "lng": -0.125869}, "viewport": {"northeast": {"lat": 51.4866234802915, "lng": -0.124442269708498}, "southwest": {"lat": 51.4839255197085, "lng": -0.127140230291502}}}, "name": "George Wharf Serviced Apartments", "place_id": "ChIJFQZLUu4EdkgRVUTkp1zbbqo", "types": ["lodging", "point_of_interest", "establishment"], "rating": 2, "user_ratings_total": 5}, "ChIJawZLUu4EdkgREE4D_z5wTwo": {"geometry": {"location": {"lat": 51.48553439999999, "lng": -0.1258689}, "viewport": {"northeast": {"lat": 51.4866234802915, "lng": -0.124442269708498}, "southwest": {"lat": 51.4839255197085, "lng": -0.127140230291502}}}, "name": "YIN YOGA", "place_id": "ChIJawZLUu4EdkgREE4D_z5wTwo", "types": ["gym", "health", "point_of_interest", "establishment"]}, "ChIJ97mZA6gEdkgRNE7Kfxc0fEI": {"geometry": {"location": {"lat": 51.4859701, "lng": -0.1254281}, "viewport": {"northeast": {"lat": 51.4868413302915, "lng": -0.124314669708498}, "southwest": {"lat": 51.48414336970851, "lng": -0.127012630291502}}}, "name": "Floatworks Vauxhall", "place_id": "ChIJ97mZA6gEdkgRNE7Kfxc0fEI", "types": ["spa", "point_of_interest", "establishment"], "rating": 4.8, "user_ratings_total": 340}, "ChIJFQZLUu4EdkgRUuqUC1jO8LQ": {"geometry": {"location": {"lat": 51.48553439999999, "lng": -0.125869}, "viewport": {"northeast": {"lat": 51.4866234802915, "lng": -0.124442269708498}, "southwest": {"lat": 51.4839255197085, "lng": -0.127140230291502}}}, "name": "LiFE Residential Nine Elms Riverside Estate Agents", "place_id": "ChIJFQZLUu4EdkgRUuqUC1jO8LQ", "types": ["real_estate_agency", "point_of_interest", "establishment"], "rating": 4.6, "user_ratings_total": 208}, "ChIJSwtWVO4EdkgRXaaKJzi4cmM": {"geometry": {"location": {"lat": 51.4858504, "lng": -0.1259425}, "viewport": {"northeast": {"lat": 51.4867814802915, "lng": -0.124404169708498}, "southwest": {"lat": 51.48408351970851, "lng": -0.127102130291502}}}, "name": "Waste Disposal Wandsworth", "place_id": "ChIJSwtWVO4EdkgRXaaKJzi4cmM", "types": ["point_of_interest", "establishment"]}, "ChIJ2SDaAe8EdkgRVzFZipeDhSM": {"geometry": {"location": {"lat": 51.4862474, "lng": -0.1261572}, "viewport": {"northeast": {"lat": 51.4869799802915, "lng": -0.1245126197084979}, "southwest": {"lat": 51.4842820197085, "lng": -0.127210580291502}}}, "name": "Shisha Lounge @ Waterfront London", "place_id": "ChIJ2SDaAe8EdkgRVzFZipeDhSM", "types": ["point_of_interest", "establishment"], "rating": 4, "user_ratings_total": 4}, "ChIJx7IeOFQFdkgRThH6kOReJqE": {"geometry": {"location": {"lat": 51.4862474, "lng": -0.1261572}, "viewport": {"northeast": {"lat": 51.4869799802915, "lng": -0.1245126197084979}, "southwest": {"lat": 51.4842820197085, "lng": -0.127210580291502}}}, "name": "Shisha Vauxhall Waterfront", "place_id": "ChIJx7IeOFQFdkgRThH6kOReJqE", "types": ["point_of_interest", "establishment"], "rating": 4.1, "user_ratings_total": 14}, "ChIJ5zDwzwEFdkgRj5zoHh-e2Lc": {"geometry": {"location": {"lat": 51.48592860000001, "lng": -0.1256921}, "viewport": {"northeast": {"lat": 51.48682058029151, "lng": -0.1243836197084979}, "southwest": {"lat": 51.48412261970851, "lng": -0.127081580291502}}}, "name": "Hudson's Dry Cleaner", "place_id": "ChIJ5zDwzwEFdkgRj5zoHh-e2Lc", "types": ["laundry", "point_of_interest", "establishment"], "rating": 4.2, "user_ratings_total": 43}, "ChIJM_kBLcoFdkgReud9xWps8sA": {"geometry": {"location": {"lat": 51.4856572, "lng": -0.125984}, "viewport": {"northeast": {"lat": 51.48668488029151, "lng": -0.1244603197084979}, "southwest": {"lat": 51.48398691970851, "lng": -0.127158280291502}}}, "name": "Sterling Global Citizenship Advisory Partners Inc.", "place_id": "ChIJM_kBLcoFdkgReud9xWps8sA", "types": ["point_of_interest", "establishment"]}, "ChIJzcR0IVEFdkgRRMidQo14s38": {"geometry": {"location": {"lat": 51.4856572, "lng": -0.125984}, "viewport": {"northeast": {"lat": 51.48668488029151, "lng": -0.1244603197084979}, "southwest": {"lat": 51.48398691970851, "lng": -0.127158280291502}}}, "name": "Allied Students", "place_id": "ChIJzcR0IVEFdkgRRMidQo14s38", "types": ["point_of_interest", "establishment"]}, "ChIJcQBpue8EdkgRJ7DUw9MTKd8": {"geometry": {"location": {"lat": 51.4856572, "lng": -0.125984}, "viewport": {"northeast": {"lat": 51.48668488029151, "lng": -0.1244603197084979}, "southwest": {"lat": 51.48398691970851, "lng": -0.127158280291502}}}, "name": "Digital Education Software", "place_id": "ChIJcQBpue8EdkgRJ7DUw9MTKd8", "types": ["point_of_interest", "establishment"]}, "ChIJ1988Vu4EdkgRFR-TKuQtKZ8": {"geometry": {"location": {"lat": 51.4859903, "lng": -0.1256614}, "viewport": {"northeast": {"lat": 51.4868514302915, "lng": -0.1243836197084979}, "southwest": {"lat": 51.4841534697085, "lng": -0.127081580291502}}}, "name": "Breathtaking Views 3 Bedroom Design Penthouse Huge Terrace", "place_id": "ChIJ1988Vu4EdkgRFR-TKuQtKZ8", "types": ["lodging", "point_of_interest", "establishment"]}, "ChIJ1988Vu4EdkgRvYnbbt1QGxA": {"geometry": {"location": {"lat": 51.4859903, "lng": -0.1256614}, "viewport": {"northeast": {"lat": 51.4868514302915, "lng": -0.1243836197084979}, "southwest": {"lat": 51.4841534697085, "lng": -0.127081580291502}}}, "name": "Blanche London", "place_id": "ChIJ1988Vu4EdkgRvYnbbt1QGxA", "types": ["point_of_interest", "establishment"], "rating": 5, "user_ratings_total": 3}, "ChIJ1988Vu4EdkgR73ICjyI3aRc": {"geometry": {"location": {"lat": 51.4859903, "lng": -0.1256614}, "viewport": {"northeast": {"lat": 51.4868514302915, "lng": -0.1243836197084979}, "southwest": {"lat": 51.4841534697085, "lng": -0.127081580291502}}}, "name": "David P T Ltd", "place_id": "ChIJ1988Vu4EdkgR73ICjyI3aRc", "types": ["health", "point_of_interest", "establishment"]}, "ChIJD1afj-4EdkgREGKfDQZVcHI": {"geometry": {"location": {"lat": 51.4856256, "lng": -0.126039}, "viewport": {"northeast": {"lat": 51.4866690802915, "lng": -0.124512019708498}, "southwest": {"lat": 51.4839711197085, "lng": -0.127209980291502}}}, "name": "St. George Wharf Apartments", "place_id": "ChIJD1afj-4EdkgREGKfDQZVcHI", "types": ["lodging", "point_of_interest", "establishment"], "rating": 3.9, "user_ratings_total": 33}, "ChIJ31okVu4EdkgR6H29AQmU4lc": {"geometry": {"location": {"lat": 51.486008, "lng": -0.1256427}, "viewport": {"northeast": {"lat": 51.4868602802915, "lng": -0.1243836197084979}, "southwest": {"lat": 51.4841623197085, "lng": -0.127081580291502}}}, "name": "Drake House St Georges Road", "place_id": "ChIJ31okVu4EdkgR6H29AQmU4lc", "types": ["point_of_interest", "establishment"], "rating": 4.3, "user_ratings_total": 17}, "ChIJF2h8t64FdkgR8qDsxSWPiaQ": {"geometry": {"location": {"lat": 51.48573700000001, "lng": -0.125749}, "viewport": {"northeast": {"lat": 51.48697858029151, "lng": -0.124306219708498}, "southwest": {"lat": 51.48428061970851, "lng": -0.127004180291502}}}, "name": "Vine Bar London", "place_id": "ChIJF2h8t64FdkgR8qDsxSWPiaQ", "types": ["grocery_or_supermarket", "bar", "restaurant", "food", "point_of_interest", "store", "establishment"], "rating": 4.8, "user_ratings_total": 45}, "ChIJ--q6U-4EdkgR2hqWoG_iNlY": {"geometry": {"location": {"lat": 51.48559030000001, "lng": -0.1258948}, "viewport": {"northeast": {"lat": 51.48665143029151, "lng": -0.124425569708498}, "southwest": {"lat": 51.48395346970851, "lng": -0.127123530291502}}}, "name": "Garage 360 Ltd", "place_id": "ChIJ--q6U-4EdkgR2hqWoG_iNlY", "types": ["point_of_interest", "establishment"]}, "ChIJ4wazre8EdkgRvYvAgBZwaNE": {"geometry": {"location": {"lat": 51.48553349999999, "lng": -0.1263732}, "viewport": {"northeast": {"lat": 51.4866230302915, "lng": -0.124717919708498}, "southwest": {"lat": 51.4839250697085, "lng": -0.127415880291502}}}, "name": "Synoptic Digital", "place_id": "ChIJ4wazre8EdkgRvYvAgBZwaNE", "types": ["point_of_interest", "establishment"]}, "ChIJJTvipPgEdkgRbWSA-g5ZS5o": {"geometry": {"location": {"lat": 51.4855036, "lng": -0.1261869}, "viewport": {"northeast": {"lat": 51.4866080802915, "lng": -0.124624769708498}, "southwest": {"lat": 51.48391011970851, "lng": -0.127322730291502}}}, "name": "Optimale", "place_id": "ChIJJTvipPgEdkgRbWSA-g5ZS5o", "types": ["health", "point_of_interest", "establishment"], "rating": 5, "user_ratings_total": 19}, "ChIJ8476fbkEdkgRn-AQ7U1y7ZE": {"geometry": {"location": {"lat": 51.48553439999999, "lng": -0.125869}, "viewport": {"northeast": {"lat": 51.4866234802915, "lng": -0.124442269708498}, "southwest": {"lat": 51.4839255197085, "lng": -0.127140230291502}}}, "name": "Spondylsana osteopaths", "place_id": "ChIJ8476fbkEdkgRn-AQ7U1y7ZE", "types": ["health", "point_of_interest", "establishment"]}, "ChIJFQZLUu4EdkgReIZx9_vfCXA": {"geometry": {"location": {"lat": 51.48553439999999, "lng": -0.125869}, "viewport": {"northeast": {"lat": 51.4866234802915, "lng": -0.124442269708498}, "southwest": {"lat": 51.4839255197085, "lng": -0.127140230291502}}}, "name": "The Riverside", "place_id": "ChIJFQZLUu4EdkgReIZx9_vfCXA", "types": ["point_of_interest", "establishment"]}, "ChIJFQZLUu4EdkgRCiMp4ac2nk8": {"geometry": {"location": {"lat": 51.48553439999999, "lng": -0.125869}, "viewport": {"northeast": {"lat": 51.4866234802915, "lng": -0.124442269708498}, "southwest": {"lat": 51.4839255197085, "lng": -0.127140230291502}}}, "name": "Joka van Wijk", "place_id": "ChIJFQZLUu4EdkgRCiMp4ac2nk8", "types": ["health", "point_of_interest", "establishment"]}, "ChIJ3Xi_mwgFdkgRzVbdWjQduZo": {"geometry": {"location": {"lat": 51.48553439999999, "lng": -0.125869}, "viewport": {"northeast": {"lat": 51.4866234802915, "lng": -0.124442269708498}, "southwest": {"lat": 51.4839255197085, "lng": -0.127140230291502}}}, "name": "Urim App Limited", "place_id": "ChIJ3Xi_mwgFdkgRzVbdWjQduZo", "types": ["point_of_interest", "establishment"]}, "ChIJFQZLUu4EdkgRguUpUPXPWcc": {"geometry": {"location": {"lat": 51.48553439999999, "lng": -0.125869}, "viewport": {"northeast": {"lat": 51.4866234802915, "lng": -0.124442269708498}, "southwest": {"lat": 51.4839255197085, "lng": -0.127140230291502}}}, "name": "Vauxahall Anchor", "place_id": "ChIJFQZLUu4EdkgRguUpUPXPWcc", "types": ["point_of_interest", "establishment"]}, "ChIJFQZLUu4EdkgRxAaTCi29qg8": {"geometry": {"location": {"lat": 51.48553439999999, "lng": -0.1258673}, "viewport": {"northeast": {"lat": 51.4866234802915, "lng": -0.124441919708498}, "southwest": {"lat": 51.4839255197085, "lng": -0.127139880291502}}}, "name": "CBRE", "place_id": "ChIJFQZLUu4EdkgRxAaTCi29qg8", "types": ["real_estate_agency", "point_of_interest", "establishment"]}, "ChIJ_Wxmru8EdkgRrRrZrJaJfsw": {"geometry": {"location": {"lat": 51.4855075, "lng": -0.1265698}, "viewport": {"northeast": {"lat": 51.48660558029149, "lng": -0.125566119708498}, "southwest": {"lat": 51.48390761970849, "lng": -0.128264080291502}}}, "name": "Zio Health Ltd", "place_id": "ChIJ_Wxmru8EdkgRrRrZrJaJfsw", "types": ["point_of_interest", "establishment"]}, "ChIJBfAfAB8FdkgRYcBfggJhRAY": {"geometry": {"location": {"lat": 51.48622, "lng": -0.125516}, "viewport": {"northeast": {"lat": 51.4875689802915, "lng": -0.124167019708498}, "southwest": {"lat": 51.4848710197085, "lng": -0.126864980291502}}}, "name": "UPS Access Point", "place_id": "ChIJBfAfAB8FdkgRYcBfggJhRAY", "types": ["point_of_interest", "establishment"]}, "ChIJ_X7er-gEdkgRlleofsREZKk": {"geometry": {"location": {"lat": 51.48934594528415, "lng": -0.1281448880232118}, "viewport": {"northeast": {"lat": 51.49069368029149, "lng": -0.126794569708498}, "southwest": {"lat": 51.4879957197085, "lng": -0.129492530291502}}}, "name": "Millbank", "place_id": "ChIJ_X7er-gEdkgRlleofsREZKk", "types": ["route"]}, "ChIJVTXxpegEdkgRDwcK5k77nrI": {"geometry": {"location": {"lat": 51.4893623, "lng": -0.1286983}, "viewport": {"northeast": {"lat": 51.4906902302915, "lng": -0.127199269708498}, "southwest": {"lat": 51.4879922697085, "lng": -0.129897230291502}}}, "name": "The Morpeth Arms", "place_id": "ChIJVTXxpegEdkgRDwcK5k77nrI", "types": ["bar", "point_of_interest", "establishment"], "rating": 4.2, "user_ratings_total": 975}, "ChIJKUhrt-gEdkgRJzlymvzpbL0": {"geometry": {"location": {"lat": 51.4892359, "lng": -0.1278912}, "viewport": {"northeast": {"lat": 51.4907653302915, "lng": -0.126529219708498}, "southwest": {"lat": 51.4880673697085, "lng": -0.129227180291502}}}, "name": "Riverside Walk Gardens", "place_id": "ChIJKUhrt-gEdkgRJzlymvzpbL0", "types": ["park", "tourist_attraction", "point_of_interest", "establishment"], "rating": 4.5, "user_ratings_total": 159}, "ChIJJVs4OxwFdkgR25-VlQoLP6I": {"geometry": {"location": {"lat": 51.4896153, "lng": -0.128111}, "viewport": {"northeast": {"lat": 51.4908959302915, "lng": -0.126698519708498}, "southwest": {"lat": 51.4881979697085, "lng": -0.129396480291502}}}, "name": "Amaranthine Blooms UK - Head Office", "place_id": "ChIJJVs4OxwFdkgR25-VlQoLP6I", "types": ["home_goods_store", "point_of_interest", "store", "establishment"], "rating": 4.8, "user_ratings_total": 107}, "ChIJweQSv-gEdkgR4k7R78-CHN4": {"geometry": {"location": {"lat": 51.48973890000001, "lng": -0.1277673}, "viewport": {"northeast": {"lat": 51.4910284302915, "lng": -0.126348069708498}, "southwest": {"lat": 51.4883304697085, "lng": -0.1290460302915021}}}, "name": "Millbank Partners", "place_id": "ChIJweQSv-gEdkgR4k7R78-CHN4", "types": ["point_of_interest", "establishment"]}, "ChIJE4NNR8IEdkgRjoc4s80QIDk": {"geometry": {"location": {"lat": 51.48884959999999, "lng": -0.1285837}, "viewport": {"northeast": {"lat": 51.4902970802915, "lng": -0.1273097697084979}, "southwest": {"lat": 51.4875991197085, "lng": -0.130007730291502}}}, "name": "Riverwalk", "place_id": "ChIJE4NNR8IEdkgRjoc4s80QIDk", "types": ["point_of_interest", "establishment"], "rating": 4.4, "user_ratings_total": 52}, "ChIJwZNIuOgEdkgRyBmCdY9YQiE": {"geometry": {"location": {"lat": 51.4893863, "lng": -0.1278036}, "viewport": {"northeast": {"lat": 51.4907691802915, "lng": -0.1264984697084979}, "southwest": {"lat": 51.4880712197085, "lng": -0.129196430291502}}}, "name": "Vauxhall Bridge Road (Stop W)", "place_id": "ChIJwZNIuOgEdkgRyBmCdY9YQiE", "types": ["transit_station", "point_of_interest", "establishment"], "rating": 3, "user_ratings_total": 3}, "ChIJ4Se-d2sFdkgRunVIZXt0Az4": {"geometry": {"location": {"lat": 51.4893741, "lng": -0.1275949}, "viewport": {"northeast": {"lat": 51.4907230802915, "lng": -0.126245919708498}, "southwest": {"lat": 51.4880251197085, "lng": -0.128943880291502}}}, "name": "Locking Piece", "place_id": "ChIJ4Se-d2sFdkgRunVIZXt0Az4", "types": ["point_of_interest", "store", "establishment"], "rating": 4.3, "user_ratings_total": 3}, "ChIJ9cjwGEIFdkgR5VrKc9_vpFc": {"geometry": {"location": {"lat": 51.489504, "lng": -0.1280698}, "viewport": {"northeast": {"lat": 51.49083933029149, "lng": -0.126707219708498}, "southwest": {"lat": 51.48814136970849, "lng": -0.129405180291502}}}, "name": "London home", "place_id": "ChIJ9cjwGEIFdkgR5VrKc9_vpFc", "types": ["lodging", "point_of_interest", "establishment"]}, "ChIJS89Lx1IFdkgR8hcq8fv5zzI": {"geometry": {"location": {"lat": 51.4889151, "lng": -0.1280577}, "viewport": {"northeast": {"lat": 51.4904134302915, "lng": -0.126897319708498}, "southwest": {"lat": 51.4877154697085, "lng": -0.129595280291502}}}, "name": "Sculpture by Pablo Reinoso", "place_id": "ChIJS89Lx1IFdkgR8hcq8fv5zzI", "types": ["point_of_interest", "establishment"], "rating": 3, "user_ratings_total": 2}, "ChIJn1IBu-gEdkgRWcLYEGh3ieM": {"geometry": {"location": {"lat": 51.48951929999999, "lng": -0.1281026}, "viewport": {"northeast": {"lat": 51.49083813029149, "lng": -0.126721519708498}, "southwest": {"lat": 51.48814016970849, "lng": -0.129419480291502}}}, "name": "Bridge Road", "place_id": "ChIJn1IBu-gEdkgRWcLYEGh3ieM", "types": ["transit_station", "point_of_interest", "establishment"], "rating": 1, "user_ratings_total": 1}, "ChIJS30asugEdkgRH3ZkCqMgMoY": {"geometry": {"location": {"lat": 51.4889506, "lng": -0.1282912}, "viewport": {"northeast": {"lat": 51.4903389302915, "lng": -0.1271707697084979}, "southwest": {"lat": 51.4876409697085, "lng": -0.129868730291502}}}, "name": "MAPLEY", "place_id": "ChIJS30asugEdkgRH3ZkCqMgMoY", "types": ["point_of_interest", "establishment"]}, "ChIJ8ZUc3mMFdkgRsppTWIUP3rQ": {"geometry": {"location": {"lat": 51.48940139999999, "lng": -0.1273577}, "viewport": {"northeast": {"lat": 51.49075038029149, "lng": -0.126008719708498}, "southwest": {"lat": 51.4880524197085, "lng": -0.128706680291502}}}, "name": "Henry Moore sculpture \u201cLocking Piece\u201d", "place_id": "ChIJ8ZUc3mMFdkgRsppTWIUP3rQ", "types": ["point_of_interest", "establishment"], "rating": 5, "user_ratings_total": 1}, "ChIJt92upegEdkgRmaDHCoZJZYA": {"geometry": {"location": {"lat": 51.4894523, "lng": -0.1285629}, "viewport": {"northeast": {"lat": 51.49078143029151, "lng": -0.127231119708498}, "southwest": {"lat": 51.48808346970851, "lng": -0.129929080291502}}}, "name": "Motorcycle Parking Bay", "place_id": "ChIJt92upegEdkgRmaDHCoZJZYA", "types": ["parking", "point_of_interest", "establishment"], "rating": 3, "user_ratings_total": 1}, "ChIJ0YbPKWcFdkgRQAMUmQsPh44": {"geometry": {"location": {"lat": 51.4893906, "lng": -0.1286435}, "viewport": {"northeast": {"lat": 51.4906805802915, "lng": -0.127227269708498}, "southwest": {"lat": 51.4879826197085, "lng": -0.129925230291502}}}, "name": "Love, aluminium", "place_id": "ChIJ0YbPKWcFdkgRQAMUmQsPh44", "types": ["point_of_interest", "establishment"], "rating": 5, "user_ratings_total": 1}, "ChIJa0PjpegEdkgR1o42TSPgxjo": {"geometry": {"location": {"lat": 51.4893623, "lng": -0.1286983}, "viewport": {"northeast": {"lat": 51.4906536302915, "lng": -0.127283619708498}, "southwest": {"lat": 51.48795566970851, "lng": -0.129981580291502}}}, "name": "Bright Blue", "place_id": "ChIJa0PjpegEdkgR1o42TSPgxjo", "types": ["point_of_interest", "establishment"]}, "ChIJbTo89RgFdkgRQPAxXc2xlWQ": {"geometry": {"location": {"lat": 51.4896805, "lng": -0.1277173}, "viewport": {"northeast": {"lat": 51.4909958302915, "lng": -0.126330469708498}, "southwest": {"lat": 51.4882978697085, "lng": -0.129028430291502}}}, "name": "Jet\u00e9 by Enzo Plazzotta", "place_id": "ChIJbTo89RgFdkgRQPAxXc2xlWQ", "types": ["point_of_interest", "establishment"], "rating": 5, "user_ratings_total": 4}, "ChIJv-8MKEYFdkgRYn6s_wj3kcE": {"geometry": {"location": {"lat": 51.4894124, "lng": -0.1272108}, "viewport": {"northeast": {"lat": 51.4907613802915, "lng": -0.125861819708498}, "southwest": {"lat": 51.4880634197085, "lng": -0.128559780291502}}}, "name": "Millbank Prison Blue Plaque", "place_id": "ChIJv-8MKEYFdkgRYn6s_wj3kcE", "types": ["point_of_interest", "establishment"], "rating": 4, "user_ratings_total": 1}, "ChIJ6cKXqOgEdkgRBycJFb-Ng5Y": {"geometry": {"location": {"lat": 51.4892703, "lng": -0.1288127}, "viewport": {"northeast": {"lat": 51.4905756302915, "lng": -0.127409319708498}, "southwest": {"lat": 51.4878776697085, "lng": -0.130107280291502}}}, "name": "Cst Medical Ltd", "place_id": "ChIJ6cKXqOgEdkgRBycJFb-Ng5Y", "types": ["health", "point_of_interest", "establishment"]}, "ChIJjWcMUe8EdkgRJHmPxp3vFwk": {"geometry": {"location": {"lat": 51.48823383309612, "lng": -0.1285653352254219}, "viewport": {"northeast": {"lat": 51.48958323029151, "lng": -0.127215969708498}, "southwest": {"lat": 51.48688526970851, "lng": -0.129913930291502}}}, "name": "Vauxhall Bridge", "place_id": "ChIJjWcMUe8EdkgRJHmPxp3vFwk", "types": ["route"]}, "ChIJ3SP8Ve8EdkgRjKhSOOi6UNU": {"geometry": {"location": {"lat": 51.48822389999999, "lng": -0.1286619}, "viewport": {"northeast": {"lat": 51.48960103029149, "lng": -0.127354819708498}, "southwest": {"lat": 51.4869030697085, "lng": -0.130052780291502}}}, "name": "Vauxhall Bridge / Millbank", "place_id": "ChIJ3SP8Ve8EdkgRjKhSOOi6UNU", "types": ["transit_station", "point_of_interest", "establishment"], "rating": 3.4, "user_ratings_total": 7}, "ChIJWUuVCOYEdkgRAj3qmwLJKys": {"geometry": {"location": {"lat": 51.488929894558, "lng": -0.1299837201812349}, "viewport": {"northeast": {"lat": 51.4902815302915, "lng": -0.128631669708498}, "southwest": {"lat": 51.4875835697085, "lng": -0.131329630291502}}}, "name": "Bessborough Gardens", "place_id": "ChIJWUuVCOYEdkgRAj3qmwLJKys", "types": ["route"]}, "ChIJdX5FBeYEdkgRqB5ANYGgSD0": {"geometry": {"location": {"lat": 51.48895069999999, "lng": -0.1296129}, "viewport": {"northeast": {"lat": 51.49043598029149, "lng": -0.128100669708498}, "southwest": {"lat": 51.48773801970849, "lng": -0.130798630291502}}}, "name": "@Work", "place_id": "ChIJdX5FBeYEdkgRqB5ANYGgSD0", "types": ["jewelry_store", "point_of_interest", "store", "establishment"], "rating": 4.4, "user_ratings_total": 16}, "ChIJJWm3DOYEdkgROvkA65GsJMU": {"geometry": {"location": {"lat": 51.4890545, "lng": -0.1305105}, "viewport": {"northeast": {"lat": 51.49042753029151, "lng": -0.129128919708498}, "southwest": {"lat": 51.48772956970851, "lng": -0.131826880291502}}}, "name": "TableAir", "place_id": "ChIJJWm3DOYEdkgROvkA65GsJMU", "types": ["point_of_interest", "establishment"]}, "ChIJf-KzK8EFdkgRyrXAT-5SMaQ": {"geometry": {"location": {"lat": 51.48931529999999, "lng": -0.129775}, "viewport": {"northeast": {"lat": 51.49070743029149, "lng": -0.128372969708498}, "southwest": {"lat": 51.48800946970849, "lng": -0.131070930291502}}}, "name": "Merton Tutors", "place_id": "ChIJf-KzK8EFdkgRyrXAT-5SMaQ", "types": ["point_of_interest", "establishment"]}, "ChIJqfyJGz8FdkgR2VESUtS1lfo": {"geometry": {"location": {"lat": 51.4894018, "lng": -0.1293965}, "viewport": {"northeast": {"lat": 51.49070988029149, "lng": -0.128096519708498}, "southwest": {"lat": 51.48801191970849, "lng": -0.130794480291502}}}, "name": "Adana kebabs", "place_id": "ChIJqfyJGz8FdkgR2VESUtS1lfo", "types": ["restaurant", "food", "point_of_interest", "establishment"]}, "ChIJq6qjEeYEdkgRw5DxUgdaj0Q": {"geometry": {"location": {"lat": 51.489449, "lng": -0.130084}, "viewport": {"northeast": {"lat": 51.4908454302915, "lng": -0.128676669708498}, "southwest": {"lat": 51.4881474697085, "lng": -0.131374630291502}}}, "name": "HOFTEL Limited", "place_id": "ChIJq6qjEeYEdkgRw5DxUgdaj0Q", "types": ["point_of_interest", "establishment"]}, "ChIJq6qjEeYEdkgR_vd7cVuTIWc": {"geometry": {"location": {"lat": 51.489449, "lng": -0.130084}, "viewport": {"northeast": {"lat": 51.4908454302915, "lng": -0.128676669708498}, "southwest": {"lat": 51.4881474697085, "lng": -0.131374630291502}}}, "name": "CITIZENS FOR BRITAIN", "place_id": "ChIJq6qjEeYEdkgR_vd7cVuTIWc", "types": ["point_of_interest", "establishment"]}, "ChIJx3GEu3sFdkgRopkeI1_MXvk": {"geometry": {"location": {"lat": 51.4895967, "lng": -0.1296858}, "viewport": {"northeast": {"lat": 51.4908867302915, "lng": -0.128409319708498}, "southwest": {"lat": 51.4881887697085, "lng": -0.131107280291502}}}, "name": "Westminster University", "place_id": "ChIJx3GEu3sFdkgRopkeI1_MXvk", "types": ["university", "point_of_interest", "establishment"], "rating": 5, "user_ratings_total": 1}, "ChIJydRpa-oFdkgRiAkhk6mhsqk": {"geometry": {"location": {"lat": 51.48896250000001, "lng": -0.1302467}, "viewport": {"northeast": {"lat": 51.4903113302915, "lng": -0.128897969708498}, "southwest": {"lat": 51.48761336970851, "lng": -0.131595930291502}}}, "name": "Traffic camra", "place_id": "ChIJydRpa-oFdkgRiAkhk6mhsqk", "types": ["point_of_interest", "establishment"]}, "ChIJdSgJHOYEdkgRfydTd-NvCIA": {"geometry": {"location": {"lat": 51.4896019, "lng": -0.1293519}, "viewport": {"northeast": {"lat": 51.4909961302915, "lng": -0.127967519708498}, "southwest": {"lat": 51.4882981697085, "lng": -0.130665480291502}}}, "name": "Nordic Education Consultants", "place_id": "ChIJdSgJHOYEdkgRfydTd-NvCIA", "types": ["point_of_interest", "establishment"], "rating": 5, "user_ratings_total": 1}, "ChIJCWmgE-YEdkgRTcnmmoQ85Ss": {"geometry": {"location": {"lat": 51.4895754, "lng": -0.1303075}, "viewport": {"northeast": {"lat": 51.4909549302915, "lng": -0.129021269708498}, "southwest": {"lat": 51.4882569697085, "lng": -0.131719230291502}}}, "name": "Long & Ryle Ltd", "place_id": "ChIJCWmgE-YEdkgRTcnmmoQ85Ss", "types": ["art_gallery", "point_of_interest", "establishment"], "rating": 4.8, "user_ratings_total": 4}, "ChIJA2jIFuYEdkgRUgDuMA3W_NY": {"geometry": {"location": {"lat": 51.48968199999999, "lng": -0.1300868}, "viewport": {"northeast": {"lat": 51.49103098029149, "lng": -0.128737819708498}, "southwest": {"lat": 51.48833301970849, "lng": -0.131435780291502}}}, "name": "Flowers By Van Twisk", "place_id": "ChIJA2jIFuYEdkgRUgDuMA3W_NY", "types": ["florist", "point_of_interest", "store", "establishment"], "rating": 4.9, "user_ratings_total": 33}, "ChIJT9HsE-YEdkgRmYHCrmKPAZ8": {"geometry": {"location": {"lat": 51.489591, "lng": -0.1302781}, "viewport": {"northeast": {"lat": 51.4909717302915, "lng": -0.128891369708498}, "southwest": {"lat": 51.4882737697085, "lng": -0.131589330291502}}}, "name": "HOME WELCOME NEW DESIGNS BROOCHES KATH LIBBERT JEWELLERY GALLERY", "place_id": "ChIJT9HsE-YEdkgRmYHCrmKPAZ8", "types": ["jewelry_store", "point_of_interest", "store", "establishment"]}, "ChIJVZEN_-UEdkgRAXzBOMek0mg": {"geometry": {"location": {"lat": 51.48844320017634, "lng": -0.1291200496431189}, "viewport": {"northeast": {"lat": 51.4897921802915, "lng": -0.127771069708498}, "southwest": {"lat": 51.4870942197085, "lng": -0.130469030291502}}}, "name": "Peckham - Camberwell - Vauxhall - Westminster Highway", "place_id": "ChIJVZEN_-UEdkgRAXzBOMek0mg", "types": ["route"]}, "ChIJsaJP9uUEdkgRYBynyTz4Yag": {"geometry": {"location": {"lat": 51.4880764, "lng": -0.129816}, "viewport": {"northeast": {"lat": 51.48945878029149, "lng": -0.1285530197084979}, "southwest": {"lat": 51.4867608197085, "lng": -0.131250980291502}}}, "name": "Stephen Jakub Photography", "place_id": "ChIJsaJP9uUEdkgRYBynyTz4Yag", "types": ["point_of_interest", "establishment"]}, "ChIJL9uweuMEdkgRXidxhc45jGs": {"geometry": {"location": {"lat": 51.4880764, "lng": -0.129816}, "viewport": {"northeast": {"lat": 51.48945878029149, "lng": -0.1285530197084979}, "southwest": {"lat": 51.4867608197085, "lng": -0.131250980291502}}}, "name": "Gallagher David", "place_id": "ChIJL9uweuMEdkgRXidxhc45jGs", "types": ["point_of_interest", "establishment"]}, "ChIJZ4jo-eUEdkgRDzTPpbNqz_8": {"geometry": {"location": {"lat": 51.48823709999999, "lng": -0.1293988}, "viewport": {"northeast": {"lat": 51.4895266802915, "lng": -0.1281232697084979}, "southwest": {"lat": 51.4868287197085, "lng": -0.130821230291502}}}, "name": "Luxury Shower Heads", "place_id": "ChIJZ4jo-eUEdkgRDzTPpbNqz_8", "types": ["home_goods_store", "point_of_interest", "store", "establishment"], "rating": 5, "user_ratings_total": 1}, "ChIJk4Vo-eUEdkgR8BVf9Gora70": {"geometry": {"location": {"lat": 51.4882371, "lng": -0.1293987}, "viewport": {"northeast": {"lat": 51.4895266802915, "lng": -0.128123219708498}, "southwest": {"lat": 51.4868287197085, "lng": -0.130821180291502}}}, "name": "John Lloyd Morgan", "place_id": "ChIJk4Vo-eUEdkgR8BVf9Gora70", "types": ["jewelry_store", "point_of_interest", "store", "establishment"], "rating": 5, "user_ratings_total": 1}, "ChIJL9uweuMEdkgRTEKGlNSxJcQ": {"geometry": {"location": {"lat": 51.4880946, "lng": -0.1298023}, "viewport": {"northeast": {"lat": 51.48948963029151, "lng": -0.1283963697084979}, "southwest": {"lat": 51.48679166970851, "lng": -0.131094330291502}}}, "name": "Easy Mandarin Ltd", "place_id": "ChIJL9uweuMEdkgRTEKGlNSxJcQ", "types": ["point_of_interest", "establishment"], "rating": 5, "user_ratings_total": 1}, "ChIJ79KB8nMOdkgRu4ypd24Qnq0": {"geometry": {"location": {"lat": 51.48828690000001, "lng": -0.1295256}, "viewport": {"northeast": {"lat": 51.48957993029151, "lng": -0.128245819708498}, "southwest": {"lat": 51.48688196970851, "lng": -0.130943780291502}}}, "name": "The Panoramic", "place_id": "ChIJ79KB8nMOdkgRu4ypd24Qnq0", "types": ["point_of_interest", "establishment"], "rating": 4.6, "user_ratings_total": 14}, "ChIJ-4B7_OUEdkgRNRaeL55GgIg": {"geometry": {"location": {"lat": 51.4880985, "lng": -0.1293997}, "viewport": {"northeast": {"lat": 51.4894401302915, "lng": -0.128057169708498}, "southwest": {"lat": 51.4867421697085, "lng": -0.130755130291502}}}, "name": "Align4 - Emotional Intelligence", "place_id": "ChIJ-4B7_OUEdkgRNRaeL55GgIg", "types": ["point_of_interest", "establishment"]}, "ChIJVVVl-eUEdkgRrv-XYaCCtIg": {"geometry": {"location": {"lat": 51.48823709999999, "lng": -0.1293988}, "viewport": {"northeast": {"lat": 51.4895266802915, "lng": -0.1281232697084979}, "southwest": {"lat": 51.4868287197085, "lng": -0.130821230291502}}}, "name": "Panoramic Management Co Ltd", "place_id": "ChIJVVVl-eUEdkgRrv-XYaCCtIg", "types": ["point_of_interest", "establishment"], "rating": 5, "user_ratings_total": 4}, "ChIJEXvpRWgFdkgRjyr88ZvQF7s": {"geometry": {"location": {"lat": 51.4881238, "lng": -0.1293286}, "viewport": {"northeast": {"lat": 51.4894383802915, "lng": -0.1280221697084979}, "southwest": {"lat": 51.4867404197085, "lng": -0.130720130291502}}}, "name": "Bobiqwe endz", "place_id": "ChIJEXvpRWgFdkgRjyr88ZvQF7s", "types": ["night_club", "point_of_interest", "establishment"]}, "ChIJf8qO_uUEdkgROdIjwQPLGt8": {"geometry": {"location": {"lat": 51.48836499999999, "lng": -0.129361}, "viewport": {"northeast": {"lat": 51.48977578029149, "lng": -0.127949469708498}, "southwest": {"lat": 51.48707781970849, "lng": -0.1306474302915021}}}, "name": "Santander Cycles", "place_id": "ChIJf8qO_uUEdkgROdIjwQPLGt8", "types": ["point_of_interest", "establishment"], "rating": 4, "user_ratings_total": 2}, "ChIJ21Z8WO8EdkgR9LuHh7aNFx8": {"geometry": {"location": {"lat": 51.4879621, "lng": -0.1290329}, "viewport": {"northeast": {"lat": 51.4893286302915, "lng": -0.127783019708498}, "southwest": {"lat": 51.4866306697085, "lng": -0.130480980291502}}}, "name": "IFD Design", "place_id": "ChIJ21Z8WO8EdkgR9LuHh7aNFx8", "types": ["point_of_interest", "establishment"]}, "ChIJVVUFWO8EdkgRgRz7qTs3-gs": {"geometry": {"location": {"lat": 51.4879621, "lng": -0.1290329}, "viewport": {"northeast": {"lat": 51.48933708029151, "lng": -0.127739119708498}, "southwest": {"lat": 51.48663911970851, "lng": -0.130437080291502}}}, "name": "Fk Project Management Ltd", "place_id": "ChIJVVUFWO8EdkgRgRz7qTs3-gs", "types": ["point_of_interest", "establishment"]}, "ChIJVVUFWO8EdkgRgRprbyg0xhM": {"geometry": {"location": {"lat": 51.4879621, "lng": -0.1290329}, "viewport": {"northeast": {"lat": 51.48933708029151, "lng": -0.127739119708498}, "southwest": {"lat": 51.48663911970851, "lng": -0.130437080291502}}}, "name": "Aria Associates Limited", "place_id": "ChIJVVUFWO8EdkgRgRprbyg0xhM", "types": ["point_of_interest", "establishment"]}, "ChIJP9e28uUEdkgRV-LGYL83FhQ": {"geometry": {"location": {"lat": 51.4873187378405, "lng": -0.1297912667629574}, "viewport": {"northeast": {"lat": 51.48881640000006, "lng": -0.1274965}, "southwest": {"lat": 51.48593319999995, "lng": -0.1321173}}}, "name": "Thames Path", "place_id": "ChIJP9e28uUEdkgRV-LGYL83FhQ", "types": ["route"]}, "ChIJ7VHV7uUEdkgRQUQ75iXBEMM": {"geometry": {"location": {"lat": 51.487571, "lng": -0.1300179}, "viewport": {"northeast": {"lat": 51.4889459802915, "lng": -0.128742169708498}, "southwest": {"lat": 51.4862480197085, "lng": -0.131440130291502}}}, "name": "Optimum Taxation", "place_id": "ChIJ7VHV7uUEdkgRQUQ75iXBEMM", "types": ["accounting", "finance", "point_of_interest", "establishment"], "rating": 5, "user_ratings_total": 3}, "ChIJUwWrZuYEdkgRGPbDOBUAv0g": {"geometry": {"location": {"lat": 51.48970410020003, "lng": -0.1317926995033253}, "viewport": {"northeast": {"lat": 51.4910530802915, "lng": -0.130443719708498}, "southwest": {"lat": 51.4883551197085, "lng": -0.133141680291502}}}, "name": "Peckham - Camberwell - Vauxhall - Westminster Highway", "place_id": "ChIJUwWrZuYEdkgRGPbDOBUAv0g", "types": ["route"]}, "ChIJzfhpbOYEdkgRdwvEQ5pvXvU": {"geometry": {"location": {"lat": 51.48960379999999, "lng": -0.1310604}, "viewport": {"northeast": {"lat": 51.49095278029149, "lng": -0.1297114197084979}, "southwest": {"lat": 51.48825481970849, "lng": -0.132409380291502}}}, "name": "Embassy of Lithuania", "place_id": "ChIJzfhpbOYEdkgRdwvEQ5pvXvU", "types": ["embassy", "point_of_interest", "establishment"], "rating": 3.3, "user_ratings_total": 445}, "ChIJNX-SieYEdkgRWVDUCpiwXJ0": {"geometry": {"location": {"lat": 51.4893292, "lng": -0.132215}, "viewport": {"northeast": {"lat": 51.4906364302915, "lng": -0.130737119708498}, "southwest": {"lat": 51.4879384697085, "lng": -0.133435080291502}}}, "name": "Office for National Statistics", "place_id": "ChIJNX-SieYEdkgRWVDUCpiwXJ0", "types": ["point_of_interest", "establishment"], "rating": 3, "user_ratings_total": 4}, "ChIJq6pahqwcdkgRxTrpRsrxKSU": {"geometry": {"location": {"lat": 51.4893418, "lng": -0.131534}, "viewport": {"northeast": {"lat": 51.4907368302915, "lng": -0.130211869708498}, "southwest": {"lat": 51.4880388697085, "lng": -0.132909830291502}}}, "name": "WhoSampled", "place_id": "ChIJq6pahqwcdkgRxTrpRsrxKSU", "types": ["point_of_interest", "establishment"]}, "ChIJjzHObeYEdkgRvLIYgmV9Q78": {"geometry": {"location": {"lat": 51.4894495, "lng": -0.1308725}, "viewport": {"northeast": {"lat": 51.4907703302915, "lng": -0.129561819708498}, "southwest": {"lat": 51.4880723697085, "lng": -0.132259780291502}}}, "name": "Instead Of World", "place_id": "ChIJjzHObeYEdkgRvLIYgmV9Q78", "types": ["point_of_interest", "establishment"]}, "ChIJA43TbuYEdkgRCwme4xOTD8E": {"geometry": {"location": {"lat": 51.4896201, "lng": -0.1311744}, "viewport": {"northeast": {"lat": 51.49093423029151, "lng": -0.129868769708498}, "southwest": {"lat": 51.48823626970851, "lng": -0.132566730291502}}}, "name": "Secured Loan London", "place_id": "ChIJA43TbuYEdkgRCwme4xOTD8E", "types": ["finance", "point_of_interest", "establishment"]}, "ChIJxesbb-YEdkgR-RwRhYq6ayk": {"geometry": {"location": {"lat": 51.48958750000001, "lng": -0.1310711}, "viewport": {"northeast": {"lat": 51.49089603029151, "lng": -0.129771719708498}, "southwest": {"lat": 51.48819806970851, "lng": -0.132469680291502}}}, "name": "Contracts furniture", "place_id": "ChIJxesbb-YEdkgR-RwRhYq6ayk", "types": ["point_of_interest", "establishment"]}, "ChIJyQW6heYEdkgRHLY7QX4A3zU": {"geometry": {"location": {"lat": 51.489339, "lng": -0.1322028}, "viewport": {"northeast": {"lat": 51.4906467302915, "lng": -0.130726469708498}, "southwest": {"lat": 51.4879487697085, "lng": -0.133424430291502}}}, "name": "UK Statistics Authority", "place_id": "ChIJyQW6heYEdkgRHLY7QX4A3zU", "types": ["point_of_interest", "establishment"], "rating": 5, "user_ratings_total": 1}, "ChIJ6TYjfeYEdkgRAkpEtue1hCo": {"geometry": {"location": {"lat": 51.4892638, "lng": -0.1322961}, "viewport": {"northeast": {"lat": 51.4905538802915, "lng": -0.130832269708498}, "southwest": {"lat": 51.4878559197085, "lng": -0.133530230291502}}}, "name": "etc.venues Victoria", "place_id": "ChIJ6TYjfeYEdkgRAkpEtue1hCo", "types": ["point_of_interest", "establishment"], "rating": 4.4, "user_ratings_total": 19}, "ChIJw-jOZOYEdkgRmxlHC4JzJjU": {"geometry": {"location": {"lat": 51.4893417, "lng": -0.1315341}, "viewport": {"northeast": {"lat": 51.4907367302915, "lng": -0.130211969708498}, "southwest": {"lat": 51.4880387697085, "lng": -0.1329099302915021}}}, "name": "AOM", "place_id": "ChIJw-jOZOYEdkgRmxlHC4JzJjU", "types": ["point_of_interest", "establishment"]}, "ChIJw-jOZOYEdkgRQtM9pxeefgk": {"geometry": {"location": {"lat": 51.4893417, "lng": -0.1315341}, "viewport": {"northeast": {"lat": 51.4907367302915, "lng": -0.130211969708498}, "southwest": {"lat": 51.4880387697085, "lng": -0.1329099302915021}}}, "name": "AOM", "place_id": "ChIJw-jOZOYEdkgRQtM9pxeefgk", "types": ["point_of_interest", "establishment"]}, "ChIJmfBWZsUFdkgR1DIn7kRietE": {"geometry": {"location": {"lat": 51.4893417, "lng": -0.1315341}, "viewport": {"northeast": {"lat": 51.4907367302915, "lng": -0.130211969708498}, "southwest": {"lat": 51.4880387697085, "lng": -0.1329099302915021}}}, "name": "Aesthetic Practitioner Academy", "place_id": "ChIJmfBWZsUFdkgR1DIn7kRietE", "types": ["point_of_interest", "establishment"], "rating": 5, "user_ratings_total": 11}, "ChIJ9QgedIwFdkgRLglV0q5m4WY": {"geometry": {"location": {"lat": 51.488995, "lng": -0.1316226}, "viewport": {"northeast": {"lat": 51.4903660302915, "lng": -0.130320369708498}, "southwest": {"lat": 51.4876680697085, "lng": -0.133018330291502}}}, "name": "IT Support London - Inflection Point", "place_id": "ChIJ9QgedIwFdkgRLglV0q5m4WY", "types": ["point_of_interest", "establishment"]}, "ChIJjxsub-YEdkgRDQyu60yzkcg": {"geometry": {"location": {"lat": 51.4896189, "lng": -0.1311505}, "viewport": {"northeast": {"lat": 51.4909298302915, "lng": -0.129848919708498}, "southwest": {"lat": 51.4882318697085, "lng": -0.132546880291502}}}, "name": "Pimlico News", "place_id": "ChIJjxsub-YEdkgRDQyu60yzkcg", "types": ["point_of_interest", "establishment"]}, "ChIJAwzEbuYEdkgRUXTM-5RP4Wg": {"geometry": {"location": {"lat": 51.4895828, "lng": -0.1310415}, "viewport": {"northeast": {"lat": 51.4909317802915, "lng": -0.129692519708498}, "southwest": {"lat": 51.4882338197085, "lng": -0.132390480291502}}}, "name": "Kaunas City Of Modernism", "place_id": "ChIJAwzEbuYEdkgRUXTM-5RP4Wg", "types": ["point_of_interest", "establishment"]}, "ChIJGQEEXuYEdkgRfpfJA3dzh6I": {"geometry": {"location": {"lat": 51.489628, "lng": -0.1311459}, "viewport": {"northeast": {"lat": 51.49093538029149, "lng": -0.129848719708498}, "southwest": {"lat": 51.48823741970849, "lng": -0.132546680291502}}}, "name": "International Trade Portal", "place_id": "ChIJGQEEXuYEdkgRfpfJA3dzh6I", "types": ["point_of_interest", "establishment"]}, "ChIJJ_I0b-YEdkgRip9Mr7FNZJ0": {"geometry": {"location": {"lat": 51.48965210000001, "lng": -0.131206}, "viewport": {"northeast": {"lat": 51.4909610302915, "lng": -0.129906919708498}, "southwest": {"lat": 51.4882630697085, "lng": -0.132604880291502}}}, "name": "Lebanese Gardens", "place_id": "ChIJJ_I0b-YEdkgRip9Mr7FNZJ0", "types": ["restaurant", "food", "point_of_interest", "establishment"], "rating": 4.4, "user_ratings_total": 318}, "ChIJjzHObeYEdkgRbLNW67TgzrA": {"geometry": {"location": {"lat": 51.4895299, "lng": -0.1308377}, "viewport": {"northeast": {"lat": 51.4908216802915, "lng": -0.129563019708498}, "southwest": {"lat": 51.4881237197085, "lng": -0.132260980291502}}}, "name": "Lithuanian House Limited", "place_id": "ChIJjzHObeYEdkgRbLNW67TgzrA", "types": ["point_of_interest", "establishment"]}, "ChIJzZlSorQFdkgRAbXEq4receU": {"geometry": {"location": {"lat": 51.48971179999999, "lng": -0.1313283}, "viewport": {"northeast": {"lat": 51.49101823029149, "lng": -0.1300279697084979}, "southwest": {"lat": 51.4883202697085, "lng": -0.132725930291502}}}, "name": "Lords City Store", "place_id": "ChIJzZlSorQFdkgRAbXEq4receU", "types": ["grocery_or_supermarket", "food", "point_of_interest", "store", "establishment"], "rating": 5, "user_ratings_total": 3}, "ChIJNcUfZuYEdkgRDMa49lS3AoI": {"geometry": {"location": {"lat": 51.4897174, "lng": -0.1312931}, "viewport": {"northeast": {"lat": 51.4910167802915, "lng": -0.130000819708498}, "southwest": {"lat": 51.4883188197085, "lng": -0.1326987802915021}}}, "name": "Lalo's Barber Shop", "place_id": "ChIJNcUfZuYEdkgRDMa49lS3AoI", "types": ["hair_care", "health", "point_of_interest", "establishment"], "rating": 4.7, "user_ratings_total": 182}, "ChIJMdxbfOYEdkgRm3wYzKP6zTQ": {"geometry": {"location": {"lat": 51.4891085, "lng": -0.1317005}, "viewport": {"northeast": {"lat": 51.49042427729989, "lng": -0.130374472620775}, "southwest": {"lat": 51.48772631671689, "lng": -0.133072433203779}}}, "name": "Parking lot", "place_id": "ChIJMdxbfOYEdkgRm3wYzKP6zTQ", "types": ["parking", "premise", "point_of_interest", "establishment"]}, "ChIJz5WqzeUEdkgRifmPnsGH5hg": {"geometry": {"location": {"lat": 51.48784558425165, "lng": -0.131788069713466}, "viewport": {"northeast": {"lat": 51.48919533029149, "lng": -0.130438019708498}, "southwest": {"lat": 51.48649736970849, "lng": -0.133135980291502}}}, "name": "62-66 Bessborough Pl", "place_id": "ChIJz5WqzeUEdkgRifmPnsGH5hg", "types": ["route"]}, "ChIJNZw10OUEdkgREQie0-SyziI": {"geometry": {"location": {"lat": 51.48807849999999, "lng": -0.1314543}, "viewport": {"northeast": {"lat": 51.4893744302915, "lng": -0.129987819708498}, "southwest": {"lat": 51.4866764697085, "lng": -0.132685780291502}}}, "name": "Grove Investment Management Limited", "place_id": "ChIJNZw10OUEdkgREQie0-SyziI", "types": ["finance", "point_of_interest", "establishment"]}, "ChIJNZw10OUEdkgREnZK7_AZ5-Q": {"geometry": {"location": {"lat": 51.48807849999999, "lng": -0.1314543}, "viewport": {"northeast": {"lat": 51.4893744302915, "lng": -0.129987819708498}, "southwest": {"lat": 51.4866764697085, "lng": -0.132685780291502}}}, "name": "Storm Petroleum Limited", "place_id": "ChIJNZw10OUEdkgREnZK7_AZ5-Q", "types": ["point_of_interest", "establishment"]}, "ChIJu6m12_MFdkgR01Yd2E2Sj3U": {"geometry": {"location": {"lat": 51.4884326, "lng": -0.1312796}, "viewport": {"northeast": {"lat": 51.4898068802915, "lng": -0.129900569708498}, "southwest": {"lat": 51.4871089197085, "lng": -0.132598530291502}}}, "name": "Ashgrove House", "place_id": "ChIJu6m12_MFdkgR01Yd2E2Sj3U", "types": ["lodging", "point_of_interest", "establishment"], "rating": 4.5, "user_ratings_total": 2}, "ChIJkyhlz-UEdkgRvGIBQPBGUoU": {"geometry": {"location": {"lat": 51.48779309999999, "lng": -0.1313165}, "viewport": {"northeast": {"lat": 51.4891580302915, "lng": -0.130001819708498}, "southwest": {"lat": 51.4864600697085, "lng": -0.132699780291502}}}, "name": "Martial Arts Charitable Trust", "place_id": "ChIJkyhlz-UEdkgRvGIBQPBGUoU", "types": ["point_of_interest", "establishment"]}, "ChIJdVPK0F8FdkgRXbgbIC0e-VQ": {"geometry": {"location": {"lat": 51.487913, "lng": -0.130978}, "viewport": {"northeast": {"lat": 51.4892712302915, "lng": -0.129649069708498}, "southwest": {"lat": 51.4865732697085, "lng": -0.132347030291502}}}, "name": "Jill Okare", "place_id": "ChIJdVPK0F8FdkgRXbgbIC0e-VQ", "types": ["school", "point_of_interest", "establishment"]}, "ChIJv7fh2uUEdkgR_XtxpD_PAvU": {"geometry": {"location": {"lat": 51.4885344, "lng": -0.131147}, "viewport": {"northeast": {"lat": 51.48983078029151, "lng": -0.1298607197084979}, "southwest": {"lat": 51.48713281970851, "lng": -0.132558680291502}}}, "name": "The Roof Company", "place_id": "ChIJv7fh2uUEdkgR_XtxpD_PAvU", "types": ["roofing_contractor", "point_of_interest", "establishment"]}, "ChIJV5CtuuUEdkgRAQFhlOyEGII": {"geometry": {"location": {"lat": 51.48686830000823, "lng": -0.1309939000512407}, "viewport": {"northeast": {"lat": 51.48821728029149, "lng": -0.129644919708498}, "southwest": {"lat": 51.4855193197085, "lng": -0.132342880291502}}}, "name": "79 Grosvenor Rd", "place_id": "ChIJV5CtuuUEdkgRAQFhlOyEGII", "types": ["route"]}, "ChIJk3ZLruUEdkgRizv6E6-WPfU": {"geometry": {"location": {"lat": 51.4865908, "lng": -0.1315063}, "viewport": {"northeast": {"lat": 51.4879397802915, "lng": -0.130157319708498}, "southwest": {"lat": 51.4852418197085, "lng": -0.132855280291502}}}, "name": "The Grosvenor pub", "place_id": "ChIJk3ZLruUEdkgRizv6E6-WPfU", "types": ["bar", "point_of_interest", "establishment"], "rating": 4.3, "user_ratings_total": 398}, "ChIJiQkZueUEdkgR7G5nvtP8uXM": {"geometry": {"location": {"lat": 51.4871496, "lng": -0.1310185}, "viewport": {"northeast": {"lat": 51.4885130802915, "lng": -0.129734219708498}, "southwest": {"lat": 51.4858151197085, "lng": -0.132432180291502}}}, "name": "Lilyford Homes Ltd", "place_id": "ChIJiQkZueUEdkgR7G5nvtP8uXM", "types": ["point_of_interest", "establishment"]}, "ChIJb5wZuZoFdkgRAWqcDgTHhN4": {"geometry": {"location": {"lat": 51.4865897, "lng": -0.1315339}, "viewport": {"northeast": {"lat": 51.4879036802915, "lng": -0.130138069708498}, "southwest": {"lat": 51.4852057197085, "lng": -0.132836030291502}}}, "name": "iPlumber London", "place_id": "ChIJb5wZuZoFdkgRAWqcDgTHhN4", "types": ["plumber", "point_of_interest", "establishment"]}, "ChIJNQ-QGxgFdkgRFLBJdF6Qumo": {"geometry": {"location": {"lat": 51.4875461, "lng": -0.1317125}, "viewport": {"northeast": {"lat": 51.4888931802915, "lng": -0.130488819708498}, "southwest": {"lat": 51.4861952197085, "lng": -0.133186780291502}}}, "name": "A to Z Gadgets UK", "place_id": "ChIJNQ-QGxgFdkgRFLBJdF6Qumo", "types": ["point_of_interest", "store", "establishment"], "rating": 5, "user_ratings_total": 1}, "ChIJ9Q5INeQEdkgRdXCJV4nQMbk": {"geometry": {"location": {"lat": 51.4874216, "lng": -0.1320576}, "viewport": {"northeast": {"lat": 51.4887725802915, "lng": -0.1307187697084979}, "southwest": {"lat": 51.4860746197085, "lng": -0.133416730291502}}}, "name": "Balvaird Pl Playground", "place_id": "ChIJ9Q5INeQEdkgRdXCJV4nQMbk", "types": ["park", "point_of_interest", "establishment"], "rating": 4.7, "user_ratings_total": 7}, "ChIJeT_IruUEdkgRJckTZzuDxVU": {"geometry": {"location": {"lat": 51.48636468228436, "lng": -0.131613394703481}, "viewport": {"northeast": {"lat": 51.4877737302915, "lng": -0.1302386}, "southwest": {"lat": 51.4850757697085, "lng": -0.1331326}}}, "name": "140-138 Grosvenor Rd", "place_id": "ChIJeT_IruUEdkgRJckTZzuDxVU", "types": ["route"]}, "ChIJAwDpquUEdkgRB8O73Myboiw": {"geometry": {"location": {"lat": 51.4861331, "lng": -0.1318967}, "viewport": {"northeast": {"lat": 51.48748208029149, "lng": -0.130547719708498}, "southwest": {"lat": 51.4847841197085, "lng": -0.133245680291502}}}, "name": "Eagle Wharf", "place_id": "ChIJAwDpquUEdkgRB8O73Myboiw", "types": ["point_of_interest", "establishment"], "rating": 5, "user_ratings_total": 2}, "ChIJT-z1m-YEdkgRFVfmeCiiR8g": {"geometry": {"location": {"lat": 51.48896639432805, "lng": -0.1328897680893362}, "viewport": {"northeast": {"lat": 51.49033038029149, "lng": -0.131538619708498}, "southwest": {"lat": 51.48763241970849, "lng": -0.134236580291502}}}, "name": "2 Bessborough St", "place_id": "ChIJT-z1m-YEdkgRFVfmeCiiR8g", "types": ["route"]}, "ChIJvZPeJToFdkgRuLt-pIsZMF4": {"geometry": {"location": {"lat": 51.4892201, "lng": -0.1329987}, "viewport": {"northeast": {"lat": 51.49056908029149, "lng": -0.131649719708498}, "southwest": {"lat": 51.48787111970849, "lng": -0.134347680291502}}}, "name": "eduardo paolozzi vent", "place_id": "ChIJvZPeJToFdkgRuLt-pIsZMF4", "types": ["tourist_attraction", "point_of_interest", "establishment"]}, "ChIJ-37XFwQFdkgRyPz9F_69zTc": {"geometry": {"location": {"lat": 51.48940199999999, "lng": -0.1324303}, "viewport": {"northeast": {"lat": 51.49067403029149, "lng": -0.130843769708498}, "southwest": {"lat": 51.4879760697085, "lng": -0.133541730291502}}}, "name": "Google Ltd.Copyright.Date:2019-01/01", "place_id": "ChIJ-37XFwQFdkgRyPz9F_69zTc", "types": ["point_of_interest", "establishment"]}, "ChIJsWwnj-YEdkgRYkgHIaCrf98": {"geometry": {"location": {"lat": 51.4894721, "lng": -0.1324522}, "viewport": {"northeast": {"lat": 51.49073388029149, "lng": -0.130833969708498}, "southwest": {"lat": 51.4880359197085, "lng": -0.133531930291502}}}, "name": "London Travel Lodge", "place_id": "ChIJsWwnj-YEdkgRYkgHIaCrf98", "types": ["lodging", "point_of_interest", "establishment"]}, "ChIJoRzd6tsFdkgRaI8JiHDRhZs": {"geometry": {"location": {"lat": 51.4885295, "lng": -0.1326778}, "viewport": {"northeast": {"lat": 51.4898704302915, "lng": -0.131272469708498}, "southwest": {"lat": 51.4871724697085, "lng": -0.133970430291502}}}, "name": "Cecilia Hazlerigg - Psychotherapeutic Consultancy", "place_id": "ChIJoRzd6tsFdkgRaI8JiHDRhZs", "types": ["health", "point_of_interest", "establishment"]}, "ChIJUdbTKeQEdkgRU_Fdjr1_6ag": {"geometry": {"location": {"lat": 51.488568, "lng": -0.132723}, "viewport": {"northeast": {"lat": 51.4898824302915, "lng": -0.131433919708498}, "southwest": {"lat": 51.4871844697085, "lng": -0.134131880291502}}}, "name": "Pimlico Counsellors & Psychotherapists at Therapport", "place_id": "ChIJUdbTKeQEdkgRU_Fdjr1_6ag", "types": ["health", "point_of_interest", "establishment"]}, "ChIJMxLLqbQEdkgRAlPHZZXm0uA": {"geometry": {"location": {"lat": 51.4885682, "lng": -0.1327227}, "viewport": {"northeast": {"lat": 51.4899171802915, "lng": -0.131373719708498}, "southwest": {"lat": 51.4872192197085, "lng": -0.134071680291502}}}, "name": "Tim LeBon (M.A Oxon Accredited psychotherapist) Psychotherapy & Counselling", "place_id": "ChIJMxLLqbQEdkgRAlPHZZXm0uA", "types": ["health", "point_of_interest", "establishment"]}, "ChIJwRdzKOQEdkgRN4meIKPSRmk": {"geometry": {"location": {"lat": 51.4885683, "lng": -0.1327226}, "viewport": {"northeast": {"lat": 51.4898826302915, "lng": -0.131433769708498}, "southwest": {"lat": 51.4871846697085, "lng": -0.134131730291502}}}, "name": "Ula", "place_id": "ChIJwRdzKOQEdkgRN4meIKPSRmk", "types": ["health", "point_of_interest", "establishment"]}, "ChIJwRdzKOQEdkgRujr3youDPZM": {"geometry": {"location": {"lat": 51.4885683, "lng": -0.1327226}, "viewport": {"northeast": {"lat": 51.4898826302915, "lng": -0.131433769708498}, "southwest": {"lat": 51.4871846697085, "lng": -0.134131730291502}}}, "name": "Peter Teigen Psychotherapy", "place_id": "ChIJwRdzKOQEdkgRujr3youDPZM", "types": ["health", "point_of_interest", "establishment"]}, "ChIJwRdzKOQEdkgRa1_WGDL9R14": {"geometry": {"location": {"lat": 51.4885683, "lng": -0.1327226}, "viewport": {"northeast": {"lat": 51.4898826302915, "lng": -0.131433769708498}, "southwest": {"lat": 51.4871846697085, "lng": -0.134131730291502}}}, "name": "NB Counselling", "place_id": "ChIJwRdzKOQEdkgRa1_WGDL9R14", "types": ["health", "point_of_interest", "establishment"]}, "ChIJwRdzKOQEdkgRqOJNKxlBm4s": {"geometry": {"location": {"lat": 51.4885683, "lng": -0.1327226}, "viewport": {"northeast": {"lat": 51.4898826302915, "lng": -0.131433769708498}, "southwest": {"lat": 51.4871846697085, "lng": -0.134131730291502}}}, "name": "Meirion Todd", "place_id": "ChIJwRdzKOQEdkgRqOJNKxlBm4s", "types": ["health", "point_of_interest", "establishment"]}, "ChIJ__3VLeQEdkgR1tAR8VtNhE8": {"geometry": {"location": {"lat": 51.48857880000001, "lng": -0.1326511}, "viewport": {"northeast": {"lat": 51.4899215302915, "lng": -0.131249569708498}, "southwest": {"lat": 51.4872235697085, "lng": -0.133947530291502}}}, "name": "Christian Koebbel Counselling & Psychotherapy", "place_id": "ChIJ__3VLeQEdkgR1tAR8VtNhE8", "types": ["doctor", "health", "point_of_interest", "establishment"], "rating": 5, "user_ratings_total": 1}, "ChIJ1WF5MOQEdkgRh3AKtZqN09E": {"geometry": {"location": {"lat": 51.48782380000001, "lng": -0.1327454}, "viewport": {"northeast": {"lat": 51.48922803029151, "lng": -0.131336169708498}, "southwest": {"lat": 51.48653006970851, "lng": -0.134034130291502}}}, "name": "Tuttle House", "place_id": "ChIJ1WF5MOQEdkgRh3AKtZqN09E", "types": ["transit_station", "point_of_interest", "establishment"]}, "ChIJc7J17aAbdkgRz33AckHvt4w": {"geometry": {"location": {"lat": 51.488568, "lng": -0.132723}, "viewport": {"northeast": {"lat": 51.4898824302915, "lng": -0.131433919708498}, "southwest": {"lat": 51.4871844697085, "lng": -0.134131880291502}}}, "name": "Anna Gyorfi", "place_id": "ChIJc7J17aAbdkgRz33AckHvt4w", "types": ["health", "point_of_interest", "establishment"], "rating": 5, "user_ratings_total": 6}, "ChIJtxdzKOQEdkgRZIzU9hc6COk": {"geometry": {"location": {"lat": 51.4885682, "lng": -0.1327227}, "viewport": {"northeast": {"lat": 51.4898825802915, "lng": -0.131433819708498}, "southwest": {"lat": 51.4871846197085, "lng": -0.134131780291502}}}, "name": "Susy Hogarth", "place_id": "ChIJtxdzKOQEdkgRZIzU9hc6COk", "types": ["health", "point_of_interest", "establishment"]}, "ChIJtxdzKOQEdkgRJkp1v7BliRE": {"geometry": {"location": {"lat": 51.4885682, "lng": -0.1327227}, "viewport": {"northeast": {"lat": 51.4898825802915, "lng": -0.131433819708498}, "southwest": {"lat": 51.4871846197085, "lng": -0.134131780291502}}}, "name": "HELEN THOMAS", "place_id": "ChIJtxdzKOQEdkgRJkp1v7BliRE", "types": ["health", "point_of_interest", "establishment"]}, "ChIJtxdzKOQEdkgRqMySI7Itjks": {"geometry": {"location": {"lat": 51.4885682, "lng": -0.1327227}, "viewport": {"northeast": {"lat": 51.4898825802915, "lng": -0.131433819708498}, "southwest": {"lat": 51.4871846197085, "lng": -0.134131780291502}}}, "name": "Therapport Limited", "place_id": "ChIJtxdzKOQEdkgRqMySI7Itjks", "types": ["health", "point_of_interest", "establishment"]}, "ChIJVyOtKeQEdkgRpoa2jRROGio": {"geometry": {"location": {"lat": 51.488603, "lng": -0.1327007}, "viewport": {"northeast": {"lat": 51.4899410302915, "lng": -0.131271669708498}, "southwest": {"lat": 51.48724306970851, "lng": -0.1339696302915021}}}, "name": "Gestalt Counselling & Psychotherapy Practice", "place_id": "ChIJVyOtKeQEdkgRpoa2jRROGio", "types": ["health", "point_of_interest", "establishment"]}, "ChIJ7wKsJeQEdkgRgNtUshyfK0o": {"geometry": {"location": {"lat": 51.4882245, "lng": -0.1330045}, "viewport": {"northeast": {"lat": 51.48953462399833, "lng": -0.1315640806648591}, "southwest": {"lat": 51.48683666341534, "lng": -0.1342620412478631}}}, "name": "Parking lot", "place_id": "ChIJ7wKsJeQEdkgRgNtUshyfK0o", "types": ["parking", "premise", "point_of_interest", "establishment"]}, "ChIJz1zHGCQFdkgRCwpUkkr6aUo": {"geometry": {"location": {"lat": 51.4875084, "lng": -0.132918}, "viewport": {"northeast": {"lat": 51.4890266302915, "lng": -0.1313337197084979}, "southwest": {"lat": 51.4863286697085, "lng": -0.134031680291502}}}, "name": "AA Instructor Gentian Xhilaj", "place_id": "ChIJz1zHGCQFdkgRCwpUkkr6aUo", "types": ["point_of_interest", "establishment"], "rating": 5, "user_ratings_total": 8}, "ChIJb1OkN-QEdkgRz6GTrfsHV6U": {"geometry": {"location": {"lat": 51.487486, "lng": -0.1326338}, "viewport": {"northeast": {"lat": 51.48887572553526, "lng": -0.1312737904605817}, "southwest": {"lat": 51.48617776495226, "lng": -0.1339717510435857}}}, "name": "Parking lot", "place_id": "ChIJb1OkN-QEdkgRz6GTrfsHV6U", "types": ["parking", "premise", "point_of_interest", "establishment"]}, "ChIJQ_JoVuQEdkgRuH5DTfWkc2Y": {"geometry": {"location": {"lat": 51.48614620000001, "lng": -0.1324529}, "viewport": {"northeast": {"lat": 51.4874951802915, "lng": -0.131103919708498}, "southwest": {"lat": 51.48479721970851, "lng": -0.133801880291502}}}, "name": "Ilford Man and Van", "place_id": "ChIJQ_JoVuQEdkgRuH5DTfWkc2Y", "types": ["moving_company", "point_of_interest", "establishment"]}, "ChIJAQAw_-QEdkgROKxzKMBMzG4": {"geometry": {"location": {"lat": 51.48590600000001, "lng": -0.132328}, "viewport": {"northeast": {"lat": 51.4873505302915, "lng": -0.131042519708498}, "southwest": {"lat": 51.4846525697085, "lng": -0.133740480291502}}}, "name": "14 Fm Limited", "place_id": "ChIJAQAw_-QEdkgROKxzKMBMzG4", "types": ["point_of_interest", "establishment"]}, "ChIJAQAw_-QEdkgRirNkkyLoT10": {"geometry": {"location": {"lat": 51.48590600000001, "lng": -0.132328}, "viewport": {"northeast": {"lat": 51.4873505302915, "lng": -0.131042519708498}, "southwest": {"lat": 51.4846525697085, "lng": -0.133740480291502}}}, "name": "15 Fm Limited", "place_id": "ChIJAQAw_-QEdkgRirNkkyLoT10", "types": ["point_of_interest", "establishment"]}, "ChIJM1FW9-4EdkgRx0tsONucVFs": {"geometry": {"location": {"lat": 51.4863361, "lng": -0.1253897}, "viewport": {"northeast": {"lat": 51.48784063029151, "lng": -0.123861019708498}, "southwest": {"lat": 51.48514266970851, "lng": -0.126558980291502}}}, "name": "Fraser Contracts Ltd", "place_id": "ChIJM1FW9-4EdkgRx0tsONucVFs", "types": ["point_of_interest", "establishment"]}, "ChIJM1FW9-4EdkgRRJiAf1GYWV8": {"geometry": {"location": {"lat": 51.4863361, "lng": -0.1253897}, "viewport": {"northeast": {"lat": 51.48784063029151, "lng": -0.123861019708498}, "southwest": {"lat": 51.48514266970851, "lng": -0.126558980291502}}}, "name": "Nine Elms Spec Ltd", "place_id": "ChIJM1FW9-4EdkgRRJiAf1GYWV8", "types": ["point_of_interest", "establishment"]}, "ChIJvbkzx-gEdkgR0tX3jHHwrHU": {"geometry": {"location": {"lat": 51.48976555428621, "lng": -0.1271206748033814}, "viewport": {"northeast": {"lat": 51.49111893029149, "lng": -0.125778919708498}, "southwest": {"lat": 51.48842096970849, "lng": -0.128476880291502}}}, "name": "Millbank", "place_id": "ChIJvbkzx-gEdkgR0tX3jHHwrHU", "types": ["route"]}, "ChIJo0W2PO8EdkgR9Ad_XwyL8QY": {"geometry": {"location": {"lat": 51.48786491759354, "lng": -0.127493897296216}, "viewport": {"northeast": {"lat": 51.48921403029149, "lng": -0.12578385}, "southwest": {"lat": 51.48651606970849, "lng": -0.1292036499999999}}}, "name": "Vauxhall Bridge", "place_id": "ChIJo0W2PO8EdkgR9Ad_XwyL8QY", "types": ["route"]}, "ChIJu8goRu8EdkgRFL_MzOdgOoU": {"geometry": {"location": {"lat": 51.4876246, "lng": -0.1271303}, "viewport": {"northeast": {"lat": 51.4889830302915, "lng": -0.125770219708498}, "southwest": {"lat": 51.48628506970851, "lng": -0.128468180291502}}}, "name": "Vauxhall Bridge", "place_id": "ChIJu8goRu8EdkgRFL_MzOdgOoU", "types": ["tourist_attraction", "point_of_interest", "establishment"], "rating": 4.3, "user_ratings_total": 941}, "ChIJQWZE_7kFdkgRy6bx5cUouog": {"geometry": {"location": {"lat": 51.4863037, "lng": -0.1272146}, "viewport": {"northeast": {"lat": 51.4872615302915, "lng": -0.1247384}, "southwest": {"lat": 51.4845635697085, "lng": -0.12804}}}, "name": "Uber Boat by Thames Clippers - Vauxhall (St George Wharf) Pier", "place_id": "ChIJQWZE_7kFdkgRy6bx5cUouog", "types": ["point_of_interest", "establishment"], "rating": 5, "user_ratings_total": 1}, "ChIJizSKBe8EdkgR9v3TcfrvYnc": {"geometry": {"location": {"lat": 51.4862851, "lng": -0.1272302}, "viewport": {"northeast": {"lat": 51.48781028029151, "lng": -0.1247364500000001}, "southwest": {"lat": 51.48511231970851, "lng": -0.1280614499999999}}}, "name": "St George Wharf", "place_id": "ChIJizSKBe8EdkgR9v3TcfrvYnc", "types": ["transit_station", "point_of_interest", "establishment"], "rating": 3.5, "user_ratings_total": 11}, "ChIJ43oQTLIEdkgRMTsMt8TUEVc": {"geometry": {"location": {"lat": 51.4855238, "lng": -0.12684}, "viewport": {"northeast": {"lat": 51.4866346302915, "lng": -0.125781369708498}, "southwest": {"lat": 51.48393666970851, "lng": -0.128479330291502}}}, "name": "Riverside Dental Spa", "place_id": "ChIJ43oQTLIEdkgRMTsMt8TUEVc", "types": ["dentist", "beauty_salon", "spa", "health", "point_of_interest", "establishment"], "rating": 4.5, "user_ratings_total": 43}, "ChIJKWU5r-gEdkgRULWaJieSBWU": {"geometry": {"location": {"lat": 51.48922565428929, "lng": -0.1286151250814787}, "viewport": {"northeast": {"lat": 51.49056668029149, "lng": -0.1272568697084979}, "southwest": {"lat": 51.48786871970849, "lng": -0.129954830291502}}}, "name": "60-58 Millbank", "place_id": "ChIJKWU5r-gEdkgRULWaJieSBWU", "types": ["route"]}, "ChIJYT4Wp-gEdkgRY10uJY6XXCM": {"geometry": {"location": {"lat": 51.489559, "lng": -0.128965}, "viewport": {"northeast": {"lat": 51.4909056802915, "lng": -0.127617869708498}, "southwest": {"lat": 51.48820771970851, "lng": -0.130315830291502}}}, "name": "ubitricity Charging Station", "place_id": "ChIJYT4Wp-gEdkgRY10uJY6XXCM", "types": ["point_of_interest", "establishment"]}, "ChIJZ9nP1HoFdkgRdDUyALxspoU": {"geometry": {"location": {"lat": 51.4895381, "lng": -0.128916}, "viewport": {"northeast": {"lat": 51.4909025802915, "lng": -0.127556569708498}, "southwest": {"lat": 51.4882046197085, "lng": -0.130254530291502}}}, "name": "ubitricity Charging Station", "place_id": "ChIJZ9nP1HoFdkgRdDUyALxspoU", "types": ["point_of_interest", "establishment"]}, "ChIJ2fPs_-UEdkgRxqS8tO57QKw": {"geometry": {"location": {"lat": 51.48853852871635, "lng": -0.1290403660056682}, "viewport": {"northeast": {"lat": 51.48988853029149, "lng": -0.1276902697084979}, "southwest": {"lat": 51.4871905697085, "lng": -0.130388230291502}}}, "name": "Peckham - Camberwell - Vauxhall - Westminster Highway", "place_id": "ChIJ2fPs_-UEdkgRxqS8tO57QKw", "types": ["route"]}, "ChIJtZOkrOgEdkgRN2gmsHiO21Q": {"geometry": {"location": {"lat": 51.4887177, "lng": -0.128677}, "viewport": {"northeast": {"lat": 51.4902311302915, "lng": -0.1273097697084979}, "southwest": {"lat": 51.4875331697085, "lng": -0.130007730291502}}}, "name": "Click Studios Ltd", "place_id": "ChIJtZOkrOgEdkgRN2gmsHiO21Q", "types": ["point_of_interest", "establishment"]}, "ChIJh-_XfY0FdkgR4piqIZPkr8o": {"geometry": {"location": {"lat": 51.48868940000001, "lng": -0.1283548}, "viewport": {"northeast": {"lat": 51.4902169802915, "lng": -0.1272025697084979}, "southwest": {"lat": 51.4875190197085, "lng": -0.129900530291502}}}, "name": "Caf\u00e9 Society.", "place_id": "ChIJh-_XfY0FdkgR4piqIZPkr8o", "types": ["cafe", "food", "point_of_interest", "establishment"], "rating": 4.7, "user_ratings_total": 65}, "ChIJfcPnDOYEdkgRn1xwSeFbFMY": {"geometry": {"location": {"lat": 51.48919674299185, "lng": -0.1305473794646396}, "viewport": {"northeast": {"lat": 51.49054393029149, "lng": -0.129200369708498}, "southwest": {"lat": 51.48784596970849, "lng": -0.131898330291502}}}, "name": "1 A202", "place_id": "ChIJfcPnDOYEdkgRn1xwSeFbFMY", "types": ["route"]}, "ChIJD_-YFuYEdkgRRW8lqYxymug": {"geometry": {"location": {"lat": 51.4897121, "lng": -0.130145}, "viewport": {"northeast": {"lat": 51.49109753029149, "lng": -0.128847769708498}, "southwest": {"lat": 51.48839956970849, "lng": -0.131545730291502}}}, "name": "Relish", "place_id": "ChIJD_-YFuYEdkgRRW8lqYxymug", "types": ["cafe", "restaurant", "food", "point_of_interest", "establishment"], "rating": 4.5, "user_ratings_total": 109}, "ChIJy1iiFOYEdkgR_9iw4mUJ-NI": {"geometry": {"location": {"lat": 51.4896816, "lng": -0.1304683}, "viewport": {"northeast": {"lat": 51.4910142802915, "lng": -0.129093819708498}, "southwest": {"lat": 51.4883163197085, "lng": -0.131791780291502}}}, "name": "Ponsonby Terrace (Stop S)", "place_id": "ChIJy1iiFOYEdkgR_9iw4mUJ-NI", "types": ["transit_station", "point_of_interest", "establishment"], "rating": 4, "user_ratings_total": 1}, "ChIJacaVFuYEdkgRJ0LvkN7k7TU": {"geometry": {"location": {"lat": 51.4897333, "lng": -0.1301151}, "viewport": {"northeast": {"lat": 51.49111183029149, "lng": -0.128828269708498}, "southwest": {"lat": 51.4884138697085, "lng": -0.131526230291502}}}, "name": "Rachels Rugs", "place_id": "ChIJacaVFuYEdkgRJ0LvkN7k7TU", "types": ["point_of_interest", "store", "establishment"], "rating": 5, "user_ratings_total": 1}, "ChIJMdK6DOYEdkgRW7UkpAfrJy8": {"geometry": {"location": {"lat": 51.48907215661022, "lng": -0.130541884746435}, "viewport": {"northeast": {"lat": 51.49042453029149, "lng": -0.129188419708498}, "southwest": {"lat": 51.48772656970849, "lng": -0.131886380291502}}}, "name": "Bessborough Gardens", "place_id": "ChIJMdK6DOYEdkgRW7UkpAfrJy8", "types": ["route"]}, "ChIJi3lDdeYEdkgRL_nRYsGBhK4": {"geometry": {"location": {"lat": 51.48882219999999, "lng": -0.1307352}, "viewport": {"northeast": {"lat": 51.4902733802915, "lng": -0.129247419708498}, "southwest": {"lat": 51.4875754197085, "lng": -0.131945380291502}}}, "name": "Bessborough Gardens", "place_id": "ChIJi3lDdeYEdkgRL_nRYsGBhK4", "types": ["park", "point_of_interest", "establishment"], "rating": 4.3, "user_ratings_total": 102}, "ChIJ8e4uiI4FdkgRcRdijgZ4CxQ": {"geometry": {"location": {"lat": 51.4886424, "lng": -0.1308757}, "viewport": {"northeast": {"lat": 51.4898635302915, "lng": -0.129679169708498}, "southwest": {"lat": 51.4871655697085, "lng": -0.132377130291502}}}, "name": "Flourish Mindfully London", "place_id": "ChIJ8e4uiI4FdkgRcRdijgZ4CxQ", "types": ["school", "health", "point_of_interest", "establishment"], "rating": 5, "user_ratings_total": 4}, "ChIJN1g_wOUEdkgRRdSCxHPIkFw": {"geometry": {"location": {"lat": 51.48732827202244, "lng": -0.1307204816735813}, "viewport": {"northeast": {"lat": 51.4886771302915, "lng": -0.1293709697084979}, "southwest": {"lat": 51.4859791697085, "lng": -0.132068930291502}}}, "name": "Grosvenor Road", "place_id": "ChIJN1g_wOUEdkgRRdSCxHPIkFw", "types": ["route"]}, "ChIJA8R27eUEdkgRgONgPFqT4HA": {"geometry": {"location": {"lat": 51.48761289999999, "lng": -0.1300247}, "viewport": {"northeast": {"lat": 51.4889830302915, "lng": -0.128730169708498}, "southwest": {"lat": 51.4862850697085, "lng": -0.131428130291502}}}, "name": "Crown Reach", "place_id": "ChIJA8R27eUEdkgRgONgPFqT4HA", "types": ["point_of_interest", "establishment"], "rating": 4.3, "user_ratings_total": 7}, "ChIJEyN6vuUEdkgRq1JH5EQZDCc": {"geometry": {"location": {"lat": 51.48701254914101, "lng": -0.1307544515715623}, "viewport": {"northeast": {"lat": 51.4883678302915, "lng": -0.129428919708498}, "southwest": {"lat": 51.4856698697085, "lng": -0.132126880291502}}}, "name": "144-141 Grosvenor Rd", "place_id": "ChIJEyN6vuUEdkgRq1JH5EQZDCc", "types": ["route"]}, "ChIJXZAabeMEdkgRkH22Xr7ORFc": {"geometry": {"location": {"lat": 51.48696959999999, "lng": -0.1305755}, "viewport": {"northeast": {"lat": 51.4883385302915, "lng": -0.129316869708498}, "southwest": {"lat": 51.4856405697085, "lng": -0.132014830291502}}}, "name": "S M C UK Ltd", "place_id": "ChIJXZAabeMEdkgRkH22Xr7ORFc", "types": ["point_of_interest", "establishment"]}, "ChIJFaFTgeYEdkgRBSR5SfER_-Y": {"geometry": {"location": {"lat": 51.48896613540231, "lng": -0.1323533793636492}, "viewport": {"northeast": {"lat": 51.4903183302915, "lng": -0.131007069708498}, "southwest": {"lat": 51.4876203697085, "lng": -0.133705030291502}}}, "name": "Drummond Gate", "place_id": "ChIJFaFTgeYEdkgRBSR5SfER_-Y", "types": ["route"]}, "ChIJHxeDKuQEdkgRkjaPg8jArAM": {"geometry": {"location": {"lat": 51.4886547, "lng": -0.1323582}, "viewport": {"northeast": {"lat": 51.49001353029149, "lng": -0.131084219708498}, "southwest": {"lat": 51.48731556970849, "lng": -0.133782180291502}}}, "name": "Westminster Cathedral R C Primary School", "place_id": "ChIJHxeDKuQEdkgRkjaPg8jArAM", "types": ["primary_school", "school", "point_of_interest", "establishment"], "rating": 5, "user_ratings_total": 2}, "ChIJVyOtKeQEdkgR3DJLwGhTAnI": {"geometry": {"location": {"lat": 51.4886727, "lng": -0.1326789}, "viewport": {"northeast": {"lat": 51.49001103029151, "lng": -0.131248469708498}, "southwest": {"lat": 51.48731306970851, "lng": -0.133946430291502}}}, "name": "Transcendental Meditation London, Pimlico - The Meditation Trust", "place_id": "ChIJVyOtKeQEdkgR3DJLwGhTAnI", "types": ["health", "point_of_interest", "establishment"], "rating": 4.9, "user_ratings_total": 19}, "ChIJh93RCHQFdkgRYZSGWDx6UGk": {"geometry": {"location": {"lat": 51.48869769999999, "lng": -0.1326434}, "viewport": {"northeast": {"lat": 51.4900377302915, "lng": -0.131225919708498}, "southwest": {"lat": 51.4873397697085, "lng": -0.133923880291502}}}, "name": "Robota", "place_id": "ChIJh93RCHQFdkgRYZSGWDx6UGk", "types": ["general_contractor", "point_of_interest", "establishment"]}, "ChIJJ57pJeQEdkgRCFMz2y-5bb8": {"geometry": {"location": {"lat": 51.48827033234161, "lng": -0.1329520390108484}, "viewport": {"northeast": {"lat": 51.4896190302915, "lng": -0.131483669708498}, "southwest": {"lat": 51.4869210697085, "lng": -0.134181630291502}}}, "name": "48-64 Bessborough Pl", "place_id": "ChIJJ57pJeQEdkgRCFMz2y-5bb8", "types": ["route"]}, "ChIJJQpOq-UEdkgRU_XqgMhXgjw": {"geometry": {"location": {"lat": 51.48629253129604, "lng": -0.1319657004238084}, "viewport": {"northeast": {"lat": 51.4876618802915, "lng": -0.130636169708498}, "southwest": {"lat": 51.4849639197085, "lng": -0.133334130291502}}}, "name": "Grosvenor Road", "place_id": "ChIJJQpOq-UEdkgRU_XqgMhXgjw", "types": ["route"]}, "ChIJ3y-rOeQEdkgRV_Y7JVvR710": {"geometry": {"location": {"lat": 51.4865885, "lng": -0.1326808}, "viewport": {"northeast": {"lat": 51.4879044302915, "lng": -0.131524069708498}, "southwest": {"lat": 51.48520646970851, "lng": -0.134222030291502}}}, "name": "Quality Flora", "place_id": "ChIJ3y-rOeQEdkgRV_Y7JVvR710", "types": ["florist", "point_of_interest", "store", "establishment"], "rating": 5, "user_ratings_total": 1}, "ChIJf9W5UuQEdkgRM93E89iVOew": {"geometry": {"location": {"lat": 51.48662299999999, "lng": -0.1323613}, "viewport": {"northeast": {"lat": 51.48804798029149, "lng": -0.131020919708498}, "southwest": {"lat": 51.48535001970849, "lng": -0.133718880291502}}}, "name": "Tachbrook Nursery School", "place_id": "ChIJf9W5UuQEdkgRM93E89iVOew", "types": ["school", "point_of_interest", "establishment"], "rating": 4.6, "user_ratings_total": 7}, "ChIJMVNIUOQEdkgR_y2zifNdUh8": {"geometry": {"location": {"lat": 51.48659500000001, "lng": -0.1325953}, "viewport": {"northeast": {"lat": 51.4879038302915, "lng": -0.1314796197084979}, "southwest": {"lat": 51.48520586970851, "lng": -0.134177580291502}}}, "name": "Bodfach Trust", "place_id": "ChIJMVNIUOQEdkgR_y2zifNdUh8", "types": ["point_of_interest", "establishment"]}}}