{"E00023831": {"ChIJve4DxNEadkgRxM9-M7ZaaZk": {"geometry": {"location": {"lat": 51.52182294416858, "lng": -0.1516570482684569}, "viewport": {"northeast": {"lat": 51.5231733802915, "lng": -0.150314369708498}, "southwest": {"lat": 51.5204754197085, "lng": -0.153012330291502}}}, "name": "52-51 Marylebone High St", "place_id": "ChIJve4DxNEadkgRxM9-M7ZaaZk", "types": ["route"]}, "ChIJS5qet9EadkgR9RPgi79xe9w": {"geometry": {"location": {"lat": 51.52206289999999, "lng": -0.1514111}, "viewport": {"northeast": {"lat": 51.52350543029149, "lng": -0.150066819708498}, "southwest": {"lat": 51.52080746970849, "lng": -0.152764780291502}}}, "name": "Orrery", "place_id": "ChIJS5qet9EadkgR9RPgi79xe9w", "types": ["bar", "restaurant", "food", "point_of_interest", "establishment"], "rating": 4.5, "user_ratings_total": 538}, "ChIJucg_wtEadkgRMravjXH47es": {"geometry": {"location": {"lat": 51.5215355, "lng": -0.1516502}, "viewport": {"northeast": {"lat": 51.5229026302915, "lng": -0.150382169708498}, "southwest": {"lat": 51.52020466970851, "lng": -0.153080130291502}}}, "name": "London Medical", "place_id": "ChIJucg_wtEadkgRMravjXH47es", "types": ["hospital", "health", "point_of_interest", "establishment"], "rating": 4, "user_ratings_total": 24}, "ChIJdXacwdEadkgR-FWbcyqk_xU": {"geometry": {"location": {"lat": 51.5216222, "lng": -0.1516157}, "viewport": {"northeast": {"lat": 51.5229754302915, "lng": -0.150347769708498}, "southwest": {"lat": 51.5202774697085, "lng": -0.153045730291502}}}, "name": "Fischer's", "place_id": "ChIJdXacwdEadkgR-FWbcyqk_xU", "types": ["cafe", "restaurant", "food", "point_of_interest", "establishment"], "rating": 4.4, "user_ratings_total": 1045}, "ChIJP6ucl9EadkgRHkUJ2O4i60U": {"geometry": {"location": {"lat": 51.5213298, "lng": -0.1506298}, "viewport": {"northeast": {"lat": 51.5226398302915, "lng": -0.149264319708498}, "southwest": {"lat": 51.5199418697085, "lng": -0.151962280291502}}}, "name": "Savills Marylebone Estate Agents", "place_id": "ChIJP6ucl9EadkgRHkUJ2O4i60U", "types": ["real_estate_agency", "point_of_interest", "establishment"], "rating": 5, "user_ratings_total": 42}, "ChIJUWch69EadkgRHv-77J7Engk": {"geometry": {"location": {"lat": 51.52127989999999, "lng": -0.1512135}, "viewport": {"northeast": {"lat": 51.5225680802915, "lng": -0.149838369708498}, "southwest": {"lat": 51.5198701197085, "lng": -0.152536330291502}}}, "name": "The Marylebone Gallery", "place_id": "ChIJUWch69EadkgRHv-77J7Engk", "types": ["art_gallery", "point_of_interest", "establishment"], "rating": 4, "user_ratings_total": 4}, "ChIJ-2fQhNQadkgR-BvD3hTY1OM": {"geometry": {"location": {"lat": 51.52191389999999, "lng": -0.1502189}, "viewport": {"northeast": {"lat": 51.52328638029149, "lng": -0.148734469708498}, "southwest": {"lat": 51.5205884197085, "lng": -0.151432430291502}}}, "name": "Dr Tatiana Aesthetic Clinic", "place_id": "ChIJ-2fQhNQadkgR-BvD3hTY1OM", "types": ["beauty_salon", "hair_care", "spa", "doctor", "health", "point_of_interest", "establishment"], "rating": 4.6, "user_ratings_total": 129}, "ChIJP-2OpNEadkgRJJCKOpZL32Y": {"geometry": {"location": {"lat": 51.5219055, "lng": -0.1501857}, "viewport": {"northeast": {"lat": 51.5232822802915, "lng": -0.148717919708498}, "southwest": {"lat": 51.5205843197085, "lng": -0.151415880291502}}}, "name": "Swedish Smile Clinic", "place_id": "ChIJP-2OpNEadkgRJJCKOpZL32Y", "types": ["dentist", "health", "point_of_interest", "establishment"], "rating": 4.8, "user_ratings_total": 64}, "ChIJUe72wdEadkgR4IlYCR37E4g": {"geometry": {"location": {"lat": 51.5215355, "lng": -0.1516501}, "viewport": {"northeast": {"lat": 51.5229026302915, "lng": -0.150382069708498}, "southwest": {"lat": 51.52020466970851, "lng": -0.153080030291502}}}, "name": "London Diabetes Centre", "place_id": "ChIJUe72wdEadkgR4IlYCR37E4g", "types": ["health", "point_of_interest", "establishment"], "rating": 5, "user_ratings_total": 1}, "ChIJ1UglwtEadkgRvFDrChHJv2s": {"geometry": {"location": {"lat": 51.5215362, "lng": -0.1516525}, "viewport": {"northeast": {"lat": 51.52290308029151, "lng": -0.150383269708498}, "southwest": {"lat": 51.52020511970851, "lng": -0.153081230291502}}}, "name": "Bodyscan (London W1)", "place_id": "ChIJ1UglwtEadkgRvFDrChHJv2s", "types": ["health", "point_of_interest", "establishment"], "rating": 5, "user_ratings_total": 128}, "ChIJwY7TH9EadkgRaBlM7HEDd98": {"geometry": {"location": {"lat": 51.52191189999999, "lng": -0.1501105}, "viewport": {"northeast": {"lat": 51.52327573029149, "lng": -0.148675919708498}, "southwest": {"lat": 51.5205777697085, "lng": -0.151373880291502}}}, "name": "The Harley Street Dermatology Clinic", "place_id": "ChIJwY7TH9EadkgRaBlM7HEDd98", "types": ["hospital", "doctor", "health", "point_of_interest", "establishment"], "rating": 4.3, "user_ratings_total": 86}, "ChIJA2DrptEadkgRGkmZejFAP4w": {"geometry": {"location": {"lat": 51.521914, "lng": -0.1500981}, "viewport": {"northeast": {"lat": 51.5232767802915, "lng": -0.148669719708498}, "southwest": {"lat": 51.5205788197085, "lng": -0.151367680291502}}}, "name": "Feather Beauty", "place_id": "ChIJA2DrptEadkgRGkmZejFAP4w", "types": ["point_of_interest", "establishment"]}, "ChIJ5cXDxtEadkgR5cqCW3ncCUo": {"geometry": {"location": {"lat": 51.52178809999999, "lng": -0.1515458}, "viewport": {"northeast": {"lat": 51.5231495802915, "lng": -0.150255169708498}, "southwest": {"lat": 51.5204516197085, "lng": -0.152953130291502}}}, "name": "Bonpoint", "place_id": "ChIJ5cXDxtEadkgR5cqCW3ncCUo", "types": ["point_of_interest", "clothing_store", "store", "establishment"], "rating": 3.6, "user_ratings_total": 9}, "ChIJzWeQpdEadkgRLb6krfocMRY": {"geometry": {"location": {"lat": 51.52209070000001, "lng": -0.1503297}, "viewport": {"northeast": {"lat": 51.5234657302915, "lng": -0.148830669708498}, "southwest": {"lat": 51.5207677697085, "lng": -0.151528630291502}}}, "name": "Tinnitus & Hyperacuisis Clinic - London,", "place_id": "ChIJzWeQpdEadkgRLb6krfocMRY", "types": ["health", "point_of_interest", "establishment"]}, "ChIJx67tl9EadkgRWABwqKBWXu0": {"geometry": {"location": {"lat": 51.52135669999999, "lng": -0.1505174}, "viewport": {"northeast": {"lat": 51.52266268029149, "lng": -0.149150369708498}, "southwest": {"lat": 51.5199647197085, "lng": -0.151848330291502}}}, "name": "Inn 1888 Pub & Scullery", "place_id": "ChIJx67tl9EadkgRWABwqKBWXu0", "types": ["bar", "point_of_interest", "establishment"], "rating": 4.2, "user_ratings_total": 272}, "ChIJocAyvtEadkgRhjzVNb0FtUw": {"geometry": {"location": {"lat": 51.5215279, "lng": -0.1511087}, "viewport": {"northeast": {"lat": 51.5228982302915, "lng": -0.149646269708498}, "southwest": {"lat": 51.5202002697085, "lng": -0.152344230291502}}}, "name": "R S T Pictures Ltd", "place_id": "ChIJocAyvtEadkgRhjzVNb0FtUw", "types": ["point_of_interest", "establishment"]}, "ChIJa9SZpNEadkgRunqHQB_5aEI": {"geometry": {"location": {"lat": 51.521851, "lng": -0.1504589}, "viewport": {"northeast": {"lat": 51.5231865302915, "lng": -0.149183619708498}, "southwest": {"lat": 51.5204885697085, "lng": -0.151881580291502}}}, "name": "Brightwell Partners", "place_id": "ChIJa9SZpNEadkgRunqHQB_5aEI", "types": ["point_of_interest", "establishment"]}, "ChIJqaq2ldEadkgRIdFVl8RLW0k": {"geometry": {"location": {"lat": 51.5213379, "lng": -0.1510432}, "viewport": {"northeast": {"lat": 51.5226122802915, "lng": -0.149662119708498}, "southwest": {"lat": 51.5199143197085, "lng": -0.152360080291502}}}, "name": "Dr. David Ranc", "place_id": "ChIJqaq2ldEadkgRIdFVl8RLW0k", "types": ["point_of_interest", "establishment"]}, "ChIJp377YtMadkgRNvSdhBikKvs": {"geometry": {"location": {"lat": 51.52136549999999, "lng": -0.150572}, "viewport": {"northeast": {"lat": 51.52266323029149, "lng": -0.149201469708498}, "southwest": {"lat": 51.51996526970849, "lng": -0.151899430291502}}}, "name": "SpecialEyes Eyelash Extensions", "place_id": "ChIJp377YtMadkgRNvSdhBikKvs", "types": ["beauty_salon", "point_of_interest", "establishment"], "rating": 4.5, "user_ratings_total": 8}, "ChIJ5cXDxtEadkgRTXmGkgTpIjs": {"geometry": {"location": {"lat": 51.5218509, "lng": -0.151345}, "viewport": {"northeast": {"lat": 51.5232282802915, "lng": -0.150128619708498}, "southwest": {"lat": 51.5205303197085, "lng": -0.152826580291502}}}, "name": "Stone Mark Ltd", "place_id": "ChIJ5cXDxtEadkgRTXmGkgTpIjs", "types": ["car_dealer", "point_of_interest", "store", "establishment"]}, "ChIJucg_wtEadkgR07O7Vh1OTR4": {"geometry": {"location": {"lat": 51.5216135, "lng": -0.1516157}, "viewport": {"northeast": {"lat": 51.52298113029149, "lng": -0.150341869708498}, "southwest": {"lat": 51.5202831697085, "lng": -0.1530398302915021}}}, "name": "Elalucas Contact Lenses", "place_id": "ChIJucg_wtEadkgR07O7Vh1OTR4", "types": ["health", "point_of_interest", "establishment"], "rating": 5, "user_ratings_total": 12}, "ChIJjfv63OAbdkgRlEwTqNlKPYQ": {"geometry": {"location": {"lat": 51.52170679999999, "lng": -0.1515511}, "viewport": {"northeast": {"lat": 51.5230697802915, "lng": -0.150279319708498}, "southwest": {"lat": 51.5203718197085, "lng": -0.152977280291502}}}, "name": "The Organic Pharmacy- Marylebone Flagship Store", "place_id": "ChIJjfv63OAbdkgRlEwTqNlKPYQ", "types": ["spa", "point_of_interest", "establishment"], "rating": 5, "user_ratings_total": 1}, "ChIJAaw2ah8bdkgR0kikLwADYVU": {"geometry": {"location": {"lat": 51.5212323, "lng": -0.1507174}, "viewport": {"northeast": {"lat": 51.5225812802915, "lng": -0.149368419708498}, "southwest": {"lat": 51.5198833197085, "lng": -0.1520663802915021}}}, "name": "Mr Danilo Miskovic", "place_id": "ChIJAaw2ah8bdkgR0kikLwADYVU", "types": ["doctor", "health", "point_of_interest", "establishment"]}, "ChIJ__-bwdEadkgR0JHQCNAXKMQ": {"geometry": {"location": {"lat": 51.5216246, "lng": -0.1515966}, "viewport": {"northeast": {"lat": 51.52299353029149, "lng": -0.150327919708498}, "southwest": {"lat": 51.52029556970849, "lng": -0.153025880291502}}}, "name": "Eat And Two Veg", "place_id": "ChIJ__-bwdEadkgR0JHQCNAXKMQ", "types": ["restaurant", "food", "point_of_interest", "establishment"]}, "ChIJL0gipNEadkgRdwbFaIjXZu4": {"geometry": {"location": {"lat": 51.5219016, "lng": -0.1502247}, "viewport": {"northeast": {"lat": 51.5232750302915, "lng": -0.148735019708498}, "southwest": {"lat": 51.5205770697085, "lng": -0.151432980291502}}}, "name": "Sara Jolie Clinic", "place_id": "ChIJL0gipNEadkgRdwbFaIjXZu4", "types": ["beauty_salon", "point_of_interest", "establishment"]}, "ChIJM0J8dd8bdkgRP_L_xu5F3R4": {"geometry": {"location": {"lat": 51.52200799999999, "lng": -0.151359}, "viewport": {"northeast": {"lat": 51.5233570802915, "lng": -0.150009969708498}, "southwest": {"lat": 51.5206591197085, "lng": -0.152707930291502}}}, "name": "Santander Cycles", "place_id": "ChIJM0J8dd8bdkgRP_L_xu5F3R4", "types": ["point_of_interest", "establishment"]}, "ChIJ80DOlNEadkgR5L7nvmVtJzU": {"geometry": {"location": {"lat": 51.52127050000001, "lng": -0.1512662}, "viewport": {"northeast": {"lat": 51.5225589802915, "lng": -0.149891169708498}, "southwest": {"lat": 51.5198610197085, "lng": -0.152589130291502}}}, "name": "Ruth Buchanan", "place_id": "ChIJ80DOlNEadkgR5L7nvmVtJzU", "types": ["point_of_interest", "establishment"]}, "ChIJQ73LMqkbdkgRlIPSPvCvi-A": {"geometry": {"location": {"lat": 51.52191389999999, "lng": -0.1502189}, "viewport": {"northeast": {"lat": 51.52328638029149, "lng": -0.148734469708498}, "southwest": {"lat": 51.5205884197085, "lng": -0.151432430291502}}}, "name": "Rae Clinic London", "place_id": "ChIJQ73LMqkbdkgRlIPSPvCvi-A", "types": ["health", "point_of_interest", "establishment"], "rating": 4.6, "user_ratings_total": 10}, "ChIJpdvF9CAbdkgRqjI5wVeoLKk": {"geometry": {"location": {"lat": 51.52191389999999, "lng": -0.1502189}, "viewport": {"northeast": {"lat": 51.52328638029149, "lng": -0.148734469708498}, "southwest": {"lat": 51.5205884197085, "lng": -0.151432430291502}}}, "name": "Hotaki - Best Cosmetic Dermatologist in London", "place_id": "ChIJpdvF9CAbdkgRqjI5wVeoLKk", "types": ["doctor", "health", "point_of_interest", "establishment"], "rating": 5, "user_ratings_total": 43}, "ChIJLeNFPakbdkgRzi27hkmNazM": {"geometry": {"location": {"lat": 51.52191389999999, "lng": -0.1502189}, "viewport": {"northeast": {"lat": 51.52328638029149, "lng": -0.148734469708498}, "southwest": {"lat": 51.5205884197085, "lng": -0.151432430291502}}}, "name": "Aesthetic Regenerative Clinic", "place_id": "ChIJLeNFPakbdkgRzi27hkmNazM", "types": ["point_of_interest", "establishment"], "rating": 5, "user_ratings_total": 8}, "ChIJ__8jpNEadkgRI9_OuXGTs98": {"geometry": {"location": {"lat": 51.52191389999999, "lng": -0.1502189}, "viewport": {"northeast": {"lat": 51.52328638029149, "lng": -0.148734469708498}, "southwest": {"lat": 51.5205884197085, "lng": -0.151432430291502}}}, "name": "DR ADAM FRIEDMANN", "place_id": "ChIJ__8jpNEadkgRI9_OuXGTs98", "types": ["doctor", "health", "point_of_interest", "establishment"]}, "ChIJFafUklEbdkgRtpyaqtz_qCk": {"geometry": {"location": {"lat": 51.52191500000001, "lng": -0.150196}, "viewport": {"northeast": {"lat": 51.5232856302915, "lng": -0.148722419708498}, "southwest": {"lat": 51.5205876697085, "lng": -0.151420380291502}}}, "name": "Dr Haidar Hassan", "place_id": "ChIJFafUklEbdkgRtpyaqtz_qCk", "types": ["hospital", "health", "point_of_interest", "establishment"]}, "ChIJc93vCiwbdkgRJ9x88akh2MQ": {"geometry": {"location": {"lat": 51.52191500000001, "lng": -0.150196}, "viewport": {"northeast": {"lat": 51.5232856302915, "lng": -0.148722419708498}, "southwest": {"lat": 51.5205876697085, "lng": -0.151420380291502}}}, "name": "Dr Benjamin Abramov", "place_id": "ChIJc93vCiwbdkgRJ9x88akh2MQ", "types": ["hospital", "health", "point_of_interest", "establishment"]}, "ChIJrajbKFIbdkgR45u5REy0ES0": {"geometry": {"location": {"lat": 51.52191500000001, "lng": -0.150196}, "viewport": {"northeast": {"lat": 51.5232856302915, "lng": -0.148722419708498}, "southwest": {"lat": 51.5205876697085, "lng": -0.151420380291502}}}, "name": "Dr Ghassan Abu-Sittah", "place_id": "ChIJrajbKFIbdkgR45u5REy0ES0", "types": ["doctor", "health", "point_of_interest", "establishment"]}, "ChIJMS47eEYbdkgRlGElvx5_6V8": {"geometry": {"location": {"lat": 51.52191500000001, "lng": -0.150196}, "viewport": {"northeast": {"lat": 51.5232856302915, "lng": -0.148722419708498}, "southwest": {"lat": 51.5205876697085, "lng": -0.151420380291502}}}, "name": "The Ghanem Clinic", "place_id": "ChIJMS47eEYbdkgRlGElvx5_6V8", "types": ["point_of_interest", "establishment"]}, "ChIJySJn3TQbdkgRRykxEHyleDU": {"geometry": {"location": {"lat": 51.52191500000001, "lng": -0.150196}, "viewport": {"northeast": {"lat": 51.5232856302915, "lng": -0.148722419708498}, "southwest": {"lat": 51.5205876697085, "lng": -0.151420380291502}}}, "name": "Non Surgical Facelift", "place_id": "ChIJySJn3TQbdkgRRykxEHyleDU", "types": ["doctor", "health", "point_of_interest", "establishment"], "rating": 5, "user_ratings_total": 1}, "ChIJX59h7ZMbdkgRhFjD0neeqko": {"geometry": {"location": {"lat": 51.52191500000001, "lng": -0.150196}, "viewport": {"northeast": {"lat": 51.5232856302915, "lng": -0.148722419708498}, "southwest": {"lat": 51.5205876697085, "lng": -0.151420380291502}}}, "name": "Mr Ali Ghanem", "place_id": "ChIJX59h7ZMbdkgRhFjD0neeqko", "types": ["doctor", "health", "point_of_interest", "establishment"], "rating": 5, "user_ratings_total": 11}, "ChIJ_bpfn9EadkgR7S0t76yXXyM": {"geometry": {"location": {"lat": 51.5214757, "lng": -0.1501096}, "viewport": {"northeast": {"lat": 51.5228552302915, "lng": -0.148584669708498}, "southwest": {"lat": 51.52015726970851, "lng": -0.151282630291502}}}, "name": "Fashion models shooting", "place_id": "ChIJ_bpfn9EadkgR7S0t76yXXyM", "types": ["point_of_interest", "establishment"], "rating": 1, "user_ratings_total": 4}, "ChIJ96i5x9EadkgRL6dEP42Nmgc": {"geometry": {"location": {"lat": 51.5220454, "lng": -0.1514024}, "viewport": {"northeast": {"lat": 51.52349668029149, "lng": -0.150070619708498}, "southwest": {"lat": 51.52079871970849, "lng": -0.152768580291502}}}, "name": "Orrery Epicerie", "place_id": "ChIJ96i5x9EadkgRL6dEP42Nmgc", "types": ["cafe", "food", "point_of_interest", "establishment"], "rating": 4.3, "user_ratings_total": 57}, "ChIJT-72wdEadkgRZDFx7OTpp20": {"geometry": {"location": {"lat": 51.5215355, "lng": -0.1516502}, "viewport": {"northeast": {"lat": 51.5229026302915, "lng": -0.150382169708498}, "southwest": {"lat": 51.52020466970851, "lng": -0.153080130291502}}}, "name": "Dr Sarah Wakelin", "place_id": "ChIJT-72wdEadkgRZDFx7OTpp20", "types": ["doctor", "health", "point_of_interest", "establishment"]}, "ChIJRey1w9EadkgRi8UFOKKRw1w": {"geometry": {"location": {"lat": 51.521536, "lng": -0.1516506}, "viewport": {"northeast": {"lat": 51.52290308029151, "lng": -0.150382219708498}, "southwest": {"lat": 51.52020511970851, "lng": -0.153080180291502}}}, "name": "London Ear Centre", "place_id": "ChIJRey1w9EadkgRi8UFOKKRw1w", "types": ["health", "point_of_interest", "establishment"]}, "ChIJy4AkwtEadkgRzzYX-3kEB5A": {"geometry": {"location": {"lat": 51.52152419999999, "lng": -0.1516603}, "viewport": {"northeast": {"lat": 51.5228909802915, "lng": -0.150390669708498}, "southwest": {"lat": 51.5201930197085, "lng": -0.153088630291502}}}, "name": "Physiomove London", "place_id": "ChIJy4AkwtEadkgRzzYX-3kEB5A", "types": ["health", "point_of_interest", "establishment"], "rating": 5, "user_ratings_total": 55}, "ChIJr3wgl9EadkgRdsBllkH3LRk": {"geometry": {"location": {"lat": 51.5211768, "lng": -0.1505916}, "viewport": {"northeast": {"lat": 51.5225183802915, "lng": -0.149291819708498}, "southwest": {"lat": 51.5198204197085, "lng": -0.151989780291502}}}, "name": "Dr Andrew Hoyle", "place_id": "ChIJr3wgl9EadkgRdsBllkH3LRk", "types": ["doctor", "health", "point_of_interest", "establishment"]}, "ChIJDyy-dLAbdkgRZb_rJfqIj3w": {"geometry": {"location": {"lat": 51.5218877, "lng": -0.1500989}, "viewport": {"northeast": {"lat": 51.5232514802915, "lng": -0.148664669708498}, "southwest": {"lat": 51.5205535197085, "lng": -0.151362630291502}}}, "name": "The Key Clinic", "place_id": "ChIJDyy-dLAbdkgRZb_rJfqIj3w", "types": ["health", "point_of_interest", "establishment"]}, "ChIJA2DrptEadkgR-AJMGBD2jGk": {"geometry": {"location": {"lat": 51.52191189999999, "lng": -0.1501105}, "viewport": {"northeast": {"lat": 51.52327573029149, "lng": -0.148675919708498}, "southwest": {"lat": 51.5205777697085, "lng": -0.151373880291502}}}, "name": "David Madruga", "place_id": "ChIJA2DrptEadkgR-AJMGBD2jGk", "types": ["dentist", "health", "point_of_interest", "establishment"]}, "ChIJA2DrptEadkgRnCFAWPE5iUE": {"geometry": {"location": {"lat": 51.52191189999999, "lng": -0.1501105}, "viewport": {"northeast": {"lat": 51.52327573029149, "lng": -0.148675919708498}, "southwest": {"lat": 51.5205777697085, "lng": -0.151373880291502}}}, "name": "Accupuncture", "place_id": "ChIJA2DrptEadkgRnCFAWPE5iUE", "types": ["doctor", "health", "point_of_interest", "establishment"]}, "ChIJCR9MltEadkgRHWXfV1oovpo": {"geometry": {"location": {"lat": 51.5211664, "lng": -0.1505806}, "viewport": {"northeast": {"lat": 51.5223876802915, "lng": -0.149227319708498}, "southwest": {"lat": 51.5196897197085, "lng": -0.151925280291502}}}, "name": "M H Miller Consultant Opthalmic Surgeon", "place_id": "ChIJCR9MltEadkgRHWXfV1oovpo", "types": ["doctor", "health", "point_of_interest", "establishment"]}, "ChIJd8ua0tYadkgR6WwsvKwLQTM": {"geometry": {"location": {"lat": 51.5211306, "lng": -0.1509532}, "viewport": {"northeast": {"lat": 51.52250858029149, "lng": -0.1496167697084979}, "southwest": {"lat": 51.5198106197085, "lng": -0.152314730291502}}}, "name": "Chargemaster Charging Station", "place_id": "ChIJd8ua0tYadkgR6WwsvKwLQTM", "types": ["point_of_interest", "establishment"]}, "ChIJU5A7KNIadkgR5tFtyM8hTPM": {"geometry": {"location": {"lat": 51.52009955005186, "lng": -0.1505146500476555}, "viewport": {"northeast": {"lat": 51.5214485302915, "lng": -0.149165669708498}, "southwest": {"lat": 51.5187505697085, "lng": -0.151863630291502}}}, "name": "46-42 Weymouth St", "place_id": "ChIJU5A7KNIadkgR5tFtyM8hTPM", "types": ["route"]}, "ChIJxzDFhNEadkgRfLwJRhLjAG8": {"geometry": {"location": {"lat": 51.5208573, "lng": -0.1503295}, "viewport": {"northeast": {"lat": 51.52242968029149, "lng": -0.148949269708498}, "southwest": {"lat": 51.5197317197085, "lng": -0.151647230291502}}}, "name": "King Edward VII's Hospital", "place_id": "ChIJxzDFhNEadkgRfLwJRhLjAG8", "types": ["hospital", "health", "point_of_interest", "establishment"], "rating": 4.1, "user_ratings_total": 56}, "ChIJ3YPS7NEadkgRSeiN2yB_tQs": {"geometry": {"location": {"lat": 51.52094719999999, "lng": -0.151432}, "viewport": {"northeast": {"lat": 51.5223736302915, "lng": -0.1500627197084979}, "southwest": {"lat": 51.5196756697085, "lng": -0.152760680291502}}}, "name": "UK FM/ME Clinics", "place_id": "ChIJ3YPS7NEadkgRSeiN2yB_tQs", "types": ["doctor", "health", "point_of_interest", "establishment"], "rating": 5, "user_ratings_total": 1}, "ChIJMV2eNdIadkgRsC2DdzkMpV0": {"geometry": {"location": {"lat": 51.52049, "lng": -0.1508991}, "viewport": {"northeast": {"lat": 51.52183813029149, "lng": -0.1496017197084979}, "southwest": {"lat": 51.51914016970849, "lng": -0.152299680291502}}}, "name": "Hoffman Partners", "place_id": "ChIJMV2eNdIadkgRsC2DdzkMpV0", "types": ["point_of_interest", "establishment"]}, "ChIJ5aMD89EadkgRGrQ3vxVQ7hk": {"geometry": {"location": {"lat": 51.52077099999999, "lng": -0.1509685}, "viewport": {"northeast": {"lat": 51.5221194802915, "lng": -0.149630469708498}, "southwest": {"lat": 51.5194215197085, "lng": -0.152328430291502}}}, "name": "Rosemary Goodenough", "place_id": "ChIJ5aMD89EadkgRGrQ3vxVQ7hk", "types": ["point_of_interest", "store", "establishment"]}, "ChIJS4XljdEadkgRBb_zvkjFO4U": {"geometry": {"location": {"lat": 51.52077099999999, "lng": -0.1509685}, "viewport": {"northeast": {"lat": 51.5221194802915, "lng": -0.149630469708498}, "southwest": {"lat": 51.5194215197085, "lng": -0.152328430291502}}}, "name": "H B Surveyors & Valuers", "place_id": "ChIJS4XljdEadkgRBb_zvkjFO4U", "types": ["point_of_interest", "establishment"]}, "ChIJ6eIAkNEadkgRNGABhTXXcDQ": {"geometry": {"location": {"lat": 51.5208383, "lng": -0.1505689}, "viewport": {"northeast": {"lat": 51.52218028029149, "lng": -0.149259969708498}, "southwest": {"lat": 51.51948231970849, "lng": -0.151957930291502}}}, "name": "Mr Robert Hensher", "place_id": "ChIJ6eIAkNEadkgRNGABhTXXcDQ", "types": ["doctor", "health", "point_of_interest", "establishment"]}, "ChIJiVPIhtEadkgRAw4JT0eCttY": {"geometry": {"location": {"lat": 51.52039499999999, "lng": -0.150222}, "viewport": {"northeast": {"lat": 51.52174398029149, "lng": -0.148873019708498}, "southwest": {"lat": 51.51904601970849, "lng": -0.151570980291502}}}, "name": "Michael Van Clarke", "place_id": "ChIJiVPIhtEadkgRAw4JT0eCttY", "types": ["hair_care", "point_of_interest", "establishment"], "rating": 4.4, "user_ratings_total": 47}, "ChIJe57ogNQadkgRWwsCu2w_4Cg": {"geometry": {"location": {"lat": 51.5207843, "lng": -0.1503277}, "viewport": {"northeast": {"lat": 51.5221798302915, "lng": -0.149074869708498}, "southwest": {"lat": 51.5194818697085, "lng": -0.151772830291502}}}, "name": "RefluxUK", "place_id": "ChIJe57ogNQadkgRWwsCu2w_4Cg", "types": ["doctor", "health", "point_of_interest", "establishment"]}, "ChIJkT1X7dEadkgRXy3LbmUUSpc": {"geometry": {"location": {"lat": 51.52083969999999, "lng": -0.1513318}, "viewport": {"northeast": {"lat": 51.52232408029149, "lng": -0.150037569708498}, "southwest": {"lat": 51.51962611970849, "lng": -0.152735530291502}}}, "name": "Mr Jig Patel", "place_id": "ChIJkT1X7dEadkgRXy3LbmUUSpc", "types": ["doctor", "health", "point_of_interest", "establishment"]}, "ChIJR4fQ3gQJdkgRJJsq73A--WI": {"geometry": {"location": {"lat": 51.5202387, "lng": -0.1511819}, "viewport": {"northeast": {"lat": 51.5214712802915, "lng": -0.149788719708498}, "southwest": {"lat": 51.5187733197085, "lng": -0.152486680291502}}}, "name": "Rick Miller", "place_id": "ChIJR4fQ3gQJdkgRJJsq73A--WI", "types": ["health", "point_of_interest", "establishment"], "rating": 5, "user_ratings_total": 73}, "ChIJV9Cv8tEadkgRLiGjX1hI_O4": {"geometry": {"location": {"lat": 51.5209221, "lng": -0.1513642}, "viewport": {"northeast": {"lat": 51.52236548029149, "lng": -0.150036169708498}, "southwest": {"lat": 51.51966751970849, "lng": -0.152734130291502}}}, "name": "London Hip Unit", "place_id": "ChIJV9Cv8tEadkgRLiGjX1hI_O4", "types": ["doctor", "health", "point_of_interest", "establishment"], "rating": 5, "user_ratings_total": 2}, "ChIJgXeek9EadkgRMAh_omhQdZc": {"geometry": {"location": {"lat": 51.521033, "lng": -0.151088}, "viewport": {"northeast": {"lat": 51.5224461302915, "lng": -0.149766619708498}, "southwest": {"lat": 51.5197481697085, "lng": -0.1524645802915021}}}, "name": "BCAS - British Compressed Air Society", "place_id": "ChIJgXeek9EadkgRMAh_omhQdZc", "types": ["point_of_interest", "establishment"], "rating": 4.7, "user_ratings_total": 3}, "ChIJj5Mm7dEadkgRa7eRLIPEajk": {"geometry": {"location": {"lat": 51.52098959999999, "lng": -0.151209}, "viewport": {"northeast": {"lat": 51.5224135802915, "lng": -0.1498922697084979}, "southwest": {"lat": 51.5197156197085, "lng": -0.152590230291502}}}, "name": "Ankle Foot Motion", "place_id": "ChIJj5Mm7dEadkgRa7eRLIPEajk", "types": ["doctor", "health", "point_of_interest", "establishment"], "rating": 5, "user_ratings_total": 1}, "ChIJxbU-7dEadkgRVQ3dFtlZ3_4": {"geometry": {"location": {"lat": 51.5209221, "lng": -0.1513641}, "viewport": {"northeast": {"lat": 51.52236553029149, "lng": -0.1500361197084979}, "southwest": {"lat": 51.5196675697085, "lng": -0.152734080291502}}}, "name": "Leading Interventional Oncology Network", "place_id": "ChIJxbU-7dEadkgRVQ3dFtlZ3_4", "types": ["point_of_interest", "establishment"]}, "ChIJ9b5Z7dEadkgR_trR34D-qJA": {"geometry": {"location": {"lat": 51.5209221, "lng": -0.1513642}, "viewport": {"northeast": {"lat": 51.52236548029149, "lng": -0.150036169708498}, "southwest": {"lat": 51.51966751970849, "lng": -0.152734130291502}}}, "name": "London Medical Consultants", "place_id": "ChIJ9b5Z7dEadkgR_trR34D-qJA", "types": ["health", "point_of_interest", "establishment"]}, "ChIJwdMiKc4adkgR5ZaCBlDLhYw": {"geometry": {"location": {"lat": 51.5209221, "lng": -0.1513642}, "viewport": {"northeast": {"lat": 51.52236548029149, "lng": -0.150036169708498}, "southwest": {"lat": 51.51966751970849, "lng": -0.152734130291502}}}, "name": "London Backs", "place_id": "ChIJwdMiKc4adkgR5ZaCBlDLhYw", "types": ["hospital", "doctor", "health", "point_of_interest", "establishment"]}, "ChIJMRHT7NEadkgRyoyQkl73_pw": {"geometry": {"location": {"lat": 51.5209221, "lng": -0.1513642}, "viewport": {"northeast": {"lat": 51.52236548029149, "lng": -0.150036169708498}, "southwest": {"lat": 51.51966751970849, "lng": -0.152734130291502}}}, "name": "Muirhead-Allwood S K", "place_id": "ChIJMRHT7NEadkgRyoyQkl73_pw", "types": ["doctor", "health", "point_of_interest", "establishment"], "rating": 5, "user_ratings_total": 1}, "ChIJB-EGk9EadkgRwT7XI1aShjE": {"geometry": {"location": {"lat": 51.5210302, "lng": -0.151082}, "viewport": {"northeast": {"lat": 51.5224450802915, "lng": -0.149761369708498}, "southwest": {"lat": 51.51974711970851, "lng": -0.152459330291502}}}, "name": "Lift & Escalator Industry Association", "place_id": "ChIJB-EGk9EadkgRwT7XI1aShjE", "types": ["point_of_interest", "establishment"], "rating": 3.3, "user_ratings_total": 3}, "ChIJMRHT7NEadkgRDGciUiOpQT4": {"geometry": {"location": {"lat": 51.5209236, "lng": -0.1513737}, "viewport": {"northeast": {"lat": 51.52236558029149, "lng": -0.150040269708498}, "southwest": {"lat": 51.51966761970849, "lng": -0.152738230291502}}}, "name": "All About Spines", "place_id": "ChIJMRHT7NEadkgRDGciUiOpQT4", "types": ["hospital", "health", "point_of_interest", "establishment"]}, "ChIJMRHT7NEadkgRU4vhWNM_tkE": {"geometry": {"location": {"lat": 51.5209252, "lng": -0.1513936}, "viewport": {"northeast": {"lat": 51.5223648802915, "lng": -0.150049219708498}, "southwest": {"lat": 51.5196669197085, "lng": -0.152747180291502}}}, "name": "Villar Bajwa Practice", "place_id": "ChIJMRHT7NEadkgRU4vhWNM_tkE", "types": ["doctor", "health", "point_of_interest", "establishment"], "rating": 4, "user_ratings_total": 4}, "ChIJk4fAktEadkgRySmaCJe1gCE": {"geometry": {"location": {"lat": 51.5209252, "lng": -0.1513936}, "viewport": {"northeast": {"lat": 51.5223648802915, "lng": -0.150049219708498}, "southwest": {"lat": 51.5196669197085, "lng": -0.152747180291502}}}, "name": "LFAC", "place_id": "ChIJk4fAktEadkgRySmaCJe1gCE", "types": ["hospital", "doctor", "health", "point_of_interest", "establishment"]}, "ChIJpYHtitEadkgRXhao70O_CPY": {"geometry": {"location": {"lat": 51.5201381, "lng": -0.1510617}, "viewport": {"northeast": {"lat": 51.52142723029151, "lng": -0.149688069708498}, "southwest": {"lat": 51.51872926970851, "lng": -0.152386030291502}}}, "name": "B C M Advertising", "place_id": "ChIJpYHtitEadkgRXhao70O_CPY", "types": ["point_of_interest", "establishment"]}, "ChIJ16CDINIadkgR61-EWFaHFys": {"geometry": {"location": {"lat": 51.5201511, "lng": -0.1511096}, "viewport": {"northeast": {"lat": 51.5214305302915, "lng": -0.1497319697084979}, "southwest": {"lat": 51.5187325697085, "lng": -0.152429930291502}}}, "name": "Rural Housing Trust", "place_id": "ChIJ16CDINIadkgR61-EWFaHFys", "types": ["point_of_interest", "establishment"]}, "ChIJUaxm4csadkgR2eJNPihOFZ4": {"geometry": {"location": {"lat": 51.5201381, "lng": -0.1510617}, "viewport": {"northeast": {"lat": 51.52142723029151, "lng": -0.149688069708498}, "southwest": {"lat": 51.51872926970851, "lng": -0.152386030291502}}}, "name": "LondonAndProperty.com", "place_id": "ChIJUaxm4csadkgR2eJNPihOFZ4", "types": ["real_estate_agency", "point_of_interest", "establishment"]}, "ChIJnXUU8tEadkgRLf6xxwqZ-aY": {"geometry": {"location": {"lat": 51.52076199999999, "lng": -0.1515854}, "viewport": {"northeast": {"lat": 51.52209898029149, "lng": -0.150368619708498}, "southwest": {"lat": 51.51940101970849, "lng": -0.153066580291502}}}, "name": "Pierre Marcolini", "place_id": "ChIJnXUU8tEadkgRLf6xxwqZ-aY", "types": ["food", "point_of_interest", "store", "establishment"], "rating": 4.3, "user_ratings_total": 78}, "ChIJ_f_bB9EadkgRyOg-jp4yn4s": {"geometry": {"location": {"lat": 51.5209844, "lng": -0.1513251}, "viewport": {"northeast": {"lat": 51.5224017802915, "lng": -0.150005419708498}, "southwest": {"lat": 51.5197038197085, "lng": -0.152703380291502}}}, "name": "Mr Reza Mobasheri", "place_id": "ChIJ_f_bB9EadkgRyOg-jp4yn4s", "types": ["doctor", "health", "point_of_interest", "establishment"]}, "ChIJk5Hp7NEadkgR_hpI4hAB7RY": {"geometry": {"location": {"lat": 51.52094719999999, "lng": -0.151432}, "viewport": {"northeast": {"lat": 51.5223736302915, "lng": -0.1500627197084979}, "southwest": {"lat": 51.5196756697085, "lng": -0.152760680291502}}}, "name": "The Women's Health Partnership", "place_id": "ChIJk5Hp7NEadkgR_hpI4hAB7RY", "types": ["doctor", "health", "point_of_interest", "establishment"]}, "ChIJ9b5Z7dEadkgRG-kNdUh_qmE": {"geometry": {"location": {"lat": 51.52094719999999, "lng": -0.151432}, "viewport": {"northeast": {"lat": 51.5223736302915, "lng": -0.1500627197084979}, "southwest": {"lat": 51.5196756697085, "lng": -0.152760680291502}}}, "name": "The Centre for Physical Medicine", "place_id": "ChIJ9b5Z7dEadkgRG-kNdUh_qmE", "types": ["physiotherapist", "health", "point_of_interest", "establishment"]}, "ChIJw-Yz7NEadkgRT_KM4hIZEFk": {"geometry": {"location": {"lat": 51.5208573, "lng": -0.1503295}, "viewport": {"northeast": {"lat": 51.5222138302915, "lng": -0.1490911197084979}, "southwest": {"lat": 51.5195158697085, "lng": -0.151789080291502}}}, "name": "London Orthopaedic Clinic", "place_id": "ChIJw-Yz7NEadkgRT_KM4hIZEFk", "types": ["health", "point_of_interest", "establishment"], "rating": 4.2, "user_ratings_total": 17}, "ChIJL2EFktEadkgRKbyRQnD7IUE": {"geometry": {"location": {"lat": 51.5210954, "lng": -0.1508381}, "viewport": {"northeast": {"lat": 51.5224988302915, "lng": -0.149512569708498}, "southwest": {"lat": 51.5198008697085, "lng": -0.152210530291502}}}, "name": "Welbeck Pharmacy", "place_id": "ChIJL2EFktEadkgRKbyRQnD7IUE", "types": ["pharmacy", "health", "point_of_interest", "store", "establishment"], "rating": 4.4, "user_ratings_total": 37}, "ChIJi3kwiNEadkgR2PV8xwxW0TY": {"geometry": {"location": {"lat": 51.5202319, "lng": -0.1505428}, "viewport": {"northeast": {"lat": 51.5215173802915, "lng": -0.149164669708498}, "southwest": {"lat": 51.5188194197085, "lng": -0.1518626302915021}}}, "name": "Weymouth Street Hospital", "place_id": "ChIJi3kwiNEadkgR2PV8xwxW0TY", "types": ["hospital", "health", "point_of_interest", "establishment"], "rating": 4.1, "user_ratings_total": 39}, "ChIJA6effT4FdkgRFEQlib0biXQ": {"geometry": {"location": {"lat": 51.5207843, "lng": -0.1503277}, "viewport": {"northeast": {"lat": 51.5221798302915, "lng": -0.149074869708498}, "southwest": {"lat": 51.5194818697085, "lng": -0.151772830291502}}}, "name": "Dr Mark Bushnell", "place_id": "ChIJA6effT4FdkgRFEQlib0biXQ", "types": ["doctor", "health", "point_of_interest", "establishment"], "rating": 4.4, "user_ratings_total": 7}, "ChIJsYUp99EadkgR-NApoUa6TBQ": {"geometry": {"location": {"lat": 51.52048199999999, "lng": -0.151568}, "viewport": {"northeast": {"lat": 51.52182373029149, "lng": -0.150360269708498}, "southwest": {"lat": 51.51912576970849, "lng": -0.153058230291502}}}, "name": "Bar Exchange Ltd", "place_id": "ChIJsYUp99EadkgR-NApoUa6TBQ", "types": ["point_of_interest", "establishment"]}, "ChIJG8o0CtEbdkgREUCBmyE1z_M": {"geometry": {"location": {"lat": 51.5206196, "lng": -0.1506946}, "viewport": {"northeast": {"lat": 51.5219875302915, "lng": -0.149237269708498}, "southwest": {"lat": 51.5192895697085, "lng": -0.151935230291502}}}, "name": "Pera Bookkeeping", "place_id": "ChIJG8o0CtEbdkgREUCBmyE1z_M", "types": ["accounting", "finance", "point_of_interest", "establishment"]}, "ChIJGQt4j9EadkgR1LlkFo6gjPw": {"geometry": {"location": {"lat": 51.52066, "lng": -0.1506385}, "viewport": {"northeast": {"lat": 51.5220295302915, "lng": -0.1492190697084979}, "southwest": {"lat": 51.5193315697085, "lng": -0.151917030291502}}}, "name": "Macintosh House", "place_id": "ChIJGQt4j9EadkgR1LlkFo6gjPw", "types": ["point_of_interest", "establishment"], "rating": 5, "user_ratings_total": 1}, "ChIJrdKt3x0bdkgRFL1f-_uO8ZI": {"geometry": {"location": {"lat": 51.52077099999999, "lng": -0.1509685}, "viewport": {"northeast": {"lat": 51.5221194802915, "lng": -0.149630469708498}, "southwest": {"lat": 51.5194215197085, "lng": -0.152328430291502}}}, "name": "AMP Athletic", "place_id": "ChIJrdKt3x0bdkgRFL1f-_uO8ZI", "types": ["gym", "health", "point_of_interest", "establishment"], "rating": 5, "user_ratings_total": 19}, "ChIJVR4jhdEadkgRPZYzQrY-Kmg": {"geometry": {"location": {"lat": 51.520754, "lng": -0.150413}, "viewport": {"northeast": {"lat": 51.5220941802915, "lng": -0.149114269708498}, "southwest": {"lat": 51.5193962197085, "lng": -0.151812230291502}}}, "name": "Sonja Cerovac", "place_id": "ChIJVR4jhdEadkgRPZYzQrY-Kmg", "types": ["doctor", "health", "point_of_interest", "establishment"]}, "ChIJndn1YEgUdkgRfjJXy8NP1Es": {"geometry": {"location": {"lat": 51.5208575, "lng": -0.1505591}, "viewport": {"northeast": {"lat": 51.5221972302915, "lng": -0.149263069708498}, "southwest": {"lat": 51.5194992697085, "lng": -0.151961030291502}}}, "name": "TOM J QUICK", "place_id": "ChIJndn1YEgUdkgRfjJXy8NP1Es", "types": ["doctor", "health", "point_of_interest", "establishment"]}, "ChIJRwv7htEadkgRFjVdb7J8Suw": {"geometry": {"location": {"lat": 51.5206577, "lng": -0.1503503}, "viewport": {"northeast": {"lat": 51.5221229802915, "lng": -0.149060519708498}, "southwest": {"lat": 51.5194250197085, "lng": -0.151758480291502}}}, "name": "Consultant Surgeon Breast Endocrine & Oncology", "place_id": "ChIJRwv7htEadkgRFjVdb7J8Suw", "types": ["doctor", "health", "point_of_interest", "establishment"]}, "ChIJR-RRwqgbdkgR4zfHtNaUPlE": {"geometry": {"location": {"lat": 51.5205951, "lng": -0.150322}, "viewport": {"northeast": {"lat": 51.5219337302915, "lng": -0.149032219708498}, "southwest": {"lat": 51.51923576970851, "lng": -0.151730180291502}}}, "name": "John Richard Green Blue Plaque", "place_id": "ChIJR-RRwqgbdkgR4zfHtNaUPlE", "types": ["point_of_interest", "establishment"], "rating": 4, "user_ratings_total": 1}, "ChIJHfzpedEadkgRXp-yD5AnH9M": {"geometry": {"location": {"lat": 51.52091259999999, "lng": -0.1504377}, "viewport": {"northeast": {"lat": 51.52224898029149, "lng": -0.149160719708498}, "southwest": {"lat": 51.51955101970849, "lng": -0.151858680291502}}}, "name": "TBA PRACTICE", "place_id": "ChIJHfzpedEadkgRXp-yD5AnH9M", "types": ["health", "point_of_interest", "establishment"]}, "ChIJR9oiGSsbdkgRYagOgdIPJ9g": {"geometry": {"location": {"lat": 51.5207843, "lng": -0.1503277}, "viewport": {"northeast": {"lat": 51.5221164802915, "lng": -0.149074869708498}, "southwest": {"lat": 51.5194185197085, "lng": -0.151772830291502}}}, "name": "Mr Roland Morley", "place_id": "ChIJR9oiGSsbdkgRYagOgdIPJ9g", "types": ["hospital", "health", "point_of_interest", "establishment"]}, "ChIJPVxTDXkbdkgRSJm871qGI_s": {"geometry": {"location": {"lat": 51.5207843, "lng": -0.1503277}, "viewport": {"northeast": {"lat": 51.5221164802915, "lng": -0.149074869708498}, "southwest": {"lat": 51.5194185197085, "lng": -0.151772830291502}}}, "name": "Miss Judith Hunter", "place_id": "ChIJPVxTDXkbdkgRSJm871qGI_s", "types": ["hospital", "health", "point_of_interest", "establishment"]}, "ChIJLUtPdGcbdkgRuRcwOrcCkVo": {"geometry": {"location": {"lat": 51.5207843, "lng": -0.1503277}, "viewport": {"northeast": {"lat": 51.5221798302915, "lng": -0.149074869708498}, "southwest": {"lat": 51.5194818697085, "lng": -0.151772830291502}}}, "name": "Professor Richard Cohen", "place_id": "ChIJLUtPdGcbdkgRuRcwOrcCkVo", "types": ["hospital", "health", "point_of_interest", "establishment"]}, "ChIJn4WRsjgbdkgROJPe7AFaawg": {"geometry": {"location": {"lat": 51.5207843, "lng": -0.1503277}, "viewport": {"northeast": {"lat": 51.5221798302915, "lng": -0.149074869708498}, "southwest": {"lat": 51.5194818697085, "lng": -0.151772830291502}}}, "name": "Opus Biological", "place_id": "ChIJn4WRsjgbdkgROJPe7AFaawg", "types": ["hospital", "health", "point_of_interest", "establishment"]}, "ChIJr3dagIQbdkgRE_hKWISq7RM": {"geometry": {"location": {"lat": 51.5207843, "lng": -0.1503277}, "viewport": {"northeast": {"lat": 51.5221798302915, "lng": -0.149074869708498}, "southwest": {"lat": 51.5194818697085, "lng": -0.151772830291502}}}, "name": "Mr Robert Marston MBBS BSc. FRCS FRCS(ORTHO)", "place_id": "ChIJr3dagIQbdkgRE_hKWISq7RM", "types": ["doctor", "health", "point_of_interest", "establishment"]}, "ChIJiWvKo1wbdkgRehv4FIhKJk8": {"geometry": {"location": {"lat": 51.5207843, "lng": -0.1503277}, "viewport": {"northeast": {"lat": 51.5221798302915, "lng": -0.149074869708498}, "southwest": {"lat": 51.5194818697085, "lng": -0.151772830291502}}}, "name": "Professor Chris Bunker", "place_id": "ChIJiWvKo1wbdkgRehv4FIhKJk8", "types": ["hospital", "health", "point_of_interest", "establishment"]}, "ChIJVVXFhNEadkgRGYic7PrUPGs": {"geometry": {"location": {"lat": 51.5207843, "lng": -0.1503277}, "viewport": {"northeast": {"lat": 51.5221798302915, "lng": -0.149074869708498}, "southwest": {"lat": 51.5194818697085, "lng": -0.151772830291502}}}, "name": "Dr. Patrick Kennedy", "place_id": "ChIJVVXFhNEadkgRGYic7PrUPGs", "types": ["doctor", "health", "point_of_interest", "establishment"]}, "ChIJx87CFG4bdkgRV3cpbgIe-MY": {"geometry": {"location": {"lat": 51.5207843, "lng": -0.1503277}, "viewport": {"northeast": {"lat": 51.5221798302915, "lng": -0.149074869708498}, "southwest": {"lat": 51.5194818697085, "lng": -0.151772830291502}}}, "name": "Grosvenor Orthopaedic Partners", "place_id": "ChIJx87CFG4bdkgRV3cpbgIe-MY", "types": ["health", "point_of_interest", "establishment"]}, "ChIJV50Cq30bdkgRDYCoL9tVb_w": {"geometry": {"location": {"lat": 51.5207843, "lng": -0.1503277}, "viewport": {"northeast": {"lat": 51.5221798302915, "lng": -0.149074869708498}, "southwest": {"lat": 51.5194818697085, "lng": -0.151772830291502}}}, "name": "Ahmad Aziz", "place_id": "ChIJV50Cq30bdkgRDYCoL9tVb_w", "types": ["doctor", "health", "point_of_interest", "establishment"], "rating": 5, "user_ratings_total": 2}, "ChIJJbjSLkYbdkgRKKzKS_0Qio4": {"geometry": {"location": {"lat": 51.5207843, "lng": -0.1503277}, "viewport": {"northeast": {"lat": 51.5221798302915, "lng": -0.149074869708498}, "southwest": {"lat": 51.5194818697085, "lng": -0.151772830291502}}}, "name": "The OrthoBiologics Clinic", "place_id": "ChIJJbjSLkYbdkgRKKzKS_0Qio4", "types": ["health", "point_of_interest", "establishment"], "rating": 5, "user_ratings_total": 3}, "ChIJ_R2tyFAxcEERBkd-hD-RD9M": {"geometry": {"location": {"lat": 51.5207843, "lng": -0.1503277}, "viewport": {"northeast": {"lat": 51.5221798302915, "lng": -0.149074869708498}, "southwest": {"lat": 51.5194818697085, "lng": -0.151772830291502}}}, "name": "The Harley Street Nose Clinic", "place_id": "ChIJ_R2tyFAxcEERBkd-hD-RD9M", "types": ["doctor", "health", "point_of_interest", "establishment"], "rating": 4.7, "user_ratings_total": 20}, "ChIJV1XFhNEadkgRMl7oHsdAkdQ": {"geometry": {"location": {"lat": 51.5207843, "lng": -0.1503276}, "viewport": {"northeast": {"lat": 51.5221798302915, "lng": -0.149074819708498}, "southwest": {"lat": 51.5194818697085, "lng": -0.151772780291502}}}, "name": "MR JAMES KINROSS PHD FRCS", "place_id": "ChIJV1XFhNEadkgRMl7oHsdAkdQ", "types": ["doctor", "health", "point_of_interest", "establishment"]}, "ChIJzUnkHxsbdkgRagRZuBmLNww": {"geometry": {"location": {"lat": 51.5202707, "lng": -0.1505319}, "viewport": {"northeast": {"lat": 51.5215391302915, "lng": -0.149145919708498}, "southwest": {"lat": 51.5188411697085, "lng": -0.151843880291502}}}, "name": "Juicy Consultant", "place_id": "ChIJzUnkHxsbdkgRagRZuBmLNww", "types": ["point_of_interest", "establishment"]}, "ChIJzxgnJ14bdkgRALcpm6Sltvg": {"geometry": {"location": {"lat": 51.5202707, "lng": -0.1505319}, "viewport": {"northeast": {"lat": 51.5215391302915, "lng": -0.149145919708498}, "southwest": {"lat": 51.5188411697085, "lng": -0.151843880291502}}}, "name": "Chethan Jayadev, Knee & Hip Surgeon", "place_id": "ChIJzxgnJ14bdkgRALcpm6Sltvg", "types": ["hospital", "health", "point_of_interest", "establishment"]}, "ChIJ8TVvcPEbdkgRqI5hf84LtcU": {"geometry": {"location": {"lat": 51.5202707, "lng": -0.1505319}, "viewport": {"northeast": {"lat": 51.5215391302915, "lng": -0.149145919708498}, "southwest": {"lat": 51.5188411697085, "lng": -0.151843880291502}}}, "name": "Mr David Crawford (at Weymouth Street)", "place_id": "ChIJ8TVvcPEbdkgRqI5hf84LtcU", "types": ["doctor", "health", "point_of_interest", "establishment"]}, "ChIJFybwov0bdkgRNZ8F1HjW5II": {"geometry": {"location": {"lat": 51.5202707, "lng": -0.1505319}, "viewport": {"northeast": {"lat": 51.5215391302915, "lng": -0.149145919708498}, "southwest": {"lat": 51.5188411697085, "lng": -0.151843880291502}}}, "name": "Mr. Tan Arulampalam", "place_id": "ChIJFybwov0bdkgRNZ8F1HjW5II", "types": ["doctor", "health", "point_of_interest", "establishment"]}, "ChIJ7b5Z7dEadkgRje4fXHZJpGU": {"geometry": {"location": {"lat": 51.5208388, "lng": -0.1513462}, "viewport": {"northeast": {"lat": 51.5223224802915, "lng": -0.1500444697084979}, "southwest": {"lat": 51.5196245197085, "lng": -0.152742430291502}}}, "name": "London Oral & Maxillofacial Surgeons", "place_id": "ChIJ7b5Z7dEadkgRje4fXHZJpGU", "types": ["health", "point_of_interest", "establishment"], "rating": 5, "user_ratings_total": 1}, "ChIJM6UQJ9IadkgR65lIm2gRp2E": {"geometry": {"location": {"lat": 51.52005348093734, "lng": -0.1507913922455008}, "viewport": {"northeast": {"lat": 51.5214024802915, "lng": -0.1494424197084979}, "southwest": {"lat": 51.51870451970851, "lng": -0.152140380291502}}}, "name": "52-48 Weymouth St", "place_id": "ChIJM6UQJ9IadkgR65lIm2gRp2E", "types": ["route"]}, "ChIJtSEFH9IadkgRoB_qpO0jkKQ": {"geometry": {"location": {"lat": 51.5198855, "lng": -0.151153}, "viewport": {"northeast": {"lat": 51.5212890302915, "lng": -0.149809869708498}, "southwest": {"lat": 51.5185910697085, "lng": -0.152507830291502}}}, "name": "Trilogy Stores", "place_id": "ChIJtSEFH9IadkgRoB_qpO0jkKQ", "types": ["clothing_store", "point_of_interest", "store", "establishment"]}, "ChIJWxbNLdIadkgR8zefrLvBPmI": {"geometry": {"location": {"lat": 51.5196539, "lng": -0.150181}, "viewport": {"northeast": {"lat": 51.5210189302915, "lng": -0.148745069708498}, "southwest": {"lat": 51.5183209697085, "lng": -0.151443030291502}}}, "name": "The Kings Head", "place_id": "ChIJWxbNLdIadkgR8zefrLvBPmI", "types": ["bar", "restaurant", "food", "point_of_interest", "establishment"], "rating": 4.3, "user_ratings_total": 168}, "ChIJ60XLJtIadkgR8ZOO-dqzUQk": {"geometry": {"location": {"lat": 51.51992019999999, "lng": -0.1509112}, "viewport": {"northeast": {"lat": 51.5213228302915, "lng": -0.149584119708498}, "southwest": {"lat": 51.5186248697085, "lng": -0.152282080291502}}}, "name": "Druce & Co", "place_id": "ChIJ60XLJtIadkgR8ZOO-dqzUQk", "types": ["point_of_interest", "establishment"], "rating": 4.8, "user_ratings_total": 12}, "ChIJ97OZJNIadkgRX6Vkcvm0Ur4": {"geometry": {"location": {"lat": 51.51960400000001, "lng": -0.1508803}, "viewport": {"northeast": {"lat": 51.52094963029151, "lng": -0.149586019708498}, "southwest": {"lat": 51.51825166970851, "lng": -0.152283980291502}}}, "name": "Hair by The Collective", "place_id": "ChIJ97OZJNIadkgRX6Vkcvm0Ur4", "types": ["hair_care", "point_of_interest", "establishment"], "rating": 5, "user_ratings_total": 34}, "ChIJp7mcJtIadkgRunngNrdzzXE": {"geometry": {"location": {"lat": 51.5198554, "lng": -0.150786}, "viewport": {"northeast": {"lat": 51.5212977802915, "lng": -0.149475319708498}, "southwest": {"lat": 51.51859981970851, "lng": -0.152173280291502}}}, "name": "BloomStone", "place_id": "ChIJp7mcJtIadkgRunngNrdzzXE", "types": ["finance", "point_of_interest", "establishment"]}, "ChIJjUEIHc4adkgRiijmqpceRt0": {"geometry": {"location": {"lat": 51.5192844, "lng": -0.1514391}, "viewport": {"northeast": {"lat": 51.52062658029151, "lng": -0.150217169708498}, "southwest": {"lat": 51.51792861970851, "lng": -0.152915130291502}}}, "name": "Vigo Group", "place_id": "ChIJjUEIHc4adkgRiijmqpceRt0", "types": ["finance", "point_of_interest", "establishment"]}, "ChIJVcUMLdIadkgR4UMOTjvLnYA": {"geometry": {"location": {"lat": 51.51947570000001, "lng": -0.1501305}, "viewport": {"northeast": {"lat": 51.5208444302915, "lng": -0.148678369708498}, "southwest": {"lat": 51.5181464697085, "lng": -0.151376330291502}}}, "name": "West Moreland Street London", "place_id": "ChIJVcUMLdIadkgR4UMOTjvLnYA", "types": ["hospital", "health", "point_of_interest", "establishment"]}, "ChIJ0Q7yJtIadkgR8nxH9FPFdWQ": {"geometry": {"location": {"lat": 51.5199385, "lng": -0.1507813}, "viewport": {"northeast": {"lat": 51.52134218029149, "lng": -0.149454769708498}, "southwest": {"lat": 51.5186442197085, "lng": -0.152152730291502}}}, "name": "Anglo-Italian Company", "place_id": "ChIJ0Q7yJtIadkgR8nxH9FPFdWQ", "types": ["clothing_store", "point_of_interest", "store", "establishment"], "rating": 4.9, "user_ratings_total": 32}, "ChIJiWTcGtIadkgRuMeJUlU6fzU": {"geometry": {"location": {"lat": 51.51957449999999, "lng": -0.1515796}, "viewport": {"northeast": {"lat": 51.5209193802915, "lng": -0.1503077697084979}, "southwest": {"lat": 51.5182214197085, "lng": -0.153005730291502}}}, "name": "Wolford Marylebone", "place_id": "ChIJiWTcGtIadkgRuMeJUlU6fzU", "types": ["point_of_interest", "clothing_store", "store", "establishment"], "rating": 4.3, "user_ratings_total": 10}, "ChIJxzPbFtIadkgR0T-djSs4SxU": {"geometry": {"location": {"lat": 51.5193071, "lng": -0.1515532}, "viewport": {"northeast": {"lat": 51.5206522302915, "lng": -0.150276169708498}, "southwest": {"lat": 51.5179542697085, "lng": -0.152974130291502}}}, "name": "Caroline Gardner", "place_id": "ChIJxzPbFtIadkgR0T-djSs4SxU", "types": ["point_of_interest", "store", "establishment"], "rating": 4.8, "user_ratings_total": 12}, "ChIJRzIzMtIadkgRwADi_naI9vI": {"geometry": {"location": {"lat": 51.51934809999999, "lng": -0.1501213}, "viewport": {"northeast": {"lat": 51.5206489802915, "lng": -0.148752519708498}, "southwest": {"lat": 51.51795101970851, "lng": -0.151450480291502}}}, "name": "CrossENHANCE", "place_id": "ChIJRzIzMtIadkgRwADi_naI9vI", "types": ["point_of_interest", "establishment"]}, "ChIJRZPzE9IadkgROxTQ-CLHk5I": {"geometry": {"location": {"lat": 51.51915820000001, "lng": -0.1514253}, "viewport": {"northeast": {"lat": 51.5205153302915, "lng": -0.150203069708498}, "southwest": {"lat": 51.5178173697085, "lng": -0.152901030291502}}}, "name": "Claudie Pierlot", "place_id": "ChIJRZPzE9IadkgROxTQ-CLHk5I", "types": ["point_of_interest", "clothing_store", "store", "establishment"], "rating": 2.3, "user_ratings_total": 3}, "ChIJne0UONIadkgRTyDOLTE3YRM": {"geometry": {"location": {"lat": 51.5189785, "lng": -0.1507518}, "viewport": {"northeast": {"lat": 51.5202190802915, "lng": -0.149355719708498}, "southwest": {"lat": 51.5175211197085, "lng": -0.1520536802915021}}}, "name": "Zadah", "place_id": "ChIJne0UONIadkgRTyDOLTE3YRM", "types": ["home_goods_store", "point_of_interest", "store", "establishment"]}, "ChIJZbaCGdIadkgRI15k07R2iFs": {"geometry": {"location": {"lat": 51.5196791, "lng": -0.1515915}, "viewport": {"northeast": {"lat": 51.52103598029149, "lng": -0.150322019708498}, "southwest": {"lat": 51.5183380197085, "lng": -0.153019980291502}}}, "name": "Cancer Research UK", "place_id": "ChIJZbaCGdIadkgRI15k07R2iFs", "types": ["home_goods_store", "point_of_interest", "clothing_store", "store", "establishment"], "rating": 3.9, "user_ratings_total": 20}, "ChIJ80tkGdIadkgRifi80pR9Fiw": {"geometry": {"location": {"lat": 51.5197301, "lng": -0.1515979}, "viewport": {"northeast": {"lat": 51.52107488029149, "lng": -0.150327669708498}, "southwest": {"lat": 51.51837691970849, "lng": -0.153025630291502}}}, "name": "Slowear Venezia | London Marylebone", "place_id": "ChIJ80tkGdIadkgRifi80pR9Fiw", "types": ["point_of_interest", "clothing_store", "store", "establishment"], "rating": 4.8, "user_ratings_total": 13}, "ChIJlRhEH9IadkgR9Eq1TlKoLG8": {"geometry": {"location": {"lat": 51.51986369999999, "lng": -0.1514591}, "viewport": {"northeast": {"lat": 51.5212745302915, "lng": -0.150115519708498}, "southwest": {"lat": 51.5185765697085, "lng": -0.152813480291502}}}, "name": "Sushi Shop", "place_id": "ChIJlRhEH9IadkgR9Eq1TlKoLG8", "types": ["restaurant", "food", "point_of_interest", "establishment"], "rating": 3.7, "user_ratings_total": 198}, "ChIJrYvsGdIadkgRxyl2TWnaT70": {"geometry": {"location": {"lat": 51.5196073, "lng": -0.1514733}, "viewport": {"northeast": {"lat": 51.5209492302915, "lng": -0.150256469708498}, "southwest": {"lat": 51.5182512697085, "lng": -0.152954430291502}}}, "name": "Ortigia", "place_id": "ChIJrYvsGdIadkgRxyl2TWnaT70", "types": ["point_of_interest", "clothing_store", "store", "establishment"], "rating": 4.6, "user_ratings_total": 8}, "ChIJ0R1pJdIadkgRpxsPoYUNxZI": {"geometry": {"location": {"lat": 51.51961390000001, "lng": -0.1508545}, "viewport": {"northeast": {"lat": 51.5209886802915, "lng": -0.149317969708498}, "southwest": {"lat": 51.5182907197085, "lng": -0.152015930291502}}}, "name": "Challenge Circles", "place_id": "ChIJ0R1pJdIadkgRpxsPoYUNxZI", "types": ["point_of_interest", "establishment"]}, "ChIJ__9PJNIadkgRmVT1i4t0BpM": {"geometry": {"location": {"lat": 51.519716, "lng": -0.1507817}, "viewport": {"northeast": {"lat": 51.5212241802915, "lng": -0.149497719708498}, "southwest": {"lat": 51.5185262197085, "lng": -0.152195680291502}}}, "name": "UpTick Technology, LLC.", "place_id": "ChIJ__9PJNIadkgRmVT1i4t0BpM", "types": ["point_of_interest", "establishment"]}, "ChIJU9kzOtIadkgRZoAfxULJYmk": {"geometry": {"location": {"lat": 51.5192373, "lng": -0.1507115}, "viewport": {"northeast": {"lat": 51.5205461802915, "lng": -0.149346169708498}, "southwest": {"lat": 51.5178482197085, "lng": -0.152044130291502}}}, "name": "W1 Psychotherapy", "place_id": "ChIJU9kzOtIadkgRZoAfxULJYmk", "types": ["health", "point_of_interest", "establishment"]}, "ChIJ1-pCItIadkgRbAOjV8Tf2sI": {"geometry": {"location": {"lat": 51.5197665, "lng": -0.1512534}, "viewport": {"northeast": {"lat": 51.5211226302915, "lng": -0.149787019708498}, "southwest": {"lat": 51.5184246697085, "lng": -0.152484980291502}}}, "name": "Bucknull & Masson International Media Marketing & Research", "place_id": "ChIJ1-pCItIadkgRbAOjV8Tf2sI", "types": ["point_of_interest", "establishment"]}, "ChIJ7SE4CWkbdkgRggF-Ydz5ZMM": {"geometry": {"location": {"lat": 51.51938029999999, "lng": -0.151507}, "viewport": {"northeast": {"lat": 51.52072598029149, "lng": -0.150258219708498}, "southwest": {"lat": 51.5180280197085, "lng": -0.152956180291502}}}, "name": "Monsoon", "place_id": "ChIJ7SE4CWkbdkgRggF-Ydz5ZMM", "types": ["point_of_interest", "clothing_store", "store", "establishment"], "rating": 4, "user_ratings_total": 4}, "ChIJWRKSGdIadkgRd7P9-1t6NX4": {"geometry": {"location": {"lat": 51.51960039999999, "lng": -0.1515115}, "viewport": {"northeast": {"lat": 51.5209433802915, "lng": -0.150275269708498}, "southwest": {"lat": 51.5182454197085, "lng": -0.152973230291502}}}, "name": "Earthworks", "place_id": "ChIJWRKSGdIadkgRd7P9-1t6NX4", "types": ["point_of_interest", "establishment"]}, "ChIJV88Vs9IbdkgRbdDoKXkt2fU": {"geometry": {"location": {"lat": 51.51960039999999, "lng": -0.1515116}, "viewport": {"northeast": {"lat": 51.5209433802915, "lng": -0.1502753197084979}, "southwest": {"lat": 51.5182454197085, "lng": -0.152973280291502}}}, "name": "Sublime Nuru Massage Marylebone", "place_id": "ChIJV88Vs9IbdkgRbdDoKXkt2fU", "types": ["spa", "point_of_interest", "establishment"]}, "ChIJlexnF9IadkgR5RU8M2-bW9c": {"geometry": {"location": {"lat": 51.51947329999999, "lng": -0.1515579}, "viewport": {"northeast": {"lat": 51.52081793029149, "lng": -0.150289919708498}, "southwest": {"lat": 51.51811996970849, "lng": -0.152987880291502}}}, "name": "Shockcart", "place_id": "ChIJlexnF9IadkgR5RU8M2-bW9c", "types": ["point_of_interest", "establishment"], "rating": 1, "user_ratings_total": 41}, "ChIJ_QxaAqQFdkgRufiSOyG4h7Y": {"geometry": {"location": {"lat": 51.51947329999999, "lng": -0.1515579}, "viewport": {"northeast": {"lat": 51.52081793029149, "lng": -0.150289919708498}, "southwest": {"lat": 51.51811996970849, "lng": -0.152987880291502}}}, "name": "Minal -FMskin", "place_id": "ChIJ_QxaAqQFdkgRufiSOyG4h7Y", "types": ["health", "point_of_interest", "establishment"], "rating": 5, "user_ratings_total": 2}, "ChIJjcd-F9IadkgR6FR-i23FSns": {"geometry": {"location": {"lat": 51.5194558, "lng": -0.1515644}, "viewport": {"northeast": {"lat": 51.5208126302915, "lng": -0.150293069708498}, "southwest": {"lat": 51.5181146697085, "lng": -0.152991030291502}}}, "name": "Madesil Pharmacie", "place_id": "ChIJjcd-F9IadkgR6FR-i23FSns", "types": ["pharmacy", "health", "point_of_interest", "store", "establishment"], "rating": 4.7, "user_ratings_total": 14}, "ChIJ1S0tEkAbdkgR27BeWzu3zjU": {"geometry": {"location": {"lat": 51.51963509999999, "lng": -0.1501649}, "viewport": {"northeast": {"lat": 51.52099953029149, "lng": -0.148732219708498}, "southwest": {"lat": 51.51830156970849, "lng": -0.151430180291502}}}, "name": "Charles Wesley Blue Plaque", "place_id": "ChIJ1S0tEkAbdkgR27BeWzu3zjU", "types": ["point_of_interest", "establishment"], "rating": 4, "user_ratings_total": 1}, "ChIJjcd-F9IadkgR1gTIDgZWwnQ": {"geometry": {"location": {"lat": 51.5195251, "lng": -0.1515731}, "viewport": {"northeast": {"lat": 51.5208472802915, "lng": -0.150298519708498}, "southwest": {"lat": 51.5181493197085, "lng": -0.152996480291502}}}, "name": "Gerard Darel", "place_id": "ChIJjcd-F9IadkgR1gTIDgZWwnQ", "types": ["point_of_interest", "clothing_store", "store", "establishment"], "rating": 5, "user_ratings_total": 2}, "ChIJA-1dN9IadkgR1IEfUd9xP5k": {"geometry": {"location": {"lat": 51.51908100000001, "lng": -0.150524}, "viewport": {"northeast": {"lat": 51.5204772302915, "lng": -0.149194319708498}, "southwest": {"lat": 51.51777926970851, "lng": -0.151892280291502}}}, "name": "Andrew Gasson", "place_id": "ChIJA-1dN9IadkgR1IEfUd9xP5k", "types": ["health", "point_of_interest", "store", "establishment"], "rating": 5, "user_ratings_total": 2}, "ChIJSbW15hobdkgRiF5s9k62SGE": {"geometry": {"location": {"lat": 51.51987099999999, "lng": -0.1513085}, "viewport": {"northeast": {"lat": 51.5212796302915, "lng": -0.149963969708498}, "southwest": {"lat": 51.5185816697085, "lng": -0.152661930291502}}}, "name": "London House", "place_id": "ChIJSbW15hobdkgRiF5s9k62SGE", "types": ["point_of_interest", "establishment"]}, "ChIJ85OTFtIadkgR9jYZXMR7_hk": {"geometry": {"location": {"lat": 51.519257, "lng": -0.151535}, "viewport": {"northeast": {"lat": 51.5206018302915, "lng": -0.150263569708498}, "southwest": {"lat": 51.5179038697085, "lng": -0.152961530291502}}}, "name": "ANNA Inspiring Jewellery", "place_id": "ChIJ85OTFtIadkgR9jYZXMR7_hk", "types": ["jewelry_store", "point_of_interest", "store", "establishment"], "rating": 4.1, "user_ratings_total": 33}, "ChIJQ9LhIdIadkgRwGBmcB8Xl8k": {"geometry": {"location": {"lat": 51.51990960000001, "lng": -0.151286}, "viewport": {"northeast": {"lat": 51.5213002802915, "lng": -0.149940269708498}, "southwest": {"lat": 51.5186023197085, "lng": -0.152638230291502}}}, "name": "Hanover", "place_id": "ChIJQ9LhIdIadkgRwGBmcB8Xl8k", "types": ["real_estate_agency", "point_of_interest", "establishment"]}, "ChIJGwH4WuUbdkgRC3-Qj29smnc": {"geometry": {"location": {"lat": 51.5191987, "lng": -0.1515132}, "viewport": {"northeast": {"lat": 51.5205431802915, "lng": -0.150248619708498}, "southwest": {"lat": 51.5178452197085, "lng": -0.152946580291502}}}, "name": "Monica Vinader", "place_id": "ChIJGwH4WuUbdkgRC3-Qj29smnc", "types": ["jewelry_store", "point_of_interest", "store", "establishment"], "rating": 4.8, "user_ratings_total": 4}, "ChIJPV9ygngbdkgRkJjeSo-FQIo": {"geometry": {"location": {"lat": 51.51934120000001, "lng": -0.1500534000000001}, "viewport": {"northeast": {"lat": 51.52065063029151, "lng": -0.148687419708498}, "southwest": {"lat": 51.51795266970851, "lng": -0.1513853802915021}}}, "name": "GCSE Tuition Marylebone", "place_id": "ChIJPV9ygngbdkgRkJjeSo-FQIo", "types": ["point_of_interest", "establishment"]}, "ChIJca0k-hcbdkgREnoS_SvkJTw": {"geometry": {"location": {"lat": 51.5195464, "lng": -0.1516784}, "viewport": {"northeast": {"lat": 51.5208952802915, "lng": -0.150331369708498}, "southwest": {"lat": 51.5181973197085, "lng": -0.153029330291502}}}, "name": "Gynaecologist London, Marylebone High Street", "place_id": "ChIJca0k-hcbdkgREnoS_SvkJTw", "types": ["health", "point_of_interest", "establishment"]}, "ChIJlaHvONIadkgRYCwdSC2oXiY": {"geometry": {"location": {"lat": 51.5189712, "lng": -0.1507881}, "viewport": {"northeast": {"lat": 51.5203170302915, "lng": -0.149492569708498}, "southwest": {"lat": 51.5176190697085, "lng": -0.152190530291502}}}, "name": "Carltone", "place_id": "ChIJlaHvONIadkgRYCwdSC2oXiY", "types": ["point_of_interest", "establishment"]}, "ChIJHxWyONIadkgRXU8OftceDKg": {"geometry": {"location": {"lat": 51.5189546, "lng": -0.1507623}, "viewport": {"northeast": {"lat": 51.5202056302915, "lng": -0.149360969708498}, "southwest": {"lat": 51.5175076697085, "lng": -0.1520589302915021}}}, "name": "William Vintage", "place_id": "ChIJHxWyONIadkgRXU8OftceDKg", "types": ["point_of_interest", "clothing_store", "store", "establishment"], "rating": 4.1, "user_ratings_total": 13}, "ChIJ6W_R5awbdkgRR2H-j0sfH7A": {"geometry": {"location": {"lat": 51.519251, "lng": -0.151615}, "viewport": {"northeast": {"lat": 51.5205986802915, "lng": -0.150290469708498}, "southwest": {"lat": 51.5179007197085, "lng": -0.152988430291502}}}, "name": "Physical Wellbeing Limited Marylebone", "place_id": "ChIJ6W_R5awbdkgRR2H-j0sfH7A", "types": ["health", "point_of_interest", "establishment"]}, "ChIJZ4XNQdIadkgRD7EOlOpu5mQ": {"geometry": {"location": {"lat": 51.51868345572692, "lng": -0.1511571111866534}, "viewport": {"northeast": {"lat": 51.5200326802915, "lng": -0.149808219708498}, "southwest": {"lat": 51.5173347197085, "lng": -0.152506180291502}}}, "name": "1-7 New Cavendish St", "place_id": "ChIJZ4XNQdIadkgRD7EOlOpu5mQ", "types": ["route"]}, "ChIJYwXPXNIadkgRhqBqxBm5ddA": {"geometry": {"location": {"lat": 51.5181694, "lng": -0.1510531}, "viewport": {"northeast": {"lat": 51.51948773029149, "lng": -0.149657619708498}, "southwest": {"lat": 51.5167897697085, "lng": -0.152355580291502}}}, "name": "Le Relais De Venise L'Entrecote", "place_id": "ChIJYwXPXNIadkgRhqBqxBm5ddA", "types": ["bar", "restaurant", "food", "point_of_interest", "establishment"], "rating": 4.4, "user_ratings_total": 1243}, "ChIJMdRcXNIadkgRbP2CvZv70ng": {"geometry": {"location": {"lat": 51.5180089, "lng": -0.1510111}, "viewport": {"northeast": {"lat": 51.5193998802915, "lng": -0.149642819708498}, "southwest": {"lat": 51.5167019197085, "lng": -0.152340780291502}}}, "name": "The Golden Hind Restaurant Marylebone - Fish & Chips", "place_id": "ChIJMdRcXNIadkgRbP2CvZv70ng", "types": ["restaurant", "food", "point_of_interest", "establishment"], "rating": 4.3, "user_ratings_total": 781}, "ChIJMSKUT9IadkgRW3dkocP_m5o": {"geometry": {"location": {"lat": 51.51810099999999, "lng": -0.150332}, "viewport": {"northeast": {"lat": 51.5194778802915, "lng": -0.148994319708498}, "southwest": {"lat": 51.5167799197085, "lng": -0.151692280291502}}}, "name": "Third Space Marylebone", "place_id": "ChIJMSKUT9IadkgRW3dkocP_m5o", "types": ["gym", "spa", "health", "point_of_interest", "establishment"], "rating": 4.7, "user_ratings_total": 253}, "ChIJF-a5Z9IadkgRXm0Xy3CGA1Q": {"geometry": {"location": {"lat": 51.5180556, "lng": -0.1513889}, "viewport": {"northeast": {"lat": 51.5194016802915, "lng": -0.150105269708498}, "southwest": {"lat": 51.5167037197085, "lng": -0.152803230291502}}}, "name": "Angel In The Fields", "place_id": "ChIJF-a5Z9IadkgRXm0Xy3CGA1Q", "types": ["bar", "point_of_interest", "establishment"], "rating": 4.3, "user_ratings_total": 654}, "ChIJf5FwQdIadkgRfFp8llHy14s": {"geometry": {"location": {"lat": 51.51857609999999, "lng": -0.1510243}, "viewport": {"northeast": {"lat": 51.5199853802915, "lng": -0.149699919708498}, "southwest": {"lat": 51.5172874197085, "lng": -0.152397880291502}}}, "name": "Orthotics Online", "place_id": "ChIJf5FwQdIadkgRfFp8llHy14s", "types": ["health", "point_of_interest", "establishment"], "rating": 4.5, "user_ratings_total": 8}, "ChIJhcL3GCoFdkgRj0HvGnZterM": {"geometry": {"location": {"lat": 51.5185865, "lng": -0.1507986}, "viewport": {"northeast": {"lat": 51.5200076302915, "lng": -0.149479169708498}, "southwest": {"lat": 51.5173096697085, "lng": -0.152177130291502}}}, "name": "N E I L C O R N E L I U S @ AthertonCox", "place_id": "ChIJhcL3GCoFdkgRj0HvGnZterM", "types": ["hair_care", "point_of_interest", "establishment"], "rating": 4.4, "user_ratings_total": 21}, "ChIJv6KDQNIadkgRa1uYcX9xZP4": {"geometry": {"location": {"lat": 51.518802, "lng": -0.1510321}, "viewport": {"northeast": {"lat": 51.52010458029151, "lng": -0.149664119708498}, "southwest": {"lat": 51.51740661970851, "lng": -0.152362080291502}}}, "name": "Margaret Dabbs London", "place_id": "ChIJv6KDQNIadkgRa1uYcX9xZP4", "types": ["beauty_salon", "doctor", "health", "point_of_interest", "establishment"], "rating": 3.4, "user_ratings_total": 56}, "ChIJl0j-atIadkgR_zYFwnMni70": {"geometry": {"location": {"lat": 51.51875320000001, "lng": -0.1515002}, "viewport": {"northeast": {"lat": 51.5200978302915, "lng": -0.150211469708498}, "southwest": {"lat": 51.5173998697085, "lng": -0.152909430291502}}}, "name": "MARYLEBONE MIXTE", "place_id": "ChIJl0j-atIadkgR_zYFwnMni70", "types": ["clothing_store", "point_of_interest", "store", "establishment"], "rating": 3.6, "user_ratings_total": 20}, "ChIJJ0b1QNIadkgRA3ZF-HYnxkg": {"geometry": {"location": {"lat": 51.51877150000001, "lng": -0.151159}, "viewport": {"northeast": {"lat": 51.52007898029151, "lng": -0.149793069708498}, "southwest": {"lat": 51.51738101970851, "lng": -0.152491030291502}}}, "name": "Gloucester Room and RG Framing London", "place_id": "ChIJJ0b1QNIadkgRA3ZF-HYnxkg", "types": ["art_gallery", "point_of_interest", "store", "establishment"], "rating": 4.4, "user_ratings_total": 7}, "ChIJYwXPXNIadkgRwVR-bAXWofY": {"geometry": {"location": {"lat": 51.5182181, "lng": -0.1510784}, "viewport": {"northeast": {"lat": 51.5195169802915, "lng": -0.149751069708498}, "southwest": {"lat": 51.51681901970851, "lng": -0.152449030291502}}}, "name": "D S Dental Laboratory", "place_id": "ChIJYwXPXNIadkgRwVR-bAXWofY", "types": ["dentist", "health", "point_of_interest", "establishment"]}, "ChIJNRNVQdIadkgRXanHYzhXzM0": {"geometry": {"location": {"lat": 51.5185453, "lng": -0.1509363}, "viewport": {"northeast": {"lat": 51.51997558029149, "lng": -0.149620569708498}, "southwest": {"lat": 51.51727761970849, "lng": -0.152318530291502}}}, "name": "mobile/ home hairdresser", "place_id": "ChIJNRNVQdIadkgRXanHYzhXzM0", "types": ["hair_care", "point_of_interest", "establishment"], "rating": 5, "user_ratings_total": 15}, "ChIJtbEvRtIadkgRoaPKoA2OlPg": {"geometry": {"location": {"lat": 51.51864, "lng": -0.1506282}, "viewport": {"northeast": {"lat": 51.5200487302915, "lng": -0.149303669708498}, "southwest": {"lat": 51.5173507697085, "lng": -0.152001630291502}}}, "name": "Database Answers Ltd.", "place_id": "ChIJtbEvRtIadkgRoaPKoA2OlPg", "types": ["point_of_interest", "establishment"]}, "ChIJ5-OP_NIadkgR0kr3QsKtMEY": {"geometry": {"location": {"lat": 51.518271, "lng": -0.1513949}, "viewport": {"northeast": {"lat": 51.5196398302915, "lng": -0.150123969708498}, "southwest": {"lat": 51.5169418697085, "lng": -0.152821930291502}}}, "name": "Marshall Hatchick", "place_id": "ChIJ5-OP_NIadkgR0kr3QsKtMEY", "types": ["lawyer", "point_of_interest", "establishment"]}, "ChIJ445GQdIadkgRg0rcZ753M-8": {"geometry": {"location": {"lat": 51.51858959999999, "lng": -0.1509729}, "viewport": {"northeast": {"lat": 51.51999633029149, "lng": -0.149647569708498}, "southwest": {"lat": 51.51729836970849, "lng": -0.152345530291502}}}, "name": "David Mellor - Marylebone", "place_id": "ChIJ445GQdIadkgRg0rcZ753M-8", "types": ["furniture_store", "home_goods_store", "point_of_interest", "store", "establishment"], "rating": 4.2, "user_ratings_total": 13}, "ChIJ_aFvQ9IadkgRbRSPMAQ1Q8U": {"geometry": {"location": {"lat": 51.5183226, "lng": -0.1511997}, "viewport": {"northeast": {"lat": 51.5196648802915, "lng": -0.149726619708498}, "southwest": {"lat": 51.5169669197085, "lng": -0.152424580291502}}}, "name": "Tests Direct Ltd", "place_id": "ChIJ_aFvQ9IadkgRbRSPMAQ1Q8U", "types": ["point_of_interest", "establishment"]}, "ChIJQ2cpQ9IadkgRV4qItpv0L1M": {"geometry": {"location": {"lat": 51.5182181, "lng": -0.1510784}, "viewport": {"northeast": {"lat": 51.5195169802915, "lng": -0.149751069708498}, "southwest": {"lat": 51.51681901970851, "lng": -0.152449030291502}}}, "name": "Birkett Green Lees LLP", "place_id": "ChIJQ2cpQ9IadkgRV4qItpv0L1M", "types": ["point_of_interest", "establishment"]}, "ChIJQ2cpQ9IadkgRX__i24h8bFM": {"geometry": {"location": {"lat": 51.5182181, "lng": -0.1510784}, "viewport": {"northeast": {"lat": 51.5195169802915, "lng": -0.149751069708498}, "southwest": {"lat": 51.51681901970851, "lng": -0.152449030291502}}}, "name": "Montana Investments", "place_id": "ChIJQ2cpQ9IadkgRX__i24h8bFM", "types": ["point_of_interest", "establishment"]}, "ChIJXaQ8QtIadkgR5-NlLZwpcW0": {"geometry": {"location": {"lat": 51.5185837, "lng": -0.1511933}, "viewport": {"northeast": {"lat": 51.5199768302915, "lng": -0.149862369708498}, "southwest": {"lat": 51.5172788697085, "lng": -0.152560330291502}}}, "name": "Le Creuset (UK) Ltd - London/Marylebone", "place_id": "ChIJXaQ8QtIadkgR5-NlLZwpcW0", "types": ["furniture_store", "home_goods_store", "point_of_interest", "store", "establishment"], "rating": 4.8, "user_ratings_total": 32}, "ChIJgyZsRtIadkgR18qxBhodVjk": {"geometry": {"location": {"lat": 51.5186311, "lng": -0.150668}, "viewport": {"northeast": {"lat": 51.5200410302915, "lng": -0.149343969708498}, "southwest": {"lat": 51.5173430697085, "lng": -0.152041930291502}}}, "name": "Romanian National Tourist Office", "place_id": "ChIJgyZsRtIadkgR18qxBhodVjk", "types": ["travel_agency", "point_of_interest", "establishment"]}, "ChIJg1PQR9IadkgRGFgDtpPo_ck": {"geometry": {"location": {"lat": 51.5186311, "lng": -0.150668}, "viewport": {"northeast": {"lat": 51.5200410302915, "lng": -0.149343969708498}, "southwest": {"lat": 51.5173430697085, "lng": -0.152041930291502}}}, "name": "MHL.", "place_id": "ChIJg1PQR9IadkgRGFgDtpPo_ck", "types": ["clothing_store", "point_of_interest", "store", "establishment"], "rating": 4.6, "user_ratings_total": 5}, "ChIJ20qdmlYbdkgRoSeLziM-0AY": {"geometry": {"location": {"lat": 51.5183651, "lng": -0.1504835}, "viewport": {"northeast": {"lat": 51.51972268029149, "lng": -0.149137519708498}, "southwest": {"lat": 51.51702471970849, "lng": -0.151835480291502}}}, "name": "Meri Media", "place_id": "ChIJ20qdmlYbdkgRoSeLziM-0AY", "types": ["point_of_interest", "establishment"]}, "ChIJdzl2T9IadkgRPAb9pax160Q": {"geometry": {"location": {"lat": 51.5183651, "lng": -0.1504835}, "viewport": {"northeast": {"lat": 51.5197226802915, "lng": -0.149137469708498}, "southwest": {"lat": 51.5170247197085, "lng": -0.151835430291502}}}, "name": "Whistlers Ltd", "place_id": "ChIJdzl2T9IadkgRPAb9pax160Q", "types": ["general_contractor", "point_of_interest", "establishment"], "rating": 3.7, "user_ratings_total": 3}, "ChIJ_d39QdIadkgRfTeJ0-HfYlY": {"geometry": {"location": {"lat": 51.51854619999999, "lng": -0.1512752}, "viewport": {"northeast": {"lat": 51.51995088029149, "lng": -0.149948969708498}, "southwest": {"lat": 51.51725291970849, "lng": -0.152646930291502}}}, "name": "ME+EM", "place_id": "ChIJ_d39QdIadkgRfTeJ0-HfYlY", "types": ["clothing_store", "point_of_interest", "store", "establishment"], "rating": 3.5, "user_ratings_total": 24}, "ChIJAW75Ms0adkgRajs8FmaXo2g": {"geometry": {"location": {"lat": 51.5183467, "lng": -0.1504655}, "viewport": {"northeast": {"lat": 51.5197241802915, "lng": -0.149126469708498}, "southwest": {"lat": 51.51702621970851, "lng": -0.151824430291502}}}, "name": "Cairngorm Capital Partners LLP", "place_id": "ChIJAW75Ms0adkgRajs8FmaXo2g", "types": ["finance", "point_of_interest", "establishment"]}, "ChIJg8rFadIadkgR1XSOR2NepNE": {"geometry": {"location": {"lat": 51.5184108, "lng": -0.1513436}, "viewport": {"northeast": {"lat": 51.5197510302915, "lng": -0.150105669708498}, "southwest": {"lat": 51.5170530697085, "lng": -0.152803630291502}}}, "name": "Buxton Contractors", "place_id": "ChIJg8rFadIadkgR1XSOR2NepNE", "types": ["general_contractor", "point_of_interest", "establishment"], "rating": 5, "user_ratings_total": 1}, "ChIJ63S_T9IadkgRC56xCohidz0": {"geometry": {"location": {"lat": 51.5182838, "lng": -0.1504397}, "viewport": {"northeast": {"lat": 51.5196941302915, "lng": -0.149115669708498}, "southwest": {"lat": 51.5169961697085, "lng": -0.151813630291502}}}, "name": "True Student Living", "place_id": "ChIJ63S_T9IadkgRC56xCohidz0", "types": ["point_of_interest", "establishment"], "rating": 5, "user_ratings_total": 1}, "ChIJG4hNbtMadkgRKrLtt0g3TOI": {"geometry": {"location": {"lat": 51.5182919, "lng": -0.1514289}, "viewport": {"northeast": {"lat": 51.5196502802915, "lng": -0.150140969708498}, "southwest": {"lat": 51.5169523197085, "lng": -0.152838930291502}}}, "name": "Brian Harris & Co.", "place_id": "ChIJG4hNbtMadkgRKrLtt0g3TOI", "types": ["lawyer", "point_of_interest", "establishment"], "rating": 4.4, "user_ratings_total": 7}, "ChIJ8U1_adIadkgRhNGbbmU9RgI": {"geometry": {"location": {"lat": 51.51848309999999, "lng": -0.1514186}, "viewport": {"northeast": {"lat": 51.5198256802915, "lng": -0.150151019708498}, "southwest": {"lat": 51.5171277197085, "lng": -0.152848980291502}}}, "name": "Barclays Bank", "place_id": "ChIJ8U1_adIadkgRhNGbbmU9RgI", "types": ["bank", "atm", "finance", "point_of_interest", "establishment"], "rating": 3.2, "user_ratings_total": 15}, "ChIJm6pEadIadkgR_r5jZMOEfhE": {"geometry": {"location": {"lat": 51.518271, "lng": -0.1513949}, "viewport": {"northeast": {"lat": 51.5196398302915, "lng": -0.150123969708498}, "southwest": {"lat": 51.5169418697085, "lng": -0.152821930291502}}}, "name": "Edge Investments", "place_id": "ChIJm6pEadIadkgR_r5jZMOEfhE", "types": ["finance", "point_of_interest", "establishment"]}, "ChIJISpFadIadkgR7Nza08OKQZ4": {"geometry": {"location": {"lat": 51.5183723, "lng": -0.1514449}, "viewport": {"northeast": {"lat": 51.5197177302915, "lng": -0.150153969708498}, "southwest": {"lat": 51.5170197697085, "lng": -0.152851930291502}}}, "name": "Sweaty Betty", "place_id": "ChIJISpFadIadkgR7Nza08OKQZ4", "types": ["gym", "health", "point_of_interest", "clothing_store", "store", "establishment"], "rating": 3.7, "user_ratings_total": 3}, "ChIJry8uAgAFdkgRD76uVlE9mV8": {"geometry": {"location": {"lat": 51.5186582, "lng": -0.1504747}, "viewport": {"northeast": {"lat": 51.5200698302915, "lng": -0.1491513697084979}, "southwest": {"lat": 51.5173718697085, "lng": -0.151849330291502}}}, "name": "W1 Watches", "place_id": "ChIJry8uAgAFdkgRD76uVlE9mV8", "types": ["jewelry_store", "point_of_interest", "store", "establishment"], "rating": 4.3, "user_ratings_total": 83}, "ChIJ7QayIMwadkgRrGxQcigIzic": {"geometry": {"location": {"lat": 51.51834419999999, "lng": -0.151438}, "viewport": {"northeast": {"lat": 51.51968943029149, "lng": -0.150148169708498}, "southwest": {"lat": 51.51699146970849, "lng": -0.152846130291502}}}, "name": "Campion Capital", "place_id": "ChIJ7QayIMwadkgRrGxQcigIzic", "types": ["finance", "point_of_interest", "establishment"]}, "ChIJGZA4QNIadkgRY_M0X86Vpgw": {"geometry": {"location": {"lat": 51.5187507, "lng": -0.1512234}, "viewport": {"northeast": {"lat": 51.52006318029149, "lng": -0.149859519708498}, "southwest": {"lat": 51.51736521970849, "lng": -0.152557480291502}}}, "name": "Little Greene Marylebone Showroom", "place_id": "ChIJGZA4QNIadkgRY_M0X86Vpgw", "types": ["home_goods_store", "point_of_interest", "store", "establishment"], "rating": 3.8, "user_ratings_total": 25}, "ChIJk6LpTtIadkgRAjv-V508SEg": {"geometry": {"location": {"lat": 51.51844299999999, "lng": -0.1502144}, "viewport": {"northeast": {"lat": 51.51978803029149, "lng": -0.148888819708498}, "southwest": {"lat": 51.51709006970849, "lng": -0.151586780291502}}}, "name": "Anna Valentine Ltd", "place_id": "ChIJk6LpTtIadkgRAjv-V508SEg", "types": ["point_of_interest", "establishment"], "rating": 5, "user_ratings_total": 3}, "ChIJcQYMQNIadkgRUEZQzrOATWg": {"geometry": {"location": {"lat": 51.51881210000001, "lng": -0.1512116}, "viewport": {"northeast": {"lat": 51.5200966302915, "lng": -0.149836319708498}, "southwest": {"lat": 51.5173986697085, "lng": -0.152534280291502}}}, "name": "Eye Form", "place_id": "ChIJcQYMQNIadkgRUEZQzrOATWg", "types": ["health", "point_of_interest", "store", "establishment"]}, "ChIJRZWyVNIadkgRE54sRT5U6tU": {"geometry": {"location": {"lat": 51.5186488, "lng": -0.1503162}, "viewport": {"northeast": {"lat": 51.5200766302915, "lng": -0.148999519708498}, "southwest": {"lat": 51.5173786697085, "lng": -0.151697480291502}}}, "name": "Sport Options", "place_id": "ChIJRZWyVNIadkgRE54sRT5U6tU", "types": ["point_of_interest", "establishment"], "rating": 5, "user_ratings_total": 1}, "ChIJ-7uaZ9IadkgRNn8OvMAhWNE": {"geometry": {"location": {"lat": 51.518052, "lng": -0.1513014}, "viewport": {"northeast": {"lat": 51.5194476802915, "lng": -0.149930369708498}, "southwest": {"lat": 51.5167497197085, "lng": -0.152628330291502}}}, "name": "Psychotherapy Central London/ Dr Sally Moore", "place_id": "ChIJ-7uaZ9IadkgRNn8OvMAhWNE", "types": ["health", "point_of_interest", "establishment"]}, "ChIJF2MYSdIadkgRIFAGI-B2XXo": {"geometry": {"location": {"lat": 51.51869080000001, "lng": -0.1502989}, "viewport": {"northeast": {"lat": 51.5201001802915, "lng": -0.148974669708498}, "southwest": {"lat": 51.5174022197085, "lng": -0.151672630291502}}}, "name": "Thomas Legal Group", "place_id": "ChIJF2MYSdIadkgRIFAGI-B2XXo", "types": ["lawyer", "point_of_interest", "establishment"]}, "ChIJP16nSdIadkgRrZnZpUNA_Ho": {"geometry": {"location": {"lat": 51.51869080000001, "lng": -0.1502989}, "viewport": {"northeast": {"lat": 51.5201001802915, "lng": -0.148974669708498}, "southwest": {"lat": 51.5174022197085, "lng": -0.151672630291502}}}, "name": "Castellain Capital LLP", "place_id": "ChIJP16nSdIadkgRrZnZpUNA_Ho", "types": ["finance", "point_of_interest", "establishment"]}, "ChIJ--YtC9cadkgRFZykp15d5rU": {"geometry": {"location": {"lat": 51.5188566, "lng": -0.1506657}, "viewport": {"northeast": {"lat": 51.52016083029149, "lng": -0.149298369708498}, "southwest": {"lat": 51.5174628697085, "lng": -0.151996330291502}}}, "name": "Marylebone Library", "place_id": "ChIJ--YtC9cadkgRFZykp15d5rU", "types": ["library", "point_of_interest", "establishment"], "rating": 3.9, "user_ratings_total": 27}, "ChIJne0UONIadkgRwG-kvuLBkZw": {"geometry": {"location": {"lat": 51.51889469999999, "lng": -0.1506853}, "viewport": {"northeast": {"lat": 51.5201795802915, "lng": -0.149310069708498}, "southwest": {"lat": 51.5174816197085, "lng": -0.152008030291502}}}, "name": "Cafe Gallery Ltd", "place_id": "ChIJne0UONIadkgRwG-kvuLBkZw", "types": ["restaurant", "food", "point_of_interest", "establishment"], "rating": 5, "user_ratings_total": 4}, "ChIJBwDQRNIadkgRbz9jqbdYwZs": {"geometry": {"location": {"lat": 51.51818840000001, "lng": -0.1508902}, "viewport": {"northeast": {"lat": 51.5194854802915, "lng": -0.149514969708498}, "southwest": {"lat": 51.5167875197085, "lng": -0.152212930291502}}}, "name": "Caldesi In Marylebone - Italian Restaurant", "place_id": "ChIJBwDQRNIadkgRbz9jqbdYwZs", "types": ["bar", "restaurant", "food", "point_of_interest", "establishment"], "rating": 4.4, "user_ratings_total": 349}, "ChIJYRb7RtIadkgRoawp-nAjip4": {"geometry": {"location": {"lat": 51.51863329999999, "lng": -0.150775}, "viewport": {"northeast": {"lat": 51.52003423029149, "lng": -0.1494473197084979}, "southwest": {"lat": 51.51733626970849, "lng": -0.152145280291502}}}, "name": "Atherton Cox", "place_id": "ChIJYRb7RtIadkgRoawp-nAjip4", "types": ["beauty_salon", "hair_care", "point_of_interest", "establishment"], "rating": 4.4, "user_ratings_total": 73}, "ChIJIckEWtIadkgR0jqFi7ItZbA": {"geometry": {"location": {"lat": 51.5179528, "lng": -0.1506056}, "viewport": {"northeast": {"lat": 51.51928703029149, "lng": -0.1493167697084979}, "southwest": {"lat": 51.51658906970849, "lng": -0.152014730291502}}}, "name": "108 Brasserie", "place_id": "ChIJIckEWtIadkgR0jqFi7ItZbA", "types": ["bar", "restaurant", "food", "point_of_interest", "establishment"], "rating": 4.3, "user_ratings_total": 578}, "ChIJtQSi89IEdkgR9XIXkkatrn0": {"geometry": {"location": {"lat": 51.5186839, "lng": -0.1504422}, "viewport": {"northeast": {"lat": 51.5200858802915, "lng": -0.149114919708498}, "southwest": {"lat": 51.5173879197085, "lng": -0.151812880291502}}}, "name": "Pawnbrokers London", "place_id": "ChIJtQSi89IEdkgR9XIXkkatrn0", "types": ["jewelry_store", "finance", "point_of_interest", "store", "establishment"], "rating": 4.6, "user_ratings_total": 9}, "ChIJ-VO3r9EadkgRW1QG27g7T84": {"geometry": {"location": {"lat": 51.5182582, "lng": -0.1506129}, "viewport": {"northeast": {"lat": 51.51954173029151, "lng": -0.149237419708498}, "southwest": {"lat": 51.51684376970851, "lng": -0.151935380291502}}}, "name": "Dr Ralph Rogers London Sports Medicine", "place_id": "ChIJ-VO3r9EadkgRW1QG27g7T84", "types": ["doctor", "health", "point_of_interest", "establishment"]}, "ChIJLXw2S9IadkgRO-vd8C1-2fI": {"geometry": {"location": {"lat": 51.5184643, "lng": -0.1500624}, "viewport": {"northeast": {"lat": 51.5198384802915, "lng": -0.148565269708498}, "southwest": {"lat": 51.51714051970851, "lng": -0.151263230291502}}}, "name": "Jessica Johns-Green Psychotherapy", "place_id": "ChIJLXw2S9IadkgRO-vd8C1-2fI", "types": ["health", "point_of_interest", "establishment"]}, "ChIJG5q0SNIadkgRtM4oeNUl7Ag": {"geometry": {"location": {"lat": 51.51858499999999, "lng": -0.150494}, "viewport": {"northeast": {"lat": 51.5200295302915, "lng": -0.149184169708498}, "southwest": {"lat": 51.5173315697085, "lng": -0.151882130291502}}}, "name": "KJ West One", "place_id": "ChIJG5q0SNIadkgRtM4oeNUl7Ag", "types": ["electronics_store", "home_goods_store", "point_of_interest", "store", "establishment"], "rating": 4.6, "user_ratings_total": 35}, "ChIJFXW8XtIadkgRR3xRT9DPLyI": {"geometry": {"location": {"lat": 51.5186834, "lng": -0.1503246}, "viewport": {"northeast": {"lat": 51.5200943302915, "lng": -0.149001019708498}, "southwest": {"lat": 51.5173963697085, "lng": -0.151698980291502}}}, "name": "Content Beauty Wellbeing", "place_id": "ChIJFXW8XtIadkgRR3xRT9DPLyI", "types": ["health", "point_of_interest", "clothing_store", "store", "establishment"], "rating": 4.1, "user_ratings_total": 30}, "ChIJz9qASdIadkgR76X9MkEkvh4": {"geometry": {"location": {"lat": 51.5187075, "lng": -0.1501874}, "viewport": {"northeast": {"lat": 51.5201173802915, "lng": -0.148863369708498}, "southwest": {"lat": 51.5174194197085, "lng": -0.151561330291502}}}, "name": "Caroline Gaskin MCPH", "place_id": "ChIJz9qASdIadkgR76X9MkEkvh4", "types": ["health", "point_of_interest", "establishment"], "rating": 5, "user_ratings_total": 6}, "ChIJI8xJaNIadkgRqGNSTy-ajFU": {"geometry": {"location": {"lat": 51.51831740000001, "lng": -0.1514397}, "viewport": {"northeast": {"lat": 51.51966288029151, "lng": -0.150146869708498}, "southwest": {"lat": 51.51696491970851, "lng": -0.152844830291502}}}, "name": "New Cavendish Jewellers", "place_id": "ChIJI8xJaNIadkgRqGNSTy-ajFU", "types": ["jewelry_store", "point_of_interest", "store", "establishment"], "rating": 4.6, "user_ratings_total": 34}, "ChIJExA9RtIadkgRgUsmKcIOwf0": {"geometry": {"location": {"lat": 51.5185867, "lng": -0.1506607}, "viewport": {"northeast": {"lat": 51.5200180302915, "lng": -0.1493454697084979}, "southwest": {"lat": 51.5173200697085, "lng": -0.152043430291502}}}, "name": "Abacus Business Sales", "place_id": "ChIJExA9RtIadkgRgUsmKcIOwf0", "types": ["real_estate_agency", "point_of_interest", "establishment"]}, "ChIJJWPORNIadkgRVjWP5epFSY4": {"geometry": {"location": {"lat": 51.5184004, "lng": -0.1509587}, "viewport": {"northeast": {"lat": 51.51972168029149, "lng": -0.149586369708498}, "southwest": {"lat": 51.5170237197085, "lng": -0.152284330291502}}}, "name": "La Cucina Caldesi", "place_id": "ChIJJWPORNIadkgRVjWP5epFSY4", "types": ["restaurant", "food", "point_of_interest", "establishment"], "rating": 4.1, "user_ratings_total": 15}, "ChIJe1gGdMIbdkgRRn9rXeB4EeU": {"geometry": {"location": {"lat": 51.5185912, "lng": -0.1508682}, "viewport": {"northeast": {"lat": 51.5200049802915, "lng": -0.149545719708498}, "southwest": {"lat": 51.5173070197085, "lng": -0.152243680291502}}}, "name": "Tenancy Inventory Check Out Marylebone", "place_id": "ChIJe1gGdMIbdkgRRn9rXeB4EeU", "types": ["point_of_interest", "establishment"]}, "ChIJbVcLQdIadkgR9ne5ssOZGVs": {"geometry": {"location": {"lat": 51.51857609999999, "lng": -0.1510243}, "viewport": {"northeast": {"lat": 51.5199853802915, "lng": -0.149699919708498}, "southwest": {"lat": 51.5172874197085, "lng": -0.152397880291502}}}, "name": "Special Footwear & Orthotics", "place_id": "ChIJbVcLQdIadkgR9ne5ssOZGVs", "types": ["shoe_store", "health", "point_of_interest", "store", "establishment"], "rating": 4.1, "user_ratings_total": 45}, "ChIJVVXwQtIadkgRh5qwVCgc2cw": {"geometry": {"location": {"lat": 51.5183294, "lng": -0.1511534}, "viewport": {"northeast": {"lat": 51.5196697302915, "lng": -0.149703169708498}, "southwest": {"lat": 51.5169717697085, "lng": -0.1524011302915021}}}, "name": "Proactive Coaching", "place_id": "ChIJVVXwQtIadkgRh5qwVCgc2cw", "types": ["point_of_interest", "establishment"]}, "ChIJ18gmQ9IadkgRvSOUkznUTX0": {"geometry": {"location": {"lat": 51.5182606, "lng": -0.1510513}, "viewport": {"northeast": {"lat": 51.5196097802915, "lng": -0.1496592197084979}, "southwest": {"lat": 51.5169118197085, "lng": -0.152357180291502}}}, "name": "Ceramiart Dental Laboratories Ltd", "place_id": "ChIJ18gmQ9IadkgRvSOUkznUTX0", "types": ["dentist", "health", "point_of_interest", "establishment"], "rating": 4.7, "user_ratings_total": 3}, "ChIJh6UqdHsbdkgR4hX2OUpwbTg": {"geometry": {"location": {"lat": 51.51855399999999, "lng": -0.1511197}, "viewport": {"northeast": {"lat": 51.5199665802915, "lng": -0.149796669708498}, "southwest": {"lat": 51.5172686197085, "lng": -0.152494630291502}}}, "name": "The French Facialist", "place_id": "ChIJh6UqdHsbdkgR4hX2OUpwbTg", "types": ["beauty_salon", "spa", "health", "point_of_interest", "establishment"], "rating": 5, "user_ratings_total": 1}, "ChIJ_U_LWNIadkgRUC44jN3GJN8": {"geometry": {"location": {"lat": 51.5176392, "lng": -0.1509057}, "viewport": {"northeast": {"lat": 51.5190367302915, "lng": -0.149568219708498}, "southwest": {"lat": 51.5163387697085, "lng": -0.152266180291502}}}, "name": "El Kozy Farolito", "place_id": "ChIJ_U_LWNIadkgRUC44jN3GJN8", "types": ["lodging", "point_of_interest", "establishment"]}, "ChIJ377FWNIadkgRl8dspO5TY24": {"geometry": {"location": {"lat": 51.5176993, "lng": -0.1507756}, "viewport": {"northeast": {"lat": 51.5190151802915, "lng": -0.149422519708498}, "southwest": {"lat": 51.5163172197085, "lng": -0.152120480291502}}}, "name": "Golden Eagle", "place_id": "ChIJ377FWNIadkgRl8dspO5TY24", "types": ["bar", "point_of_interest", "establishment"], "rating": 4.3, "user_ratings_total": 293}, "ChIJZYdtYNIadkgRA2_jv7mtU4g": {"geometry": {"location": {"lat": 51.51764169999999, "lng": -0.1512861}, "viewport": {"northeast": {"lat": 51.51898018029149, "lng": -0.150008719708498}, "southwest": {"lat": 51.51628221970849, "lng": -0.152706680291502}}}, "name": "Tommi's Burger Joint", "place_id": "ChIJZYdtYNIadkgRA2_jv7mtU4g", "types": ["restaurant", "food", "point_of_interest", "establishment"], "rating": 4.4, "user_ratings_total": 1097}, "ChIJdcePYNIadkgRLQBVyL3jIYs": {"geometry": {"location": {"lat": 51.5177693, "lng": -0.1512705}, "viewport": {"northeast": {"lat": 51.5191104302915, "lng": -0.150015269708498}, "southwest": {"lat": 51.5164124697085, "lng": -0.152713230291502}}}, "name": "Diwan Lebanese Restaurant", "place_id": "ChIJdcePYNIadkgRLQBVyL3jIYs", "types": ["meal_takeaway", "restaurant", "food", "point_of_interest", "establishment"], "rating": 4.1, "user_ratings_total": 190}, "ChIJ46ISmiobdkgRMU8BHs6LIZU": {"geometry": {"location": {"lat": 51.5175312, "lng": -0.1508613}, "viewport": {"northeast": {"lat": 51.5188751302915, "lng": -0.149455169708498}, "southwest": {"lat": 51.5161771697085, "lng": -0.152153130291502}}}, "name": "Sidan Media", "place_id": "ChIJ46ISmiobdkgRMU8BHs6LIZU", "types": ["point_of_interest", "establishment"]}, "ChIJx7NBnPsPdkgRNePyTcqMuVI": {"geometry": {"location": {"lat": 51.5175312, "lng": -0.1508613}, "viewport": {"northeast": {"lat": 51.5188751302915, "lng": -0.149455169708498}, "southwest": {"lat": 51.5161771697085, "lng": -0.152153130291502}}}, "name": "Color Wow", "place_id": "ChIJx7NBnPsPdkgRNePyTcqMuVI", "types": ["point_of_interest", "establishment"]}, "ChIJecXp99IadkgRnWOHbk1a1Ec": {"geometry": {"location": {"lat": 51.517492, "lng": -0.150627}, "viewport": {"northeast": {"lat": 51.5188446802915, "lng": -0.149340269708498}, "southwest": {"lat": 51.5161467197085, "lng": -0.152038230291502}}}, "name": "The Ivy Cafe Marylebone", "place_id": "ChIJecXp99IadkgRnWOHbk1a1Ec", "types": ["cafe", "bar", "restaurant", "food", "point_of_interest", "establishment"], "rating": 4.4, "user_ratings_total": 1204}, "ChIJfwSWWNIadkgRv5_P-uFomeY": {"geometry": {"location": {"lat": 51.51758460000001, "lng": -0.1508355}, "viewport": {"northeast": {"lat": 51.5189290802915, "lng": -0.149436019708498}, "southwest": {"lat": 51.51623111970851, "lng": -0.152133980291502}}}, "name": "Skytrail", "place_id": "ChIJfwSWWNIadkgRv5_P-uFomeY", "types": ["point_of_interest", "establishment"]}, "ChIJgT3QW9IadkgRCPtz_q_rhlY": {"geometry": {"location": {"lat": 51.5175872, "lng": -0.1504629}, "viewport": {"northeast": {"lat": 51.5189478802915, "lng": -0.149245719708498}, "southwest": {"lat": 51.5162499197085, "lng": -0.151943680291502}}}, "name": "Wetherby Senior School (Marylebone Lane)", "place_id": "ChIJgT3QW9IadkgRCPtz_q_rhlY", "types": ["school", "point_of_interest", "establishment"], "rating": 3.6, "user_ratings_total": 8}, "ChIJMabHXtIadkgR3UWaABRBbds": {"geometry": {"location": {"lat": 51.517778, "lng": -0.1509658}, "viewport": {"northeast": {"lat": 51.5191139302915, "lng": -0.149613769708498}, "southwest": {"lat": 51.5164159697085, "lng": -0.1523117302915021}}}, "name": "Roz Kidd", "place_id": "ChIJMabHXtIadkgR3UWaABRBbds", "types": ["health", "point_of_interest", "establishment"]}, "ChIJFXW8XtIadkgRYJI2Snt-lrc": {"geometry": {"location": {"lat": 51.5177822, "lng": -0.1509666}, "viewport": {"northeast": {"lat": 51.5191140302915, "lng": -0.149613569708498}, "southwest": {"lat": 51.5164160697085, "lng": -0.152311530291502}}}, "name": "The Wigmore Barbers & Grooming Salon", "place_id": "ChIJFXW8XtIadkgRYJI2Snt-lrc", "types": ["beauty_salon", "hair_care", "health", "point_of_interest", "establishment"], "rating": 4.8, "user_ratings_total": 102}, "ChIJE41p408bdkgRva-Jbuz09Ik": {"geometry": {"location": {"lat": 51.5177626, "lng": -0.1512978}, "viewport": {"northeast": {"lat": 51.5190838302915, "lng": -0.149963119708498}, "southwest": {"lat": 51.5163858697085, "lng": -0.152661080291502}}}, "name": "Frink Design", "place_id": "ChIJE41p408bdkgRva-Jbuz09Ik", "types": ["point_of_interest", "establishment"]}, "ChIJE9HwYNIadkgRgcr0HwU664k": {"geometry": {"location": {"lat": 51.5177429, "lng": -0.1513362}, "viewport": {"northeast": {"lat": 51.5190799302915, "lng": -0.149985369708498}, "southwest": {"lat": 51.5163819697085, "lng": -0.152683330291502}}}, "name": "London & Suffolk", "place_id": "ChIJE9HwYNIadkgRgcr0HwU664k", "types": ["general_contractor", "point_of_interest", "establishment"]}, "ChIJ-fPHyCkFdkgRUK9nGgGysQY": {"geometry": {"location": {"lat": 51.5177602, "lng": -0.1513055}, "viewport": {"northeast": {"lat": 51.5190831302915, "lng": -0.149967169708498}, "southwest": {"lat": 51.5163851697085, "lng": -0.152665130291502}}}, "name": "Precious Time", "place_id": "ChIJ-fPHyCkFdkgRUK9nGgGysQY", "types": ["point_of_interest", "store", "establishment"], "rating": 5, "user_ratings_total": 2}, "ChIJ2QiUYNIadkgR8CDrEqLb_9Y": {"geometry": {"location": {"lat": 51.5177602, "lng": -0.1513055}, "viewport": {"northeast": {"lat": 51.5190831302915, "lng": -0.149967169708498}, "southwest": {"lat": 51.5163851697085, "lng": -0.152665130291502}}}, "name": "Ibiza Angels", "place_id": "ChIJ2QiUYNIadkgR8CDrEqLb_9Y", "types": ["point_of_interest", "establishment"], "rating": 5, "user_ratings_total": 1}, "ChIJ2QiUYNIadkgRviY5gWM-hL0": {"geometry": {"location": {"lat": 51.5177602, "lng": -0.1513055}, "viewport": {"northeast": {"lat": 51.5190831302915, "lng": -0.149967169708498}, "southwest": {"lat": 51.5163851697085, "lng": -0.152665130291502}}}, "name": "LEAP", "place_id": "ChIJ2QiUYNIadkgRviY5gWM-hL0", "types": ["point_of_interest", "establishment"]}, "ChIJw5mlxecQdkgRq1O9kQtGB1A": {"geometry": {"location": {"lat": 51.5177602, "lng": -0.1513055}, "viewport": {"northeast": {"lat": 51.5190831302915, "lng": -0.149967169708498}, "southwest": {"lat": 51.5163851697085, "lng": -0.152665130291502}}}, "name": "Massage Angels", "place_id": "ChIJw5mlxecQdkgRq1O9kQtGB1A", "types": ["point_of_interest", "establishment"], "rating": 4.3, "user_ratings_total": 28}, "ChIJeQ8bitIadkgRFM6B4FWU6S8": {"geometry": {"location": {"lat": 51.5174926, "lng": -0.1516381}, "viewport": {"northeast": {"lat": 51.51885143029149, "lng": -0.150172819708498}, "southwest": {"lat": 51.51615346970849, "lng": -0.1528707802915021}}}, "name": "Wu Jonathan", "place_id": "ChIJeQ8bitIadkgRFM6B4FWU6S8", "types": ["dentist", "health", "point_of_interest", "establishment"]}, "ChIJeQ8bitIadkgR1rKoGC7QWZM": {"geometry": {"location": {"lat": 51.5174926, "lng": -0.1516381}, "viewport": {"northeast": {"lat": 51.51885143029149, "lng": -0.150172819708498}, "southwest": {"lat": 51.51615346970849, "lng": -0.1528707802915021}}}, "name": "Jong Yulinda", "place_id": "ChIJeQ8bitIadkgR1rKoGC7QWZM", "types": ["dentist", "health", "point_of_interest", "establishment"]}, "ChIJeQ8bitIadkgRzFyy1p8f0ng": {"geometry": {"location": {"lat": 51.5174926, "lng": -0.1516381}, "viewport": {"northeast": {"lat": 51.51885143029149, "lng": -0.150172819708498}, "southwest": {"lat": 51.51615346970849, "lng": -0.1528707802915021}}}, "name": "Dharrie-Maharaj Ganase", "place_id": "ChIJeQ8bitIadkgRzFyy1p8f0ng", "types": ["dentist", "health", "point_of_interest", "establishment"]}, "ChIJI6STYNIadkgRxE9kKzXMu5w": {"geometry": {"location": {"lat": 51.51776629999999, "lng": -0.1513409}, "viewport": {"northeast": {"lat": 51.5190820302915, "lng": -0.149985369708498}, "southwest": {"lat": 51.5163840697085, "lng": -0.152683330291502}}}, "name": "Megatrade London | div. Mediazodiak Ltd", "place_id": "ChIJI6STYNIadkgRxE9kKzXMu5w", "types": ["point_of_interest", "establishment"]}, "ChIJrQWcYNIadkgRMARsZCe9J-c": {"geometry": {"location": {"lat": 51.5177667, "lng": -0.151341}, "viewport": {"northeast": {"lat": 51.51908223029151, "lng": -0.149985369708498}, "southwest": {"lat": 51.51638426970851, "lng": -0.152683330291502}}}, "name": "Wiltshire Daniels", "place_id": "ChIJrQWcYNIadkgRMARsZCe9J-c", "types": ["real_estate_agency", "point_of_interest", "establishment"], "rating": 5, "user_ratings_total": 7}, "ChIJRX_MH84adkgRh4mRtpWXaVk": {"geometry": {"location": {"lat": 51.52133030025808, "lng": -0.152785900064386}, "viewport": {"northeast": {"lat": 51.5226792802915, "lng": -0.151436919708498}, "southwest": {"lat": 51.5199813197085, "lng": -0.154134880291502}}}, "name": "16-6 Nottingham St", "place_id": "ChIJRX_MH84adkgRh4mRtpWXaVk", "types": ["route"]}, "ChIJ2coVIs4adkgR54DiJxHYSqw": {"geometry": {"location": {"lat": 51.52153, "lng": -0.1533087}, "viewport": {"northeast": {"lat": 51.5228864802915, "lng": -0.151839219708498}, "southwest": {"lat": 51.5201885197085, "lng": -0.154537180291502}}}, "name": "Regency Hotel Westend", "place_id": "ChIJ2coVIs4adkgR54DiJxHYSqw", "types": ["lodging", "point_of_interest", "establishment"], "rating": 3.5, "user_ratings_total": 77}, "ChIJkdmEI84adkgRRqd3XaRBtNU": {"geometry": {"location": {"lat": 51.5217697, "lng": -0.1533364}, "viewport": {"northeast": {"lat": 51.5231247802915, "lng": -0.151873369708498}, "southwest": {"lat": 51.5204268197085, "lng": -0.154571330291502}}}, "name": "Regency Hotel Parkside", "place_id": "ChIJkdmEI84adkgRRqd3XaRBtNU", "types": ["lodging", "point_of_interest", "establishment"], "rating": 4, "user_ratings_total": 109}, "ChIJm4Qd6NEadkgRwpO4Br3gZCk": {"geometry": {"location": {"lat": 51.52148750000001, "lng": -0.1520454}, "viewport": {"northeast": {"lat": 51.52283523029151, "lng": -0.150600169708498}, "southwest": {"lat": 51.52013726970851, "lng": -0.153298130291502}}}, "name": "The Prince Regent", "place_id": "ChIJm4Qd6NEadkgRwpO4Br3gZCk", "types": ["bar", "restaurant", "food", "point_of_interest", "establishment"], "rating": 4, "user_ratings_total": 615}, "ChIJqaQrw9EadkgRjX_QbKj4cSY": {"geometry": {"location": {"lat": 51.5216528, "lng": -0.1519619}, "viewport": {"northeast": {"lat": 51.5229877302915, "lng": -0.150558569708498}, "southwest": {"lat": 51.5202897697085, "lng": -0.153256530291502}}}, "name": "diptyque", "place_id": "ChIJqaQrw9EadkgRjX_QbKj4cSY", "types": ["home_goods_store", "point_of_interest", "clothing_store", "store", "establishment"], "rating": 4.1, "user_ratings_total": 19}, "ChIJvRdOJ84adkgRKlRPw2Pz_k0": {"geometry": {"location": {"lat": 51.52185909999999, "lng": -0.1529197}, "viewport": {"northeast": {"lat": 51.5232034302915, "lng": -0.151664969708498}, "southwest": {"lat": 51.5205054697085, "lng": -0.154362930291502}}}, "name": "United Capital Property Investments (Cyprus) Limited", "place_id": "ChIJvRdOJ84adkgRKlRPw2Pz_k0", "types": ["finance", "real_estate_agency", "point_of_interest", "establishment"]}, "ChIJDTaZIs4adkgRkNtY1eKRQuc": {"geometry": {"location": {"lat": 51.52151869999999, "lng": -0.1532742}, "viewport": {"northeast": {"lat": 51.5228734802915, "lng": -0.151820769708498}, "southwest": {"lat": 51.5201755197085, "lng": -0.154518730291502}}}, "name": "Hotel La Place", "place_id": "ChIJDTaZIs4adkgRkNtY1eKRQuc", "types": ["lodging", "point_of_interest", "establishment"], "rating": 3.7, "user_ratings_total": 82}, "ChIJSfg8HSwbdkgRxYjI5Mkn0dM": {"geometry": {"location": {"lat": 51.52123959999999, "lng": -0.1520781}, "viewport": {"northeast": {"lat": 51.5226352802915, "lng": -0.150680369708498}, "southwest": {"lat": 51.5199373197085, "lng": -0.153378330291502}}}, "name": "Le Pain Quotidien", "place_id": "ChIJSfg8HSwbdkgRxYjI5Mkn0dM", "types": ["restaurant", "bakery", "cafe", "food", "point_of_interest", "store", "establishment"], "rating": 4.1, "user_ratings_total": 550}, "ChIJ30PRGM4adkgRjzCgp7UU8o0": {"geometry": {"location": {"lat": 51.5214176, "lng": -0.1528828}, "viewport": {"northeast": {"lat": 51.52272088029149, "lng": -0.151528119708498}, "southwest": {"lat": 51.5200229197085, "lng": -0.154226080291502}}}, "name": "Vivah Weddings", "place_id": "ChIJ30PRGM4adkgRjzCgp7UU8o0", "types": ["point_of_interest", "establishment"]}, "ChIJNQYG59EadkgR1R8c2od4eUo": {"geometry": {"location": {"lat": 51.5214663, "lng": -0.1521956}, "viewport": {"northeast": {"lat": 51.5227592802915, "lng": -0.150841669708498}, "southwest": {"lat": 51.5200613197085, "lng": -0.153539630291502}}}, "name": "Albion Land London Ltd", "place_id": "ChIJNQYG59EadkgR1R8c2od4eUo", "types": ["general_contractor", "point_of_interest", "establishment"]}, "ChIJ4cvs39EadkgRO_4rCUiqwEs": {"geometry": {"location": {"lat": 51.52156040000001, "lng": -0.1527065}, "viewport": {"northeast": {"lat": 51.5229121302915, "lng": -0.151285019708498}, "southwest": {"lat": 51.5202141697085, "lng": -0.153982980291502}}}, "name": "J. Vara", "place_id": "ChIJ4cvs39EadkgRO_4rCUiqwEs", "types": ["health", "point_of_interest", "establishment"]}, "ChIJnR73F50bdkgRbxuInNLoUzM": {"geometry": {"location": {"lat": 51.5218003, "lng": -0.1522095}, "viewport": {"northeast": {"lat": 51.52312328029151, "lng": -0.150860819708498}, "southwest": {"lat": 51.52042531970851, "lng": -0.153558780291502}}}, "name": "Frontier Estates Ltd", "place_id": "ChIJnR73F50bdkgRbxuInNLoUzM", "types": ["finance", "point_of_interest", "establishment"]}, "ChIJSbyx19EadkgRwD2-VywH148": {"geometry": {"location": {"lat": 51.5219386, "lng": -0.1524484}, "viewport": {"northeast": {"lat": 51.5232833302915, "lng": -0.151178069708498}, "southwest": {"lat": 51.5205853697085, "lng": -0.153876030291502}}}, "name": "BBB London", "place_id": "ChIJSbyx19EadkgRwD2-VywH148", "types": ["point_of_interest", "establishment"], "rating": 5, "user_ratings_total": 2}, "ChIJ4WreIs4adkgRRXEIDx9IYqE": {"geometry": {"location": {"lat": 51.52164699999999, "lng": -0.1533205}, "viewport": {"northeast": {"lat": 51.52300183029149, "lng": -0.151853219708498}, "southwest": {"lat": 51.5203038697085, "lng": -0.154551180291502}}}, "name": "Latitude London", "place_id": "ChIJ4WreIs4adkgRRXEIDx9IYqE", "types": ["general_contractor", "point_of_interest", "establishment"], "rating": 3.1, "user_ratings_total": 27}, "ChIJTbsMYisFdkgRlqm5XhSX6wU": {"geometry": {"location": {"lat": 51.5215727, "lng": -0.1519609}, "viewport": {"northeast": {"lat": 51.5229068802915, "lng": -0.150545819708498}, "southwest": {"lat": 51.5202089197085, "lng": -0.153243780291502}}}, "name": "Petit Bateau", "place_id": "ChIJTbsMYisFdkgRlqm5XhSX6wU", "types": ["point_of_interest", "clothing_store", "store", "establishment"], "rating": 4.3, "user_ratings_total": 3}, "ChIJvSybwtEadkgRB1W9yGRfn44": {"geometry": {"location": {"lat": 51.52162079999999, "lng": -0.1519277}, "viewport": {"northeast": {"lat": 51.52295573029151, "lng": -0.150514869708498}, "southwest": {"lat": 51.52025776970851, "lng": -0.153212830291502}}},