{"E00023996": {"ChIJDZXh1uYEdkgRXdRlsl8Ly40": {"geometry": {"location": {"lat": 51.49105060020813, "lng": -0.1344245494846044}, "viewport": {"northeast": {"lat": 51.4923995802915, "lng": -0.133075569708498}, "southwest": {"lat": 51.48970161970851, "lng": -0.135773530291502}}}, "name": "41 A202", "place_id": "ChIJDZXh1uYEdkgRXdRlsl8Ly40", "types": ["route"]}, "ChIJ9xduKucEdkgRMBPTFkl3ggE": {"geometry": {"location": {"lat": 51.49138339999999, "lng": -0.1347182}, "viewport": {"northeast": {"lat": 51.4926727302915, "lng": -0.133443769708498}, "southwest": {"lat": 51.4899747697085, "lng": -0.136141730291502}}}, "name": "Hopkinson House - Look Ahead Housing & Care", "place_id": "ChIJ9xduKucEdkgRMBPTFkl3ggE", "types": ["lodging", "point_of_interest", "establishment"], "rating": 3.7, "user_ratings_total": 3}, "ChIJc_zXLOEEdkgR4VL6SObJwdM": {"geometry": {"location": {"lat": 51.490789, "lng": -0.1350119}, "viewport": {"northeast": {"lat": 51.49213758029151, "lng": -0.133660669708498}, "southwest": {"lat": 51.48943961970851, "lng": -0.1363586302915021}}}, "name": "Sans Souci Milonga", "place_id": "ChIJc_zXLOEEdkgR4VL6SObJwdM", "types": ["point_of_interest", "establishment"]}, "ChIJ3a7dCyIFdkgRvxuAfZb6l0s": {"geometry": {"location": {"lat": 51.4914068, "lng": -0.1347514}, "viewport": {"northeast": {"lat": 51.4927557802915, "lng": -0.133402419708498}, "southwest": {"lat": 51.4900578197085, "lng": -0.136100380291502}}}, "name": "Mind in Brent, Wandsworth and Westminster", "place_id": "ChIJ3a7dCyIFdkgRvxuAfZb6l0s", "types": ["point_of_interest", "establishment"], "rating": 3.6, "user_ratings_total": 20}, "ChIJb_XzKeEEdkgRa1BjGgJ-EIs": {"geometry": {"location": {"lat": 51.4911251, "lng": -0.13542}, "viewport": {"northeast": {"lat": 51.4925253802915, "lng": -0.134009119708498}, "southwest": {"lat": 51.4898274197085, "lng": -0.136707080291502}}}, "name": "Moo Cantina Pub & Kitchen", "place_id": "ChIJb_XzKeEEdkgRa1BjGgJ-EIs", "types": ["bar", "restaurant", "food", "point_of_interest", "establishment"], "rating": 4.3, "user_ratings_total": 753}, "ChIJTaHELeEEdkgRA4JCtxJXnTo": {"geometry": {"location": {"lat": 51.4906372, "lng": -0.1351928}, "viewport": {"northeast": {"lat": 51.4918950302915, "lng": -0.133658469708498}, "southwest": {"lat": 51.4891970697085, "lng": -0.136356430291502}}}, "name": "St James the Less Church, Pimlico", "place_id": "ChIJTaHELeEEdkgRA4JCtxJXnTo", "types": ["church", "place_of_worship", "point_of_interest", "establishment"], "rating": 4.6, "user_ratings_total": 28}, "ChIJ-SvKNAoFdkgRNqHaNj36374": {"geometry": {"location": {"lat": 51.4908771, "lng": -0.1346224}, "viewport": {"northeast": {"lat": 51.4921739802915, "lng": -0.133169669708498}, "southwest": {"lat": 51.4894760197085, "lng": -0.135867630291502}}}, "name": "One Church Square", "place_id": "ChIJ-SvKNAoFdkgRNqHaNj36374", "types": ["lodging", "point_of_interest", "establishment"], "rating": 4.5, "user_ratings_total": 2}, "ChIJ1Qe1KKsFdkgRxIXMUfDWBLE": {"geometry": {"location": {"lat": 51.4907102, "lng": -0.1348279}, "viewport": {"northeast": {"lat": 51.4920570802915, "lng": -0.133480369708498}, "southwest": {"lat": 51.4893591197085, "lng": -0.136178330291502}}}, "name": "Enterprise Car Club - Thorndike Street London SW1V 2PS", "place_id": "ChIJ1Qe1KKsFdkgRxIXMUfDWBLE", "types": ["car_rental", "point_of_interest", "establishment"]}, "ChIJO_J6Xk0FdkgRaWFqQXw_zJs": {"geometry": {"location": {"lat": 51.490799, "lng": -0.1343757}, "viewport": {"northeast": {"lat": 51.49212993029149, "lng": -0.132990619708498}, "southwest": {"lat": 51.4894319697085, "lng": -0.135688580291502}}}, "name": "Girl on roller skates by Andre Wallace", "place_id": "ChIJO_J6Xk0FdkgRaWFqQXw_zJs", "types": ["point_of_interest", "establishment"]}, "ChIJA7qIFOMFdkgR9LZE1ty-K_k": {"geometry": {"location": {"lat": 51.4909036, "lng": -0.1342954}, "viewport": {"northeast": {"lat": 51.4922792302915, "lng": -0.132913419708498}, "southwest": {"lat": 51.48958126970851, "lng": -0.135611380291502}}}, "name": "Escultura \"Girl on roller skates\"", "place_id": "ChIJA7qIFOMFdkgR9LZE1ty-K_k", "types": ["point_of_interest", "establishment"], "rating": 5, "user_ratings_total": 1}, "ChIJn5F8HRcFdkgRKzDM1Z2OZFY": {"geometry": {"location": {"lat": 51.4912035, "lng": -0.1343223}, "viewport": {"northeast": {"lat": 51.4924891302915, "lng": -0.133051769708498}, "southwest": {"lat": 51.4897911697085, "lng": -0.135749730291502}}}, "name": "Ansuz Japan UK office", "place_id": "ChIJn5F8HRcFdkgRKzDM1Z2OZFY", "types": ["point_of_interest", "establishment"]}, "ChIJQwBpKuEEdkgRinBC9nogUaw": {"geometry": {"location": {"lat": 51.4911863, "lng": -0.1352581}, "viewport": {"northeast": {"lat": 51.4925456802915, "lng": -0.133952369708498}, "southwest": {"lat": 51.48984771970851, "lng": -0.136650330291502}}}, "name": "Mco", "place_id": "ChIJQwBpKuEEdkgRinBC9nogUaw", "types": ["pharmacy", "health", "point_of_interest", "store", "establishment"]}, "ChIJCwblRuEEdkgRXgEPjgV5APQ": {"geometry": {"location": {"lat": 51.49054049999999, "lng": -0.1348832}, "viewport": {"northeast": {"lat": 51.4918637802915, "lng": -0.133481969708498}, "southwest": {"lat": 51.4891658197085, "lng": -0.136179930291502}}}, "name": "Pimlico Nursery & Pre-Prep", "place_id": "ChIJCwblRuEEdkgRXgEPjgV5APQ", "types": ["school", "point_of_interest", "establishment"]}, "ChIJXft90-AEdkgRJB5AXB4SoJw": {"geometry": {"location": {"lat": 51.4913743, "lng": -0.1348957}, "viewport": {"northeast": {"lat": 51.49270923029151, "lng": -0.133541369708498}, "southwest": {"lat": 51.49001126970851, "lng": -0.136239330291502}}}, "name": "Stanford Street (Stop V)", "place_id": "ChIJXft90-AEdkgRJB5AXB4SoJw", "types": ["transit_station", "point_of_interest", "establishment"], "rating": 1, "user_ratings_total": 1}, "ChIJyUyiT3EFdkgRU4r0PyZKPFg": {"geometry": {"location": {"lat": 51.4911872, "lng": -0.1341828}, "viewport": {"northeast": {"lat": 51.49249053029149, "lng": -0.132746619708498}, "southwest": {"lat": 51.48979256970849, "lng": -0.135444580291502}}}, "name": "House of M", "place_id": "ChIJyUyiT3EFdkgRU4r0PyZKPFg", "types": ["museum", "point_of_interest", "establishment"]}, "ChIJqSfNlE4FdkgRRc5LyPqmS0E": {"geometry": {"location": {"lat": 51.4911872, "lng": -0.1341828}, "viewport": {"northeast": {"lat": 51.49249053029149, "lng": -0.132746619708498}, "southwest": {"lat": 51.48979256970849, "lng": -0.135444580291502}}}, "name": "The Dragon\u2019s Den", "place_id": "ChIJqSfNlE4FdkgRRc5LyPqmS0E", "types": ["point_of_interest", "establishment"]}, "ChIJYWNQKucEdkgR67FVzILgiIs": {"geometry": {"location": {"lat": 51.4914068, "lng": -0.1347514}, "viewport": {"northeast": {"lat": 51.4927697802915, "lng": -0.133453819708498}, "southwest": {"lat": 51.4900718197085, "lng": -0.136151780291502}}}, "name": "Wandsworth And Westminster Mind Talking Therapies And Wellbeing Service", "place_id": "ChIJYWNQKucEdkgR67FVzILgiIs", "types": ["point_of_interest", "establishment"]}, "ChIJ46G13uYEdkgR-JkL3XONlmU": {"geometry": {"location": {"lat": 51.4910325, "lng": -0.1339691}, "viewport": {"northeast": {"lat": 51.4923189302915, "lng": -0.132699619708498}, "southwest": {"lat": 51.4896209697085, "lng": -0.135397580291502}}}, "name": "Pimlico Grocery", "place_id": "ChIJ46G13uYEdkgR-JkL3XONlmU", "types": ["convenience_store", "grocery_or_supermarket", "food", "point_of_interest", "store", "establishment"], "rating": 5, "user_ratings_total": 3}, "ChIJH0vKTOEEdkgR1vvn6ZNbTQc": {"geometry": {"location": {"lat": 51.48954842986392, "lng": -0.1349761596322832}, "viewport": {"northeast": {"lat": 51.49089543029149, "lng": -0.133629369708498}, "southwest": {"lat": 51.4881974697085, "lng": -0.136327330291502}}}, "name": "172-140 Tachbrook St", "place_id": "ChIJH0vKTOEEdkgR1vvn6ZNbTQc", "types": ["route"]}, "ChIJh7uzubccdkgRw1CCy3Tzy4s": {"geometry": {"location": {"lat": 51.4895651, "lng": -0.134744}, "viewport": {"northeast": {"lat": 51.49087433029149, "lng": -0.133452019708498}, "southwest": {"lat": 51.4881763697085, "lng": -0.136149980291502}}}, "name": "Chapeau Claudette akaCloudette", "place_id": "ChIJh7uzubccdkgRw1CCy3Tzy4s", "types": ["point_of_interest", "establishment"]}, "ChIJe9QCSuEEdkgRgTmImNmxeVs": {"geometry": {"location": {"lat": 51.4899262, "lng": -0.1353208}, "viewport": {"northeast": {"lat": 51.4912733802915, "lng": -0.134024519708498}, "southwest": {"lat": 51.4885754197085, "lng": -0.136722480291502}}}, "name": "Stourhead House", "place_id": "ChIJe9QCSuEEdkgRgTmImNmxeVs", "types": ["point_of_interest", "establishment"], "rating": 3, "user_ratings_total": 2}, "ChIJU6GRS-EEdkgRf9ncqiIs_Tc": {"geometry": {"location": {"lat": 51.4896883, "lng": -0.1352079}, "viewport": {"northeast": {"lat": 51.4910522302915, "lng": -0.133838319708498}, "southwest": {"lat": 51.4883542697085, "lng": -0.136536280291502}}}, "name": "Pure Real Estate Services Ltd", "place_id": "ChIJU6GRS-EEdkgRf9ncqiIs_Tc", "types": ["point_of_interest", "establishment"], "rating": 5, "user_ratings_total": 1}, "ChIJVVURNOEEdkgRHDubkdAp1yo": {"geometry": {"location": {"lat": 51.49023340000001, "lng": -0.1352636}, "viewport": {"northeast": {"lat": 51.4915580802915, "lng": -0.133865169708498}, "southwest": {"lat": 51.4888601197085, "lng": -0.136563130291502}}}, "name": "CPN Financial Services", "place_id": "ChIJVVURNOEEdkgRHDubkdAp1yo", "types": ["finance", "point_of_interest", "establishment"]}, "ChIJ1T6gS-EEdkgRJdkAEoYfY3E": {"geometry": {"location": {"lat": 51.48982299999999, "lng": -0.135032}, "viewport": {"northeast": {"lat": 51.49110178029149, "lng": -0.133784819708498}, "southwest": {"lat": 51.4884038197085, "lng": -0.136482780291502}}}, "name": "Memento Flowers", "place_id": "ChIJ1T6gS-EEdkgRJdkAEoYfY3E", "types": ["florist", "point_of_interest", "store", "establishment"], "rating": 4.7, "user_ratings_total": 36}, "ChIJy6zmM-EEdkgRlyU-lsqR-kc": {"geometry": {"location": {"lat": 51.490234, "lng": -0.1353176}, "viewport": {"northeast": {"lat": 51.4915503802915, "lng": -0.133902319708498}, "southwest": {"lat": 51.4888524197085, "lng": -0.1366002802915021}}}, "name": "Smart Software Initiative LTD", "place_id": "ChIJy6zmM-EEdkgRlyU-lsqR-kc", "types": ["point_of_interest", "establishment"]}, "ChIJTywyM-EEdkgR2jqGRJ8DAhI": {"geometry": {"location": {"lat": 51.490234, "lng": -0.1353176}, "viewport": {"northeast": {"lat": 51.4915829802915, "lng": -0.133968619708498}, "southwest": {"lat": 51.4888850197085, "lng": -0.136666580291502}}}, "name": "3D Space Storage", "place_id": "ChIJTywyM-EEdkgR2jqGRJ8DAhI", "types": ["storage", "point_of_interest", "establishment"], "rating": 4.9, "user_ratings_total": 8}, "ChIJtViDNOEEdkgRuypT-ypnkJU": {"geometry": {"location": {"lat": 51.49031459999999, "lng": -0.135221}, "viewport": {"northeast": {"lat": 51.4916301302915, "lng": -0.1338039697084979}, "southwest": {"lat": 51.4889321697085, "lng": -0.136501930291502}}}, "name": "CPN Investment Management", "place_id": "ChIJtViDNOEEdkgRuypT-ypnkJU", "types": ["finance", "point_of_interest", "establishment"]}, "ChIJWcxKTOEEdkgRfOlSyDsWGlc": {"geometry": {"location": {"lat": 51.4894746, "lng": -0.1352293}, "viewport": {"northeast": {"lat": 51.4908837302915, "lng": -0.1337971197084979}, "southwest": {"lat": 51.4881857697085, "lng": -0.136495080291502}}}, "name": "Clan Maitland", "place_id": "ChIJWcxKTOEEdkgRfOlSyDsWGlc", "types": ["point_of_interest", "establishment"], "rating": 5, "user_ratings_total": 1}, "ChIJFYv2SeEEdkgRFGdC7H6L3ig": {"geometry": {"location": {"lat": 51.4898648, "lng": -0.1353233}, "viewport": {"northeast": {"lat": 51.4911900802915, "lng": -0.134056719708498}, "southwest": {"lat": 51.4884921197085, "lng": -0.136754680291502}}}, "name": "Pride Of Pimlico", "place_id": "ChIJFYv2SeEEdkgRFGdC7H6L3ig", "types": ["bar", "point_of_interest", "establishment"], "rating": 4.1, "user_ratings_total": 183}, "ChIJIdJCs-YEdkgRdh5RGDs4s0I": {"geometry": {"location": {"lat": 51.4896379, "lng": -0.1349595}, "viewport": {"northeast": {"lat": 51.4909586302915, "lng": -0.133649569708498}, "southwest": {"lat": 51.4882606697085, "lng": -0.136347530291502}}}, "name": "Cila Hairdressing", "place_id": "ChIJIdJCs-YEdkgRdh5RGDs4s0I", "types": ["hair_care", "point_of_interest", "establishment"], "rating": 4.8, "user_ratings_total": 23}, "ChIJ6xtATeEEdkgRTqh2pjKNoUA": {"geometry": {"location": {"lat": 51.4896417, "lng": -0.1355079}, "viewport": {"northeast": {"lat": 51.4910373302915, "lng": -0.134269369708498}, "southwest": {"lat": 51.48833936970851, "lng": -0.136967330291502}}}, "name": "Clear Voice Enterprises Ltd", "place_id": "ChIJ6xtATeEEdkgRTqh2pjKNoUA", "types": ["point_of_interest", "establishment"]}, "ChIJW19Cs-YEdkgRyubckZvdU10": {"geometry": {"location": {"lat": 51.4895845, "lng": -0.1347569}, "viewport": {"northeast": {"lat": 51.4908890302915, "lng": -0.133468019708498}, "southwest": {"lat": 51.4881910697085, "lng": -0.136165980291502}}}, "name": "Tachbrook Bakery, Patisserie & Coffee Shop.", "place_id": "ChIJW19Cs-YEdkgRyubckZvdU10", "types": ["bakery", "cafe", "food", "point_of_interest", "store", "establishment"], "rating": 4.5, "user_ratings_total": 115}, "ChIJM40MS-EEdkgRLfQDNLKk4zg": {"geometry": {"location": {"lat": 51.48967640000001, "lng": -0.1350510000000001}, "viewport": {"northeast": {"lat": 51.4910056302915, "lng": -0.133743219708498}, "southwest": {"lat": 51.4883076697085, "lng": -0.1364411802915021}}}, "name": "Portman's Pharmacy", "place_id": "ChIJM40MS-EEdkgRLfQDNLKk4zg", "types": ["pharmacy", "health", "point_of_interest", "store", "establishment"], "rating": 4.4, "user_ratings_total": 14}, "ChIJ_SVItuYEdkgR9RBlAojlpcc": {"geometry": {"location": {"lat": 51.48989249999999, "lng": -0.13444}, "viewport": {"northeast": {"lat": 51.49107543029149, "lng": -0.132663569708498}, "southwest": {"lat": 51.4883774697085, "lng": -0.135361530291502}}}, "name": "3 Bedroom Maisonette", "place_id": "ChIJ_SVItuYEdkgR9RBlAojlpcc", "types": ["lodging", "point_of_interest", "establishment"]}, "ChIJGablxtIFdkgR71xcUrzk5no": {"geometry": {"location": {"lat": 51.4896489, "lng": -0.1349628}, "viewport": {"northeast": {"lat": 51.4909669802915, "lng": -0.133656569708498}, "southwest": {"lat": 51.4882690197085, "lng": -0.136354530291502}}}, "name": "UPS Access Point", "place_id": "ChIJGablxtIFdkgR71xcUrzk5no", "types": ["point_of_interest", "establishment"], "rating": 3.2, "user_ratings_total": 5}, "ChIJ_3eqTOEEdkgR060dde9SElw": {"geometry": {"location": {"lat": 51.4896384, "lng": -0.1349767}, "viewport": {"northeast": {"lat": 51.49096373029149, "lng": -0.133666969708498}, "southwest": {"lat": 51.4882657697085, "lng": -0.136364930291502}}}, "name": "Pimlico Food & Wine", "place_id": "ChIJ_3eqTOEEdkgR060dde9SElw", "types": ["grocery_or_supermarket", "food", "point_of_interest", "store", "establishment"], "rating": 3, "user_ratings_total": 4}, "ChIJ_3eqTOEEdkgRzR_o-rFD7ZI": {"geometry": {"location": {"lat": 51.4896384, "lng": -0.1349767}, "viewport": {"northeast": {"lat": 51.49096163029151, "lng": -0.133663319708498}, "southwest": {"lat": 51.48826366970851, "lng": -0.136361280291502}}}, "name": "KeyNest - Smart Key Exchange", "place_id": "ChIJ_3eqTOEEdkgRzR_o-rFD7ZI", "types": ["point_of_interest", "store", "establishment"], "rating": 5, "user_ratings_total": 1}, "ChIJ4YZVS-EEdkgR1mWX7pK3uLc": {"geometry": {"location": {"lat": 51.4896384, "lng": -0.1349767}, "viewport": {"northeast": {"lat": 51.4909630802915, "lng": -0.133666069708498}, "southwest": {"lat": 51.4882651197085, "lng": -0.136364030291502}}}, "name": "Pimlico Self Service", "place_id": "ChIJ4YZVS-EEdkgR1mWX7pK3uLc", "types": ["convenience_store", "food", "point_of_interest", "store", "establishment"]}, "ChIJtViDNOEEdkgRWCUb4_96AjQ": {"geometry": {"location": {"lat": 51.489599, "lng": -0.1348589}, "viewport": {"northeast": {"lat": 51.4909154302915, "lng": -0.133522969708498}, "southwest": {"lat": 51.4882174697085, "lng": -0.136220930291502}}}, "name": "Money on Toast", "place_id": "ChIJtViDNOEEdkgRWCUb4_96AjQ", "types": ["finance", "point_of_interest", "establishment"], "rating": 5, "user_ratings_total": 1}, "ChIJsyS9WTwFdkgRSp5xoHbmGXc": {"geometry": {"location": {"lat": 51.4898003, "lng": -0.1352403}, "viewport": {"northeast": {"lat": 51.4911176302915, "lng": -0.133932719708498}, "southwest": {"lat": 51.4884196697085, "lng": -0.136630680291502}}}, "name": "Chilli 87 Indian Takeaway Pimlico(Sw1v 2QA)", "place_id": "ChIJsyS9WTwFdkgRSp5xoHbmGXc", "types": ["meal_takeaway", "restaurant", "food", "point_of_interest", "establishment"], "rating": 5, "user_ratings_total": 18}, "ChIJJ5QKIpcFdkgR7pz2dBUuzeI": {"geometry": {"location": {"lat": 51.4898003, "lng": -0.1352403}, "viewport": {"northeast": {"lat": 51.4911176302915, "lng": -0.133932719708498}, "southwest": {"lat": 51.4884196697085, "lng": -0.136630680291502}}}, "name": "Chilli Griddle", "place_id": "ChIJJ5QKIpcFdkgR7pz2dBUuzeI", "types": ["restaurant", "food", "point_of_interest", "establishment"], "rating": 4.6, "user_ratings_total": 62}, "ChIJI6_KS-EEdkgR3FASszKbeYs": {"geometry": {"location": {"lat": 51.4898003, "lng": -0.1352403}, "viewport": {"northeast": {"lat": 51.4911176302915, "lng": -0.133932719708498}, "southwest": {"lat": 51.4884196697085, "lng": -0.136630680291502}}}, "name": "Pimlico Cafe & Bbq", "place_id": "ChIJI6_KS-EEdkgR3FASszKbeYs", "types": ["restaurant", "food", "point_of_interest", "establishment"]}, "ChIJ8XMzSuEEdkgRBUBgD62y0wo": {"geometry": {"location": {"lat": 51.489811, "lng": -0.135266}, "viewport": {"northeast": {"lat": 51.4911171802915, "lng": -0.133921869708498}, "southwest": {"lat": 51.4884192197085, "lng": -0.136619830291502}}}, "name": "Expert Drycleaners Limited", "place_id": "ChIJ8XMzSuEEdkgRBUBgD62y0wo", "types": ["laundry", "point_of_interest", "establishment"], "rating": 3.8, "user_ratings_total": 16}, "ChIJhfiYs-YEdkgRjtmhhxNDFJ0": {"geometry": {"location": {"lat": 51.4895651, "lng": -0.134744}, "viewport": {"northeast": {"lat": 51.4908770802915, "lng": -0.133457319708498}, "southwest": {"lat": 51.4881791197085, "lng": -0.136155280291502}}}, "name": "Tachbrook Street Post Office", "place_id": "ChIJhfiYs-YEdkgRjtmhhxNDFJ0", "types": ["post_office", "finance", "point_of_interest", "establishment"], "rating": 3.6, "user_ratings_total": 16}, "ChIJPXRRPFMFdkgRjeEFsopWc54": {"geometry": {"location": {"lat": 51.4895651, "lng": -0.134744}, "viewport": {"northeast": {"lat": 51.4908733302915, "lng": -0.133450119708498}, "southwest": {"lat": 51.4881753697085, "lng": -0.136148080291502}}}, "name": "Post Office Travel Money", "place_id": "ChIJPXRRPFMFdkgRjeEFsopWc54", "types": ["finance", "point_of_interest", "establishment"]}, "ChIJBVdQUx8FdkgRy1ddogn2B5M": {"geometry": {"location": {"lat": 51.4895651, "lng": -0.134744}, "viewport": {"northeast": {"lat": 51.4908733302915, "lng": -0.133450119708498}, "southwest": {"lat": 51.4881753697085, "lng": -0.136148080291502}}}, "name": "GSM Mobile Phone Repair shop", "place_id": "ChIJBVdQUx8FdkgRy1ddogn2B5M", "types": ["point_of_interest", "store", "establishment"], "rating": 4, "user_ratings_total": 14}, "ChIJ8zrhyeYEdkgRkNotPX0nklQ": {"geometry": {"location": {"lat": 51.49011069999999, "lng": -0.1342506}, "viewport": {"northeast": {"lat": 51.49159973029149, "lng": -0.1329888697084979}, "southwest": {"lat": 51.48890176970849, "lng": -0.135686830291502}}}, "name": "Longleat House", "place_id": "ChIJ8zrhyeYEdkgRkNotPX0nklQ", "types": ["point_of_interest", "establishment"], "rating": 4.8, "user_ratings_total": 8}, "ChIJDfqeSeEEdkgRDpBy91LH6rQ": {"geometry": {"location": {"lat": 51.4898457, "lng": -0.1353654}, "viewport": {"northeast": {"lat": 51.4911774802915, "lng": -0.134048119708498}, "southwest": {"lat": 51.4884795197085, "lng": -0.136746080291502}}}, "name": "BeYoCo - The Business Yoga Company", "place_id": "ChIJDfqeSeEEdkgRDpBy91LH6rQ", "types": ["health", "point_of_interest", "establishment"]}, "ChIJNZgkNuEEdkgRDk1B0eb_bY8": {"geometry": {"location": {"lat": 51.4903571, "lng": -0.1347592}, "viewport": {"northeast": {"lat": 51.4917343802915, "lng": -0.133467819708498}, "southwest": {"lat": 51.4890364197085, "lng": -0.136165780291502}}}, "name": "M-Lash", "place_id": "ChIJNZgkNuEEdkgRDk1B0eb_bY8", "types": ["beauty_salon", "point_of_interest", "establishment"]}, "ChIJVVURNOEEdkgRIhx9jt3Vo-8": {"geometry": {"location": {"lat": 51.49023340000001, "lng": -0.1352636}, "viewport": {"northeast": {"lat": 51.4915580802915, "lng": -0.133865169708498}, "southwest": {"lat": 51.4888601197085, "lng": -0.136563130291502}}}, "name": "The Centre For Global Studies", "place_id": "ChIJVVURNOEEdkgRIhx9jt3Vo-8", "types": ["point_of_interest", "establishment"]}, "ChIJEWr939wEdkgRSjObhM9ZDw4": {"geometry": {"location": {"lat": 51.4902631, "lng": -0.135225}, "viewport": {"northeast": {"lat": 51.4915879302915, "lng": -0.133826869708498}, "southwest": {"lat": 51.4888899697085, "lng": -0.136524830291502}}}, "name": "Hatching Dragons Westminster | Bilingual Nursery in Pimlico", "place_id": "ChIJEWr939wEdkgRSjObhM9ZDw4", "types": ["school", "point_of_interest", "establishment"], "rating": 3.8, "user_ratings_total": 6}, "ChIJB0GAZLsbdkgRuFQn4iOGK-c": {"geometry": {"location": {"lat": 51.4902631, "lng": -0.135225}, "viewport": {"northeast": {"lat": 51.4915879302915, "lng": -0.133826869708498}, "southwest": {"lat": 51.4888899697085, "lng": -0.136524830291502}}}, "name": "Hatching Dragons Weekend School", "place_id": "ChIJB0GAZLsbdkgRuFQn4iOGK-c", "types": ["point_of_interest", "establishment"], "rating": 5, "user_ratings_total": 2}, "ChIJbRepp8gFdkgR4w3SdGiR5UM": {"geometry": {"location": {"lat": 51.4894537, "lng": -0.1345242}, "viewport": {"northeast": {"lat": 51.49068053029151, "lng": -0.132809069708498}, "southwest": {"lat": 51.48798256970851, "lng": -0.135507030291502}}}, "name": "MedicSpot Clinic Pimlico Station", "place_id": "ChIJbRepp8gFdkgR4w3SdGiR5UM", "types": ["doctor", "health", "point_of_interest", "establishment"], "rating": 1, "user_ratings_total": 1}, "ChIJU2bxzuYEdkgRbiXEDiCmT1s": {"geometry": {"location": {"lat": 51.49039819999999, "lng": -0.1347135}, "viewport": {"northeast": {"lat": 51.4917745302915, "lng": -0.133420119708498}, "southwest": {"lat": 51.4890765697085, "lng": -0.136118080291502}}}, "name": "Housing 21", "place_id": "ChIJU2bxzuYEdkgRbiXEDiCmT1s", "types": ["point_of_interest", "establishment"]}, "ChIJTciWNuEEdkgRWG6Bsqhd58g": {"geometry": {"location": {"lat": 51.4901941, "lng": -0.1353949}, "viewport": {"northeast": {"lat": 51.49150643029149, "lng": -0.133971369708498}, "southwest": {"lat": 51.48880846970849, "lng": -0.136669330291502}}}, "name": "The Keyboard Group", "place_id": "ChIJTciWNuEEdkgRWG6Bsqhd58g", "types": ["point_of_interest", "establishment"]}, "ChIJpbUxTOEEdkgRAKM8i6_5Syc": {"geometry": {"location": {"lat": 51.4895039, "lng": -0.1352768}, "viewport": {"northeast": {"lat": 51.4909119302915, "lng": -0.133846119708498}, "southwest": {"lat": 51.4882139697085, "lng": -0.136544080291502}}}, "name": "Veristat", "place_id": "ChIJpbUxTOEEdkgRAKM8i6_5Syc", "types": ["lawyer", "point_of_interest", "establishment"]}, "ChIJ-1QqSeEEdkgRjvgWwfQNM6A": {"geometry": {"location": {"lat": 51.4896489, "lng": -0.1355024}, "viewport": {"northeast": {"lat": 51.4910404302915, "lng": -0.134266619708498}, "southwest": {"lat": 51.4883424697085, "lng": -0.136964580291502}}}, "name": "International Systems and Communications Ltd (ISC)", "place_id": "ChIJ-1QqSeEEdkgRjvgWwfQNM6A", "types": ["point_of_interest", "establishment"]}, "ChIJ8xlATeEEdkgRHRfK4jTnU3Q": {"geometry": {"location": {"lat": 51.4896417, "lng": -0.1355079}, "viewport": {"northeast": {"lat": 51.4910373302915, "lng": -0.134269369708498}, "southwest": {"lat": 51.48833936970851, "lng": -0.136967330291502}}}, "name": "Piccadilly Global Consulting Ltd", "place_id": "ChIJ8xlATeEEdkgRHRfK4jTnU3Q", "types": ["point_of_interest", "establishment"]}, "ChIJ55-OVOEEdkgRIh0lU-OK_ck": {"geometry": {"location": {"lat": 51.48882491307852, "lng": -0.1348949723532677}, "viewport": {"northeast": {"lat": 51.4901720302915, "lng": -0.133548569708498}, "southwest": {"lat": 51.4874740697085, "lng": -0.136246530291502}}}, "name": "33 St.George's Square", "place_id": "ChIJ55-OVOEEdkgRIh0lU-OK_ck", "types": ["route"]}, "ChIJ8eizruYEdkgR0vq6pKojIE0": {"geometry": {"location": {"lat": 51.48894500000001, "lng": -0.1346674}, "viewport": {"northeast": {"lat": 51.49024043029151, "lng": -0.133275119708498}, "southwest": {"lat": 51.48754246970851, "lng": -0.135973080291502}}}, "name": "William Hill", "place_id": "ChIJ8eizruYEdkgR0vq6pKojIE0", "types": ["point_of_interest", "establishment"], "rating": 2, "user_ratings_total": 5}, "ChIJ8eizruYEdkgRNbyYdPipML4": {"geometry": {"location": {"lat": 51.4889613, "lng": -0.1345077}, "viewport": {"northeast": {"lat": 51.4902637302915, "lng": -0.133111769708498}, "southwest": {"lat": 51.4875657697085, "lng": -0.135809730291502}}}, "name": "Wine Rack", "place_id": "ChIJ8eizruYEdkgRNbyYdPipML4", "types": ["liquor_store", "point_of_interest", "store", "establishment"], "rating": 4.2, "user_ratings_total": 25}, "ChIJ4bHIpeYEdkgRkGl7hUIrREM": {"geometry": {"location": {"lat": 51.4890169, "lng": -0.1343512}, "viewport": {"northeast": {"lat": 51.4903658802915, "lng": -0.133002219708498}, "southwest": {"lat": 51.4876679197085, "lng": -0.135700180291502}}}, "name": "Public Toilet", "place_id": "ChIJ4bHIpeYEdkgRkGl7hUIrREM", "types": ["point_of_interest", "establishment"], "rating": 3.1, "user_ratings_total": 38}, "ChIJm8Gkp-YEdkgRWCnwn8JUa-c": {"geometry": {"location": {"lat": 51.4887671, "lng": -0.1340584}, "viewport": {"northeast": {"lat": 51.4901080802915, "lng": -0.132753419708498}, "southwest": {"lat": 51.4874101197085, "lng": -0.135451380291502}}}, "name": "Acknowledging Youths C I C", "place_id": "ChIJm8Gkp-YEdkgRWCnwn8JUa-c", "types": ["point_of_interest", "establishment"]}, "ChIJ8VIYgN0EdkgR8o4agp8G0g8": {"geometry": {"location": {"lat": 51.4887775, "lng": -0.133994}, "viewport": {"northeast": {"lat": 51.4901121302915, "lng": -0.132723119708498}, "southwest": {"lat": 51.4874141697085, "lng": -0.135421080291502}}}, "name": "Westminster Bangladeshi Association", "place_id": "ChIJ8VIYgN0EdkgR8o4agp8G0g8", "types": ["point_of_interest", "establishment"]}, "ChIJXybcqeYEdkgRfaDBGLed5wo": {"geometry": {"location": {"lat": 51.4887719, "lng": -0.1343203}, "viewport": {"northeast": {"lat": 51.4901382802915, "lng": -0.132899969708498}, "southwest": {"lat": 51.4874403197085, "lng": -0.135597930291502}}}, "name": "The Gallery Pub", "place_id": "ChIJXybcqeYEdkgRfaDBGLed5wo", "types": ["bar", "restaurant", "food", "point_of_interest", "establishment"], "rating": 3.9, "user_ratings_total": 495}, "ChIJSXS_qeYEdkgRYE-tGK8OAUI": {"geometry": {"location": {"lat": 51.4887358, "lng": -0.1344936}, "viewport": {"northeast": {"lat": 51.4901372302915, "lng": -0.133177019708498}, "southwest": {"lat": 51.4874392697085, "lng": -0.135874980291502}}}, "name": "Pimlico Village", "place_id": "ChIJSXS_qeYEdkgRYE-tGK8OAUI", "types": ["cafe", "food", "point_of_interest", "store", "establishment"], "rating": 3.5, "user_ratings_total": 121}, "ChIJlV1PFD8FdkgRlajd4C7TK6Q": {"geometry": {"location": {"lat": 51.48848779999999, "lng": -0.135236}, "viewport": {"northeast": {"lat": 51.4898367802915, "lng": -0.133887019708498}, "southwest": {"lat": 51.4871388197085, "lng": -0.136584980291502}}}, "name": "St Saviour's, Pimlico", "place_id": "ChIJlV1PFD8FdkgRlajd4C7TK6Q", "types": ["tourist_attraction", "church", "place_of_worship", "point_of_interest", "establishment"], "rating": 4.6, "user_ratings_total": 54}, "ChIJu457VOEEdkgR87kTUYcrmfs": {"geometry": {"location": {"lat": 51.4890712, "lng": -0.1350773}, "viewport": {"northeast": {"lat": 51.49042018029149, "lng": -0.133728319708498}, "southwest": {"lat": 51.48772221970849, "lng": -0.136426280291502}}}, "name": "Apartments Inn London", "place_id": "ChIJu457VOEEdkgR87kTUYcrmfs", "types": ["lodging", "point_of_interest", "establishment"], "rating": 3.5, "user_ratings_total": 92}, "ChIJSUwJq-YEdkgRFTaDgXs2q0o": {"geometry": {"location": {"lat": 51.488905, "lng": -0.134762}, "viewport": {"northeast": {"lat": 51.4902115302915, "lng": -0.133474919708498}, "southwest": {"lat": 51.4875135697085, "lng": -0.136172880291502}}}, "name": "Blue Plaque: Major Walter Clopton Wingfield", "place_id": "ChIJSUwJq-YEdkgRFTaDgXs2q0o", "types": ["point_of_interest", "establishment"], "rating": 5, "user_ratings_total": 1}, "ChIJh4W3H-oFdkgRfnj5aY3EOBM": {"geometry": {"location": {"lat": 51.48869999999999, "lng": -0.1346}, "viewport": {"northeast": {"lat": 51.4901097802915, "lng": -0.133261419708498}, "southwest": {"lat": 51.4874118197085, "lng": -0.135959380291502}}}, "name": "UPS Access Point", "place_id": "ChIJh4W3H-oFdkgRfnj5aY3EOBM", "types": ["point_of_interest", "establishment"], "rating": 1, "user_ratings_total": 1}, "ChIJXybcqeYEdkgRalHgsEg13JY": {"geometry": {"location": {"lat": 51.4887245, "lng": -0.1345667}, "viewport": {"northeast": {"lat": 51.49012728029149, "lng": -0.133235019708498}, "southwest": {"lat": 51.4874293197085, "lng": -0.135932980291502}}}, "name": "Greetway Grocery Store", "place_id": "ChIJXybcqeYEdkgRalHgsEg13JY", "types": ["grocery_or_supermarket", "supermarket", "food", "point_of_interest", "store", "establishment"], "rating": 2.6, "user_ratings_total": 20}, "ChIJkajiq-YEdkgRDfHkUYOl0pw": {"geometry": {"location": {"lat": 51.4889387, "lng": -0.1345926}, "viewport": {"northeast": {"lat": 51.4902432802915, "lng": -0.133206219708498}, "southwest": {"lat": 51.4875453197085, "lng": -0.135904180291502}}}, "name": "Laundrette", "place_id": "ChIJkajiq-YEdkgRDfHkUYOl0pw", "types": ["laundry", "point_of_interest", "establishment"], "rating": 2.2, "user_ratings_total": 25}, "ChIJ9-OzqeYEdkgR6AV-JZIDqjI": {"geometry": {"location": {"lat": 51.48874970000001, "lng": -0.1344305}, "viewport": {"northeast": {"lat": 51.4901435302915, "lng": -0.133145469708498}, "southwest": {"lat": 51.4874455697085, "lng": -0.135843430291502}}}, "name": "Food For Thought", "place_id": "ChIJ9-OzqeYEdkgR6AV-JZIDqjI", "types": ["restaurant", "food", "point_of_interest", "establishment"], "rating": 5, "user_ratings_total": 1}, "ChIJ8-izruYEdkgR625SCEE-ltw": {"geometry": {"location": {"lat": 51.48899979999999, "lng": -0.134528}, "viewport": {"northeast": {"lat": 51.49027853029149, "lng": -0.133147169708498}, "southwest": {"lat": 51.48758056970849, "lng": -0.135845130291502}}}, "name": "Twisted Stone Limited", "place_id": "ChIJ8-izruYEdkgR625SCEE-ltw", "types": ["point_of_interest", "establishment"]}, "ChIJ71Q3qOYEdkgR0BDmhzD0nUE": {"geometry": {"location": {"lat": 51.488716, "lng": -0.134362}, "viewport": {"northeast": {"lat": 51.4900986802915, "lng": -0.132908419708498}, "southwest": {"lat": 51.4874007197085, "lng": -0.135606380291502}}}, "name": "Stylish Apartments in Pimlico", "place_id": "ChIJ71Q3qOYEdkgR0BDmhzD0nUE", "types": ["lodging", "point_of_interest", "establishment"], "rating": 1, "user_ratings_total": 1}, "ChIJPZUsr-YEdkgRfDaL7zuhCcs": {"geometry": {"location": {"lat": 51.48898790000001, "lng": -0.1343799}, "viewport": {"northeast": {"lat": 51.4902841802915, "lng": -0.133007019708498}, "southwest": {"lat": 51.4875862197085, "lng": -0.135704980291502}}}, "name": "SK Sweets", "place_id": "ChIJPZUsr-YEdkgRfDaL7zuhCcs", "types": ["convenience_store", "food", "point_of_interest", "store", "establishment"], "rating": 4.5, "user_ratings_total": 13}, "ChIJ52cIVOEEdkgRdzyCOxOuN4Q": {"geometry": {"location": {"lat": 51.48897349999999, "lng": -0.135275}, "viewport": {"northeast": {"lat": 51.4903124302915, "lng": -0.133937269708498}, "southwest": {"lat": 51.4876144697085, "lng": -0.136635230291502}}}, "name": "St George's Square", "place_id": "ChIJ52cIVOEEdkgRdzyCOxOuN4Q", "types": ["transit_station", "point_of_interest", "establishment"]}, "ChIJpTPbwd8FdkgR_9bBlSzkNxE": {"geometry": {"location": {"lat": 51.4884874, "lng": -0.1345891}, "viewport": {"northeast": {"lat": 51.48982108029149, "lng": -0.1333335197084979}, "southwest": {"lat": 51.4871231197085, "lng": -0.136031480291502}}}, "name": "Bonita Redman", "place_id": "ChIJpTPbwd8FdkgR_9bBlSzkNxE", "types": ["point_of_interest", "establishment"]}, "ChIJfSd5AeQEdkgRFmpYsy1DZLo": {"geometry": {"location": {"lat": 51.4884792, "lng": -0.1346161}, "viewport": {"northeast": {"lat": 51.48981518029149, "lng": -0.1333462697084979}, "southwest": {"lat": 51.48711721970849, "lng": -0.136044230291502}}}, "name": "Inter-Sol", "place_id": "ChIJfSd5AeQEdkgRFmpYsy1DZLo", "types": ["point_of_interest", "establishment"]}, "ChIJh4SBruYEdkgRNJRbOk8PbU0": {"geometry": {"location": {"lat": 51.4891277, "lng": -0.1345827}, "viewport": {"northeast": {"lat": 51.4905425302915, "lng": -0.133150769708498}, "southwest": {"lat": 51.4878445697085, "lng": -0.135848730291502}}}, "name": "Mobile Microfinance Ltd", "place_id": "ChIJh4SBruYEdkgRNJRbOk8PbU0", "types": ["point_of_interest", "establishment"]}, "ChIJ78LOkKAFdkgR1afjmciKbUE": {"geometry": {"location": {"lat": 51.4887489, "lng": -0.1353685}, "viewport": {"northeast": {"lat": 51.49007348029151, "lng": -0.134007469708498}, "southwest": {"lat": 51.48737551970851, "lng": -0.136705430291502}}}, "name": "Youghy Agellid", "place_id": "ChIJ78LOkKAFdkgR1afjmciKbUE", "types": ["point_of_interest", "establishment"]}, "ChIJEykkVuEEdkgRaSkjv9EB3lE": {"geometry": {"location": {"lat": 51.4887362, "lng": -0.1353999}, "viewport": {"northeast": {"lat": 51.49006688029149, "lng": -0.134042319708498}, "southwest": {"lat": 51.48736891970849, "lng": -0.136740280291502}}}, "name": "St. George's Square Cabmen's Shelter", "place_id": "ChIJEykkVuEEdkgRaSkjv9EB3lE", "types": ["cafe", "food", "point_of_interest", "establishment"], "rating": 4.5, "user_ratings_total": 11}, "ChIJq1SLhqgEdkgRv3tY4GZ5K-w": {"geometry": {"location": {"lat": 51.4885098, "lng": -0.1342685}, "viewport": {"northeast": {"lat": 51.4898415802915, "lng": -0.132874869708498}, "southwest": {"lat": 51.4871436197085, "lng": -0.135572830291502}}}, "name": "dpa lighting consultants London", "place_id": "ChIJq1SLhqgEdkgRv3tY4GZ5K-w", "types": ["point_of_interest", "establishment"], "rating": 4, "user_ratings_total": 2}, "ChIJf5ffVeEEdkgRlenKQpvfoAE": {"geometry": {"location": {"lat": 51.4887362, "lng": -0.1354184}, "viewport": {"northeast": {"lat": 51.4900637802915, "lng": -0.134059319708498}, "southwest": {"lat": 51.4873658197085, "lng": -0.136757280291502}}}, "name": "Alf's Pit Stop", "place_id": "ChIJf5ffVeEEdkgRlenKQpvfoAE", "types": ["cafe", "food", "point_of_interest", "establishment"], "rating": 4.9, "user_ratings_total": 10}, "ChIJM1iQp-YEdkgRHlAxHb7jeRo": {"geometry": {"location": {"lat": 51.488705, "lng": -0.134094}, "viewport": {"northeast": {"lat": 51.4900566802915, "lng": -0.132729069708498}, "southwest": {"lat": 51.4873587197085, "lng": -0.135427030291502}}}, "name": "Source London Charging Station", "place_id": "ChIJM1iQp-YEdkgRHlAxHb7jeRo", "types": ["point_of_interest", "establishment"]}, "ChIJRf7-U-EEdkgRFkweDH_HNl4": {"geometry": {"location": {"lat": 51.4891268, "lng": -0.1351889}, "viewport": {"northeast": {"lat": 51.4904211802915, "lng": -0.133906369708498}, "southwest": {"lat": 51.4877232197085, "lng": -0.136604330291502}}}, "name": "Apartamento Pimplico", "place_id": "ChIJRf7-U-EEdkgRFkweDH_HNl4", "types": ["lodging", "point_of_interest", "establishment"], "rating": 4, "user_ratings_total": 1}, "ChIJw8vEauQEdkgRiwctyjxeyyA": {"geometry": {"location": {"lat": 51.4884762, "lng": -0.1342943}, "viewport": {"northeast": {"lat": 51.4898141802915, "lng": -0.132894969708498}, "southwest": {"lat": 51.4871162197085, "lng": -0.135592930291502}}}, "name": "MEGAPLAN", "place_id": "ChIJw8vEauQEdkgRiwctyjxeyyA", "types": ["general_contractor", "point_of_interest", "establishment"], "rating": 5, "user_ratings_total": 1}, "ChIJm8Gkp-YEdkgR4z9I7nRUegg": {"geometry": {"location": {"lat": 51.4887671, "lng": -0.1340584}, "viewport": {"northeast": {"lat": 51.4901080802915, "lng": -0.132753419708498}, "southwest": {"lat": 51.4874101197085, "lng": -0.135451380291502}}}, "name": "Umbrella From Woman to Woman", "place_id": "ChIJm8Gkp-YEdkgR4z9I7nRUegg", "types": ["health", "point_of_interest", "establishment"]}, "ChIJieq3VuEEdkgRJCcdvVvSxgo": {"geometry": {"location": {"lat": 51.48894500000001, "lng": -0.135413}, "viewport": {"northeast": {"lat": 51.49033068029151, "lng": -0.134019319708498}, "southwest": {"lat": 51.48763271970851, "lng": -0.136717280291502}}}, "name": "St George's Square (Stop F)", "place_id": "ChIJieq3VuEEdkgRJCcdvVvSxgo", "types": ["transit_station", "point_of_interest", "establishment"]}, "ChIJA_1WDVEEdkgRunlHgXcIWP4": {"geometry": {"location": {"lat": 51.4884268, "lng": -0.1343461}, "viewport": {"northeast": {"lat": 51.4897693802915, "lng": -0.132925069708498}, "southwest": {"lat": 51.4870714197085, "lng": -0.135623030291502}}}, "name": "Good Things Magazine", "place_id": "ChIJA_1WDVEEdkgRunlHgXcIWP4", "types": ["point_of_interest", "establishment"]}, "ChIJB94Jl2cFdkgRzbnlxEm7pFk": {"geometry": {"location": {"lat": 51.48925080000001, "lng": -0.1348274}, "viewport": {"northeast": {"lat": 51.49066378029151, "lng": -0.133391869708498}, "southwest": {"lat": 51.48796581970851, "lng": -0.136089830291502}}}, "name": "Pimlico Paving & Driveways", "place_id": "ChIJB94Jl2cFdkgRzbnlxEm7pFk", "types": ["general_contractor", "point_of_interest", "establishment"], "rating": 5, "user_ratings_total": 2}, "ChIJGQ7aU-EEdkgRPsIMHM4MRS0": {"geometry": {"location": {"lat": 51.48910199999999, "lng": -0.1353}, "viewport": {"northeast": {"lat": 51.49041943029149, "lng": -0.133984519708498}, "southwest": {"lat": 51.48772146970849, "lng": -0.136682480291502}}}, "name": "ubitricity Charging Station", "place_id": "ChIJGQ7aU-EEdkgRPsIMHM4MRS0", "types": ["point_of_interest", "establishment"]}, "ChIJtbVzp-YEdkgR5Jo9fwtayQM": {"geometry": {"location": {"lat": 51.4887775, "lng": -0.1339941}, "viewport": {"northeast": {"lat": 51.4901121302915, "lng": -0.132723169708498}, "southwest": {"lat": 51.4874141697085, "lng": -0.135421130291502}}}, "name": "AY Recruitment CIC", "place_id": "ChIJtbVzp-YEdkgR5Jo9fwtayQM", "types": ["point_of_interest", "establishment"], "rating": 2, "user_ratings_total": 1}, "ChIJ_SOvV-EEdkgRT5oPd-vnr6E": {"geometry": {"location": {"lat": 51.48879230000001, "lng": -0.135545}, "viewport": {"northeast": {"lat": 51.49012013029151, "lng": -0.134321219708498}, "southwest": {"lat": 51.48742216970851, "lng": -0.137019180291502}}}, "name": "Private Park", "place_id": "ChIJ_SOvV-EEdkgRT5oPd-vnr6E", "types": ["park", "point_of_interest", "establishment"]}, "ChIJrcp4U-EEdkgR8WGn3c-TJes": {"geometry": {"location": {"lat": 51.4891272, "lng": -0.1353794}, "viewport": {"northeast": {"lat": 51.49044913029149, "lng": -0.1340605197084979}, "southwest": {"lat": 51.4877511697085, "lng": -0.1367584802915019}}}, "name": "St George's Square (Stop G)", "place_id": "ChIJrcp4U-EEdkgR8WGn3c-TJes", "types": ["bus_station", "transit_station", "point_of_interest", "establishment"], "rating": 5, "user_ratings_total": 1}, "ChIJv0GuF-EEdkgR9lnTInYpxyk": {"geometry": {"location": {"lat": 51.49037385787916, "lng": -0.1367295133333655}, "viewport": {"northeast": {"lat": 51.4918222802915, "lng": -0.13460375}, "southwest": {"lat": 51.4891243197085, "lng": -0.13853515}}}, "name": "138-80 Tachbrook St", "place_id": "ChIJv0GuF-EEdkgR9lnTInYpxyk", "types": ["route"]}, "ChIJi2bgclEbdkgRh1j-WSJK-aI": {"geometry": {"location": {"lat": 51.4906417, "lng": -0.1359118}, "viewport": {"northeast": {"lat": 51.4917835802915, "lng": -0.134847869708498}, "southwest": {"lat": 51.4890856197085, "lng": -0.137545830291502}}}, "name": "KREADO", "place_id": "ChIJi2bgclEbdkgRh1j-WSJK-aI", "types": ["general_contractor", "point_of_interest", "establishment"]}, "ChIJme1xTeEEdkgREWK9-VaXYNE": {"geometry": {"location": {"lat": 51.4905102, "lng": -0.1369305}, "viewport": {"northeast": {"lat": 51.49187938029149, "lng": -0.135542769708498}, "southwest": {"lat": 51.4891814197085, "lng": -0.138240730291502}}}, "name": "Savill Damp Proofing Limited", "place_id": "ChIJme1xTeEEdkgREWK9-VaXYNE", "types": ["general_contractor", "point_of_interest", "establishment"], "rating": 5, "user_ratings_total": 4}, "ChIJO1aYIeEEdkgRxPpxpw3OAe0": {"geometry": {"location": {"lat": 51.49125369999999, "lng": -0.1360258}, "viewport": {"northeast": {"lat": 51.4927034802915, "lng": -0.134555169708498}, "southwest": {"lat": 51.4900055197085, "lng": -0.137253130291502}}}, "name": "Lillington Gardens Community Centre", "place_id": "ChIJO1aYIeEEdkgRxPpxpw3OAe0", "types": ["point_of_interest", "establishment"], "rating": 3.9, "user_ratings_total": 32}, "ChIJfzL5btgFdkgRomMf6WU4UoM": {"geometry": {"location": {"lat": 51.4911706, "lng": -0.1370179}, "viewport": {"northeast": {"lat": 51.4925847802915, "lng": -0.135823769708498}, "southwest": {"lat": 51.4898868197085, "lng": -0.138521730291502}}}, "name": "Dr. mehmet M. normina, DDS", "place_id": "ChIJfzL5btgFdkgRomMf6WU4UoM", "types": ["doctor", "health", "point_of_interest", "establishment"]}, "ChIJX36e2OAEdkgRfs4JKsPNQwA": {"geometry": {"location": {"lat": 51.491289, "lng": -0.1359584}, "viewport": {"northeast": {"lat": 51.4927174302915, "lng": -0.134513519708498}, "southwest": {"lat": 51.4900194697085, "lng": -0.137211480291502}}}, "name": "Spicy World Limited", "place_id": "ChIJX36e2OAEdkgRfs4JKsPNQwA", "types": ["point_of_interest", "establishment"]}, "ChIJKWpW_eAEdkgRka2C9xNdESM": {"geometry": {"location": {"lat": 51.4912843, "lng": -0.1372021}, "viewport": {"northeast": {"lat": 51.4926540302915, "lng": -0.135902419708498}, "southwest": {"lat": 51.4899560697085, "lng": -0.138600380291502}}}, "name": "Central London Rescue and Repair Ltd", "place_id": "ChIJKWpW_eAEdkgRka2C9xNdESM", "types": ["car_repair", "point_of_interest", "establishment"]}, "ChIJ74PScuEEdkgRyXOKoq-NcCI": {"geometry": {"location": {"lat": 51.48995572374795, "lng": -0.1372996612879731}, "viewport": {"northeast": {"lat": 51.4913031302915, "lng": -0.1353148}, "southwest": {"lat": 51.48860516970851, "lng": -0.1392884}}}, "name": "59-111 Belgrave Rd", "place_id": "ChIJ74PScuEEdkgRyXOKoq-NcCI", "types": ["route"]}, "ChIJuWuyFOEEdkgR9UQjXb9u2aU": {"geometry": {"location": {"lat": 51.48999549999999, "lng": -0.1369828}, "viewport": {"northeast": {"lat": 51.4912885802915, "lng": -0.135717469708498}, "southwest": {"lat": 51.4885906197085, "lng": -0.138415430291502}}}, "name": "Best Western Corona Hotel", "place_id": "ChIJuWuyFOEEdkgR9UQjXb9u2aU", "types": ["lodging", "point_of_interest", "establishment"], "rating": 3.8, "user_ratings_total": 429}, "ChIJc3mpbeEEdkgRDHvM7nQpHwk": {"geometry": {"location": {"lat": 51.4897076, "lng": -0.1372359}, "viewport": {"northeast": {"lat": 51.4911197802915, "lng": -0.135791169708498}, "southwest": {"lat": 51.4884218197085, "lng": -0.1384891302915021}}}, "name": "Holiday Inn Express London - Victoria, an IHG Hotel", "place_id": "ChIJc3mpbeEEdkgRDHvM7nQpHwk", "types": ["lodging", "point_of_interest", "establishment"], "rating": 3.7, "user_ratings_total": 392}, "ChIJDaYaaeEEdkgRbR8XStuLsYM": {"geometry": {"location": {"lat": 51.48950689999999, "lng": -0.1366956}, "viewport": {"northeast": {"lat": 51.49090693029149, "lng": -0.135284069708498}, "southwest": {"lat": 51.4882089697085, "lng": -0.137982030291502}}}, "name": "Blades", "place_id": "ChIJDaYaaeEEdkgRbR8XStuLsYM", "types": ["lodging", "point_of_interest", "establishment"], "rating": 4.1, "user_ratings_total": 134}, "ChIJxetS_Pqm2EcRBMKJnYArktI": {"geometry": {"location": {"lat": 51.4898111, "lng": -0.1365355}, "viewport": {"northeast": {"lat": 51.49109093029149, "lng": -0.135271219708498}, "southwest": {"lat": 51.4883929697085, "lng": -0.137969180291502}}}, "name": "Corbigoe Hotel", "place_id": "ChIJxetS_Pqm2EcRBMKJnYArktI", "types": ["lodging", "point_of_interest", "establishment"], "rating": 2.1, "user_ratings_total": 499}, "ChIJO8xLQeEEdkgRO4co5OYL4Bk": {"geometry": {"location": {"lat": 51.48973340000001, "lng": -0.1360007}, "viewport": {"northeast": {"lat": 51.4910433802915, "lng": -0.134567919708498}, "southwest": {"lat": 51.4883454197085, "lng": -0.137265880291502}}}, "name": "Trans European Intermodal Transport Ltd", "place_id": "ChIJO8xLQeEEdkgRO4co5OYL4Bk", "types": ["point_of_interest", "establishment"]}, "ChIJ0-JtGfYPdkgRV6nmXrJomwo": {"geometry": {"location": {"lat": 51.48973340000001, "lng": -0.1360007}, "viewport": {"northeast": {"lat": 51.49108238029151, "lng": -0.134651719708498}, "southwest": {"lat": 51.48838441970851, "lng": -0.137349680291502}}}, "name": "WTF Creative", "place_id": "ChIJ0-JtGfYPdkgRV6nmXrJomwo", "types": ["point_of_interest", "establishment"], "rating": 5, "user_ratings_total": 1}, "ChIJL2ecfeEEdkgRh7kABIUalVg": {"geometry": {"location": {"lat": 51.4898986, "lng": -0.1361293}, "viewport": {"northeast": {"lat": 51.4911582302915, "lng": -0.134593369708498}, "southwest": {"lat": 51.4884602697085, "lng": -0.137291330291502}}}, "name": "Honeylight Computers Ltd", "place_id": "ChIJL2ecfeEEdkgRh7kABIUalVg", "types": ["point_of_interest", "establishment"], "rating": 4.4, "user_ratings_total": 68}, "ChIJD5E3FeEEdkgRMAR4Q9m7k5M": {"geometry": {"location": {"lat": 51.4900738, "lng": -0.1365241}, "viewport": {"northeast": {"lat": 51.4914767802915, "lng": -0.135109719708498}, "southwest": {"lat": 51.4887788197085, "lng": -0.137807680291502}}}, "name": "Corinthian Travel", "place_id": "ChIJD5E3FeEEdkgRMAR4Q9m7k5M", "types": ["point_of_interest", "establishment"], "rating": 5, "user_ratings_total": 2}, "ChIJhf8eQuEEdkgRbRr10Y09g30": {"geometry": {"location": {"lat": 51.48962649999999, "lng": -0.1363516}, "viewport": {"northeast": {"lat": 51.4909754802915, "lng": -0.135002619708498}, "southwest": {"lat": 51.4882775197085, "lng": -0.137700580291502}}}, "name": "Nomadic Chefs", "place_id": "ChIJhf8eQuEEdkgRbRr10Y09g30", "types": ["food", "point_of_interest", "establishment"]}, "ChIJOfUasOYEdkgRGrqJVGF4WLM": {"geometry": {"location": {"lat": 51.4902008, "lng": -0.1359771}, "viewport": {"northeast": {"lat": 51.4914804302915, "lng": -0.134702419708498}, "southwest": {"lat": 51.4887824697085, "lng": -0.137400380291502}}}, "name": "Cave", "place_id": "ChIJOfUasOYEdkgRGrqJVGF4WLM", "types": ["art_gallery", "cafe", "food", "point_of_interest", "store", "establishment"], "rating": 4.7, "user_ratings_total": 26}, "ChIJGww5P-EEdkgR8wP80VgrG5w": {"geometry": {"location": {"lat": 51.4899804, "lng": -0.1362057}, "viewport": {"northeast": {"lat": 51.4913691302915, "lng": -0.134814119708498}, "southwest": {"lat": 51.4886711697085, "lng": -0.137512080291502}}}, "name": "Web Expert", "place_id": "ChIJGww5P-EEdkgR8wP80VgrG5w", "types": ["point_of_interest", "establishment"]}, "ChIJaaJ5akcFdkgRQGxf19DsnPM": {"geometry": {"location": {"lat": 51.48962649999999, "lng": -0.1363516}, "viewport": {"northeast": {"lat": 51.4909374302915, "lng": -0.135050669708498}, "southwest": {"lat": 51.4882394697085, "lng": -0.137748630291502}}}, "name": "Mix & Rise", "place_id": "ChIJaaJ5akcFdkgRQGxf19DsnPM", "types": ["food", "point_of_interest", "store", "establishment"]}, "ChIJRxoLs-YEdkgRvnfiPtLneLE": {"geometry": {"location": {"lat": 51.49022209999999, "lng": -0.1366684}, "viewport": {"northeast": {"lat": 51.49160068029149, "lng": -0.135274669708498}, "southwest": {"lat": 51.4889027197085, "lng": -0.137972630291502}}}, "name": "Rs Newsagents", "place_id": "ChIJRxoLs-YEdkgRvnfiPtLneLE", "types": ["point_of_interest", "store", "establishment"]}, "ChIJ78YOR-EEdkgRSJ8GzfN-vak": {"geometry": {"location": {"lat": 51.4898572, "lng": -0.1359083}, "viewport": {"northeast": {"lat": 51.4912499302915, "lng": -0.134517369708498}, "southwest": {"lat": 51.4885519697085, "lng": -0.137215330291502}}}, "name": "Heeran Construction", "place_id": "ChIJ78YOR-EEdkgRSJ8GzfN-vak", "types": ["point_of_interest", "establishment"]}, "ChIJC5JCWsgFdkgR_TrRJnjgOqQ": {"geometry": {"location": {"lat": 51.4896852, "lng": -0.1359931}, "viewport": {"northeast": {"lat": 51.4910043302915, "lng": -0.134582119708498}, "southwest": {"lat": 51.4883063697085, "lng": -0.137280080291502}}}, "name": "Trinity Finance Mortgages", "place_id": "ChIJC5JCWsgFdkgR_TrRJnjgOqQ", "types": ["finance", "point_of_interest", "establishment"], "rating": 5, "user_ratings_total": 15}, "ChIJ1cMBR-EEdkgRUOjHCbtNU9g": {"geometry": {"location": {"lat": 51.48980539999999, "lng": -0.1358977}, "viewport": {"northeast": {"lat": 51.4911580802915, "lng": -0.134440419708498}, "southwest": {"lat": 51.4884601197085, "lng": -0.137138380291502}}}, "name": "111 St George's Square Property Management Limited", "place_id": "ChIJ1cMBR-EEdkgRUOjHCbtNU9g", "types": ["point_of_interest", "establishment"]}, "ChIJ1cMBR-EEdkgRw8eQpYAxzGE": {"geometry": {"location": {"lat": 51.48980539999999, "lng": -0.1358977}, "viewport": {"northeast": {"lat": 51.4911580802915, "lng": -0.134440419708498}, "southwest": {"lat": 51.4884601197085, "lng": -0.137138380291502}}}, "name": "Dragon Property Management Limited", "place_id": "ChIJ1cMBR-EEdkgRw8eQpYAxzGE", "types": ["point_of_interest", "establishment"]}, "ChIJ1cMBR-EEdkgRbXM-0hm40-c": {"geometry": {"location": {"lat": 51.48980539999999, "lng": -0.1358977}, "viewport": {"northeast": {"lat": 51.4911580802915, "lng": -0.134440419708498}, "southwest": {"lat": 51.4884601197085, "lng": -0.137138380291502}}}, "name": "46 Belgrave Road Limited", "place_id": "ChIJ1cMBR-EEdkgRbXM-0hm40-c", "types": ["point_of_interest", "establishment"]}, "ChIJZeuNRuEEdkgRHgtKPPtXoE0": {"geometry": {"location": {"lat": 51.4897302, "lng": -0.1359225}, "viewport": {"northeast": {"lat": 51.4910791802915, "lng": -0.1345735197084979}, "southwest": {"lat": 51.4883812197085, "lng": -0.137271480291502}}}, "name": "Bryan Packman Marcel", "place_id": "ChIJZeuNRuEEdkgRHgtKPPtXoE0", "types": ["point_of_interest", "establishment"]}, "ChIJh0sYaeEEdkgRarHgHT_CrXg": {"geometry": {"location": {"lat": 51.48950689999999, "lng": -0.1366956}, "viewport": {"northeast": {"lat": 51.49090693029149, "lng": -0.135284069708498}, "southwest": {"lat": 51.4882089697085, "lng": -0.137982030291502}}}, "name": "\u30d6\u30ec\u30fc\u30ba \u30db\u30c6\u30eb", "place_id": "ChIJh0sYaeEEdkgRarHgHT_CrXg", "types": ["lodging", "point_of_interest", "establishment"]}, "ChIJl7qxR-EEdkgRkOjKD7RNLOk": {"geometry": {"location": {"lat": 51.4898049, "lng": -0.1358418}, "viewport": {"northeast": {"lat": 51.4912102802915, "lng": -0.134447819708498}, "southwest": {"lat": 51.48851231970851, "lng": -0.137145780291502}}}, "name": "Bunn & Co", "place_id": "ChIJl7qxR-EEdkgRkOjKD7RNLOk", "types": ["real_estate_agency", "point_of_interest", "establishment"], "rating": 3.1, "user_ratings_total": 17}, "ChIJP5ac8FQFdkgRS9MJcu8JAQc": {"geometry": {"location": {"lat": 51.4897529, "lng": -0.1371527}, "viewport": {"northeast": {"lat": 51.49114383029151, "lng": -0.135752219708498}, "southwest": {"lat": 51.48844586970851, "lng": -0.138450180291502}}}, "name": "Hotel victoria londres", "place_id": "ChIJP5ac8FQFdkgRS9MJcu8JAQc", "types": ["lodging", "point_of_interest", "establishment"]}, "ChIJdaHAW_kFdkgRlrJF0l8WMsk": {"geometry": {"location": {"lat": 51.48947200000001, "lng": -0.1365523}, "viewport": {"northeast": {"lat": 51.4908610302915, "lng": -0.135152719708498}, "southwest": {"lat": 51.4881630697085, "lng": -0.137850680291502}}}, "name": "Victoria massage", "place_id": "ChIJdaHAW_kFdkgRlrJF0l8WMsk", "types": ["spa", "point_of_interest", "establishment"], "rating": 5, "user_ratings_total": 5}, "ChIJSyw-OeEEdkgRaGodDU3JXmA": {"geometry": {"location": {"lat": 51.4902008, "lng": -0.1359771}, "viewport": {"northeast": {"lat": 51.4914804302915, "lng": -0.134702419708498}, "southwest": {"lat": 51.4887824697085, "lng": -0.137400380291502}}}, "name": "Cavespace", "place_id": "ChIJSyw-OeEEdkgRaGodDU3JXmA", "types": ["art_gallery", "point_of_interest", "establishment"]}, "ChIJlf__b7UEdkgRaekf8LyV5Eg": {"geometry": {"location": {"lat": 51.4901202, "lng": -0.1372793}, "viewport": {"northeast": {"lat": 51.4914142302915, "lng": -0.135997819708498}, "southwest": {"lat": 51.4887162697085, "lng": -0.138695780291502}}}, "name": "Melbourne House Hotel", "place_id": "ChIJlf__b7UEdkgRaekf8LyV5Eg", "types": ["lodging", "point_of_interest", "establishment"], "rating": 3.7, "user_ratings_total": 156}, "ChIJpYFM3uMEdkgREfISgVGDkBI": {"geometry": {"location": {"lat": 51.48848367755205, "lng": -0.1365211434147427}, "viewport": {"northeast": {"lat": 51.48983073029149, "lng": -0.13495055}, "southwest": {"lat": 51.4871327697085, "lng": -0.13808995}}}, "name": "32-10 Lupus St", "place_id": "ChIJpYFM3uMEdkgREfISgVGDkBI", "types": ["route"]}, "ChIJC-FtXeEEdkgRzgSQztgcexg": {"geometry": {"location": {"lat": 51.48916440000001, "lng": -0.1363534}, "viewport": {"northeast": {"lat": 51.4905365302915, "lng": -0.135045619708498}, "southwest": {"lat": 51.4878385697085, "lng": -0.137743580291502}}}, "name": "SW1 Bathroom Plumbing & Heating Supplies", "place_id": "ChIJC-FtXeEEdkgRzgSQztgcexg", "types": ["home_goods_store", "point_of_interest", "store", "establishment"], "rating": 4.1, "user_ratings_total": 17}, "ChIJcViTfOEEdkgRpavzoA7wSz4": {"geometry": {"location": {"lat": 51.48889129999999, "lng": -0.1371379}, "viewport": {"northeast": {"lat": 51.4901970302915, "lng": -0.135728369708498}, "southwest": {"lat": 51.4874990697085, "lng": -0.138426330291502}}}, "name": "Pizza Express", "place_id": "ChIJcViTfOEEdkgRpavzoA7wSz4", "types": ["meal_takeaway", "restaurant", "food", "point_of_interest", "establishment"], "rating": 4, "user_ratings_total": 365}, "ChIJc9bYY-EEdkgRcJwl7RUElKs": {"geometry": {"location": {"lat": 51.488917, "lng": -0.1365984}, "viewport": {"northeast": {"lat": 51.4903060302915, "lng": -0.135322319708498}, "southwest": {"lat": 51.4876080697085, "lng": -0.138020280291502}}}, "name": "Pimlico Centre for the Alexander Technique", "place_id": "ChIJc9bYY-EEdkgRcJwl7RUElKs", "types": ["health", "point_of_interest", "establishment"], "rating": 5, "user_ratings_total": 4}, "ChIJU4DSZuEEdkgRGfiwswzffaI": {"geometry": {"location": {"lat": 51.48890789999999, "lng": -0.1366}, "viewport": {"northeast": {"lat": 51.4902986802915, "lng": -0.1353270697084979}, "southwest": {"lat": 51.4876007197085, "lng": -0.138025030291502}}}, "name": "Invisible Training", "place_id": "ChIJU4DSZuEEdkgRGfiwswzffaI", "types": ["point_of_interest", "establishment"]}, "ChIJD6KTfOEEdkgRyFXs7omAr24": {"geometry": {"location": {"lat": 51.4889599, "lng": -0.1370235}, "viewport": {"northeast": {"lat": 51.4902738802915, "lng": -0.135610869708498}, "southwest": {"lat": 51.4875759197085, "lng": -0.138308830291502}}}, "name": "Peta Smyth Antique Textiles", "place_id": "ChIJD6KTfOEEdkgRyFXs7omAr24", "types": ["home_goods_store", "point_of_interest", "store", "establishment"]}, "ChIJ7x8SH4MPdkgRcsQ978sg9m4": {"geometry": {"location": {"lat": 51.488917, "lng": -0.1365984}, "viewport": {"northeast": {"lat": 51.4903060302915, "lng": -0.135322319708498}, "southwest": {"lat": 51.4876080697085, "lng": -0.138020280291502}}}, "name": "Alexander Technique in London", "place_id": "ChIJ7x8SH4MPdkgRcsQ978sg9m4", "types": ["health", "point_of_interest", "establishment"]}, "ChIJ-9PeYOEEdkgRoCUzdpHxjIY": {"geometry": {"location": {"lat": 51.488917, "lng": -0.1365984}, "viewport": {"northeast": {"lat": 51.4903060302915, "lng": -0.135322319708498}, "southwest": {"lat": 51.4876080697085, "lng": -0.138020280291502}}}, "name": "Arabella Lennox-Boyd Landscape Design", "place_id": "ChIJ-9PeYOEEdkgRoCUzdpHxjIY", "types": ["general_contractor", "point_of_interest", "establishment"]}, "ChIJeyVrY-EEdkgRRqwqQ1j_c6o": {"geometry": {"location": {"lat": 51.4888127, "lng": -0.1371756}, "viewport": {"northeast": {"lat": 51.4901354302915, "lng": -0.135778869708498}, "southwest": {"lat": 51.4874374697085, "lng": -0.138476830291502}}}, "name": "Modes & More", "place_id": "ChIJeyVrY-EEdkgRRqwqQ1j_c6o", "types": ["point_of_interest", "clothing_store", "store", "establishment"]}, "ChIJxyzR2eMEdkgRbSZyNpOd9JQ": {"geometry": {"location": {"lat": 51.4885226, "lng": -0.13709}, "viewport": {"northeast": {"lat": 51.4898056302915, "lng": -0.135709769708498}, "southwest": {"lat": 51.4871076697085, "lng": -0.138407730291502}}}, "name": "Ringrose Kindergarten", "place_id": "ChIJxyzR2eMEdkgRbSZyNpOd9JQ", "types": ["school", "point_of_interest", "establishment"]}, "ChIJS-5yZOEEdkgRRFM_9hPaKoY": {"geometry": {"location": {"lat": 51.4890188, "lng": -0.1369172}, "viewport": {"northeast": {"lat": 51.4903363302915, "lng": -0.135510969708498}, "southwest": {"lat": 51.4876383697085, "lng": -0.138208930291502}}}, "name": "Pimlico Tandoori Restaurant", "place_id": "ChIJS-5yZOEEdkgRRFM_9hPaKoY", "types": ["restaurant", "food", "point_of_interest", "establishment"], "rating": 3.8, "user_ratings_total": 194}, "ChIJ3QhufeEEdkgRNhFr9YHd89g": {"geometry": {"location": {"lat": 51.48875990000001, "lng": -0.1373009}, "viewport": {"northeast": {"lat": 51.4900748302915, "lng": -0.135889969708498}, "southwest": {"lat": 51.4873768697085, "lng": -0.138587930291502}}}, "name": "Fry & Co", "place_id": "ChIJ3QhufeEEdkgRNhFr9YHd89g", "types": ["point_of_interest", "establishment"], "rating": 5, "user_ratings_total": 4}, "ChIJ49rdZuEEdkgRyQqTzG97JYY": {"geometry": {"location": {"lat": 51.488989, "lng": -0.1365973}, "viewport": {"northeast": {"lat": 51.4903650802915, "lng": -0.135288569708498}, "southwest": {"lat": 51.4876671197085, "lng": -0.137986530291502}}}, "name": "Sole Beauty Pimlico", "place_id": "ChIJ49rdZuEEdkgRyQqTzG97JYY", "types": ["beauty_salon", "hair_care", "spa", "point_of_interest", "establishment"], "rating": 4.1, "user_ratings_total": 36}, "ChIJ220q98oPdkgRmIGCLYEpTv4": {"geometry": {"location": {"lat": 51.48890789999999, "lng": -0.1366}, "viewport": {"northeast": {"lat": 51.4902986802915, "lng": -0.1353270697084979}, "southwest": {"lat": 51.4876007197085, "lng": -0.138025030291502}}}, "name": "Alex Dixon Psychotherapy and Counselling", "place_id": "ChIJ220q98oPdkgRmIGCLYEpTv4", "types": ["health", "point_of_interest", "establishment"]}, "ChIJ2XRg4ekPdkgRAONAdi74h7Y": {"geometry": {"location": {"lat": 51.488754, "lng": -0.1359575}, "viewport": {"northeast": {"lat": 51.4901155802915, "lng": -0.134533869708498}, "southwest": {"lat": 51.4874176197085, "lng": -0.137231830291502}}}, "name": "Embassy of Georgia", "place_id": "ChIJ2XRg4ekPdkgRAONAdi74h7Y", "types": ["embassy", "point_of_interest", "establishment"], "rating": 4.2, "user_ratings_total": 26}, "ChIJ49E3YeEEdkgRmF6PXjV99Ew": {"geometry": {"location": {"lat": 51.48891709999999, "lng": -0.1366975}, "viewport": {"northeast": {"lat": 51.49029083029149, "lng": -0.135393519708498}, "southwest": {"lat": 51.4875928697085, "lng": -0.138091480291502}}}, "name": "Ulrich Engler", "place_id": "ChIJ49E3YeEEdkgRmF6PXjV99Ew", "types": ["point_of_interest", "clothing_store", "store", "establishment"], "rating": 1, "user_ratings_total": 1}, "ChIJGwjYY-EEdkgRefMQETpDRhU": {"geometry": {"location": {"lat": 51.488845, "lng": -0.1367728}, "viewport": {"northeast": {"lat": 51.4902228802915, "lng": -0.135476369708498}, "southwest": {"lat": 51.4875249197085, "lng": -0.138174330291502}}}, "name": "Open Shut Windows", "place_id": "ChIJGwjYY-EEdkgRefMQETpDRhU", "types": ["general_contractor", "point_of_interest", "establishment"]}, "ChIJd1_yGTMFdkgR8LAmsgFzSek": {"geometry": {"location": {"lat": 51.48878449999999, "lng": -0.1368059}, "viewport": {"northeast": {"lat": 51.49017053029151, "lng": -0.135524269708498}, "southwest": {"lat": 51.48747256970851, "lng": -0.138222230291502}}}, "name": "Beautiful Knitters", "place_id": "ChIJd1_yGTMFdkgR8LAmsgFzSek", "types": ["school", "point_of_interest", "store", "establishment"], "rating": 4.9, "user_ratings_total": 47}, "ChIJl8_2oQkFdkgRp27N0R7fv7s": {"geometry": {"location": {"lat": 51.4889901, "lng": -0.1365085}, "viewport": {"northeast": {"lat": 51.4903773302915, "lng": -0.135227569708498}, "southwest": {"lat": 51.4876793697085, "lng": -0.137925530291502}}}, "name": "Kipper & Chalk", "place_id": "ChIJl8_2oQkFdkgRp27N0R7fv7s", "types": ["point_of_interest", "establishment"], "rating": 5, "user_ratings_total": 9}, "ChIJTxeCX-EEdkgRejgRyy-ksBU": {"geometry": {"location": {"lat": 51.48867509999999, "lng": -0.1362475}, "viewport": {"northeast": {"lat": 51.4899587802915, "lng": -0.134868569708498}, "southwest": {"lat": 51.4872608197085, "lng": -0.137566530291502}}}, "name": "Your Workplace Supplies Ltd", "place_id": "ChIJTxeCX-EEdkgRejgRyy-ksBU", "types": ["point_of_interest", "establishment"]}, "ChIJPagB8vMEdkgRgjkQjSQYpfg": {"geometry": {"location": {"lat": 51.48867509999999, "lng": -0.1362475}, "viewport": {"northeast": {"lat": 51.4900240802915, "lng": -0.134898519708498}, "southwest": {"lat": 51.4873261197085, "lng": -0.137596480291502}}}, "name": "Culture Consultants Ltd", "place_id": "ChIJPagB8vMEdkgRgjkQjSQYpfg", "types": ["point_of_interest", "establishment"]}, "ChIJbZhrZ-EEdkgRFPo82bFgvGQ": {"geometry": {"location": {"lat": 51.489031, "lng": -0.136463}, "viewport": {"northeast": {"lat": 51.49041608029151, "lng": -0.135178269708498}, "southwest": {"lat": 51.48771811970851, "lng": -0.137876230291502}}}, "name": "Nicky Dobree Interior Design Ltd", "place_id": "ChIJbZhrZ-EEdkgRFPo82bFgvGQ", "types": ["general_contractor", "point_of_interest", "establishment"], "rating": 5, "user_ratings_total": 2}, "ChIJXaxcFWEFdkgRO4ldWU4QXaU": {"geometry": {"location": {"lat": 51.48871260000001, "lng": -0.136863}, "viewport": {"northeast": {"lat": 51.4901055302915, "lng": -0.135593969708498}, "southwest": {"lat": 51.4874075697085, "lng": -0.138291930291502}}}, "name": "La Maison du Chat", "place_id": "ChIJXaxcFWEFdkgRO4ldWU4QXaU", "types": ["cafe", "food", "point_of_interest", "store", "establishment"], "rating": 4.4, "user_ratings_total": 21}, "ChIJg1ksX-EEdkgRMx2M2ESimB8": {"geometry": {"location": {"lat": 51.4887886, "lng": -0.1360727}, "viewport": {"northeast": {"lat": 51.4901561302915, "lng": -0.134600819708498}, "southwest": {"lat": 51.4874581697085, "lng": -0.137298780291502}}}, "name": "Gravesend Visitor Information Centre", "place_id": "ChIJg1ksX-EEdkgRMx2M2ESimB8", "types": ["travel_agency", "point_of_interest", "establishment"]}, "ChIJWyxfYuEEdkgRO6w1TTG528c": {"geometry": {"location": {"lat": 51.4887085, "lng": -0.1369901}, "viewport": {"northeast": {"lat": 51.4900574802915, "lng": -0.135641119708498}, "southwest": {"lat": 51.48735951970851, "lng": -0.138339080291502}}}, "name": "Royal Dry Cleaners", "place_id": "ChIJWyxfYuEEdkgRO6w1TTG528c", "types": ["laundry", "point_of_interest", "establishment"], "rating": 4.4, "user_ratings_total": 41}, "ChIJ1c6AY-EEdkgR4U_BVJHDwLM": {"geometry": {"location": {"lat": 51.4889811, "lng": -0.1369973}, "viewport": {"northeast": {"lat": 51.4902944802915, "lng": -0.1355835697084979}, "southwest": {"lat": 51.4875965197085, "lng": -0.138281530291502}}}, "name": "Moreton Place Beauty & Wellbeing", "place_id": "ChIJ1c6AY-EEdkgR4U_BVJHDwLM", "types": ["beauty_salon", "hair_care", "spa", "health", "point_of_interest", "establishment"], "rating": 5, "user_ratings_total": 62}, "ChIJ6yK6_OMEdkgRvyu-gAdii-Q": {"geometry": {"location": {"lat": 51.48899579999999, "lng": -0.136024}, "viewport": {"northeast": {"lat": 51.49035388029149, "lng": -0.1346201197084979}, "southwest": {"lat": 51.48765591970849, "lng": -0.137318080291502}}}, "name": "Public Speaking Matters", "place_id": "ChIJ6yK6_OMEdkgRvyu-gAdii-Q", "types": ["point_of_interest", "establishment"], "rating": 5, "user_ratings_total": 27}, "ChIJiWKRzzEFdkgRCmu-Us7phE4": {"geometry": {"location": {"lat": 51.48900080000001, "lng": -0.1369816}, "viewport": {"northeast": {"lat": 51.49031233029151, "lng": -0.135564419708498}, "southwest": {"lat": 51.48761436970851, "lng": -0.1382623802915021}}}, "name": "WM Semi Permanent Make Up", "place_id": "ChIJiWKRzzEFdkgRCmu-Us7phE4", "types": ["beauty_salon", "point_of_interest", "establishment"], "rating": 5, "user_ratings_total": 6}, "ChIJZ3ugYuEEdkgRmmsv7RqivKU": {"geometry": {"location": {"lat": 51.48866140000001, "lng": -0.1370618}, "viewport": {"northeast": {"lat": 51.49001038029151, "lng": -0.135712819708498}, "southwest": {"lat": 51.48731241970852, "lng": -0.138410780291502}}}, "name": "Swish Salon", "place_id": "ChIJZ3ugYuEEdkgRmmsv7RqivKU", "types": ["hair_care", "point_of_interest", "establishment"], "rating": 4, "user_ratings_total": 12}, "ChIJG4EIs2MddkgR_TXo0hgeVBw": {"geometry": {"location": {"lat": 51.4884936, "lng": -0.1368608}, "viewport": {"northeast": {"lat": 51.48980933029149, "lng": -0.135496069708498}, "southwest": {"lat": 51.48711136970849, "lng": -0.138194030291502}}}, "name": "ALFA Serviced Apartments", "place_id": "ChIJG4EIs2MddkgR_TXo0hgeVBw", "types": ["lodging", "point_of_interest", "establishment"], "rating": 5, "user_ratings_total": 2}, "ChIJ58vU4uMEdkgR_Lm-Vijodf0": {"geometry": {"location": {"lat": 51.4891126, "lng": -0.1361009}, "viewport": {"northeast": {"lat": 51.49046698029149, "lng": -0.134680769708498}, "southwest": {"lat": 51.48776901970849, "lng": -0.137378730291502}}}, "name": "Dunbar Maintenance", "place_id": "ChIJ58vU4uMEdkgR_Lm-Vijodf0", "types": ["point_of_interest", "establishment"]}, "ChIJ1Q8hIL0FdkgRFkELBwQRDa0": {"geometry": {"location": {"lat": 51.4891674, "lng": -0.1367561}, "viewport": {"northeast": {"lat": 51.4904764802915, "lng": -0.135336119708498}, "southwest": {"lat": 51.4877785197085, "lng": -0.138034080291502}}}, "name": "Khallouk & Taylor Deli", "place_id": "ChIJ1Q8hIL0FdkgRFkELBwQRDa0", "types": ["bar", "restaurant", "food", "point_of_interest", "establishment"], "rating": 4.7, "user_ratings_total": 38}, "ChIJrZYqfeEEdkgRSAQdcuNF3no": {"geometry": {"location": {"lat": 51.48881120000001, "lng": -0.137169}, "viewport": {"northeast": {"lat": 51.4901352802915, "lng": -0.135774719708498}, "southwest": {"lat": 51.4874373197085, "lng": -0.138472680291502}}}, "name": "Rubbish Clearance Pimlico Ltd", "place_id": "ChIJrZYqfeEEdkgRSAQdcuNF3no", "types": ["point_of_interest", "establishment"]}, "ChIJ4aJMenYFdkgR9KDWY0D5GjI": {"geometry": {"location": {"lat": 51.4891994, "lng": -0.1366812}, "viewport": {"northeast": {"lat": 51.4905169802915, "lng": -0.135263169708498}, "southwest": {"lat": 51.4878190197085, "lng": -0.137961130291502}}}, "name": "Little Bread Pedlar", "place_id": "ChIJ4aJMenYFdkgR9KDWY0D5GjI", "types": ["bakery", "food", "point_of_interest", "store", "establishment"], "rating": 4.8, "user_ratings_total": 46}, "ChIJ82I3d-MEdkgRX15_-lEAaCI": {"geometry": {"location": {"lat": 51.48886400000001, "lng": -0.137231}, "viewport": {"northeast": {"lat": 51.49016693029151, "lng": -0.135798269708498}, "southwest": {"lat": 51.48746896970851, "lng": -0.138496230291502}}}, "name": "Not Just A Gallery", "place_id": "ChIJ82I3d-MEdkgRX15_-lEAaCI", "types": ["art_gallery", "point_of_interest", "establishment"]}, "ChIJAQAbfeEEdkgRfOeXEazy6yk": {"geometry": {"location": {"lat": 51.4887952, "lng": -0.1372561}, "viewport": {"northeast": {"lat": 51.4901093302915, "lng": -0.135843719708498}, "southwest": {"lat": 51.4874113697085, "lng": -0.138541680291502}}}, "name": "Carbara Limited", "place_id": "ChIJAQAbfeEEdkgRfOeXEazy6yk", "types": ["point_of_interest", "establishment"]}, "ChIJ36T2ncAFdkgRIFI_UKHf854": {"geometry": {"location": {"lat": 51.4885026, "lng": -0.1371347}, "viewport": {"northeast": {"lat": 51.48979103029149, "lng": -0.135757069708498}, "southwest": {"lat": 51.48709306970849, "lng": -0.138455030291502}}}, "name": "Eaton Square School Nursery (Pimlico)", "place_id": "ChIJ36T2ncAFdkgRIFI_UKHf854", "types": ["school", "point_of_interest", "establishment"]}, "ChIJQQYOfeEEdkgRNCWzgzs8FGk": {"geometry": {"location": {"lat": 51.4887541, "lng": -0.1373018}, "viewport": {"northeast": {"lat": 51.4900701802915, "lng": -0.135892919708498}, "southwest": {"lat": 51.4873722197085, "lng": -0.1385908802915021}}}, "name": "Pimlico Cleaner", "place_id": "ChIJQQYOfeEEdkgRNCWzgzs8FGk", "types": ["point_of_interest", "establishment"]}, "ChIJQQYOfeEEdkgRyJDszwDGAsU": {"geometry": {"location": {"lat": 51.4887541, "lng": -0.1373018}, "viewport": {"northeast": {"lat": 51.4900701802915, "lng": -0.135892919708498}, "southwest": {"lat": 51.4873722197085, "lng": -0.1385908802915021}}}, "name": "Robin Court (Pimlico) Limited", "place_id": "ChIJQQYOfeEEdkgRyJDszwDGAsU", "types": ["point_of_interest", "establishment"]}, "ChIJixsKsOEEdkgRMUo94D648qY": {"geometry": {"location": {"lat": 51.49062155071631, "lng": -0.1387054482412669}, "viewport": {"northeast": {"lat": 51.4919705302915, "lng": -0.137356469708498}, "southwest": {"lat": 51.4892725697085, "lng": -0.140054430291502}}}, "name": "76-58 Belgrave Rd", "place_id": "ChIJixsKsOEEdkgRMUo94D648qY", "types": ["route"]}, "ChIJW-zrseEEdkgRlEFG2yb-wtc": {"geometry": {"location": {"lat": 51.49065979999999, "lng": -0.1383784}, "viewport": {"northeast": {"lat": 51.49195898029149, "lng": -0.136999269708498}, "southwest": {"lat": 51.48926101970849, "lng": -0.139697230291502}}}, "name": "OYO Flagship Huttons", "place_id": "ChIJW-zrseEEdkgRlEFG2yb-wtc", "types": ["lodging", "point_of_interest", "establishment"], "rating": 3.4, "user_ratings_total": 806}, "ChIJW-zrseEEdkgRUrNWa6ny1Tw": {"geometry": {"location": {"lat": 51.49087170000001, "lng": -0.138789}, "viewport": {"northeast": {"lat": 51.49215883029149, "lng": -0.1375311197084979}, "southwest": {"lat": 51.48946086970849, "lng": -0.140229080291502}}}, "name": "Lidos Hotel", "place_id": "ChIJW-zrseEEdkgRUrNWa6ny1Tw", "types": ["lodging", "point_of_interest", "establishment"], "rating": 3.9, "user_ratings_total": 359}, "ChIJpQsosOEEdkgREqV9sGqfASQ": {"geometry": {"location": {"lat": 51.49079379999999, "lng": -0.1386982}, "viewport": {"northeast": {"lat": 51.49208733029149, "lng": -0.137417269708498}, "southwest": {"lat": 51.4893893697085, "lng": -0.140115230291502}}}, "name": "Luna Simone Hotel", "place_id": "ChIJpQsosOEEdkgREqV9sGqfASQ", "types": ["lodging", "point_of_interest", "establishment"], "rating": 4.4, "user_ratings_total": 288}, "ChIJp-HBr-EEdkgRVW4t9zfJmoo": {"geometry": {"location": {"lat": 51.4907215, "lng": -0.1385217}, "viewport": {"northeast": {"lat": 51.4920113302915, "lng": -0.137245319708498}, "southwest": {"lat": 51.4893133697085, "lng": -0.139943280291502}}}, "name": "The Victor Hotel London Victoria", "place_id": "ChIJp-HBr-EEdkgRVW4t9zfJmoo", "types": ["lodging", "point_of_interest", "establishment"], "rating": 3.8, "user_ratings_total": 223}, "ChIJzQ_uAOEEdkgRFfJlO05vtiw": {"geometry": {"location": {"lat": 51.4910708, "lng": -0.137795}, "viewport": {"northeast": {"lat": 51.4923869302915, "lng": -0.136378269708498}, "southwest": {"lat": 51.48968896970851, "lng": -0.139076230291502}}}, "name": "Radio Napoli", "place_id": "ChIJzQ_uAOEEdkgRFfJlO05vtiw", "types": ["point_of_interest", "establishment"]}, "ChIJhRYxHyEFdkgRboPQ5gZTCXQ": {"geometry": {"location": {"lat": 51.4911047, "lng": -0.1377921}, "viewport": {"northeast": {"lat": 51.4924844302915, "lng": -0.136358919708498}, "southwest": {"lat": 51.4897864697085, "lng": -0.139056880291502}}}, "name": "Fine Architecture", "place_id": "ChIJhRYxHyEFdkgRboPQ5gZTCXQ", "types": ["point_of_interest", "establishment"]}, "ChIJ0X7tB-EEdkgROnCalatq7yM": {"geometry": {"location": {"lat": 51.4906805, "lng": -0.1377593}, "viewport": {"northeast": {"lat": 51.4920657302915, "lng": -0.136497869708498}, "southwest": {"lat": 51.4893677697085, "lng": -0.139195830291502}}}, "name": "C C A Management", "place_id": "ChIJ0X7tB-EEdkgROnCalatq7yM", "types": ["point_of_interest", "establishment"]}, "ChIJFbZ4COEEdkgREuWHUGZAOBk": {"geometry": {"location": {"lat": 51.49089170000001, "lng": -0.1375861}, "viewport": {"northeast": {"lat": 51.4922406802915, "lng": -0.136237119708498}, "southwest": {"lat": 51.48954271970851, "lng": -0.1389350802915021}}}, "name": "Pimlico Thai", "place_id": "ChIJFbZ4COEEdkgREuWHUGZAOBk", "types": ["restaurant", "food", "point_of_interest", "establishment"], "rating": 4.1, "user_ratings_total": 251}, "ChIJt3NKs-EEdkgRlbeXS_KmZCE": {"geometry": {"location": {"lat": 51.4912032, "lng": -0.1388897}, "viewport": {"northeast": {"lat": 51.4925771302915, "lng": -0.137628369708498}, "southwest": {"lat": 51.4898791697085, "lng": -0.140326330291502}}}, "name": "Pimlico Dozen Ltd", "place_id": "ChIJt3NKs-EEdkgRlbeXS_KmZCE", "types": ["point_of_interest", "establishment"], "rating": 5, "user_ratings_total": 1}, "ChIJL8_CTOAEdkgRBetnQFdOWw8": {"geometry": {"location": {"lat": 51.4913767, "lng": -0.1388015}, "viewport": {"northeast": {"lat": 51.49274623029151, "lng": -0.137523369708498}, "southwest": {"lat": 51.49004826970851, "lng": -0.140221330291502}}}, "name": "The Roasting", "place_id": "ChIJL8_CTOAEdkgRBetnQFdOWw8", "types": ["cafe", "food", "point_of_interest", "store", "establishment"], "rating": 4.5, "user_ratings_total": 342}, "ChIJIYPAThIFdkgR4cAZZZWgK-w": {"geometry": {"location": {"lat": 51.49081779999999, "lng": -0.1384077}, "viewport": {"northeast": {"lat": 51.49225193029149, "lng": -0.136955419708498}, "southwest": {"lat": 51.4895539697085, "lng": -0.139653380291502}}}, "name": "HOTEL", "place_id": "ChIJIYPAThIFdkgR4cAZZZWgK-w", "types": ["lodging", "point_of_interest", "establishment"]}, "ChIJZXq0qeEEdkgRbY88AVK2P8Q": {"geometry": {"location": {"lat": 51.490797, "lng": -0.138019}, "viewport": {"northeast": {"lat": 51.4921796302915, "lng": -0.136629269708498}, "southwest": {"lat": 51.4894816697085, "lng": -0.139327230291502}}}, "name": "ubitricity Charging Station", "place_id": "ChIJZXq0qeEEdkgRbY88AVK2P8Q", "types": ["point_of_interest", "establishment"]}, "ChIJ__80reEEdkgRbl_6Qp_c4-Y": {"geometry": {"location": {"lat": 51.4912651, "lng": -0.1384654}, "viewport": {"northeast": {"lat": 51.4925654302915, "lng": -0.1371754197084979}, "southwest": {"lat": 51.4898674697085, "lng": -0.139873380291502}}}, "name": "Cordelia Sayers", "place_id": "ChIJ__80reEEdkgRbl_6Qp_c4-Y", "types": ["point_of_interest", "establishment"]}, "ChIJryUOfZAFdkgRs-qqJKztzUk": {"geometry": {"location": {"lat": 51.4911001, "lng": -0.1377641}, "viewport": {"northeast": {"lat": 51.4924765802915, "lng": -0.136339719708498}, "southwest": {"lat": 51.4897786197085, "lng": -0.139037680291502}}}, "name": "EvoShave", "place_id": "ChIJryUOfZAFdkgRs-qqJKztzUk", "types": ["point_of_interest", "establishment"]}, "ChIJ4708hgcFdkgRKQroOc0EW5Y": {"geometry": {"location": {"lat": 51.49062139999999, "lng": -0.1383806}, "viewport": {"northeast": {"lat": 51.49192163029151, "lng": -0.137091469708498}, "southwest": {"lat": 51.48922366970851, "lng": -0.139789430291502}}}, "name": "Six20Two", "place_id": "ChIJ4708hgcFdkgRKQroOc0EW5Y", "types": ["point_of_interest", "establishment"]}, "ChIJiUxhr-EEdkgR_B1q8UUaB8E": {"geometry": {"location": {"lat": 51.49062139999999, "lng": -0.1383806}, "viewport": {"northeast": {"lat": 51.49192163029151, "lng": -0.137091469708498}, "southwest": {"lat": 51.48922366970851, "lng": -0.139789430291502}}}, "name": "\u30cf\u30c3\u30c8\u30f3 \u30db\u30c6\u30eb", "place_id": "ChIJiUxhr-EEdkgR_B1q8UUaB8E", "types": ["lodging", "point_of_interest", "establishment"]}, "ChIJgQ-1UuAEdkgR3QHAA1IcbwQ": {"geometry": {"location": {"lat": 51.49128460000001, "lng": -0.13856}, "viewport": {"northeast": {"lat": 51.4925928802915, "lng": -0.1372603697084979}, "southwest": {"lat": 51.4898949197085, "lng": -0.139958330291502}}}, "name": "Wealden Contracts Limited", "place_id": "ChIJgQ-1UuAEdkgR3QHAA1IcbwQ", "types": ["point_of_interest", "establishment"]}, "ChIJX9sI6lwFdkgRIZMTafmtKc8": {"geometry": {"location": {"lat": 51.4908391, "lng": -0.1376448}, "viewport": {"northeast": {"lat": 51.4922163802915, "lng": -0.136364769708498}, "southwest": {"lat": 51.4895184197085, "lng": -0.139062730291502}}}, "name": "Thai Studio Pimlico", "place_id": "ChIJX9sI6lwFdkgRIZMTafmtKc8", "types": ["health", "point_of_interest", "establishment"], "rating": 4.7, "user_ratings_total": 43}, "ChIJS4RWsOEEdkgRbyRldG6bDaA": {"geometry": {"location": {"lat": 51.490761, "lng": -0.138811}, "viewport": {"northeast": {"lat": 51.4920749302915, "lng": -0.137482769708498}, "southwest": {"lat": 51.4893769697085, "lng": -0.140180730291502}}}, "name": "Belgrave Road (Stop R)", "place_id": "ChIJS4RWsOEEdkgRbyRldG6bDaA", "types": ["bus_station", "transit_station", "point_of_interest", "establishment"], "rating": 1, "user_ratings_total": 1}, "ChIJtY0KsOEEdkgR4Y5GSgAjofQ": {"geometry": {"location": {"lat": 51.4906235, "lng": -0.1387225}, "viewport": {"northeast": {"lat": 51.49199943029149, "lng": -0.1373404197084979}, "southwest": {"lat": 51.48930146970849, "lng": -0.140038380291502}}}, "name": "Belgrave Road", "place_id": "ChIJtY0KsOEEdkgR4Y5GSgAjofQ", "types": ["transit_station", "point_of_interest", "establishment"]}, "ChIJdyAtpeEEdkgRF4tMPP345I4": {"geometry": {"location": {"lat": 51.490486, "lng": -0.138634}, "viewport": {"northeast": {"lat": 51.49186703029149, "lng": -0.137245669708498}, "southwest": {"lat": 51.4891690697085, "lng": -0.139943630291502}}}, "name": "Belgrave Road (Stop S)", "place_id": "ChIJdyAtpeEEdkgRF4tMPP345I4", "types": ["transit_station", "point_of_interest", "establishment"], "rating": 5, "user_ratings_total": 1}, "ChIJC7v6vOEEdkgRMzUB4sDDpCI": {"geometry": {"location": {"lat": 51.4901947, "lng": -0.1387737000000001}, "viewport": {"northeast": {"lat": 51.4915109802915, "lng": -0.137344819708498}, "southwest": {"lat": 51.4888130197085, "lng": -0.1400427802915021}}}, "name": "The Melita, London", "place_id": "ChIJC7v6vOEEdkgRMzUB4sDDpCI", "types": ["lodging", "point_of_interest", "establishment"], "rating": 3.8, "user_ratings_total": 127}, "ChIJ8bpHdeEEdkgRV4_mamfZEjA": {"geometry": {"location": {"lat": 51.4901024, "lng": -0.1381361}, "viewport": {"northeast": {"lat": 51.4915298302915, "lng": -0.136692169708498}, "southwest": {"lat": 51.4888318697085, "lng": -0.139390130291502}}}, "name": "The Belgrave", "place_id": "ChIJ8bpHdeEEdkgRV4_mamfZEjA", "types": ["lodging", "point_of_interest", "establishment"], "rating": 4.4, "user_ratings_total": 503}, "ChIJ8bpHdeEEdkgRp4mltdw8lNQ": {"geometry": {"location": {"lat": 51.490069, "lng": -0.1378307}, "viewport": {"northeast": {"lat": 51.49146158029149, "lng": -0.136429069708498}, "southwest": {"lat": 51.48876361970849, "lng": -0.139127030291502}}}, "name": "CARLTON HOTEL", "place_id": "ChIJ8bpHdeEEdkgRp4mltdw8lNQ", "types": ["lodging", "point_of_interest", "establishment"], "rating": 3.2, "user_ratings_total": 254}, "ChIJPUqpvOEEdkgRs02tpbei7YA": {"geometry": {"location": {"lat": 51.4902778, "lng": -0.1386111}, "viewport": {"northeast": {"lat": 51.4916053302915, "lng": -0.137208319708498}, "southwest": {"lat": 51.4889073697085, "lng": -0.139906280291502}}}, "name": "Romanos Hotel London", "place_id": "ChIJPUqpvOEEdkgRs02tpbei7YA", "types": ["lodging", "point_of_interest", "establishment"], "rating": 3, "user_ratings_total": 241}, "ChIJSyJsoOEEdkgRvNKo5xklJVc": {"geometry": {"location": {"lat": 51.49006439999999, "lng": -0.137965}, "viewport": {"northeast": {"lat": 51.49147808029149, "lng": -0.136536369708498}, "southwest": {"lat": 51.48878011970849, "lng": -0.1392343302915021}}}, "name": "Laxford Property Limited", "place_id": "ChIJSyJsoOEEdkgRvNKo5xklJVc", "types": ["point_of_interest", "establishment"]}, "ChIJAXlc4BQFdkgRzXYrGCMwva4": {"geometry": {"location": {"lat": 51.4900573, "lng": -0.1379495}, "viewport": {"northeast": {"lat": 51.4914713802915, "lng": -0.136521919708498}, "southwest": {"lat": 51.4887734197085, "lng": -0.139219880291502}}}, "name": "Archetype Copywriting", "place_id": "ChIJAXlc4BQFdkgRzXYrGCMwva4", "types": ["point_of_interest", "establishment"]}, "ChIJub6mCuEEdkgRTrjrZ583MP0": {"geometry": {"location": {"lat": 51.49002100000001, "lng": -0.137884}, "viewport": {"northeast": {"lat": 51.4914368802915, "lng": -0.136454269708498}, "southwest": {"lat": 51.4887389197085, "lng": -0.1391522302915021}}}, "name": "\u30ab\u30fc\u30eb\u30c8\u30f3 \u30db\u30c6\u30eb", "place_id": "ChIJub6mCuEEdkgRTrjrZ583MP0", "types": ["lodging", "point_of_interest", "establishment"]}, "ChIJub6mCuEEdkgR2pVpSLW3fic": {"geometry": {"location": {"lat": 51.49002100000001, "lng": -0.137884}, "viewport": {"northeast": {"lat": 51.4914368802915, "lng": -0.136454269708498}, "southwest": {"lat": 51.4887389197085, "lng": -0.1391522302915021}}}, "name": "London hospedaje", "place_id": "ChIJub6mCuEEdkgR2pVpSLW3fic", "types": ["lodging", "point_of_interest", "establishment"]}, "ChIJU_5XmeEEdkgR8RAYgBbdTNw": {"geometry": {"location": {"lat": 51.48963509999999, "lng": -0.1383129}, "viewport": {"northeast": {"lat": 51.4909853802915, "lng": -0.136822969708498}, "southwest": {"lat": 51.4882874197085, "lng": -0.139520930291502}}}, "name": "Cremation Low Cost Direct", "place_id": "ChIJU_5XmeEEdkgR8RAYgBbdTNw", "types": ["point_of_interest", "establishment"]}, "ChIJT0WzaA0FdkgRXEOlv7HctJM": {"geometry": {"location": {"lat": 51.4896244, "lng": -0.1383252}, "viewport": {"northeast": {"lat": 51.4909747302915, "lng": -0.136828969708498}, "southwest": {"lat": 51.4882767697085, "lng": -0.139526930291502}}}, "name": "CREMATION LOW COST DIRECT", "place_id": "ChIJT0WzaA0FdkgRXEOlv7HctJM", "types": ["point_of_interest", "establishment"], "rating": 5, "user_ratings_total": 7}, "ChIJv-8sdeEEdkgRgpcWdz7IHTk": {"geometry": {"location": {"lat": 51.4899563, "lng": -0.1377496}, "viewport": {"northeast": {"lat": 51.49137273029149, "lng": -0.136319169708498}, "southwest": {"lat": 51.4886747697085, "lng": -0.139017130291502}}}, "name": "Alessandra Borghi Hypnotherapy", "place_id": "ChIJv-8sdeEEdkgRgpcWdz7IHTk", "types": ["health", "point_of_interest", "establishment"]}, "ChIJ3b9yQ9wFdkgRgUsXQzvIYRY": {"geometry": {"location": {"lat": 51.49022410000001, "lng": -0.138329}, "viewport": {"northeast": {"lat": 51.4916423802915, "lng": -0.136895719708498}, "southwest": {"lat": 51.4889444197085, "lng": -0.139593680291502}}}, "name": "Domenica Marland", "place_id": "ChIJ3b9yQ9wFdkgRgUsXQzvIYRY", "types": ["point_of_interest", "establishment"]}, "ChIJGx_po-EEdkgRAGkfapdrjeQ": {"geometry": {"location": {"lat": 51.49022410000001, "lng": -0.138329}, "viewport": {"northeast": {"lat": 51.4916423802915, "lng": -0.136895719708498}, "southwest": {"lat": 51.4889444197085, "lng": -0.139593680291502}}}, "name": "Herriot Limited", "place_id": "ChIJGx_po-EEdkgRAGkfapdrjeQ", "types": ["point_of_interest", "establishment"]}, "ChIJLxKql-EEdkgRRqc5p2-U6ik": {"geometry": {"location": {"lat": 51.4898013, "lng": -0.138801}, "viewport": {"northeast": {"lat": 51.4911973802915, "lng": -0.137516119708498}, "southwest": {"lat": 51.4884994197085, "lng": -0.140214080291502}}}, "name": "Lejligheden i London", "place_id": "ChIJLxKql-EEdkgRRqc5p2-U6ik", "types": ["lodging", "point_of_interest", "establishment"], "rating": 5, "user_ratings_total": 1}, "ChIJ6XVEKLwFdkgRWTWctkx3xJ0": {"geometry": {"location": {"lat": 51.4899381, "lng": -0.1388249}, "viewport": {"northeast": {"lat": 51.4912677302915, "lng": -0.137435969708498}, "southwest": {"lat": 51.4885697697085, "lng": -0.140133930291502}}}, "name": "Alpha Plumbing Services", "place_id": "ChIJ6XVEKLwFdkgRWTWctkx3xJ0", "types": ["plumber", "point_of_interest", "establishment"]}, "ChIJ50iGq7IFdkgRXfoNUAM5Oi0": {"geometry": {"location": {"lat": 51.4901199, "lng": -0.1377304}, "viewport": {"northeast": {"lat": 51.4914684302915, "lng": -0.136382019708498}, "southwest": {"lat": 51.4887704697085, "lng": -0.139079980291502}}}, "name": "\u0425\u043e\u0441\u0442\u0435\u043b", "place_id": "ChIJ50iGq7IFdkgRXfoNUAM5Oi0", "types": ["lodging", "point_of_interest", "establishment"]}, "ChIJT0IH0Y8FdkgRtD6tzvcssUE": {"geometry": {"location": {"lat": 51.4898865, "lng": -0.1376068}, "viewport": {"northeast": {"lat": 51.49130348029149, "lng": -0.136174369708498}, "southwest": {"lat": 51.48860551970849, "lng": -0.138872330291502}}}, "name": "Brokers SouthEast Limited", "place_id": "ChIJT0IH0Y8FdkgRtD6tzvcssUE", "types": ["real_estate_agency", "point_of_interest", "establishment"], "rating": 5, "user_ratings_total": 1}, "ChIJ8bpHdeEEdkgRUiuJsvT1sjk": {"geometry": {"location": {"lat": 51.48983319999999, "lng": -0.1374522}, "viewport": {"northeast": {"lat": 51.49124378029149, "lng": -0.136027619708498}, "southwest": {"lat": 51.48854581970849, "lng": -0.138725580291502}}}, "name": "Majestic Limousines Limited", "place_id": "ChIJ8bpHdeEEdkgRUiuJsvT1sjk", "types": ["point_of_interest", "establishment"]}, "ChIJYb1kwJoFdkgROyMI0QlakvU": {"geometry": {"location": {"lat": 51.48983319999999, "lng": -0.1374522}, "viewport": {"northeast": {"lat": 51.49124378029149, "lng": -0.136027619708498}, "southwest": {"lat": 51.48854581970849, "lng": -0.138725580291502}}}, "name": "London Luxury Escorts - Bentley Models", "place_id": "ChIJYb1kwJoFdkgROyMI0QlakvU", "types": ["point_of_interest", "establishment"], "rating": 5, "user_ratings_total": 1}, "ChIJofByc-EEdkgRE23YQfBV8Pw": {"geometry": {"location": {"lat": 51.4898332, "lng": -0.1374521}, "viewport": {"northeast": {"lat": 51.4912437302915, "lng": -0.136027519708498}, "southwest": {"lat": 51.4885457697085, "lng": -0.138725480291502}}}, "name": "Stanway Partners", "place_id": "ChIJofByc-EEdkgRE23YQfBV8Pw", "types": ["point_of_interest", "establishment"]}, "ChIJHxkkyuEEdkgRFZPDtZHrpZk": {"geometry": {"location": {"lat": 51.48896730000001, "lng": -0.1384825}, "viewport": {"northeast": {"lat": 51.4903009302915, "lng": -0.137232469708498}, "southwest": {"lat": 51.4876029697085, "lng": -0.139930430291502}}}, "name": "ixPocket mobile", "place_id": "ChIJHxkkyuEEdkgRFZPDtZHrpZk", "types": ["point_of_interest", "establishment"]}, "ChIJU6g5K-IEdkgRkc0EKkhtOvM": {"geometry": {"location": {"lat": 51.48838300000001, "lng": -0.1379631}, "viewport": {"northeast": {"lat": 51.48965938029151, "lng": -0.136579769708498}, "southwest": {"lat": 51.48696141970851, "lng": -0.1392777302915021}}}, "name": "Gray Fulton Ltd", "place_id": "ChIJU6g5K-IEdkgRkc0EKkhtOvM", "types": ["point_of_interest", "establishment"]}, "ChIJNejl1OMEdkgR_-ba5K7K9OI": {"geometry": {"location": {"lat": 51.4884496, "lng": -0.1377763}, "viewport": {"northeast": {"lat": 51.48970988029149, "lng": -0.136387969708498}, "southwest": {"lat": 51.48701191970849, "lng": -0.139085930291502}}}, "name": "Dr S Neogi - Pimlico Health @ the Marven", "place_id": "ChIJNejl1OMEdkgR_-ba5K7K9OI", "types": ["doctor", "health", "point_of_interest", "establishment"]}, "ChIJNejl1OMEdkgRbf4Hdmr57dE": {"geometry": {"location": {"lat": 51.48832119999999, "lng": -0.1381471}, "viewport": {"northeast": {"lat": 51.48961893029149, "lng": -0.136723969708498}, "southwest": {"lat": 51.4869209697085, "lng": -0.139421930291502}}}, "name": "Pimlico Health @ The Marven", "place_id": "ChIJNejl1OMEdkgRbf4Hdmr57dE", "types": ["health", "point_of_interest", "establishment"], "rating": 2.6, "user_ratings_total": 68}, "ChIJZTVaK-IEdkgReCeJbcAczpY": {"geometry": {"location": {"lat": 51.4883469, "lng": -0.137951}, "viewport": {"northeast": {"lat": 51.4896458802915, "lng": -0.136549069708498}, "southwest": {"lat": 51.4869479197085, "lng": -0.139247030291502}}}, "name": "Paxall Pharmacy", "place_id": "ChIJZTVaK-IEdkgReCeJbcAczpY", "types": ["pharmacy", "health", "point_of_interest", "store", "establishment"], "rating": 3.6, "user_ratings_total": 15}, "ChIJiSOqBKgEdkgRHll4v-3eFcc": {"geometry": {"location": {"lat": 51.4883299, "lng": -0.1384788}, "viewport": {"northeast": {"lat": 51.4897037302915, "lng": -0.1371967197084979}, "southwest": {"lat": 51.4870057697085, "lng": -0.139894680291502}}}, "name": "Emma Gibbons", "place_id": "ChIJiSOqBKgEdkgRHll4v-3eFcc", "types": ["health", "point_of_interest", "establishment"]}, "ChIJm6SYKeIEdkgRKktR_IXzuGc": {"geometry": {"location": {"lat": 51.48850940000001, "lng": -0.1383516}, "viewport": {"northeast": {"lat": 51.4898635302915, "lng": -0.137092119708498}, "southwest": {"lat": 51.4871655697085, "lng": -0.1397900802915021}}}, "name": "Resource Guru", "place_id": "ChIJm6SYKeIEdkgRKktR_IXzuGc", "types": ["point_of_interest", "establishment"]}, "ChIJOV3UfuEEdkgRiiRT-jT_qhA": {"geometry": {"location": {"lat": 51.4889772, "lng": -0.1378021}, "viewport": {"northeast": {"lat": 51.4903395802915, "lng": -0.136402169708498}, "southwest": {"lat": 51.4876416197085, "lng": -0.139100130291502}}}, "name": "Mark Gutteridge", "place_id": "ChIJOV3UfuEEdkgRiiRT-jT_qhA", "types": ["electronics_store", "home_goods_store", "school", "point_of_interest", "store", "establishment"], "rating": 5, "user_ratings_total": 9}, "ChIJfTJjsxkFdkgRFCYWFeYdPJk": {"geometry": {"location": {"lat": 51.489076, "lng": -0.137944}, "viewport": {"northeast": {"lat": 51.49044673029151, "lng": -0.136512219708498}, "southwest": {"lat": 51.48774876970851, "lng": -0.139210180291502}}}, "name": "SightMill Ltd", "place_id": "ChIJfTJjsxkFdkgRFCYWFeYdPJk", "types": ["point_of_interest", "establishment"]}, "ChIJQeiaKOIEdkgRFmtlXE6mRTQ": {"geometry": {"location": {"lat": 51.4885586, "lng": -0.1386866}, "viewport": {"northeast": {"lat": 51.4899123802915, "lng": -0.137263419708498}, "southwest": {"lat": 51.4872144197085, "lng": -0.139961380291502}}}, "name": "Thomas Cubitt Statue", "place_id": "ChIJQeiaKOIEdkgRFmtlXE6mRTQ", "types": ["point_of_interest", "establishment"], "rating": 4.1, "user_ratings_total": 7}, "ChIJ_Q8ZLOIEdkgRGCCriENGXj4": {"geometry": {"location": {"lat": 51.4884496, "lng": -0.1377763}, "viewport": {"northeast": {"lat": 51.48970988029149, "lng": -0.136387969708498}, "southwest": {"lat": 51.48701191970849, "lng": -0.139085930291502}}}, "name": "Jerjian Dr J C", "place_id": "ChIJ_Q8ZLOIEdkgRGCCriENGXj4", "types": ["doctor", "health", "point_of_interest", "establishment"]}, "ChIJG4TGjuEEdkgRtKL45qgDpXE": {"geometry": {"location": {"lat": 51.4890298, "lng": -0.1388862}, "viewport": {"northeast": {"lat": 51.4903910802915, "lng": -0.137457919708498}, "southwest": {"lat": 51.4876931197085, "lng": -0.1401558802915021}}}, "name": "ZEITBTC", "place_id": "ChIJG4TGjuEEdkgRtKL45qgDpXE", "types": ["point_of_interest", "establishment"]}, "ChIJrV6L1OMEdkgR6mGQZsqdghY": {"geometry": {"location": {"lat": 51.4883999, "lng": -0.1377324}, "viewport": {"northeast": {"lat": 51.4896867802915, "lng": -0.136355869708498}, "southwest": {"lat": 51.4869888197085, "lng": -0.139053830291502}}}, "name": "Poppy Design ltd", "place_id": "ChIJrV6L1OMEdkgR6mGQZsqdghY", "types": ["point_of_interest", "establishment"]}, "ChIJczZ0tBkFdkgRQHGihShGgAg": {"geometry": {"location": {"lat": 51.4891486, "lng": -0.1376627}, "viewport": {"northeast": {"lat": 51.49048248029149, "lng": -0.136371219708498}, "southwest": {"lat": 51.48778451970849, "lng": -0.139069180291502}}}, "name": "Crypto Gold Stake Ltd", "place_id": "ChIJczZ0tBkFdkgRQHGihShGgAg", "types": ["finance", "point_of_interest", "establishment"], "rating": 3, "user_ratings_total": 2}, "ChIJHY-0r6scdkgR7CoVzeSz-rI": {"geometry": {"location": {"lat": 51.48918940000001, "lng": -0.1376947}, "viewport": {"northeast": {"lat": 51.49052378029151, "lng": -0.136401369708498}, "southwest": {"lat": 51.48782581970851, "lng": -0.139099330291502}}}, "name": "Minerva Tutors", "place_id": "ChIJHY-0r6scdkgR7CoVzeSz-rI", "types": ["point_of_interest", "establishment"], "rating": 5, "user_ratings_total": 8}, "ChIJ72qafeEEdkgR4wpOV-HrC3M": {"geometry": {"location": {"lat": 51.48870650000001, "lng": -0.1373856}, "viewport": {"northeast": {"lat": 51.4900200302915, "lng": -0.135972169708498}, "southwest": {"lat": 51.4873220697085, "lng": -0.138670130291502}}}, "name": "Buck Farm Management Ltd", "place_id": "ChIJ72qafeEEdkgR4wpOV-HrC3M", "types": ["point_of_interest", "establishment"]}, "ChIJnSkSJI0FdkgR8G25_7SreR0": {"geometry": {"location": {"lat": 51.4912449, "lng": -0.1339616}, "viewport": {"northeast": {"lat": 51.4925700802915, "lng": -0.132567519708498}, "southwest": {"lat": 51.4898721197085, "lng": -0.135265480291502}}}, "name": "Exchange House", "place_id": "ChIJnSkSJI0FdkgR8G25_7SreR0", "types": ["point_of_interest", "establishment"]}, "ChIJjXKfa1oFdkgR72u_INPLf8E": {"geometry": {"location": {"lat": 51.4906321, "lng": -0.1339638}, "viewport": {"northeast": {"lat": 51.4920420802915, "lng": -0.132539219708498}, "southwest": {"lat": 51.4893441197085, "lng": -0.135237180291502}}}, "name": "1-3 Westrovia court", "place_id": "ChIJjXKfa1oFdkgR72u_INPLf8E", "types": ["lodging", "point_of_interest", "establishment"]}, "ChIJ1WwLpOYEdkgRcJMyf_QppP8": {"geometry": {"location": {"lat": 51.4892297, "lng": -0.1339283}, "viewport": {"northeast": {"lat": 51.4905581302915, "lng": -0.132541619708498}, "southwest": {"lat": 51.4878601697085, "lng": -0.135239580291502}}}, "name": "Dexters Estate Agents Academy", "place_id": "ChIJ1WwLpOYEdkgRcJMyf_QppP8", "types": ["real_estate_agency", "finance", "general_contractor", "point_of_interest", "establishment"], "rating": 5, "user_ratings_total": 4}, "ChIJe3puinUFdkgR2lafrS-XXrM": {"geometry": {"location": {"lat": 51.4894964, "lng": -0.1340599}, "viewport": {"northeast": {"lat": 51.4907018802915, "lng": -0.132590769708498}, "southwest": {"lat": 51.4880039197085, "lng": -0.135288730291502}}}, "name": "Hart Waste and Recycling Services Ltd", "place_id": "ChIJe3puinUFdkgR2lafrS-XXrM", "types": ["point_of_interest", "establishment"], "rating": 5, "user_ratings_total": 4}, "ChIJYfMy1OAEdkgRt23di4Eaims": {"geometry": {"location": {"lat": 51.49146669557572, "lng": -0.1352896101376352}, "viewport": {"northeast": {"lat": 51.4928150302915, "lng": -0.133941419708498}, "southwest": {"lat": 51.4901170697085, "lng": -0.136639380291502}}}, "name": "43-61 A202", "place_id": "ChIJYfMy1OAEdkgRt23di4Eaims", "types": ["route"]}, "ChIJfYE72OAEdkgRM9QgMCPFU5Q": {"geometry": {"location": {"lat": 51.49135949999999, "lng": -0.1357952}, "viewport": {"northeast": {"lat": 51.4927409802915, "lng": -0.134406969708498}, "southwest": {"lat": 51.4900430197085, "lng": -0.137104930291502}}}, "name": "Charlwood House", "place_id": "ChIJfYE72OAEdkgRM9QgMCPFU5Q", "types": ["point_of_interest", "establishment"], "rating": 5, "user_ratings_total": 1}, "ChIJXew_b24FdkgRU6uWEECeRL0": {"geometry": {"location": {"lat": 51.4913028, "lng": -0.1357161}, "viewport": {"northeast": {"lat": 51.4926905802915, "lng": -0.134320269708498}, "southwest": {"lat": 51.4899926197085, "lng": -0.137018230291502}}}, "name": "Sourcegenics", "place_id": "ChIJXew_b24FdkgRU6uWEECeRL0", "types": ["point_of_interest", "establishment"]}, "ChIJxwlzs3gFdkgRSnbD4ltgDbA": {"geometry": {"location": {"lat": 51.4913028, "lng": -0.1357161}, "viewport": {"northeast": {"lat": 51.4926905802915, "lng": -0.134320269708498}, "southwest": {"lat": 51.4899926197085, "lng": -0.137018230291502}}}, "name": "His Dominion Limited", "place_id": "ChIJxwlzs3gFdkgRSnbD4ltgDbA", "types": ["real_estate_agency", "point_of_interest", "establishment"]}, "ChIJsYz1UOEEdkgRIFRsASN6D40": {"geometry": {"location": {"lat": 51.48918549389345, "lng": -0.1356778990441371}, "viewport": {"northeast": {"lat": 51.49053558029149, "lng": -0.134327519708498}, "southwest": {"lat": 51.4878376197085, "lng": -0.137025480291502}}}, "name": "9-13 St.George's Square", "place_id": "ChIJsYz1UOEEdkgRIFRsASN6D40", "types": ["route"]}, "ChIJG3M0SeEEdkgRthMQpDA22ew": {"geometry": {"location": {"lat": 51.48969169999999, "lng": -0.1356181}, "viewport": {"northeast": {"lat": 51.4910365302915, "lng": -0.134324469708498}, "southwest": {"lat": 51.4883385697085, "lng": -0.137022430291502}}}, "name": "Saunders Wood & Co", "place_id": "ChIJG3M0SeEEdkgRthMQpDA22ew", "types": ["accounting", "finance", "point_of_interest", "establishment"]}, "ChIJ15RdReEEdkgRHeHAGEMumJ8": {"geometry": {"location": {"lat": 51.4893868, "lng": -0.1357244}, "viewport": {"northeast": {"lat": 51.4906783302915, "lng": -0.134441969708498}, "southwest": {"lat": 51.4879803697085, "lng": -0.137139930291502}}}, "name": "Judith Dawson", "place_id": "ChIJ15RdReEEdkgRHeHAGEMumJ8", "types": ["point_of_interest", "establishment"]}, "ChIJAQBnReEEdkgRe_3QMBMB1vY": {"geometry": {"location": {"lat": 51.4894015, "lng": -0.1357301}, "viewport": {"northeast": {"lat": 51.4906890302915, "lng": -0.1344522697084979}, "southwest": {"lat": 51.4879910697085, "lng": -0.137150230291502}}}, "name": "Abset Services Limited", "place_id": "ChIJAQBnReEEdkgRe_3QMBMB1vY", "types": ["point_of_interest", "establishment"]}, "ChIJAQBnReEEdkgRXwCVeFkyEjI": {"geometry": {"location": {"lat": 51.4894015, "lng": -0.1357301}, "viewport": {"northeast": {"lat": 51.4906890302915, "lng": -0.1344522697084979}, "southwest": {"lat": 51.4879910697085, "lng": -0.137150230291502}}}, "name": "Wg Servicing Limited", "place_id": "ChIJAQBnReEEdkgRXwCVeFkyEjI", "types": ["point_of_interest", "establishment"]}, "ChIJo_ak4uMEdkgRUqJtsmphtqg": {"geometry": {"location": {"lat": 51.4894183, "lng": -0.1357205}, "viewport": {"northeast": {"lat": 51.4906988802915, "lng": -0.134450719708498}, "southwest": {"lat": 51.4880009197085, "lng": -0.137148680291502}}}, "name": "Londons Loft Specialists \ud83c\udfc6", "place_id": "ChIJo_ak4uMEdkgRUqJtsmphtqg", "types": ["general_contractor", "point_of_interest", "establishment"]}, "ChIJoSdeMSQFdkgRdFVM5-woFHk": {"geometry": {"location": {"lat": 51.48940520000001, "lng": -0.1357504}, "viewport": {"northeast": {"lat": 51.4906945302915, "lng": -0.134470519708498}, "southwest": {"lat": 51.48799656970851, "lng": -0.137168480291502}}}, "name": "Happy brix", "place_id": "ChIJoSdeMSQFdkgRdFVM5-woFHk", "types": ["general_contractor", "point_of_interest", "establishment"]}, "ChIJRY42ReEEdkgRXXGlO4igqKM": {"geometry": {"location": {"lat": 51.48933539999999, "lng": -0.1357902}, "viewport": {"northeast": {"lat": 51.49065358029149, "lng": -0.134476919708498}, "southwest": {"lat": 51.48795561970849, "lng": -0.137174880291502}}}, "name": "ubitricity Charging Station", "place_id": "ChIJRY42ReEEdkgRXXGlO4igqKM", "types": ["point_of_interest", "establishment"]}, "ChIJAQBAUOEEdkgRS-zAuiEnSyY": {"geometry": {"location": {"lat": 51.4892272, "lng": -0.135603}, "viewport": {"northeast": {"lat": 51.4905523802915, "lng": -0.134282969708498}, "southwest": {"lat": 51.4878544197085, "lng": -0.136980930291502}}}, "name": "Zackbd", "place_id": "ChIJAQBAUOEEdkgRS-zAuiEnSyY", "types": ["general_contractor", "point_of_interest", "establishment"]}, "ChIJ34eR5yMFdkgRCY0x9QKeSZM": {"geometry": {"location": {"lat": 51.4896916, "lng": -0.1355972}, "viewport": {"northeast": {"lat": 51.49103963029149, "lng": -0.134314019708498}, "southwest": {"lat": 51.48834166970849, "lng": -0.137011980291502}}}, "name": "Cocola Italian Hairdressers", "place_id": "ChIJ34eR5yMFdkgRCY0x9QKeSZM", "types": ["hair_care", "point_of_interest", "establishment"], "rating": 5, "user_ratings_total": 12}, "ChIJme1xTeEEdkgRDhkywbA-Vio": {"geometry": {"location": {"lat": 51.48936860000001, "lng": -0.1351036}, "viewport": {"northeast": {"lat": 51.4907888302915, "lng": -0.133656069708498}, "southwest": {"lat": 51.4880908697085, "lng": -0.1363540302915021}}}, "name": "BASE IT", "place_id": "ChIJme1xTeEEdkgRDhkywbA-Vio", "types": ["point_of_interest", "establishment"]}, "ChIJ2f1uTeEEdkgRByJJq49LDms": {"geometry": {"location": {"lat": 51.4893617, "lng": -0.1350857}, "viewport": {"northeast": {"lat": 51.49078183029149, "lng": -0.133640469708498}, "southwest": {"lat": 51.48808386970849, "lng": -0.136338430291502}}}, "name": "CDP M&E Limited", "place_id": "ChIJ2f1uTeEEdkgRByJJq49LDms", "types": ["point_of_interest", "establishment"]}, "ChIJme1xTeEEdkgRuv1Vge-jvEo": {"geometry": {"location": {"lat": 51.4893617, "lng": -0.1350857}, "viewport": {"northeast": {"lat": 51.49078183029149, "lng": -0.133640469708498}, "southwest": {"lat": 51.48808386970849, "lng": -0.136338430291502}}}, "name": "Nursery Amenity Limited", "place_id": "ChIJme1xTeEEdkgRuv1Vge-jvEo", "types": ["point_of_interest", "establishment"]}, "ChIJme1xTeEEdkgRwv7vTulyTlc": {"geometry": {"location": {"lat": 51.4893617, "lng": -0.1350857}, "viewport": {"northeast": {"lat": 51.49078183029149, "lng": -0.133640469708498}, "southwest": {"lat": 51.48808386970849, "lng": -0.136338430291502}}}, "name": "Hendersons Building Services Limited", "place_id": "ChIJme1xTeEEdkgRwv7vTulyTlc", "types": ["point_of_interest", "establishment"]}, "ChIJme1xTeEEdkgRI3r2iVa1wU0": {"geometry": {"location": {"lat": 51.4893617, "lng": -0.1350857}, "viewport": {"northeast": {"lat": 51.49078183029149, "lng": -0.133640469708498},