{"E00023618": {"ChIJEyaN6LIadkgR19nihi165d4": {"geometry": {"location": {"lat": 51.51650880019513, "lng": -0.1739482505616351}, "viewport": {"northeast": {"lat": 51.5178577802915, "lng": -0.172599269708498}, "southwest": {"lat": 51.5151598197085, "lng": -0.175297230291502}}}, "name": "Praed Street", "place_id": "ChIJEyaN6LIadkgR19nihi165d4", "types": ["route"]}, "ChIJnVBK4rIadkgRPfnFEA1p86k": {"geometry": {"location": {"lat": 51.5166123, "lng": -0.1735105}, "viewport": {"northeast": {"lat": 51.51800023029151, "lng": -0.1722179197084979}, "southwest": {"lat": 51.51530226970851, "lng": -0.174915880291502}}}, "name": "Paddington Deluxe Apartment", "place_id": "ChIJnVBK4rIadkgRPfnFEA1p86k", "types": ["lodging", "point_of_interest", "establishment"], "rating": 5, "user_ratings_total": 2}, "ChIJ847m77IadkgRaRG17B2Urss": {"geometry": {"location": {"lat": 51.51683, "lng": -0.174243}, "viewport": {"northeast": {"lat": 51.5182087802915, "lng": -0.172839269708498}, "southwest": {"lat": 51.5155108197085, "lng": -0.175537230291502}}}, "name": "Jefferiss Wing Sexual Health Clinic", "place_id": "ChIJ847m77IadkgRaRG17B2Urss", "types": ["health", "point_of_interest", "establishment"], "rating": 4.1, "user_ratings_total": 67}, "ChIJR6VO5rIadkgR7ySSfKXtz2o": {"geometry": {"location": {"lat": 51.5163804, "lng": -0.1739562000000001}, "viewport": {"northeast": {"lat": 51.5177637802915, "lng": -0.172656719708498}, "southwest": {"lat": 51.5150658197085, "lng": -0.175354680291502}}}, "name": "Paddington En-suite", "place_id": "ChIJR6VO5rIadkgR7ySSfKXtz2o", "types": ["lodging", "point_of_interest", "establishment"], "rating": 1, "user_ratings_total": 1}, "ChIJ1cPE8LIadkgRMiyzY8dPe8w": {"geometry": {"location": {"lat": 51.51713749999999, "lng": -0.174125}, "viewport": {"northeast": {"lat": 51.5184314802915, "lng": -0.1728771197084979}, "southwest": {"lat": 51.5157335197085, "lng": -0.175575080291502}}}, "name": "Winnicott Foundation", "place_id": "ChIJ1cPE8LIadkgRMiyzY8dPe8w", "types": ["point_of_interest", "establishment"], "rating": 5, "user_ratings_total": 2}, "ChIJgzbU-7IadkgRPBN74e8rnIY": {"geometry": {"location": {"lat": 51.5171673, "lng": -0.1738772}, "viewport": {"northeast": {"lat": 51.51834533029149, "lng": -0.172280719708498}, "southwest": {"lat": 51.5156473697085, "lng": -0.174978680291502}}}, "name": "British Red Cross", "place_id": "ChIJgzbU-7IadkgRPBN74e8rnIY", "types": ["point_of_interest", "establishment"], "rating": 5, "user_ratings_total": 2}, "ChIJmaf25rIadkgR6Vy1lKAl1iM": {"geometry": {"location": {"lat": 51.5164971, "lng": -0.1737776}, "viewport": {"northeast": {"lat": 51.5178757302915, "lng": -0.172471269708498}, "southwest": {"lat": 51.5151777697085, "lng": -0.175169230291502}}}, "name": "Chicken Cottage Paddington", "place_id": "ChIJmaf25rIadkgR6Vy1lKAl1iM", "types": ["meal_takeaway", "restaurant", "food", "point_of_interest", "establishment"], "rating": 3.8, "user_ratings_total": 401}, "ChIJQZxi5rIadkgR17k9LtAKY48": {"geometry": {"location": {"lat": 51.5164913, "lng": -0.1736956}, "viewport": {"northeast": {"lat": 51.5178841802915, "lng": -0.172409819708498}, "southwest": {"lat": 51.5151862197085, "lng": -0.175107780291502}}}, "name": "Emergency Wills", "place_id": "ChIJQZxi5rIadkgR17k9LtAKY48", "types": ["point_of_interest", "establishment"]}, "ChIJvVGy-bIadkgR1bk6wJrBrlk": {"geometry": {"location": {"lat": 51.5173274, "lng": -0.1739476}, "viewport": {"northeast": {"lat": 51.5187902802915, "lng": -0.172400669708498}, "southwest": {"lat": 51.5160923197085, "lng": -0.175098630291502}}}, "name": "Digital Stitch", "place_id": "ChIJvVGy-bIadkgR1bk6wJrBrlk", "types": ["point_of_interest", "establishment"]}, "ChIJH2425rIadkgRgzPGutH9JpA": {"geometry": {"location": {"lat": 51.5163805, "lng": -0.1739899}, "viewport": {"northeast": {"lat": 51.51772948029149, "lng": -0.172640919708498}, "southwest": {"lat": 51.51503151970849, "lng": -0.175338880291502}}}, "name": "Chozen Noodle", "place_id": "ChIJH2425rIadkgRgzPGutH9JpA", "types": ["restaurant", "food", "point_of_interest", "establishment"], "rating": 3.8, "user_ratings_total": 96}, "ChIJA9pv7rIadkgRWOFDxJEFw4s": {"geometry": {"location": {"lat": 51.5168085, "lng": -0.1743989}, "viewport": {"northeast": {"lat": 51.51810433029149, "lng": -0.172974669708498}, "southwest": {"lat": 51.51540636970849, "lng": -0.175672630291502}}}, "name": "Young People's Sexual Health Services, Jefferiss Wing", "place_id": "ChIJA9pv7rIadkgRWOFDxJEFw4s", "types": ["health", "point_of_interest", "establishment"], "rating": 3, "user_ratings_total": 2}, "ChIJgzbU-7IadkgRhGeiwYA_Syg": {"geometry": {"location": {"lat": 51.51672689999999, "lng": -0.1748614}, "viewport": {"northeast": {"lat": 51.5182354302915, "lng": -0.173258319708498}, "southwest": {"lat": 51.5155374697085, "lng": -0.175956280291502}}}, "name": "Lloyds Pharmacy", "place_id": "ChIJgzbU-7IadkgRhGeiwYA_Syg", "types": ["pharmacy", "health", "point_of_interest", "store", "establishment"], "rating": 3, "user_ratings_total": 10}, "ChIJT56zEbMadkgR_yMQS_u8EoQ": {"geometry": {"location": {"lat": 51.5168105, "lng": -0.1732157}, "viewport": {"northeast": {"lat": 51.5182733802915, "lng": -0.171660869708498}, "southwest": {"lat": 51.5155754197085, "lng": -0.174358830291502}}}, "name": "London Centre for Neglected Tropical Disease Research", "place_id": "ChIJT56zEbMadkgR_yMQS_u8EoQ", "types": ["point_of_interest", "establishment"]}, "ChIJ00_x5rIadkgRE_QTeHRmbKM": {"geometry": {"location": {"lat": 51.51655, "lng": -0.1736875}, "viewport": {"northeast": {"lat": 51.5179278802915, "lng": -0.172380069708498}, "southwest": {"lat": 51.5152299197085, "lng": -0.175078030291502}}}, "name": "Bonne Bouche Paddington", "place_id": "ChIJ00_x5rIadkgRE_QTeHRmbKM", "types": ["cafe", "bakery", "restaurant", "food", "point_of_interest", "store", "establishment"], "rating": 4.1, "user_ratings_total": 215}, "ChIJS1QF5LIadkgRzYfofqH7Htg": {"geometry": {"location": {"lat": 51.5165341, "lng": -0.1737119}, "viewport": {"northeast": {"lat": 51.51791263029151, "lng": -0.172405419708498}, "southwest": {"lat": 51.51521466970851, "lng": -0.175103380291502}}}, "name": "W G S", "place_id": "ChIJS1QF5LIadkgRzYfofqH7Htg", "types": ["lawyer", "point_of_interest", "establishment"], "rating": 3, "user_ratings_total": 34}, "ChIJ5Vc8BuAEdkgRcQQS7vzPQDw": {"geometry": {"location": {"lat": 51.5165922, "lng": -0.174389}, "viewport": {"northeast": {"lat": 51.5179358802915, "lng": -0.173032519708498}, "southwest": {"lat": 51.5152379197085, "lng": -0.175730480291502}}}, "name": "Noelene Davey", "place_id": "ChIJ5Vc8BuAEdkgRcQQS7vzPQDw", "types": ["physiotherapist", "health", "point_of_interest", "establishment"], "rating": 4.5, "user_ratings_total": 10}, "ChIJ08xR5bIadkgRS8cxCHCpdtg": {"geometry": {"location": {"lat": 51.5168194, "lng": -0.1740348}, "viewport": {"northeast": {"lat": 51.51816838029151, "lng": -0.172685819708498}, "southwest": {"lat": 51.51547041970851, "lng": -0.175383780291502}}}, "name": "London Paddington Escort Agencies", "place_id": "ChIJ08xR5bIadkgRS8cxCHCpdtg", "types": ["point_of_interest", "establishment"]}, "ChIJZWpn0bwbdkgRZ7zCJfQhuww": {"geometry": {"location": {"lat": 51.5168171, "lng": -0.1741671}, "viewport": {"northeast": {"lat": 51.5181502302915, "lng": -0.172795569708498}, "southwest": {"lat": 51.5154522697085, "lng": -0.175493530291502}}}, "name": "Jefferies Wing", "place_id": "ChIJZWpn0bwbdkgRZ7zCJfQhuww", "types": ["health", "point_of_interest", "establishment"]}, "ChIJ03xh77IadkgRus9ix1optFk": {"geometry": {"location": {"lat": 51.5168166, "lng": -0.1742718}, "viewport": {"northeast": {"lat": 51.5181297802915, "lng": -0.172872119708498}, "southwest": {"lat": 51.5154318197085, "lng": -0.175570080291502}}}, "name": "St Mary's Hospital Winston Churchill Ward", "place_id": "ChIJ03xh77IadkgRus9ix1optFk", "types": ["health", "point_of_interest", "establishment"], "rating": 3.8, "user_ratings_total": 4}, "ChIJzQct7rIadkgRRjqSL-n9Y0k": {"geometry": {"location": {"lat": 51.5168166, "lng": -0.1742718}, "viewport": {"northeast": {"lat": 51.5181297802915, "lng": -0.172872119708498}, "southwest": {"lat": 51.5154318197085, "lng": -0.175570080291502}}}, "name": "Winsland Clinic, Jefferiss Wing", "place_id": "ChIJzQct7rIadkgRRjqSL-n9Y0k", "types": ["hospital", "health", "point_of_interest", "establishment"]}, "ChIJJQKD7LIadkgR0_fv4KZuBX4": {"geometry": {"location": {"lat": 51.5168166, "lng": -0.1742718}, "viewport": {"northeast": {"lat": 51.5181297802915, "lng": -0.172872119708498}, "southwest": {"lat": 51.5154318197085, "lng": -0.175570080291502}}}, "name": "IFGICT", "place_id": "ChIJJQKD7LIadkgR0_fv4KZuBX4", "types": ["point_of_interest", "establishment"]}, "ChIJ8c_o8bIadkgRjDiHALe7aBw": {"geometry": {"location": {"lat": 51.5168512, "lng": -0.1744361}, "viewport": {"northeast": {"lat": 51.5182799802915, "lng": -0.173020919708498}, "southwest": {"lat": 51.5155820197085, "lng": -0.175718880291502}}}, "name": "Wharfside Clinic, Jefferiss Wing", "place_id": "ChIJ8c_o8bIadkgRjDiHALe7aBw", "types": ["hospital", "health", "point_of_interest", "establishment"], "rating": 5, "user_ratings_total": 3}, "ChIJ-yg_6rIadkgRVwMB-I3X1Io": {"geometry": {"location": {"lat": 51.5167891, "lng": -0.1736239}, "viewport": {"northeast": {"lat": 51.5179263302915, "lng": -0.172580269708498}, "southwest": {"lat": 51.5152283697085, "lng": -0.175278230291502}}}, "name": "Paddington Station (Stop H)", "place_id": "ChIJ-yg_6rIadkgRVwMB-I3X1Io", "types": ["transit_station", "point_of_interest", "establishment"], "rating": 4.3, "user_ratings_total": 8}, "ChIJQbVc77IadkgR9QqdE182NW0": {"geometry": {"location": {"lat": 51.5165879, "lng": -0.1741213}, "viewport": {"northeast": {"lat": 51.51788818029151, "lng": -0.172702219708498}, "southwest": {"lat": 51.51519021970851, "lng": -0.175400180291502}}}, "name": "Winston Churchill Wing", "place_id": "ChIJQbVc77IadkgR9QqdE182NW0", "types": ["hospital", "health", "point_of_interest", "establishment"], "rating": 2.3, "user_ratings_total": 3}, "ChIJYd6d47IadkgRrPYzrChk3QM": {"geometry": {"location": {"lat": 51.51668069999999, "lng": -0.1736404}, "viewport": {"northeast": {"lat": 51.51800628029149, "lng": -0.172257519708498}, "southwest": {"lat": 51.5153083197085, "lng": -0.174955480291502}}}, "name": "ECG Foundation", "place_id": "ChIJYd6d47IadkgRrPYzrChk3QM", "types": ["point_of_interest", "establishment"]}, "ChIJa1Q__bIadkgRJiWq27oXclU": {"geometry": {"location": {"lat": 51.516927, "lng": -0.1734572}, "viewport": {"northeast": {"lat": 51.5182341302915, "lng": -0.172054769708498}, "southwest": {"lat": 51.5155361697085, "lng": -0.174752730291502}}}, "name": "Clarence Memorial Wing", "place_id": "ChIJa1Q__bIadkgRJiWq27oXclU", "types": ["point_of_interest", "establishment"]}, "ChIJY0Hw47IadkgRCgKqSfH2Pm0": {"geometry": {"location": {"lat": 51.5165692, "lng": -0.1736687}, "viewport": {"northeast": {"lat": 51.5179446302915, "lng": -0.172357819708498}, "southwest": {"lat": 51.5152466697085, "lng": -0.175055780291502}}}, "name": "Apartamento londres padintong", "place_id": "ChIJY0Hw47IadkgRCgKqSfH2Pm0", "types": ["point_of_interest", "establishment"]}, "ChIJ77Rs47IadkgRPx9v5YqMjDA": {"geometry": {"location": {"lat": 51.5165285, "lng": -0.1737172}, "viewport": {"northeast": {"lat": 51.5179077302915, "lng": -0.172411769708498}, "southwest": {"lat": 51.51520976970851, "lng": -0.175109730291502}}}, "name": "Su Ersave Express", "place_id": "ChIJ77Rs47IadkgRPx9v5YqMjDA", "types": ["point_of_interest", "establishment"]}, "ChIJl9I567IadkgRjWEYE6VmcB4": {"geometry": {"location": {"lat": 51.51650180000001, "lng": -0.1743686}, "viewport": {"northeast": {"lat": 51.51789298029151, "lng": -0.173064969708498}, "southwest": {"lat": 51.51519501970851, "lng": -0.175762930291502}}}, "name": "Photography By Suzanne Pearson", "place_id": "ChIJl9I567IadkgRjWEYE6VmcB4", "types": ["point_of_interest", "establishment"]}, "ChIJAezh47IadkgR0nKnIA4vgIc": {"geometry": {"location": {"lat": 51.5165325, "lng": -0.1736269}, "viewport": {"northeast": {"lat": 51.5179245802915, "lng": -0.1723399697084979}, "southwest": {"lat": 51.5152266197085, "lng": -0.175037930291502}}}, "name": "The Floating Showroom", "place_id": "ChIJAezh47IadkgR0nKnIA4vgIc", "types": ["point_of_interest", "establishment"]}, "ChIJQb74BygbdkgRaoger2P2WPI": {"geometry": {"location": {"lat": 51.5167409, "lng": -0.1747177}, "viewport": {"northeast": {"lat": 51.51808053029149, "lng": -0.173385669708498}, "southwest": {"lat": 51.5153825697085, "lng": -0.176083630291502}}}, "name": "Burnham Station", "place_id": "ChIJQb74BygbdkgRaoger2P2WPI", "types": ["point_of_interest", "establishment"]}, "ChIJ90Ew4rIadkgRUrfz7Jey0Eg": {"geometry": {"location": {"lat": 51.51659369999999, "lng": -0.1735094}, "viewport": {"northeast": {"lat": 51.5179869302915, "lng": -0.172224519708498}, "southwest": {"lat": 51.5152889697085, "lng": -0.174922480291502}}}, "name": "Brooks R & Sons", "place_id": "ChIJ90Ew4rIadkgRUrfz7Jey0Eg", "types": ["roofing_contractor", "point_of_interest", "establishment"]}, "ChIJ00_x5rIadkgRlmphciW_AcM": {"geometry": {"location": {"lat": 51.51662899999999, "lng": -0.173455}, "viewport": {"northeast": {"lat": 51.51802093029149, "lng": -0.172168219708498}, "southwest": {"lat": 51.51532296970849, "lng": -0.174866180291502}}}, "name": "Super Save Express Ltd", "place_id": "ChIJ00_x5rIadkgRlmphciW_AcM", "types": ["grocery_or_supermarket", "supermarket", "food", "point_of_interest", "store", "establishment"], "rating": 2.2, "user_ratings_total": 13}, "ChIJw01S4bIadkgRM364NzboUxQ": {"geometry": {"location": {"lat": 51.5164902, "lng": -0.1736923}, "viewport": {"northeast": {"lat": 51.5178839302915, "lng": -0.172407719708498}, "southwest": {"lat": 51.5151859697085, "lng": -0.175105680291502}}}, "name": "HLIX Ltd", "place_id": "ChIJw01S4bIadkgRM364NzboUxQ", "types": ["point_of_interest", "establishment"]}, "ChIJW6fjfnUbdkgRiJPxHa94G60": {"geometry": {"location": {"lat": 51.5170519, "lng": -0.1747077}, "viewport": {"northeast": {"lat": 51.5184568802915, "lng": -0.173439919708498}, "southwest": {"lat": 51.5157589197085, "lng": -0.176137880291502}}}, "name": "St Mary's Hospital Main Outpatients", "place_id": "ChIJW6fjfnUbdkgRiJPxHa94G60", "types": ["health", "point_of_interest", "establishment"]}, "ChIJkdmb4rIadkgRhs8GoTucrMo": {"geometry": {"location": {"lat": 51.5167398, "lng": -0.173367}, "viewport": {"northeast": {"lat": 51.5181147802915, "lng": -0.1720556197084979}, "southwest": {"lat": 51.5154168197085, "lng": -0.174753580291502}}}, "name": "Architectural Ironmongers", "place_id": "ChIJkdmb4rIadkgRhs8GoTucrMo", "types": ["point_of_interest", "establishment"]}, "ChIJE0uBCGIbdkgRqFu_pOWCuuo": {"geometry": {"location": {"lat": 51.5165896, "lng": -0.1734946}, "viewport": {"northeast": {"lat": 51.5179883302915, "lng": -0.172210969708498}, "southwest": {"lat": 51.51529036970851, "lng": -0.174908930291502}}}, "name": "Urban Doner Kebab", "place_id": "ChIJE0uBCGIbdkgRqFu_pOWCuuo", "types": ["restaurant", "food", "point_of_interest", "establishment"], "rating": 4.2, "user_ratings_total": 21}, "ChIJT-KArH4QdkgRj1oWCf6Ld4A": {"geometry": {"location": {"lat": 51.51658949999999, "lng": -0.1734946}, "viewport": {"northeast": {"lat": 51.51798618029149, "lng": -0.172214719708498}, "southwest": {"lat": 51.51528821970849, "lng": -0.174912680291502}}}, "name": "David\u2019s Deli Garden", "place_id": "ChIJT-KArH4QdkgRj1oWCf6Ld4A", "types": ["food", "point_of_interest", "store", "establishment"], "rating": 5, "user_ratings_total": 2}, "ChIJ___z5rIadkgRFrauqqu8qS8": {"geometry": {"location": {"lat": 51.5164192, "lng": -0.1738676}, "viewport": {"northeast": {"lat": 51.5178055302915, "lng": -0.172572369708498}, "southwest": {"lat": 51.5151075697085, "lng": -0.175270330291502}}}, "name": "Nicolas Consulting LLP", "place_id": "ChIJ___z5rIadkgRFrauqqu8qS8", "types": ["point_of_interest", "establishment"]}, "ChIJ_f_z5rIadkgRV7FJf9APkt0": {"geometry": {"location": {"lat": 51.5164192, "lng": -0.1738675}, "viewport": {"northeast": {"lat": 51.5178055302915, "lng": -0.172572269708498}, "southwest": {"lat": 51.5151075697085, "lng": -0.175270230291502}}}, "name": "Kind Aid International", "place_id": "ChIJ_f_z5rIadkgRV7FJf9APkt0", "types": ["point_of_interest", "establishment"]}, "ChIJCaDP47IadkgRi5PEV1trLTc": {"geometry": {"location": {"lat": 51.5167766, "lng": -0.1732984}, "viewport": {"northeast": {"lat": 51.5181520302915, "lng": -0.171987719708498}, "southwest": {"lat": 51.5154540697085, "lng": -0.174685680291502}}}, "name": "Lauder & Rees Ltd", "place_id": "ChIJCaDP47IadkgRi5PEV1trLTc", "types": ["health", "point_of_interest", "store", "establishment"], "rating": 3.9, "user_ratings_total": 11}, "ChIJhZgRfcxfeUgRqOIfdKKB3i4": {"geometry": {"location": {"lat": 51.5164084, "lng": -0.1738744}, "viewport": {"northeast": {"lat": 51.5177966802915, "lng": -0.172580769708498}, "southwest": {"lat": 51.5150987197085, "lng": -0.175278730291502}}}, "name": "The Venari Ltd", "place_id": "ChIJhZgRfcxfeUgRqOIfdKKB3i4", "types": ["point_of_interest", "establishment"]}, "ChIJ00_x5rIadkgRPd8bNdCcnAM": {"geometry": {"location": {"lat": 51.5164084, "lng": -0.1738744}, "viewport": {"northeast": {"lat": 51.5177966802915, "lng": -0.172580769708498}, "southwest": {"lat": 51.5150987197085, "lng": -0.175278730291502}}}, "name": "Cameroon Community Welfare Organisation", "place_id": "ChIJ00_x5rIadkgRPd8bNdCcnAM", "types": ["point_of_interest", "establishment"]}, "ChIJQ62CzRAbdkgReTlHfMHBhSo": {"geometry": {"location": {"lat": 51.51671140000001, "lng": -0.173331}, "viewport": {"northeast": {"lat": 51.5180997802915, "lng": -0.172039069708498}, "southwest": {"lat": 51.5154018197085, "lng": -0.174737030291502}}}, "name": "Mobile Vitamin Injections Paddington", "place_id": "ChIJQ62CzRAbdkgReTlHfMHBhSo", "types": ["spa", "health", "point_of_interest", "establishment"]}, "ChIJQ5NLcwwbdkgRKeScuM4nn8I": {"geometry": {"location": {"lat": 51.5173483, "lng": -0.1742553}, "viewport": {"northeast": {"lat": 51.5186165302915, "lng": -0.173054369708498}, "southwest": {"lat": 51.5159185697085, "lng": -0.175752330291502}}}, "name": "St Harry's Hospital", "place_id": "ChIJQ5NLcwwbdkgRKeScuM4nn8I", "types": ["point_of_interest", "establishment"]}, "ChIJ8_Kq97IadkgRw7NpTVeN21Y": {"geometry": {"location": {"lat": 51.5173483, "lng": -0.1742553}, "viewport": {"northeast": {"lat": 51.5186166302915, "lng": -0.173054469708498}, "southwest": {"lat": 51.5159186697085, "lng": -0.175752430291502}}}, "name": "BASILIScan", "place_id": "ChIJ8_Kq97IadkgRw7NpTVeN21Y", "types": ["point_of_interest", "establishment"]}, "ChIJHwGM_xMbdkgR2TotPMMU6Ek": {"geometry": {"location": {"lat": 51.5167916, "lng": -0.1732321}, "viewport": {"northeast": {"lat": 51.51817313029149, "lng": -0.171930269708498}, "southwest": {"lat": 51.51547516970849, "lng": -0.174628230291502}}}, "name": "Next Day Tyres Westbourne Green", "place_id": "ChIJHwGM_xMbdkgR2TotPMMU6Ek", "types": ["car_repair", "point_of_interest", "store", "establishment"]}, "ChIJ00_x5rIadkgRaYs1vz-beH0": {"geometry": {"location": {"lat": 51.5168078, "lng": -0.173224}, "viewport": {"northeast": {"lat": 51.5181861302915, "lng": -0.171917519708498}, "southwest": {"lat": 51.5154881697085, "lng": -0.174615480291502}}}, "name": "London Red Bus", "place_id": "ChIJ00_x5rIadkgRaYs1vz-beH0", "types": ["point_of_interest", "store", "establishment"], "rating": 5, "user_ratings_total": 1}, "ChIJS45z6bIadkgRmqOAX4SvBgM": {"geometry": {"location": {"lat": 51.5163796, "lng": -0.1743654}, "viewport": {"northeast": {"lat": 51.5176999302915, "lng": -0.172975219708498}, "southwest": {"lat": 51.5150019697085, "lng": -0.175673180291502}}}, "name": "Paddington Quarter", "place_id": "ChIJS45z6bIadkgRmqOAX4SvBgM", "types": ["point_of_interest", "establishment"]}, "ChIJyRGP77IadkgR3WNL84MqxxQ": {"geometry": {"location": {"lat": 51.51708190000001, "lng": -0.1748354}, "viewport": {"northeast": {"lat": 51.5184588802915, "lng": -0.173526969708498}, "southwest": {"lat": 51.51576091970851, "lng": -0.176224930291502}}}, "name": "Outpatients Department St. Mary's Hospital, London", "place_id": "ChIJyRGP77IadkgR3WNL84MqxxQ", "types": ["hospital", "health", "point_of_interest", "establishment"], "rating": 5, "user_ratings_total": 1}, "ChIJ00_x5rIadkgRuf_Zyffm8Ko": {"geometry": {"location": {"lat": 51.5163375, "lng": -0.1740511}, "viewport": {"northeast": {"lat": 51.51768648029149, "lng": -0.1727021197084979}, "southwest": {"lat": 51.5149885197085, "lng": -0.175400080291502}}}, "name": "La Tazza Cafe", "place_id": "ChIJ00_x5rIadkgRuf_Zyffm8Ko", "types": ["cafe", "restaurant", "food", "point_of_interest", "establishment"], "rating": 4.2, "user_ratings_total": 238}, "ChIJg3_jxbIadkgRhqWg2YsxxT4": {"geometry": {"location": {"lat": 51.51558760002009, "lng": -0.1744080499274007}, "viewport": {"northeast": {"lat": 51.5169365802915, "lng": -0.173059069708498}, "southwest": {"lat": 51.5142386197085, "lng": -0.175757030291502}}}, "name": "25 London St", "place_id": "ChIJg3_jxbIadkgRhqWg2YsxxT4", "types": ["route"]}, "ChIJrUj43LIadkgRCa2ajIZ3F7w": {"geometry": {"location": {"lat": 51.516094, "lng": -0.173612}, "viewport": {"northeast": {"lat": 51.5174028302915, "lng": -0.172204619708498}, "southwest": {"lat": 51.5147048697085, "lng": -0.174902580291502}}}, "name": "Shakespeare Hotel London, Paddington", "place_id": "ChIJrUj43LIadkgRCa2ajIZ3F7w", "types": ["lodging", "point_of_interest", "establishment"], "rating": 3.4, "user_ratings_total": 699}, "ChIJI3prQUsFdkgRB2fuaUmAZ1k": {"geometry": {"location": {"lat": 51.51585, "lng": -0.174085}, "viewport": {"northeast": {"lat": 51.5171527802915, "lng": -0.172669019708498}, "southwest": {"lat": 51.5144548197085, "lng": -0.175366980291502}}}, "name": "The Tudor Court Hotel", "place_id": "ChIJI3prQUsFdkgRB2fuaUmAZ1k", "types": ["lodging", "point_of_interest", "establishment"], "rating": 3, "user_ratings_total": 178}, "ChIJ6TiJ17IadkgRKqLEhRDAKic": {"geometry": {"location": {"lat": 51.51551920000001, "lng": -0.1735034}, "viewport": {"northeast": {"lat": 51.5169124802915, "lng": -0.172217169708498}, "southwest": {"lat": 51.5142145197085, "lng": -0.174915130291502}}}, "name": "Falcon Hotel", "place_id": "ChIJ6TiJ17IadkgRKqLEhRDAKic", "types": ["lodging", "point_of_interest", "establishment"], "rating": 3.6, "user_ratings_total": 109}, "ChIJ6TiJ17IadkgRto4F09O6rtY": {"geometry": {"location": {"lat": 51.5156185, "lng": -0.1733233}, "viewport": {"northeast": {"lat": 51.5170116302915, "lng": -0.172036869708498}, "southwest": {"lat": 51.5143136697085, "lng": -0.174734830291502}}}, "name": "Ashley Hotel", "place_id": "ChIJ6TiJ17IadkgRto4F09O6rtY", "types": ["lodging", "point_of_interest", "establishment"], "rating": 2.9, "user_ratings_total": 327}, "ChIJARBMxLIadkgR-ahswfwrT8w": {"geometry": {"location": {"lat": 51.51577369999999, "lng": -0.1744703}, "viewport": {"northeast": {"lat": 51.51709283029149, "lng": -0.173179719708498}, "southwest": {"lat": 51.51439486970849, "lng": -0.175877680291502}}}, "name": "The Pilgrm", "place_id": "ChIJARBMxLIadkgR-ahswfwrT8w", "types": ["night_club", "cafe", "lodging", "bar", "food", "point_of_interest", "establishment"], "rating": 4, "user_ratings_total": 562}, "ChIJbwLOxbIadkgRA59DoKsxwp0": {"geometry": {"location": {"lat": 51.51595080000001, "lng": -0.1741528}, "viewport": {"northeast": {"lat": 51.5171813802915, "lng": -0.173020969708498}, "southwest": {"lat": 51.5144834197085, "lng": -0.175718930291502}}}, "name": "The Dickens Tavern", "place_id": "ChIJbwLOxbIadkgRA59DoKsxwp0", "types": ["bar", "point_of_interest", "establishment"], "rating": 3.8, "user_ratings_total": 646}, "ChIJ6TiJ17IadkgRMiLPCNBrepo": {"geometry": {"location": {"lat": 51.5155013, "lng": -0.1736376}, "viewport": {"northeast": {"lat": 51.51687893029149, "lng": -0.172329169708498}, "southwest": {"lat": 51.51418096970849, "lng": -0.175027130291502}}}, "name": "The Cardiff Hotel", "place_id": "ChIJ6TiJ17IadkgRMiLPCNBrepo", "types": ["lodging", "point_of_interest", "establishment"], "rating": 3.3, "user_ratings_total": 371}, "ChIJj8e2yLIadkgRSANxpKAqvng": {"geometry": {"location": {"lat": 51.515519, "lng": -0.1745814}, "viewport": {"northeast": {"lat": 51.5169099302915, "lng": -0.173156669708498}, "southwest": {"lat": 51.51421196970851, "lng": -0.175854630291502}}}, "name": "Sawyers Arms", "place_id": "ChIJj8e2yLIadkgRSANxpKAqvng", "types": ["bar", "point_of_interest", "establishment"], "rating": 4.1, "user_ratings_total": 1141}, "ChIJaaokz7IadkgRSl3gm09_0kE": {"geometry": {"location": {"lat": 51.5154325, "lng": -0.174366}, "viewport": {"northeast": {"lat": 51.51681188029149, "lng": -0.172975319708498}, "southwest": {"lat": 51.5141139197085, "lng": -0.175673280291502}}}, "name": "The Mughal's Indian Restaurant", "place_id": "ChIJaaokz7IadkgRSl3gm09_0kE", "types": ["meal_takeaway", "restaurant", "food", "point_of_interest", "establishment"], "rating": 4.1, "user_ratings_total": 744}, "ChIJIYY93LIadkgReSM4bUGcMUI": {"geometry": {"location": {"lat": 51.5160469, "lng": -0.1738251}, "viewport": {"northeast": {"lat": 51.5173356802915, "lng": -0.172388769708498}, "southwest": {"lat": 51.5146377197085, "lng": -0.175086730291502}}}, "name": "YTM Fireworks - Central London", "place_id": "ChIJIYY93LIadkgReSM4bUGcMUI", "types": ["home_goods_store", "point_of_interest", "store", "establishment"], "rating": 3.8, "user_ratings_total": 25}, "ChIJrUj43LIadkgR7-psYW0ENu4": {"geometry": {"location": {"lat": 51.5159412, "lng": -0.1738548}, "viewport": {"northeast": {"lat": 51.5172544802915, "lng": -0.172454019708498}, "southwest": {"lat": 51.5145565197085, "lng": -0.175151980291502}}}, "name": "St. David's Hotels", "place_id": "ChIJrUj43LIadkgR7-psYW0ENu4", "types": ["lodging", "point_of_interest", "establishment"], "rating": 3.5, "user_ratings_total": 314}, "ChIJR5ry3bIadkgRkxLLoopVAEY": {"geometry": {"location": {"lat": 51.5158439, "lng": -0.17414}, "viewport": {"northeast": {"lat": 51.5172484302915, "lng": -0.172871219708498}, "southwest": {"lat": 51.5145504697085, "lng": -0.175569180291502}}}, "name": "Stein Richards", "place_id": "ChIJR5ry3bIadkgRkxLLoopVAEY", "types": ["accounting", "finance", "point_of_interest", "establishment"], "rating": 3, "user_ratings_total": 2}, "ChIJ0SydF7MadkgRgp4lsViOG0A": {"geometry": {"location": {"lat": 51.515453, "lng": -0.1740822}, "viewport": {"northeast": {"lat": 51.5167755802915, "lng": -0.172695819708498}, "southwest": {"lat": 51.5140776197085, "lng": -0.175393780291502}}}, "name": "Central & Cecil Housing Trust", "place_id": "ChIJ0SydF7MadkgRgp4lsViOG0A", "types": ["point_of_interest", "establishment"], "rating": 5, "user_ratings_total": 3}, "ChIJXUb43LIadkgRW3YAd_JQqRE": {"geometry": {"location": {"lat": 51.5160469, "lng": -0.1738251}, "viewport": {"northeast": {"lat": 51.5173356802915, "lng": -0.172388769708498}, "southwest": {"lat": 51.5146377197085, "lng": -0.175086730291502}}}, "name": "YANELEX Ltd", "place_id": "ChIJXUb43LIadkgRW3YAd_JQqRE", "types": ["home_goods_store", "point_of_interest", "store", "establishment"]}, "ChIJMxrZyLIadkgRQZKEGY-E3nk": {"geometry": {"location": {"lat": 51.5160458, "lng": -0.1742153}, "viewport": {"northeast": {"lat": 51.5173946302915, "lng": -0.172865019708498}, "southwest": {"lat": 51.5146966697085, "lng": -0.175562980291502}}}, "name": "Paddington Mews by Q Apartments", "place_id": "ChIJMxrZyLIadkgRQZKEGY-E3nk", "types": ["lodging", "point_of_interest", "establishment"], "rating": 3.2, "user_ratings_total": 9}, "ChIJUbtP3LIadkgRzscQu4hdJCY": {"geometry": {"location": {"lat": 51.5160469, "lng": -0.1738251}, "viewport": {"northeast": {"lat": 51.5173356802915, "lng": -0.172388769708498}, "southwest": {"lat": 51.5146377197085, "lng": -0.175086730291502}}}, "name": "Ice Party Supplies", "place_id": "ChIJUbtP3LIadkgRzscQu4hdJCY", "types": ["point_of_interest", "establishment"]}, "ChIJUbtP3LIadkgRf40ftlbg4uM": {"geometry": {"location": {"lat": 51.5160469, "lng": -0.1738251}, "viewport": {"northeast": {"lat": 51.5173356802915, "lng": -0.172388769708498}, "southwest": {"lat": 51.5146377197085, "lng": -0.175086730291502}}}, "name": "Crack IT Solutions", "place_id": "ChIJUbtP3LIadkgRf40ftlbg4uM", "types": ["point_of_interest", "establishment"]}, "ChIJC3SC3LIadkgRU4Gcw2uwvJw": {"geometry": {"location": {"lat": 51.5160469, "lng": -0.1738251}, "viewport": {"northeast": {"lat": 51.5173356802915, "lng": -0.172388769708498}, "southwest": {"lat": 51.5146377197085, "lng": -0.175086730291502}}}, "name": "Ice Entertainments", "place_id": "ChIJC3SC3LIadkgRU4Gcw2uwvJw", "types": ["home_goods_store", "point_of_interest", "store", "establishment"], "rating": 5, "user_ratings_total": 2}, "ChIJUbtP3LIadkgRJONq0YoSVdo": {"geometry": {"location": {"lat": 51.5160469, "lng": -0.1738251}, "viewport": {"northeast": {"lat": 51.5173356802915, "lng": -0.172388769708498}, "southwest": {"lat": 51.5146377197085, "lng": -0.175086730291502}}}, "name": "Neo Cakes", "place_id": "ChIJUbtP3LIadkgRJONq0YoSVdo", "types": ["bakery", "food", "point_of_interest", "store", "establishment"]}, "ChIJISVp57IadkgRE0OuZt3dUPk": {"geometry": {"location": {"lat": 51.51621610000001, "lng": -0.1737004}, "viewport": {"northeast": {"lat": 51.51758278029149, "lng": -0.172376969708498}, "southwest": {"lat": 51.51488481970849, "lng": -0.175074930291502}}}, "name": "Ship Shape Payroll", "place_id": "ChIJISVp57IadkgRE0OuZt3dUPk", "types": ["point_of_interest", "establishment"], "rating": 2.6, "user_ratings_total": 39}, "ChIJz58mwrIadkgRR6rrCU5EfII": {"geometry": {"location": {"lat": 51.51608419999999, "lng": -0.1744176}, "viewport": {"northeast": {"lat": 51.5174784302915, "lng": -0.173133719708498}, "southwest": {"lat": 51.5147804697085, "lng": -0.175831680291502}}}, "name": "Powell & Co Property", "place_id": "ChIJz58mwrIadkgRR6rrCU5EfII", "types": ["point_of_interest", "establishment"], "rating": 2.3, "user_ratings_total": 3}, "ChIJJcEawbIadkgRds1O99B_2Wc": {"geometry": {"location": {"lat": 51.51596789999999, "lng": -0.1746078}, "viewport": {"northeast": {"lat": 51.5173648802915, "lng": -0.173328069708498}, "southwest": {"lat": 51.5146669197085, "lng": -0.176026030291502}}}, "name": "Hotel Management Services", "place_id": "ChIJJcEawbIadkgRds1O99B_2Wc", "types": ["point_of_interest", "establishment"], "rating": 2.6, "user_ratings_total": 10}, "ChIJ0YcHx7IadkgRjRpej_mudN0": {"geometry": {"location": {"lat": 51.5156642, "lng": -0.1747228}, "viewport": {"northeast": {"lat": 51.5170451802915, "lng": -0.173316169708498}, "southwest": {"lat": 51.5143472197085, "lng": -0.176014130291502}}}, "name": "W2 Studios Paddington", "place_id": "ChIJ0YcHx7IadkgRjRpej_mudN0", "types": ["real_estate_agency", "point_of_interest", "establishment"], "rating": 1, "user_ratings_total": 1}, "ChIJD2Cw_P8PdkgRTj98nfHivX0": {"geometry": {"location": {"lat": 51.5156376, "lng": -0.1747365}, "viewport": {"northeast": {"lat": 51.51702623029151, "lng": -0.173315069708498}, "southwest": {"lat": 51.51432826970851, "lng": -0.176013030291502}}}, "name": "Kickoff Sports Marketing", "place_id": "ChIJD2Cw_P8PdkgRTj98nfHivX0", "types": ["point_of_interest", "establishment"]}, "ChIJmaf25rIadkgRphdVi30sgc4": {"geometry": {"location": {"lat": 51.51604319999999, "lng": -0.1745814}, "viewport": {"northeast": {"lat": 51.51742343029149, "lng": -0.1732774697084979}, "southwest": {"lat": 51.51472546970849, "lng": -0.175975430291502}}}, "name": "Sofias Crown", "place_id": "ChIJmaf25rIadkgRphdVi30sgc4", "types": ["hair_care", "health", "point_of_interest", "establishment"]}, "ChIJAwCcsdEEdkgR3fthgyhvS7k": {"geometry": {"location": {"lat": 51.5156376, "lng": -0.1747364}, "viewport": {"northeast": {"lat": 51.51702618029151, "lng": -0.173314719708498}, "southwest": {"lat": 51.51432821970851, "lng": -0.176012680291502}}}, "name": "AB EUROCOLLECTION", "place_id": "ChIJAwCcsdEEdkgR3fthgyhvS7k", "types": ["finance", "point_of_interest", "establishment"]}, "ChIJEVqH6rIadkgRkvD8-V7eXPE": {"geometry": {"location": {"lat": 51.5161378, "lng": -0.1744568}, "viewport": {"northeast": {"lat": 51.51748678029149, "lng": -0.173107819708498}, "southwest": {"lat": 51.5147888197085, "lng": -0.175805780291502}}}, "name": "Mihbaj Caf\u00e9 & Kitchen", "place_id": "ChIJEVqH6rIadkgRkvD8-V7eXPE", "types": ["restaurant", "food", "point_of_interest", "establishment"], "rating": 4.5, "user_ratings_total": 405}, "ChIJc_u5x7IadkgReRvWB6aOIZ0": {"geometry": {"location": {"lat": 51.5155609, "lng": -0.1747347}, "viewport": {"northeast": {"lat": 51.51696598029149, "lng": -0.173283219708498}, "southwest": {"lat": 51.5142680197085, "lng": -0.175981180291502}}}, "name": "Lite Bite Cafe Bar", "place_id": "ChIJc_u5x7IadkgReRvWB6aOIZ0", "types": ["cafe", "restaurant", "food", "point_of_interest", "establishment"], "rating": 3.5, "user_ratings_total": 194}, "ChIJjyvzx7IadkgR4ztDR-_zpXI": {"geometry": {"location": {"lat": 51.5156162, "lng": -0.1747722}, "viewport": {"northeast": {"lat": 51.5170150302915, "lng": -0.173332169708498}, "southwest": {"lat": 51.5143170697085, "lng": -0.176030130291502}}}, "name": "b2b-alive Ltd", "place_id": "ChIJjyvzx7IadkgR4ztDR-_zpXI", "types": ["point_of_interest", "establishment"]}, "ChIJiSvzx7IadkgRuDjRBuILUBA": {"geometry": {"location": {"lat": 51.5156162, "lng": -0.1747723}, "viewport": {"northeast": {"lat": 51.5170150302915, "lng": -0.173332269708498}, "southwest": {"lat": 51.5143170697085, "lng": -0.1760302302915021}}}, "name": "Jonathan Phillips", "place_id": "ChIJiSvzx7IadkgRuDjRBuILUBA", "types": ["health", "point_of_interest", "establishment"]}, "ChIJpUj0x7IadkgRgxZkjLvKP54": {"geometry": {"location": {"lat": 51.5156027, "lng": -0.174791}, "viewport": {"northeast": {"lat": 51.5170073802915, "lng": -0.1733403197084979}, "southwest": {"lat": 51.5143094197085, "lng": -0.176038280291502}}}, "name": "Digital Alchemy", "place_id": "ChIJpUj0x7IadkgRgxZkjLvKP54", "types": ["point_of_interest", "establishment"]}, "ChIJpUj0x7IadkgRgi7KpF1tJI4": {"geometry": {"location": {"lat": 51.5156027, "lng": -0.174791}, "viewport": {"northeast": {"lat": 51.5170073802915, "lng": -0.1733403197084979}, "southwest": {"lat": 51.5143094197085, "lng": -0.176038280291502}}}, "name": "Landlord Electrical Certificates", "place_id": "ChIJpUj0x7IadkgRgi7KpF1tJI4", "types": ["electrician", "point_of_interest", "establishment"]}, "ChIJu0j0x7IadkgRK6NnQhchF-8": {"geometry": {"location": {"lat": 51.5156027, "lng": -0.1747911}, "viewport": {"northeast": {"lat": 51.5170073802915, "lng": -0.173340369708498}, "southwest": {"lat": 51.5143094197085, "lng": -0.176038330291502}}}, "name": "Boost Consulting", "place_id": "ChIJu0j0x7IadkgRK6NnQhchF-8", "types": ["point_of_interest", "establishment"]}, "ChIJo6AKuLIadkgR_j6cQk3P-kY": {"geometry": {"location": {"lat": 51.51561290000001, "lng": -0.1748055}, "viewport": {"northeast": {"lat": 51.5170175802915, "lng": -0.173354769708498}, "southwest": {"lat": 51.5143196197085, "lng": -0.1760527302915021}}}, "name": "GMG Tech Engineering", "place_id": "ChIJo6AKuLIadkgR_j6cQk3P-kY", "types": ["point_of_interest", "establishment"]}, "ChIJ00_x5rIadkgRiyhrAbr0Qgg": {"geometry": {"location": {"lat": 51.51611459999999, "lng": -0.1743761}, "viewport": {"northeast": {"lat": 51.5174635802915, "lng": -0.1730271197084979}, "southwest": {"lat": 51.5147656197085, "lng": -0.175725080291502}}}, "name": "London Hotel Reservation Centre (LHRC)", "place_id": "ChIJ00_x5rIadkgRiyhrAbr0Qgg", "types": ["travel_agency", "real_estate_agency", "lodging", "point_of_interest", "store", "establishment"], "rating": 5, "user_ratings_total": 4}, "ChIJISVp57IadkgR2mijUuyRiMo": {"geometry": {"location": {"lat": 51.51621610000001, "lng": -0.1737004}, "viewport": {"northeast": {"lat": 51.51758273029149, "lng": -0.172377019708498}, "southwest": {"lat": 51.51488476970849, "lng": -0.175074980291502}}}, "name": "Ship Shape Resources", "place_id": "ChIJISVp57IadkgR2mijUuyRiMo", "types": ["finance", "point_of_interest", "establishment"], "rating": 2, "user_ratings_total": 25}, "ChIJHaOs4LIadkgRbAXG4DPQ9FE": {"geometry": {"location": {"lat": 51.51621619999999, "lng": -0.1737004}, "viewport": {"northeast": {"lat": 51.5175828302915, "lng": -0.1723768697084979}, "southwest": {"lat": 51.5148848697085, "lng": -0.175074830291502}}}, "name": "Engage Technology Partners", "place_id": "ChIJHaOs4LIadkgRbAXG4DPQ9FE", "types": ["point_of_interest", "establishment"]}, "ChIJhzx7yLIadkgRzkLzd2Gss14": {"geometry": {"location": {"lat": 51.5156376, "lng": -0.1747365}, "viewport": {"northeast": {"lat": 51.51702623029151, "lng": -0.173315069708498}, "southwest": {"lat": 51.51432826970851, "lng": -0.176013030291502}}}, "name": "Anyword Ltd", "place_id": "ChIJhzx7yLIadkgRzkLzd2Gss14", "types": ["point_of_interest", "establishment"]}, "ChIJpZU1z7IadkgR52_LCPW35sw": {"geometry": {"location": {"lat": 51.5154018, "lng": -0.1745396}, "viewport": {"northeast": {"lat": 51.51681148029149, "lng": -0.173079019708498}, "southwest": {"lat": 51.51411351970849, "lng": -0.175776980291502}}}, "name": "San Marco Ristorante & Pizzeria", "place_id": "ChIJpZU1z7IadkgR52_LCPW35sw", "types": ["restaurant", "food", "point_of_interest", "establishment"], "rating": 3.7, "user_ratings_total": 501}, "ChIJOWhP57IadkgR8Z3VsAE1H4Y": {"geometry": {"location": {"lat": 51.51624280000001, "lng": -0.1736916}, "viewport": {"northeast": {"lat": 51.5175974302915, "lng": -0.1723508197084979}, "southwest": {"lat": 51.5148994697085, "lng": -0.175048780291502}}}, "name": "The Fertility Support Company - Naava Carman", "place_id": "ChIJOWhP57IadkgR8Z3VsAE1H4Y", "types": ["health", "point_of_interest", "establishment"]}, "ChIJo_46xLIadkgRBzxTvThxsiQ": {"geometry": {"location": {"lat": 51.5158663, "lng": -0.1745998}, "viewport": {"northeast": {"lat": 51.5171920302915, "lng": -0.173316819708498}, "southwest": {"lat": 51.5144940697085, "lng": -0.1760147802915021}}}, "name": "Paramount Lebanese Kitchen Paddington", "place_id": "ChIJo_46xLIadkgRBzxTvThxsiQ", "types": ["restaurant", "food", "point_of_interest", "establishment"], "rating": 4.4, "user_ratings_total": 1855}, "ChIJHaou27IadkgRJLLDuiJqiPI": {"geometry": {"location": {"lat": 51.5160469, "lng": -0.1738251}, "viewport": {"northeast": {"lat": 51.5173356802915, "lng": -0.172388769708498}, "southwest": {"lat": 51.5146377197085, "lng": -0.175086730291502}}}, "name": "Cham\u00e4leon - Sales and City Recruitment", "place_id": "ChIJHaou27IadkgRJLLDuiJqiPI", "types": ["finance", "point_of_interest", "establishment"]}, "ChIJ60j43LIadkgRrSVxV-bIGhM": {"geometry": {"location": {"lat": 51.5160469, "lng": -0.1738251}, "viewport": {"northeast": {"lat": 51.5173356802915, "lng": -0.172388769708498}, "southwest": {"lat": 51.5146377197085, "lng": -0.175086730291502}}}, "name": "Ice Fountains.com", "place_id": "ChIJ60j43LIadkgRrSVxV-bIGhM", "types": ["home_goods_store", "point_of_interest", "store", "establishment"]}, "ChIJPUw6ArUbdkgR1yjdd9jzNfo": {"geometry": {"location": {"lat": 51.5157367, "lng": -0.1741756}, "viewport": {"northeast": {"lat": 51.5170566802915, "lng": -0.172784569708498}, "southwest": {"lat": 51.5143587197085, "lng": -0.175482530291502}}}, "name": "So Paddington Hotel", "place_id": "ChIJPUw6ArUbdkgR1yjdd9jzNfo", "types": ["lodging", "point_of_interest", "establishment"], "rating": 3, "user_ratings_total": 2}, "ChIJWb313LIadkgR3swkzD3JOoU": {"geometry": {"location": {"lat": 51.5159599, "lng": -0.1738935}, "viewport": {"northeast": {"lat": 51.5172620302915, "lng": -0.172476569708498}, "southwest": {"lat": 51.51456406970851, "lng": -0.175174530291502}}}, "name": "Firework Sparklers", "place_id": "ChIJWb313LIadkgR3swkzD3JOoU", "types": ["point_of_interest", "store", "establishment"]}, "ChIJQdqexrIadkgRnHb7-Ur7qHI": {"geometry": {"location": {"lat": 51.5157699, "lng": -0.1744581}, "viewport": {"northeast": {"lat": 51.5170868802915, "lng": -0.173167869708498}, "southwest": {"lat": 51.5143889197085, "lng": -0.175865830291502}}}, "name": "Ecrypto Expert Miners investment LTD", "place_id": "ChIJQdqexrIadkgRnHb7-Ur7qHI", "types": ["point_of_interest", "establishment"]}, "ChIJ0x6cZNQbdkgR1c9BQW84NfQ": {"geometry": {"location": {"lat": 51.5157482, "lng": -0.1744752}, "viewport": {"northeast": {"lat": 51.51707238029149, "lng": -0.173171519708498}, "southwest": {"lat": 51.5143744197085, "lng": -0.175869480291502}}}, "name": "Workshop Coffee at The Pilgrm", "place_id": "ChIJ0x6cZNQbdkgR1c9BQW84NfQ", "types": ["cafe", "food", "point_of_interest", "establishment"], "rating": 4.5, "user_ratings_total": 100}, "ChIJabx5x7IadkgRvhEixB51g4o": {"geometry": {"location": {"lat": 51.5156499, "lng": -0.1748524}, "viewport": {"northeast": {"lat": 51.5170534302915, "lng": -0.173402769708498}, "southwest": {"lat": 51.5143554697085, "lng": -0.176100730291502}}}, "name": "Hotel Sophia", "place_id": "ChIJabx5x7IadkgRvhEixB51g4o", "types": ["lodging", "point_of_interest", "establishment"], "rating": 1.8, "user_ratings_total": 133}, "ChIJjd0N_I4bdkgRfo0AnsrYgCQ": {"geometry": {"location": {"lat": 51.51585919999999, "lng": -0.1744777}, "viewport": {"northeast": {"lat": 51.5172298302915, "lng": -0.173159919708498}, "southwest": {"lat": 51.5145318697085, "lng": -0.175857880291502}}}, "name": "Zipcar", "place_id": "ChIJjd0N_I4bdkgRfo0AnsrYgCQ", "types": ["point_of_interest", "establishment"]}, "ChIJJZbqxrIadkgR4KugmOnne10": {"geometry": {"location": {"lat": 51.5157925, "lng": -0.1745032000000001}, "viewport": {"northeast": {"lat": 51.51711153029151, "lng": -0.173209219708498}, "southwest": {"lat": 51.51441356970851, "lng": -0.175907180291502}}}, "name": "Famous Fish & Chips", "place_id": "ChIJJZbqxrIadkgR4KugmOnne10", "types": ["restaurant", "food", "point_of_interest", "establishment"]}, "ChIJOYXWPmEbdkgRVk-ENYXlLDk": {"geometry": {"location": {"lat": 51.5157513, "lng": -0.1745169}, "viewport": {"northeast": {"lat": 51.5170829802915, "lng": -0.173199419708498}, "southwest": {"lat": 51.5143850197085, "lng": -0.175897380291502}}}, "name": "Association of Foot & Ankle Physiotherapists & AHPs", "place_id": "ChIJOYXWPmEbdkgRVk-ENYXlLDk", "types": ["point_of_interest", "establishment"]}, "ChIJyfXnl0AbdkgR4YWS9tXUu1I": {"geometry": {"location": {"lat": 51.5156357, "lng": -0.1744768}, "viewport": {"northeast": {"lat": 51.51698468029149, "lng": -0.173127819708498}, "southwest": {"lat": 51.5142867197085, "lng": -0.175825780291502}}}, "name": "Concrete Pavers", "place_id": "ChIJyfXnl0AbdkgR4YWS9tXUu1I", "types": ["point_of_interest", "establishment"]}, "ChIJ___Iw7IadkgRE21LYOgBHUw": {"geometry": {"location": {"lat": 51.5159975, "lng": -0.1743594000000001}, "viewport": {"northeast": {"lat": 51.51732813029151, "lng": -0.172983919708498}, "southwest": {"lat": 51.51463016970851, "lng": -0.175681880291502}}}, "name": "Paddington One", "place_id": "ChIJ___Iw7IadkgRE21LYOgBHUw", "types": ["lodging", "point_of_interest", "establishment"]}, "ChIJXfqRvBoZdkgR7vp416Ug1lA": {"geometry": {"location": {"lat": 51.5160469, "lng": -0.1738251}, "viewport": {"northeast": {"lat": 51.5173356802915, "lng": -0.172388769708498}, "southwest": {"lat": 51.5146377197085, "lng": -0.175086730291502}}}, "name": "Chinese Sky Lantern Company", "place_id": "ChIJXfqRvBoZdkgR7vp416Ug1lA", "types": ["home_goods_store", "point_of_interest", "store", "establishment"], "rating": 3.6, "user_ratings_total": 21}, "ChIJtQ1G27IadkgRP7M1djl9acs": {"geometry": {"location": {"lat": 51.5160469, "lng": -0.1738251}, "viewport": {"northeast": {"lat": 51.5173356802915, "lng": -0.172388769708498}, "southwest": {"lat": 51.5146377197085, "lng": -0.175086730291502}}}, "name": "YTM Consultancy", "place_id": "ChIJtQ1G27IadkgRP7M1djl9acs", "types": ["point_of_interest", "establishment"]}, "ChIJXQGSXKkbdkgR1ANMSacvHok": {"geometry": {"location": {"lat": 51.5160944, "lng": -0.1741343}, "viewport": {"northeast": {"lat": 51.5174410302915, "lng": -0.172781919708498}, "southwest": {"lat": 51.5147430697085, "lng": -0.175479880291502}}}, "name": "Excel Apartment Paddington", "place_id": "ChIJXQGSXKkbdkgR1ANMSacvHok", "types": ["lodging", "point_of_interest", "establishment"]}, "ChIJE9x1vrIadkgRo9r82HSTU9k": {"geometry": {"location": {"lat": 51.515876, "lng": -0.1745615}, "viewport": {"northeast": {"lat": 51.5171873802915, "lng": -0.1732850197084979}, "southwest": {"lat": 51.5144894197085, "lng": -0.175982980291502}}}, "name": "Paddington Pub", "place_id": "ChIJE9x1vrIadkgRo9r82HSTU9k", "types": ["point_of_interest", "establishment"]}, "ChIJQ-eXoQ8bdkgR3It5zsUOlaI": {"geometry": {"location": {"lat": 51.5155359, "lng": -0.1736001}, "viewport": {"northeast": {"lat": 51.5169095802915, "lng": -0.172286069708498}, "southwest": {"lat": 51.5142116197085, "lng": -0.174984030291502}}}, "name": "Voyage London Hotel", "place_id": "ChIJQ-eXoQ8bdkgR3It5zsUOlaI", "types": ["lodging", "point_of_interest", "establishment"], "rating": 3.9, "user_ratings_total": 7}, "ChIJJVMaLE0FdkgRvwNO-Hl_g_c": {"geometry": {"location": {"lat": 51.51458180009886, "lng": -0.1737547002818909}, "viewport": {"northeast": {"lat": 51.5159307802915, "lng": -0.172405719708498}, "southwest": {"lat": 51.5132328197085, "lng": -0.175103680291502}}}, "name": "176 Sussex Gardens", "place_id": "ChIJJVMaLE0FdkgRvwNO-Hl_g_c", "types": ["route"]}, "ChIJiarS0rIadkgRckYotsfvMYw": {"geometry": {"location": {"lat": 51.51480340000001, "lng": -0.1738199}, "viewport": {"northeast": {"lat": 51.51608033029151, "lng": -0.172368169708498}, "southwest": {"lat": 51.51338236970852, "lng": -0.1750661302915021}}}, "name": "Abbey Court Hotel (Hyde Park)", "place_id": "ChIJiarS0rIadkgRckYotsfvMYw", "types": ["lodging", "point_of_interest", "establishment"], "rating": 3.4, "user_ratings_total": 490}, "ChIJiarS0rIadkgRaWtPkdbPMC8": {"geometry": {"location": {"lat": 51.51486059999999, "lng": -0.1738303}, "viewport": {"northeast": {"lat": 51.5162471302915, "lng": -0.172306069708498}, "southwest": {"lat": 51.5135491697085, "lng": -0.175004030291502}}}, "name": "Westpoint Hotel", "place_id": "ChIJiarS0rIadkgRaWtPkdbPMC8", "types": ["lodging", "point_of_interest", "establishment"], "rating": 3.3, "user_ratings_total": 443}, "ChIJ31b1uLIadkgRLU9Ys0mnCWU": {"geometry": {"location": {"lat": 51.5152227, "lng": -0.1741589}, "viewport": {"northeast": {"lat": 51.5166193302915, "lng": -0.172743269708498}, "southwest": {"lat": 51.5139213697085, "lng": -0.175441230291502}}}, "name": "Hotel Indigo London - Paddington, an IHG Hotel", "place_id": "ChIJ31b1uLIadkgRLU9Ys0mnCWU", "types": ["lodging", "point_of_interest", "establishment"], "rating": 4.1, "user_ratings_total": 488}, "ChIJ3XDv0bIadkgRkvKSFfO2L7A": {"geometry": {"location": {"lat": 51.5151463, "lng": -0.1740581}, "viewport": {"northeast": {"lat": 51.5165386802915, "lng": -0.172631769708498}, "southwest": {"lat": 51.5138407197085, "lng": -0.175329730291502}}}, "name": "London Street Brasserie", "place_id": "ChIJ3XDv0bIadkgRkvKSFfO2L7A", "types": ["cafe", "bar", "restaurant", "food", "point_of_interest", "establishment"], "rating": 3.6, "user_ratings_total": 284}, "ChIJiZn6Sk0FdkgRGkGfObP-sXQ": {"geometry": {"location": {"lat": 51.51452459999999, "lng": -0.1744245}, "viewport": {"northeast": {"lat": 51.51590158029149, "lng": -0.1730256697084979}, "southwest": {"lat": 51.51320361970849, "lng": -0.175723630291502}}}, "name": "Talbot Square Gym", "place_id": "ChIJiZn6Sk0FdkgRGkGfObP-sXQ", "types": ["gym", "health", "point_of_interest", "establishment"], "rating": 3.7, "user_ratings_total": 6}, "ChIJcwbHqMQEdkgRfG7bXFKkZdw": {"geometry": {"location": {"lat": 51.51449470000001, "lng": -0.1745316}, "viewport": {"northeast": {"lat": 51.5157906802915, "lng": -0.173122719708498}, "southwest": {"lat": 51.5130927197085, "lng": -0.175820680291502}}}, "name": "Mitre House Hotel", "place_id": "ChIJcwbHqMQEdkgRfG7bXFKkZdw", "types": ["lodging", "point_of_interest", "establishment"], "rating": 3.7, "user_ratings_total": 328}, "ChIJTRCV1LIadkgRta-DcYWv_l4": {"geometry": {"location": {"lat": 51.5150598, "lng": -0.1738251}, "viewport": {"northeast": {"lat": 51.5164373802915, "lng": -0.1724281697084979}, "southwest": {"lat": 51.5137394197085, "lng": -0.175126130291502}}}, "name": "The Sussex Arms", "place_id": "ChIJTRCV1LIadkgRta-DcYWv_l4", "types": ["bar", "point_of_interest", "establishment"], "rating": 4.3, "user_ratings_total": 538}, "ChIJ1UAxNE0FdkgRiHoMJ3cHIO8": {"geometry": {"location": {"lat": 51.5146111, "lng": -0.1746583}, "viewport": {"northeast": {"lat": 51.51598843029149, "lng": -0.173205769708498}, "southwest": {"lat": 51.51329046970849, "lng": -0.175903730291502}}}, "name": "Rose Park Hotel Paddington", "place_id": "ChIJ1UAxNE0FdkgRiHoMJ3cHIO8", "types": ["lodging", "point_of_interest", "establishment"], "rating": 3.2, "user_ratings_total": 351}, "ChIJFY79xT6m2EcRLzEwe-jvOZY": {"geometry": {"location": {"lat": 51.5150922, "lng": -0.1735357}, "viewport": {"northeast": {"lat": 51.5163305302915, "lng": -0.172045269708498}, "southwest": {"lat": 51.5136325697085, "lng": -0.174743230291502}}}, "name": "The Castleton Hotel", "place_id": "ChIJFY79xT6m2EcRLzEwe-jvOZY", "types": ["lodging", "point_of_interest", "establishment"], "rating": 3.1, "user_ratings_total": 286}, "ChIJl0grxLIadkgRGycKCXxkTr4": {"geometry": {"location": {"lat": 51.514868, "lng": -0.173928}, "viewport": {"northeast": {"lat": 51.5161101302915, "lng": -0.172426719708498}, "southwest": {"lat": 51.5134121697085, "lng": -0.175124680291502}}}, "name": "Margo Tickets & Tours", "place_id": "ChIJl0grxLIadkgRGycKCXxkTr4", "types": ["travel_agency", "point_of_interest", "establishment"], "rating": 5, "user_ratings_total": 5}, "ChIJpbDGNE0FdkgR2OIKNmKOSfw": {"geometry": {"location": {"lat": 51.51486259999999, "lng": -0.1745}, "viewport": {"northeast": {"lat": 51.5161899302915, "lng": -0.173133919708498}, "southwest": {"lat": 51.5134919697085, "lng": -0.1758318802915021}}}, "name": "Talbot Square Gardens", "place_id": "ChIJpbDGNE0FdkgR2OIKNmKOSfw", "types": ["park", "point_of_interest", "establishment"], "rating": 4.1, "user_ratings_total": 25}, "ChIJS3aWzLIadkgRYyOJhEkxSkQ": {"geometry": {"location": {"lat": 51.51496760000001, "lng": -0.1743648}, "viewport": {"northeast": {"lat": 51.5163047302915, "lng": -0.173036869708498}, "southwest": {"lat": 51.5136067697085, "lng": -0.175734830291502}}}, "name": "KILI PEOPLE", "place_id": "ChIJS3aWzLIadkgRYyOJhEkxSkQ", "types": ["point_of_interest", "establishment"]}, "ChIJHfjOO3kGcUgRDmFHdohTdUo": {"geometry": {"location": {"lat": 51.5151463, "lng": -0.1740581}, "viewport": {"northeast": {"lat": 51.5165386802915, "lng": -0.172631769708498}, "southwest": {"lat": 51.5138407197085, "lng": -0.175329730291502}}}, "name": "U R C Thames North Synod", "place_id": "ChIJHfjOO3kGcUgRDmFHdohTdUo", "types": ["point_of_interest", "establishment"]}, "ChIJPS1uzLIadkgRU6U3y5oip1c": {"geometry": {"location": {"lat": 51.51509429999999, "lng": -0.1743858}, "viewport": {"northeast": {"lat": 51.5164015302915, "lng": -0.1731110197084979}, "southwest": {"lat": 51.5137035697085, "lng": -0.175808980291502}}}, "name": "London Town Group", "place_id": "ChIJPS1uzLIadkgRU6U3y5oip1c", "types": ["point_of_interest", "establishment"]}, "ChIJN0SHy7IadkgR43pbbxVgBas": {"geometry": {"location": {"lat": 51.5150914, "lng": -0.1744049}, "viewport": {"northeast": {"lat": 51.5164022302915, "lng": -0.173123669708498}, "southwest": {"lat": 51.5137042697085, "lng": -0.175821630291502}}}, "name": "Mercure London Hyde Park Hotel", "place_id": "ChIJN0SHy7IadkgR43pbbxVgBas", "types": ["lodging", "point_of_interest", "establishment"], "rating": 4.2, "user_ratings_total": 435}, "ChIJoWRA0rIadkgR-rVHP5GOaac": {"geometry": {"location": {"lat": 51.5150861, "lng": -0.1740502}, "viewport": {"northeast": {"lat": 51.51649113029151, "lng": -0.172601119708498}, "southwest": {"lat": 51.51379316970851, "lng": -0.175299080291502}}}, "name": "Mimos Cafe Bar", "place_id": "ChIJoWRA0rIadkgR-rVHP5GOaac", "types": ["cafe", "restaurant", "food", "point_of_interest", "establishment"], "rating": 4.3, "user_ratings_total": 815}, "ChIJAaJR0rIadkgRaWkgf2Z0yYI": {"geometry": {"location": {"lat": 51.5150535, "lng": -0.1740086}, "viewport": {"northeast": {"lat": 51.5164573802915, "lng": -0.172556469708498}, "southwest": {"lat": 51.5137594197085, "lng": -0.175254430291502}}}, "name": "Sussex Fish Bar", "place_id": "ChIJAaJR0rIadkgRaWkgf2Z0yYI", "types": ["meal_takeaway", "restaurant", "food", "point_of_interest", "establishment"], "rating": 3.6, "user_ratings_total": 413}, "ChIJTcAcnw0FdkgRUaddbkRyF-0": {"geometry": {"location": {"lat": 51.51468800000001, "lng": -0.174096}, "viewport": {"northeast": {"lat": 51.5160254302915, "lng": -0.172767569708498}, "southwest": {"lat": 51.5133274697085, "lng": -0.175465530291502}}}, "name": "JustPark | London, Sussex Gardens", "place_id": "ChIJTcAcnw0FdkgRUaddbkRyF-0", "types": ["parking", "point_of_interest", "establishment"]}, "ChIJY6rS0rIadkgRVosQsr_hRnY": {"geometry": {"location": {"lat": 51.5148075, "lng": -0.1739896}, "viewport": {"northeast": {"lat": 51.5160570302915, "lng": -0.172498869708498}, "southwest": {"lat": 51.5133590697085, "lng": -0.175196830291502}}}, "name": "Aspen Apartments", "place_id": "ChIJY6rS0rIadkgRVosQsr_hRnY", "types": ["point_of_interest", "establishment"], "rating": 4.1, "user_ratings_total": 10}, "ChIJAdAvLU0FdkgRhuNdvEMKDNI": {"geometry": {"location": {"lat": 51.5148458, "lng": -0.173924}, "viewport": {"northeast": {"lat": 51.5160947802915, "lng": -0.172432419708498}, "southwest": {"lat": 51.5133968197085, "lng": -0.175130380291502}}}, "name": "Ridgemount Hotel", "place_id": "ChIJAdAvLU0FdkgRhuNdvEMKDNI", "types": ["lodging", "point_of_interest", "establishment"]}, "ChIJRXHQPUYFdkgRMVWxoHq7zEI": {"geometry": {"location": {"lat": 51.51486320000001, "lng": -0.173889}, "viewport": {"northeast": {"lat": 51.51611273029151, "lng": -0.172398219708498}, "southwest": {"lat": 51.51341476970851, "lng": -0.175096180291502}}}, "name": "Bob hotel", "place_id": "ChIJRXHQPUYFdkgRMVWxoHq7zEI", "types": ["lodging", "point_of_interest", "establishment"]}, "ChIJdwBttLIadkgRZlLCdgd3pks": {"geometry": {"location": {"lat": 51.5145232, "lng": -0.1744217}, "viewport": {"northeast": {"lat": 51.51590008029149, "lng": -0.173023069708498}, "southwest": {"lat": 51.5132021197085, "lng": -0.175721030291502}}}, "name": "Talbot House London", "place_id": "ChIJdwBttLIadkgRZlLCdgd3pks", "types": ["lodging", "point_of_interest", "establishment"]}, "ChIJ6UiqK00FdkgRW2cYt_G6wKg": {"geometry": {"location": {"lat": 51.5147073, "lng": -0.1735283}, "viewport": {"northeast": {"lat": 51.51605628029149, "lng": -0.172179319708498}, "southwest": {"lat": 51.51335831970849, "lng": -0.174877280291502}}}, "name": "Easy Legal Team", "place_id": "ChIJ6UiqK00FdkgRW2cYt_G6wKg", "types": ["point_of_interest", "establishment"]}, "ChIJS3aWzLIadkgRx2kbxzjjHzU": {"geometry": {"location": {"lat": 51.51497749999999, "lng": -0.1743471}, "viewport": {"northeast": {"lat": 51.5163050302915, "lng": -0.173036269708498}, "southwest": {"lat": 51.5136070697085, "lng": -0.175734230291502}}}, "name": "Hyde Park Apartments", "place_id": "ChIJS3aWzLIadkgRx2kbxzjjHzU", "types": ["lodging", "point_of_interest", "establishment"], "rating": 3, "user_ratings_total": 41}, "ChIJ-RlsNE0FdkgRQ-8b47Tr8E8": {"geometry": {"location": {"lat": 51.5146088, "lng": -0.1746874}, "viewport": {"northeast": {"lat": 51.5160075802915, "lng": -0.173249819708498}, "southwest": {"lat": 51.5133096197085, "lng": -0.1759477802915021}}}, "name": "\u30ed\u30fc\u30ba \u30d1\u30fc\u30af \u30db\u30c6\u30eb", "place_id": "ChIJ-RlsNE0FdkgRQ-8b47Tr8E8", "types": ["lodging", "point_of_interest", "establishment"]}, "ChIJPy1uzLIadkgRZjAGHdGN_XE": {"geometry": {"location": {"lat": 51.5150943, "lng": -0.1743857}, "viewport": {"northeast": {"lat": 51.5164014802915, "lng": -0.173110919708498}, "southwest": {"lat": 51.5137035197085, "lng": -0.175808880291502}}}, "name": "FlexiBookings Ltd", "place_id": "ChIJPy1uzLIadkgRZjAGHdGN_XE", "types": ["point_of_interest", "establishment"]}, "ChIJPS1uzLIadkgRD45ic7048Ak": {"geometry": {"location": {"lat": 51.51509429999999, "lng": -0.1743858}, "viewport": {"northeast": {"lat": 51.5164015302915, "lng": -0.1731110197084979}, "southwest": {"lat": 51.5137035697085, "lng": -0.175808980291502}}}, "name": "Hotel Cloud", "place_id": "ChIJPS1uzLIadkgRD45ic7048Ak", "types": ["point_of_interest", "establishment"]}, "ChIJN_GvGUsFdkgRT_nMcPysDOA": {"geometry": {"location": {"lat": 51.5147341, "lng": -0.1748228}, "viewport": {"northeast": {"lat": 51.5161255302915, "lng": -0.173397419708498}, "southwest": {"lat": 51.5134275697085, "lng": -0.176095380291502}}}, "name": "SEO Training London - Anglux", "place_id": "ChIJN_GvGUsFdkgRT_nMcPysDOA", "types": ["point_of_interest", "establishment"], "rating": 5, "user_ratings_total": 2}, "ChIJi3eJcwoFdkgRqqHI1oFwM78": {"geometry": {"location": {"lat": 51.5147341, "lng": -0.1748228}, "viewport": {"northeast": {"lat": 51.5161255302915, "lng": -0.173397419708498}, "southwest": {"lat": 51.5134275697085, "lng": -0.176095380291502}}}, "name": "Pedro Matias SEO Consultant (West London)", "place_id": "ChIJi3eJcwoFdkgRqqHI1oFwM78", "types": ["point_of_interest", "establishment"], "rating": 5, "user_ratings_total": 2}, "ChIJm-q5xc0FdkgRGsu1zMNrB6E": {"geometry": {"location": {"lat": 51.5141717, "lng": -0.1738477}, "viewport": {"northeast": {"lat": 51.5155588302915, "lng": -0.172554419708498}, "southwest": {"lat": 51.5128608697085, "lng": -0.175252380291502}}}, "name": "Cleaning Services Hyde Park Estate", "place_id": "ChIJm-q5xc0FdkgRGsu1zMNrB6E", "types": ["point_of_interest", "establishment"]}, "ChIJl08yGU0FdkgR4IAj1bnKSvE": {"geometry": {"location": {"lat": 51.51335374304464, "lng": -0.1737105594595047}, "viewport": {"northeast": {"lat": 51.5147030302915, "lng": -0.172362019708498}, "southwest": {"lat": 51.5120050697085, "lng": -0.175059980291502}}}, "name": "34-50 Sussex Square", "place_id": "ChIJl08yGU0FdkgR4IAj1bnKSvE", "types": ["route"]}, "ChIJSS4aO00FdkgREbfIWp128gQ": {"geometry": {"location": {"lat": 51.51399579999999, "lng": -0.1741744}, "viewport": {"northeast": {"lat": 51.51538053029149, "lng": -0.172877569708498}, "southwest": {"lat": 51.5126825697085, "lng": -0.175575530291502}}}, "name": "Rhodes Hotel", "place_id": "ChIJSS4aO00FdkgREbfIWp128gQ", "types": ["lodging", "point_of_interest", "establishment"], "rating": 4, "user_ratings_total": 301}, "ChIJIciDJ00FdkgRqc7PCaHE-Og": {"geometry": {"location": {"lat": 51.51368120000001, "lng": -0.1740857}, "viewport": {"northeast": {"lat": 51.5150456302915, "lng": -0.172759419708498}, "southwest": {"lat": 51.5123476697085, "lng": -0.1754573802915021}}}, "name": "Lyn Joseph P R", "place_id": "ChIJIciDJ00FdkgRqc7PCaHE-Og", "types": ["point_of_interest", "establishment"]}, "ChIJKx8wEU0FdkgRg6aPRQ8j9XM": {"geometry": {"location": {"lat": 51.5131994, "lng": -0.1742858}, "viewport": {"northeast": {"lat": 51.5145382802915, "lng": -0.172818319708498}, "southwest": {"lat": 51.5118403197085, "lng": -0.175516280291502}}}, "name": "Reichwald Mediation", "place_id": "ChIJKx8wEU0FdkgRg6aPRQ8j9XM", "types": ["point_of_interest", "establishment"]}, "ChIJvStRLPAFdkgRmRnVSFxpg8s": {"geometry": {"location": {"lat": 51.5136969, "lng": -0.1740329}, "viewport": {"northeast": {"lat": 51.51506913029149, "lng": -0.172718019708498}, "southwest": {"lat": 51.51237116970849, "lng": -0.175415980291502}}}, "name": "Ruelle cheval", "place_id": "ChIJvStRLPAFdkgRmRnVSFxpg8s", "types": ["point_of_interest", "establishment"]}, "ChIJqYfhF00FdkgRteemOLYFETY": {"geometry": {"location": {"lat": 51.5135564, "lng": -0.1741263}, "viewport": {"northeast": {"lat": 51.5149292802915, "lng": -0.172812319708498}, "southwest": {"lat": 51.5122313197085, "lng": -0.175510280291502}}}, "name": "Wellington Build and Maintenance", "place_id": "ChIJqYfhF00FdkgRteemOLYFETY", "types": ["point_of_interest", "establishment"]}, "ChIJqYfhF00FdkgR87q60E41_H0": {"geometry": {"location": {"lat": 51.5135564, "lng": -0.1741263}, "viewport": {"northeast": {"lat": 51.5149292802915, "lng": -0.172812319708498}, "southwest": {"lat": 51.5122313197085, "lng": -0.175510280291502}}}, "name": "Fine Wine PCC", "place_id": "ChIJqYfhF00FdkgR87q60E41_H0", "types": ["point_of_interest", "establishment"]}, "ChIJy-YvaYgFdkgRpkqRxCht_pY": {"geometry": {"location": {"lat": 51.5136874, "lng": -0.1741658}, "viewport": {"northeast": {"lat": 51.51502363029149, "lng": -0.172798219708498}, "southwest": {"lat": 51.5123256697085, "lng": -0.175496180291502}}}, "name": "Mhoia Interiors & Architecture", "place_id": "ChIJy-YvaYgFdkgRpkqRxCht_pY", "types": ["point_of_interest", "establishment"]}, "ChIJy5SZ1BgFdkgR1Gcn9lGSpqI": {"geometry": {"location": {"lat": 51.5136874, "lng": -0.1741752}, "viewport": {"northeast": {"lat": 51.5150207302915, "lng": -0.172803319708498}, "southwest": {"lat": 51.5123227697085, "lng": -0.175501280291502}}}, "name": "Meeting room Hyde Park Estate", "place_id": "ChIJy5SZ1BgFdkgR1Gcn9lGSpqI", "types": ["point_of_interest", "establishment"]}, "ChIJS5_4PU0FdkgRNBWeQZ-VPUI": {"geometry": {"location": {"lat": 51.5135813, "lng": -0.1744712}, "viewport": {"northeast": {"lat": 51.5148936302915, "lng": -0.173069969708498}, "southwest": {"lat": 51.5121956697085, "lng": -0.175767930291502}}}, "name": "Redcomb Pubs Ltd", "place_id": "ChIJS5_4PU0FdkgRNBWeQZ-VPUI", "types": ["point_of_interest", "establishment"], "rating": 5, "user_ratings_total": 1}, "ChIJE58iXsMFdkgR5BVbiPDphcw": {"geometry": {"location": {"lat": 51.5138958, "lng": -0.1738052}, "viewport": {"northeast": {"lat": 51.5152299302915, "lng": -0.172434519708498}, "southwest": {"lat": 51.5125319697085, "lng": -0.175132480291502}}}, "name": "Water Damage Hyde Park Estate", "place_id": "ChIJE58iXsMFdkgR5BVbiPDphcw", "types": ["general_contractor", "point_of_interest", "establishment"]}, "ChIJoamDd8kFdkgRukpuUXD0pX4": {"geometry": {"location": {"lat": 51.5138737, "lng": -0.1743498}, "viewport": {"northeast": {"lat": 51.5152656302915, "lng": -0.173061869708498}, "southwest": {"lat": 51.5125676697085, "lng": -0.175759830291502}}}, "name": "GCSE Tuition Hyde Park Estate", "place_id": "ChIJoamDd8kFdkgRukpuUXD0pX4", "types": ["point_of_interest", "establishment"]}, "ChIJy6AdPE0FdkgRMltTemLCvrE": {"geometry": {"location": {"lat": 51.5138411, "lng": -0.1744192}, "viewport": {"northeast": {"lat": 51.5152314802915, "lng": -0.173129019708498}, "southwest": {"lat": 51.51253351970851, "lng": -0.175826980291502}}}, "name": "BAHH Boutique - Hyde Park", "place_id": "ChIJy6AdPE0FdkgRMltTemLCvrE", "types": ["lodging", "point_of_interest", "establishment"]}, "ChIJqaOam9IFdkgRkLHqvaVc-8A": {"geometry": {"location": {"lat": 51.5139211, "lng": -0.1743174}, "viewport": {"northeast": {"lat": 51.5153047302915, "lng": -0.1730176697084979}, "southwest": {"lat": 51.5126067697085, "lng": -0.175715630291502}}}, "name": "Chez Deacon", "place_id": "ChIJqaOam9IFdkgRkLHqvaVc-8A", "types": ["lodging", "point_of_interest", "establishment"], "rating": 5, "user_ratings_total": 1}, "ChIJ5xDVFE0FdkgRSKr5YhM54eU": {"geometry": {"location": {"lat": 51.5133923, "lng": -0.1747838}, "viewport": {"northeast": {"lat": 51.5147092802915, "lng": -0.173392019708498}, "southwest": {"lat": 51.5120113197085, "lng": -0.176089980291502}}}, "name": "\u062e\u064a\u0648\u0644 \u0627\u0644\u0647\u0627\u064a\u062f \u0628\u0627\u0631\u0643", "place_id": "ChIJ5xDVFE0FdkgRSKr5YhM54eU", "types": ["point_of_interest", "establishment"], "rating": 2, "user_ratings_total": 1}, "ChIJW1oWhbIadkgR0t3I9SVyvdE": {"geometry": {"location": {"lat": 51.51694013515496, "lng": -0.175992328721287}, "viewport": {"northeast": {"lat": 51.5182810302915, "lng": -0.1746688697084979}, "southwest": {"lat": 51.5155830697085, "lng": -0.177366830291502}}}, "name": "London Street", "place_id": "ChIJW1oWhbIadkgR0t3I9SVyvdE", "types": ["route"]}, "ChIJn9RFlbIadkgRUXxun2jVNAU": {"geometry": {"location": {"lat": 51.5165543, "lng": -0.1752373}, "viewport": {"northeast": {"lat": 51.5176728802915, "lng": -0.173616319708498}, "southwest": {"lat": 51.5149749197085, "lng": -0.176314280291502}}}, "name": "Mercure London Paddington Hotel", "place_id": "ChIJn9RFlbIadkgRUXxun2jVNAU", "types": ["lodging", "point_of_interest", "establishment"], "rating": 3.8, "user_ratings_total": 810}, "ChIJMY3kda0adkgR8iWhElbhuNo": {"geometry": {"location": {"lat": 51.51636430000001, "lng": -0.1760732}, "viewport": {"northeast": {"lat": 51.5174235302915, "lng": -0.174317919708498}, "southwest": {"lat": 51.51472556970851, "lng": -0.177015880291502}}}, "name": "WHSmith", "place_id": "ChIJMY3kda0adkgR8iWhElbhuNo", "types": ["convenience_store", "book_store", "food", "point_of_interest", "store", "establishment"], "rating": 3.1, "user_ratings_total": 15}, "ChIJ0xmMm7IadkgR_IHuVdyzvpM": {"geometry": {"location": {"lat": 51.5166165, "lng": -0.1758968}, "viewport": {"northeast": {"lat": 51.5179836302915, "lng": -0.174552969708498}, "southwest": {"lat": 51.5152856697085, "lng": -0.177250930291502}}}, "name": "The Pasty Shop", "place_id": "ChIJ0xmMm7IadkgR_IHuVdyzvpM", "types": ["bakery", "food", "point_of_interest", "store", "establishment"], "rating": 2.3, "user_ratings_total": 31}, "ChIJI7gmTGcbdkgRhmUwOgcwadc": {"geometry": {"location": {"lat": 51.51681970000001, "lng": -0.176153}, "viewport": {"northeast": {"lat": 51.51819538029149, "lng": -0.174754269708498}, "southwest": {"lat": 51.5154974197085, "lng": -0.177452230291502}}}, "name": "The Beer House", "place_id": "ChIJI7gmTGcbdkgRhmUwOgcwadc", "types": ["bar", "restaurant", "food", "point_of_interest", "establishment"], "rating": 3.7, "user_ratings_total": 207}, "ChIJx_KTn7IadkgRXfyy1HD9d0E": {"geometry": {"location": {"lat": 51.51671829999999, "lng": -0.1755156}, "viewport": {"northeast": {"lat": 51.5180881302915, "lng": -0.174197119708498}, "southwest": {"lat": 51.5153901697085, "lng": -0.176895080291502}}}, "name": "Kiehl's Paddington", "place_id": "ChIJx_KTn7IadkgRXfyy1HD9d0E", "types": ["point_of_interest", "store", "establishment"], "rating": 4.3, "user_ratings_total": 19}, "ChIJB7iWYq0adkgRcHiE2_M1VNA": {"geometry": {"location": {"lat": 51.5166634, "lng": -0.1761908}, "viewport": {"northeast": {"lat": 51.5179978802915, "lng": -0.174822219708498}, "southwest": {"lat": 51.5152999197085, "lng": -0.177520180291502}}}, "name": "ICE - International Currency Exchange", "place_id": "ChIJB7iWYq0adkgRcHiE2_M1VNA", "types": ["finance", "point_of_interest", "establishment"], "rating": 3, "user_ratings_total": 6}, "ChIJD-zYXa0adkgRkfZrlRAjVSI": {"geometry": {"location": {"lat": 51.5166287, "lng": -0.1764997}, "viewport": {"northeast": {"lat": 51.5180037302915, "lng": -0.175104969708498}, "southwest": {"lat": 51.5153057697085, "lng": -0.177802930291502}}}, "name": "Barburrito", "place_id": "ChIJD-zYXa0adkgRkfZrlRAjVSI", "types": ["restaurant", "food", "point_of_interest", "establishment"], "rating": 2.8, "user_ratings_total": 32}, "ChIJo6gFZ60adkgR6Jk9zi4mS-0": {"geometry": {"location": {"lat": 51.5170092, "lng": -0.175912}, "viewport": {"northeast": {"lat": 51.51833223029151, "lng": -0.174614069708498}, "southwest": {"lat": 51.51563426970851, "lng": -0.1773120302915021}}}, "name": "Excess Baggage Company", "place_id": "ChIJo6gFZ60adkgR6Jk9zi4mS-0", "types": ["storage", "point_of_interest", "store", "establishment"], "rating": 2.4, "user_ratings_total": 30}, "ChIJ9xrVvxsbdkgR6IEFpNaFA6c": {"geometry": {"location": {"lat": 51.5166635, "lng": -0.1758969}, "viewport": {"northeast": {"lat": 51.51801138029149, "lng": -0.174496969708498}, "southwest": {"lat": 51.5153134197085, "lng": -0.177194930291502}}}, "name": "Caffe Nero Express", "place_id": "ChIJ9xrVvxsbdkgR6IEFpNaFA6c", "types": ["cafe", "food", "point_of_interest", "store", "establishment"], "rating": 4.5, "user_ratings_total": 2}, "ChIJNQ14qbIbdkgRU81oh-lSL8I": {"geometry": {"location": {"lat": 51.5166406, "lng": -0.1760632}, "viewport": {"northeast": {"lat": 51.5179895802915, "lng": -0.174585319708498}, "southwest": {"lat": 51.5152916197085, "lng": -0.177283280291502}}}, "name": "Crussh - Fit Food & Juice Bars", "place_id": "ChIJNQ14qbIbdkgRU81oh-lSL8I", "types": ["restaurant", "food", "point_of_interest", "establishment"], "rating": 3.3, "user_ratings_total": 4}, "ChIJD0SLULMbdkgRUw4yLCZdDyI": {"geometry": {"location": {"lat": 51.5166724, "lng": -0.176213}, "viewport": {"northeast": {"lat": 51.5180132302915, "lng": -0.174660219708498}, "southwest": {"lat": 51.51531526970851, "lng": -0.177358180291502}}}, "name": "Changing Places toilet", "place_id": "ChIJD0SLULMbdkgRUw4yLCZdDyI", "types": ["point_of_interest", "establishment"]}, "ChIJn9dinbIadkgRsQ9QJFIA6OA": {"geometry": {"location": {"lat": 51.5167543, "lng": -0.1763187}, "viewport": {"northeast": {"lat": 51.5181080302915, "lng": -0.174960769708498}, "southwest": {"lat": 51.5154100697085, "lng": -0.177658730291502}}}, "name": "Whistlestop Paddington", "place_id": "ChIJn9dinbIadkgRsQ9QJFIA6OA", "types": ["convenience_store", "food", "point_of_interest", "store", "establishment"], "rating": 1, "user_ratings_total": 7}, "ChIJM-mIy18bdkgR22aB9QWIRVA": {"geometry": {"location": {"lat": 51.51732089999999, "lng": -0.1756794}, "viewport": {"northeast": {"lat": 51.51869003029149, "lng": -0.174292869708498}, "southwest": {"lat": 51.5159920697085, "lng": -0.176990830291502}}}, "name": "St Mary's Hospital Mint Wing", "place_id": "ChIJM-mIy18bdkgR22aB9QWIRVA", "types": ["hospital", "health", "point_of_interest", "establishment"]}, "ChIJJ5XhhrIadkgRmXhIBuXGG6c": {"geometry": {"location": {"lat": 51.517335, "lng": -0.17581}, "viewport": {"northeast": {"lat": 51.5186862802915, "lng": -0.174464119708498}, "southwest": {"lat": 51.5159883197085, "lng": -0.177162080291502}}}, "name": "Santander Cycles", "place_id": "ChIJJ5XhhrIadkgRmXhIBuXGG6c", "types": ["point_of_interest", "establishment"], "rating": 3, "user_ratings_total": 1}, "ChIJgX3p6rIadkgR0puPJ4lh1xU": {"geometry": {"location": {"lat": 51.5165543, "lng": -0.1752373}, "viewport": {"northeast": {"lat": 51.5176915802915, "lng": -0.173582919708498}, "southwest": {"lat": 51.5149936197085, "lng": -0.176280880291502}}}, "name": "Queen of Designs", "place_id": "ChIJgX3p6rIadkgR0puPJ4lh1xU", "types": ["point_of_interest", "establishment"]}, "ChIJpVrNY60adkgRAM_4XYdmtc8": {"geometry": {"location": {"lat": 51.5165614, "lng": -0.1764699}, "viewport": {"northeast": {"lat": 51.5179377302915, "lng": -0.174787569708498}, "southwest": {"lat": 51.5152397697085, "lng": -0.177485530291502}}}, "name": "Segafredo", "place_id": "ChIJpVrNY60adkgRAM_4XYdmtc8", "types": ["food", "point_of_interest", "store", "establishment"], "rating": 1, "user_ratings_total": 1}, "ChIJ3Rek0zsbdkgRd8vxT9xjZ0o": {"geometry": {"location": {"lat": 51.5170263, "lng": -0.174977}, "viewport": {"northeast": {"lat": 51.5183905302915, "lng": -0.173651819708498}, "southwest": {"lat": 51.5156925697085, "lng": -0.176349780291502}}}, "name": "St Mary\u2019s consultas partera", "place_id": "ChIJ3Rek0zsbdkgRd8vxT9xjZ0o", "types": ["hospital", "health", "point_of_interest", "establishment"]}, "ChIJJ-58pbIadkgRaSSZY8Td7zk": {"geometry": {"location": {"lat": 51.51553610007817, "lng": -0.1757110002313101}, "viewport": {"northeast": {"lat": 51.5168850802915, "lng": -0.174362019708498}, "southwest": {"lat": 51.5141871197085, "lng": -0.177059980291502}}}, "name": "177-185 A4205", "place_id": "ChIJJ-58pbIadkgRaSSZY8Td7zk", "types": ["route"]}, "ChIJnRnMpbIadkgRux4c7OO6-gc": {"geometry": {"location": {"lat": 51.5157591, "lng": -0.1757978}, "viewport": {"northeast": {"lat": 51.51700958029149, "lng": -0.174379819708498}, "southwest": {"lat": 51.5143116197085, "lng": -0.177077780291502}}}, "name": "Hilton London Paddington", "place_id": "ChIJnRnMpbIadkgRux4c7OO6-gc", "types": ["lodging", "point_of_interest", "establishment"], "rating": 4.1, "user_ratings_total": 2439}, "ChIJVybKo7IadkgRsTNJH1AKU40": {"geometry": {"location": {"lat": 51.5157311, "lng": -0.1758564}, "viewport": {"northeast": {"lat": 51.5170051802915, "lng": -0.174395269708498}, "southwest": {"lat": 51.51430721970851, "lng": -0.177093230291502}}}, "name": "146 Paddington", "place_id": "ChIJVybKo7IadkgRsTNJH1AKU40", "types": ["bar", "restaurant", "food", "point_of_interest", "establishment"], "rating": 3.2, "user_ratings_total": 27}, "ChIJ_dsGr7IadkgRefEcFWK2pqo": {"geometry": {"location": {"lat": 51.51568930000001, "lng": -0.1750431}, "viewport": {"northeast": {"lat": 51.5170382802915, "lng": -0.173694119708498}, "southwest": {"lat": 51.5143403197085, "lng": -0.1763920802915021}}}, "name": "Angus Steakhouse", "place_id": "ChIJ_dsGr7IadkgRefEcFWK2pqo", "types": ["restaurant", "food", "point_of_interest", "establishment"], "rating": 3.8, "user_ratings_total": 1552}, "ChIJVcaJf_MadkgR1fTfzUwRP4E": {"geometry": {"location": {"lat": 51.5160576, "lng": -0.1759466}, "viewport": {"northeast": {"lat": 51.5171733802915, "lng": -0.1745525197084979}, "southwest": {"lat": 51.5144754197085, "lng": -0.177250480291502}}}, "name": "Boots", "place_id": "ChIJVcaJf_MadkgR1fTfzUwRP4E", "types": ["pharmacy", "electronics_store", "health", "point_of_interest", "store", "establishment"], "rating": 4.1, "user_ratings_total": 71}, "ChIJ_dsGr7IadkgRVAklKLdnjzo": {"geometry": {"location": {"lat": 51.5154992, "lng": -0.1755493}, "viewport": {"northeast": {"lat": 51.5168832302915, "lng": -0.174249919708498}, "southwest": {"lat": 51.51418526970851, "lng": -0.176947880291502}}}, "name": "House Clearance Solutions", "place_id": "ChIJ_dsGr7IadkgRVAklKLdnjzo", "types": ["point_of_interest", "establishment"], "rating": 4.8, "user_ratings_total": 28}, "ChIJB7R-m5eqd0gRlYYORn3IkZo": {"geometry": {"location": {"lat": 51.51550349999999, "lng": -0.1754951}, "viewport": {"northeast": {"lat": 51.51690428029149, "lng": -0.174192119708498}, "southwest": {"lat": 51.5142063197085, "lng": -0.176890080291502}}}, "name": "eurochange Paddington Tube Station (becoming NM Money)", "place_id": "ChIJB7R-m5eqd0gRlYYORn3IkZo", "types": ["finance", "point_of_interest", "store", "establishment"], "rating": 3, "user_ratings_total": 12}, "ChIJ_dsGr7IadkgRRdkZQcLW67E": {"geometry": {"location": {"lat": 51.5156308, "lng": -0.175317}, "viewport": {"northeast": {"lat": 51.5169635802915, "lng": -0.174081919708498}, "southwest": {"lat": 51.5142656197085, "lng": -0.176779880291502}}}, "name": "CRM.COM Software Ltd", "place_id": "ChIJ_dsGr7IadkgRRdkZQcLW67E", "types": ["electronics_store", "point_of_interest", "store", "establishment"]}, "ChIJhS0dnq0adkgRlnOfXOELjng": {"geometry": {"location": {"lat": 51.515857, "lng": -0.1760751}, "viewport": {"northeast": {"lat": 51.5170626802915, "lng": -0.174514119708498}, "southwest": {"lat": 51.5143647197085, "lng": -0.177212080291502}}}, "name": "Cranberry", "place_id": "ChIJhS0dnq0adkgRlnOfXOELjng", "types": ["food", "point_of_interest", "establishment"], "rating": 4, "user_ratings_total": 1}, "ChIJVybKo7IadkgRnGE50j9Fhfo": {"geometry": {"location": {"lat": 51.51600639999999, "lng": -0.1758275}, "viewport": {"northeast": {"lat": 51.51748578029149, "lng": -0.174250019708498}, "southwest": {"lat": 51.51478781970849, "lng": -0.176947980291502}}}, "name": "Circle", "place_id": "ChIJVybKo7IadkgRnGE50j9Fhfo", "types": ["point_of_interest", "establishment"]}, "ChIJGVapu7IadkgRi8raYxB4RqE": {"geometry": {"location": {"lat": 51.5155068, "lng": -0.1755404}, "viewport": {"northeast": {"lat": 51.5168901802915, "lng": -0.174242269708498}, "southwest": {"lat": 51.5141922197085, "lng": -0.176940230291502}}}, "name": "Bagel Factory", "place_id": "ChIJGVapu7IadkgRi8raYxB4RqE", "types": ["bakery", "cafe", "food", "point_of_interest", "store", "establishment"], "rating": 3.4, "user_ratings_total": 29}, "ChIJJYMGr7IadkgR5rvMZKU3VQU": {"geometry": {"location": {"lat": 51.5154992, "lng": -0.1755493}, "viewport": {"northeast": {"lat": 51.5168832302915, "lng": -0.174249919708498}, "southwest": {"lat": 51.51418526970851, "lng": -0.176947880291502}}}, "name": "Evolve Relocation London", "place_id": "ChIJJYMGr7IadkgR5rvMZKU3VQU", "types": ["moving_company", "storage", "point_of_interest", "establishment"]}, "ChIJC5vy3bIadkgR3lpJTBFSxqM": {"geometry": {"location": {"lat": 51.5160402, "lng": -0.1762003}, "viewport": {"northeast": {"lat": 51.5173891802915, "lng": -0.1748513197084979}, "southwest": {"lat": 51.5146912197085, "lng": -0.177549280291502}}}, "name": "BHRC (British Hotel Reservation Centre)", "place_id": "ChIJC5vy3bIadkgR3lpJTBFSxqM", "types": ["travel_agency", "point_of_interest", "establishment"]}, "ChIJAdkGr7IadkgRwkDH1K20nkg": {"geometry": {"location": {"lat": 51.515393, "lng": -0.175736}, "viewport": {"northeast": {"lat": 51.51680968029149, "lng": -0.174342969708498}, "southwest": {"lat": 51.5141117197085, "lng": -0.177040930291502}}}, "name": "Essay Orders", "place_id": "ChIJAdkGr7IadkgRwkDH1K20nkg", "types": ["point_of_interest", "establishment"]}, "ChIJ_dsGr7IadkgRLgsoYq4PSBQ": {"geometry": {"location": {"lat": 51.5157233, "lng": -0.1751491}, "viewport": {"northeast": {"lat": 51.5170094802915, "lng": -0.173997969708498}, "southwest": {"lat": 51.5143115197085, "lng": -0.176695930291502}}}, "name": "Aston Draycott", "place_id": "ChIJ_dsGr7IadkgRLgsoYq4PSBQ", "types": ["accounting", "finance", "point_of_interest", "establishment"]}, "ChIJvYh4r7IadkgRVPvA5O6aZrw": {"geometry": {"location": {"lat": 51.51542659999999, "lng": -0.1754875}, "viewport": {"northeast": {"lat": 51.5168401302915, "lng": -0.174230469708498}, "southwest": {"lat": 51.5141421697085, "lng": -0.176928430291502}}}, "name": "William Hill", "place_id": "ChIJvYh4r7IadkgRVPvA5O6aZrw", "types": ["point_of_interest", "establishment"], "rating": 4, "user_ratings_total": 5}, "ChIJpwBVsLIadkgRE767cq0HnXQ": {"geometry": {"location": {"lat": 51.51543129999999, "lng": -0.1754389}, "viewport": {"northeast": {"lat": 51.5199082, "lng": -0.17365975}, "southwest": {"lat": 51.51393899999998, "lng": -0.17930075}}}, "name": "Paddington", "place_id": "ChIJpwBVsLIadkgRE767cq0HnXQ", "types": ["subway_station", "transit_station", "point_of_interest", "establishment"], "rating": 4, "user_ratings_total": 227}, "ChIJbZTOrrIadkgRCrGuRgmBTjI": {"geometry": {"location": {"lat": 51.5153322, "lng": -0.1758572}, "viewport": {"northeast": {"lat": 51.5167792802915, "lng": -0.174400069708498}, "southwest": {"lat": 51.5140813197085, "lng": -0.177098030291502}}}, "name": "Horyaal Exchange", "place_id": "ChIJbZTOrrIadkgRCrGuRgmBTjI", "types": ["travel_agency", "point_of_interest", "establishment"], "rating": 1, "user_ratings_total": 1}, "ChIJPbzarrIadkgRZNUh9J23dD0": {"geometry": {"location": {"lat": 51.5153322, "lng": -0.1758572}, "viewport": {"northeast": {"lat": 51.5167792802915, "lng": -0.174400069708498}, "southwest": {"lat": 51.5140813197085, "lng": -0.177098030291502}}}, "name": "SomeXchange London", "place_id": "ChIJPbzarrIadkgRZNUh9J23dD0", "types": ["finance", "point_of_interest", "establishment"]}, "ChIJxXUKubIadkgRkDnB4BpYIdM": {"geometry": {"location": {"lat": 51.51569919999999, "lng": -0.1750658}, "viewport": {"northeast": {"lat": 51.51710173029149, "lng": -0.173793269708498}, "southwest": {"lat": 51.51440376970849, "lng": -0.176491230291502}}}, "name": "Hospitality-Xperts", "place_id": "ChIJxXUKubIadkgRkDnB4BpYIdM", "types": ["point_of_interest", "establishment"]}, "ChIJ8WmJiLMadkgRS3WjtMJKfzs": {"geometry": {"location": {"lat": 51.51529409999999, "lng": -0.1759623}, "viewport": {"northeast": {"lat": 51.5167602302915, "lng": -0.174444369708498}, "southwest": {"lat": 51.5140622697085, "lng": -0.177142330291502}}}, "name": "CB Films", "place_id": "ChIJ8WmJiLMadkgRS3WjtMJKfzs", "types": ["point_of_interest", "establishment"]}, "ChIJu9MwccwadkgRbWNh7uDpCbE": {"geometry": {"location": {"lat": 51.51529409999999, "lng": -0.1759623}, "viewport": {"northeast": {"lat": 51.5167602302915, "lng": -0.174444369708498}, "southwest": {"lat": 51.5140622697085, "lng": -0.177142330291502}}}, "name": "David Grand", "place_id": "ChIJu9MwccwadkgRbWNh7uDpCbE", "types": ["point_of_interest", "establishment"], "rating": 4.6, "user_ratings_total": 27}, "ChIJd9VUUSsbdkgRAR6tiacPl1E": {"geometry": {"location": {"lat": 51.51529409999999, "lng": -0.1759623}, "viewport": {"northeast": {"lat": 51.5167602302915, "lng": -0.174444369708498}, "southwest": {"lat": 51.5140622697085, "lng": -0.177142330291502}}}, "name": "Thoroughly Modern Media", "place_id": "ChIJd9VUUSsbdkgRAR6tiacPl1E", "types": ["point_of_interest", "establishment"]}, "ChIJ9Vo4qbIadkgRyfbHV3m_f58": {"geometry": {"location": {"lat": 51.51529409999999, "lng": -0.1759623}, "viewport": {"northeast": {"lat": 51.5167602302915, "lng": -0.174444369708498}, "southwest": {"lat": 51.5140622697085, "lng": -0.177142330291502}}}, "name": "SourceCards", "place_id": "ChIJ9Vo4qbIadkgRyfbHV3m_f58", "types": ["finance", "point_of_interest", "establishment"]}, "ChIJz6xthPMadkgRkjPjxemNrz8": {"geometry": {"location": {"lat": 51.5162051, "lng": -0.1760944}, "viewport": {"northeast": {"lat": 51.5175540802915, "lng": -0.174745419708498}, "southwest": {"lat": 51.5148561197085, "lng": -0.177443380291502}}}, "name": "LEON", "place_id": "ChIJz6xthPMadkgRkjPjxemNrz8", "types": ["cafe", "restaurant", "food", "point_of_interest", "store", "establishment"], "rating": 3.5, "user_ratings_total": 133}, "ChIJ_dsGr7IadkgRfwdhUFtrG4A": {"geometry": {"location": {"lat": 51.5156552, "lng": -0.1753125}, "viewport": {"northeast": {"lat": 51.5169695302915, "lng": -0.1740796697084979}, "southwest": {"lat": 51.5142715697085, "lng": -0.176777630291502}}}, "name": "Budgens", "place_id": "ChIJ_dsGr7IadkgRfwdhUFtrG4A", "types": ["supermarket", "grocery_or_supermarket", "food", "point_of_interest", "store", "establishment"], "rating": 2.7, "user_ratings_total": 47}, "ChIJT9I6Wa0adkgRbIz64LLVGz8": {"geometry": {"location": {"lat": 51.5161111, "lng": -0.1763889}, "viewport": {"northeast": {"lat": 51.5171993802915, "lng": -0.174654169708498}, "southwest": {"lat": 51.5145014197085, "lng": -0.177352130291502}}}, "name": "ISLE OF FLOWERS", "place_id": "ChIJT9I6Wa0adkgRbIz64LLVGz8", "types": ["florist", "point_of_interest", "store", "establishment"], "rating": 3.5, "user_ratings_total": 26}, "ChIJq3PDx41-dkgRyXmyEoqrLTE": {"geometry": {"location": {"lat": 51.5160126, "lng": -0.1764091}, "viewport": {"northeast": {"lat": 51.5173273802915, "lng": -0.1750815697084979}, "southwest": {"lat": 51.5146294197085, "lng": -0.177779530291502}}}, "name": "Starbucks Coffee", "place_id": "ChIJq3PDx41-dkgRyXmyEoqrLTE", "types": ["cafe", "restaurant", "food", "point_of_interest", "store", "establishment"], "rating": 4, "user_ratings_total": 219}, "ChIJ_dsGr7IadkgRzduFkPLwVh0": {"geometry": {"location": {"lat": 51.5154317, "lng": -0.1754905}, "viewport": {"northeast": {"lat": 51.5168431802915, "lng": -0.174231119708498}, "southwest": {"lat": 51.5141452197085, "lng": -0.176929080291502}}}, "name": "Alliance Residential", "place_id": "ChIJ_dsGr7IadkgRzduFkPLwVh0", "types": ["real_estate_agency", "point_of_interest", "establishment"], "rating": 2, "user_ratings_total": 4}, "ChIJJYMGr7IadkgRP0H6RkDbQGQ": {"geometry": {"location": {"lat": 51.5152406, "lng": -0.1760023}, "viewport": {"northeast": {"lat": 51.5167334802915, "lng": -0.174476769708498}, "southwest": {"lat": 51.5140355197085, "lng": -0.177174730291502}}}, "name": "Vitaxo", "place_id": "ChIJJYMGr7IadkgRP0H6RkDbQGQ", "types": ["real_estate_agency", "point_of_interest", "establishment"], "rating": 2.3, "user_ratings_total": 3}, "ChIJwbISsLIadkgRpRlJEoR6A4w": {"geometry": {"location": {"lat": 51.5155426, "lng": -0.1754647}, "viewport": {"northeast": {"lat": 51.5169217302915, "lng": -0.174167969708498}, "southwest": {"lat": 51.5142237697085, "lng": -0.176865930291502}}}, "name": "Well Health Clinic", "place_id": "ChIJwbISsLIadkgRpRlJEoR6A4w", "types": ["spa", "point_of_interest", "establishment"], "rating": 3.9, "user_ratings_total": 10}, "ChIJIaLuGJ8bdkgRg1ESW9SPEnw": {"geometry": {"location": {"lat": 51.5157742, "lng": -0.1759262}, "viewport": {"northeast": {"lat": 51.5170253802915, "lng": -0.174432519708498}, "southwest": {"lat": 51.5143274197085, "lng": -0.1771304802915021}}}, "name": "Carriages Restaurant", "place_id": "ChIJIaLuGJ8bdkgRg1ESW9SPEnw", "types": ["restaurant", "food", "point_of_interest", "establishment"]}, "ChIJn5PPurIadkgR2LC7nhGNtKw": {"geometry": {"location": {"lat": 51.51561379999999, "lng": -0.1755754}, "viewport": {"northeast": {"lat": 51.51696278029149, "lng": -0.174226419708498}, "southwest": {"lat": 51.51426481970849, "lng": -0.176924380291502}}}, "name": "Strive Holding Limited", "place_id": "ChIJn5PPurIadkgR2LC7nhGNtKw", "types": ["point_of_interest", "establishment"]}, "ChIJA73UprIadkgR_hsAajVznrs": {"geometry": {"location": {"lat": 51.515857, "lng": -0.176075}, "viewport": {"northeast": {"lat": 51.5170627302915, "lng": -0.174514019708498}, "southwest": {"lat": 51.5143647697085, "lng": -0.177211980291502}}}, "name": "Bada Bing London", "place_id": "ChIJA73UprIadkgR_hsAajVznrs", "types": ["point_of_interest", "establishment"]}, "ChIJD_P7Xa0adkgRsaslpOwDA10": {"geometry": {"location": {"lat": 51.515857, "lng": -0.1760751}, "viewport": {"northeast": {"lat": 51.5170626802915, "lng": -0.174514119708498}, "southwest": {"lat": 51.5143647197085, "lng": -0.177212080291502}}}, "name": "Souper Doupet", "place_id": "ChIJD_P7Xa0adkgRsaslpOwDA10", "types": ["restaurant", "food", "point_of_interest", "establishment"]}, "ChIJn5PPurIadkgRGI3U9t6XjhY": {"geometry": {"location": {"lat": 51.5156512, "lng": -0.1754994}, "viewport": {"northeast": {"lat": 51.51702373029151, "lng": -0.174184019708498}, "southwest": {"lat": 51.51432576970851, "lng": -0.176881980291502}}}, "name": "Bowardy Ltd", "place_id": "ChIJn5PPurIadkgRGI3U9t6XjhY", "types": ["point_of_interest", "establishment"]}, "ChIJzR0f7ywbdkgRakIi3LLGJGU": {"geometry": {"location": {"lat": 51.51552999999999, "lng": -0.17565}, "viewport": {"northeast": {"lat": 51.5168780302915, "lng": -0.174299619708498}, "southwest": {"lat": 51.5141800697085, "lng": -0.176997580291502}}}, "name": "Spring St", "place_id": "ChIJzR0f7ywbdkgRakIi3LLGJGU", "types": ["point_of_interest", "establishment"]}, "ChIJ9xCTurIadkgRO6DBg8CLXgg": {"geometry": {"location": {"lat": 51.51559839999999, "lng": -0.1754131}, "viewport": {"northeast": {"lat": 51.5169417802915, "lng": -0.174129969708498}, "southwest": {"lat": 51.5142438197085, "lng": -0.176827930291502}}}, "name": "Suppa Love It, Grab It & Go", "place_id": "ChIJ9xCTurIadkgRO6DBg8CLXgg", "types": ["point_of_interest", "establishment"]}, "ChIJGW2aurIadkgRRWDGF67OYXk": {"geometry": {"location": {"lat": 51.5155186, "lng": -0.1755434}, "viewport": {"northeast": {"lat": 51.51689828029149, "lng": -0.174239869708498}, "southwest": {"lat": 51.5142003197085, "lng": -0.176937830291502}}}, "name": "Western Union", "place_id": "ChIJGW2aurIadkgRRWDGF67OYXk", "types": ["finance", "point_of_interest", "establishment"], "rating": 1.3, "user_ratings_total": 4}, "ChIJo-agurIadkgRDuIDjWRPJB8": {"geometry": {"location": {"lat": 51.5155426, "lng": -0.1754647}, "viewport": {"northeast": {"lat": 51.5169217302915, "lng": -0.174167969708498}, "southwest": {"lat": 51.5142237697085, "lng": -0.176865930291502}}}, "name": "Elegance Cars", "place_id": "ChIJo-agurIadkgRDuIDjWRPJB8", "types": ["point_of_interest", "store", "establishment"]}, "ChIJo-agurIadkgRWMPiWbdO3Xw": {"geometry": {"location": {"lat": 51.5155426, "lng": -0.1754647}, "viewport": {"northeast": {"lat": 51.5169217302915, "lng": -0.174167969708498}, "southwest": {"lat": 51.5142237697085, "lng": -0.176865930291502}}}, "name": "Regent Dry Cleaners", "place_id": "ChIJo-agurIadkgRWMPiWbdO3Xw", "types": ["point_of_interest", "establishment"]}, "ChIJkzefoGMbdkgRTIjrh2XoVhA": {"geometry": {"location": {"lat": 51.5155426, "lng": -0.1754647}, "viewport": {"northeast": {"lat": 51.5169217302915, "lng": -0.174167969708498}, "southwest": {"lat": 51.5142237697085, "lng": -0.176865930291502}}}, "name": "Regent Dry Cleaners", "place_id": "ChIJkzefoGMbdkgRTIjrh2XoVhA", "types": ["laundry", "point_of_interest", "establishment"], "rating": 5, "user_ratings_total": 2}, "ChIJS0gNubIadkgRdkPvWYEGYH4": {"geometry": {"location": {"lat": 51.5154992, "lng": -0.1755493}, "viewport": {"northeast": {"lat": 51.5168832302915, "lng": -0.174249919708498}, "southwest": {"lat": 51.51418526970851, "lng": -0.176947880291502}}}, "name": "Casa de cambio", "place_id": "ChIJS0gNubIadkgRdkPvWYEGYH4", "types": ["atm", "finance", "point_of_interest", "establishment"], "rating": 1, "user_ratings_total": 1}, "ChIJS0gNubIadkgRQHrtT_jF9Bk": {"geometry": {"location": {"lat": 51.5154992, "lng": -0.1755493}, "viewport": {"northeast": {"lat": 51.5168832302915, "lng": -0.174249919708498}, "southwest": {"lat": 51.51418526970851, "lng": -0.176947880291502}}}, "name": "SKIN GLOW", "place_id": "ChIJS0gNubIadkgRQHrtT_jF9Bk", "types": ["health", "point_of_interest", "establishment"]}, "ChIJh1eFr7IadkgRveZjIBFSG4M": {"geometry": {"location": {"lat": 51.51544519999999, "lng": -0.1757445}, "viewport": {"northeast": {"lat": 51.5168135302915, "lng": -0.174423669708498}, "southwest": {"lat": 51.5141155697085, "lng": -0.177121630291502}}}, "name": "Paddington Station (Stop F)", "place_id": "ChIJh1eFr7IadkgRveZjIBFSG4M", "types": ["transit_station", "point_of_interest", "establishment"], "rating": 4.2, "user_ratings_total": 5}, "ChIJuXKbK5QbdkgRRYyExbjTO90": {"geometry": {"location": {"lat": 51.5154161, "lng": -0.1757022}, "viewport": {"northeast": {"lat": 51.5168212302915, "lng": -0.174324569708498}, "southwest": {"lat": 51.5141232697085, "lng": -0.177022530291502}}}, "name": "Property Accountant Paddington", "place_id": "ChIJuXKbK5QbdkgRRYyExbjTO90", "types": ["finance", "point_of_interest", "establishment"]}, "ChIJfbS3JowbdkgRcDqw_vuAXnQ": {"geometry": {"location": {"lat": 51.5158359, "lng": -0.1763558}, "viewport": {"northeast": {"lat": 51.5170037802915, "lng": -0.1747388697084979}, "southwest": {"lat": 51.5143058197085, "lng": -0.177436830291502}}}, "name": "M&S Simply Food", "place_id": "ChIJfbS3JowbdkgRcDqw_vuAXnQ", "types": ["grocery_or_supermarket", "food", "point_of_interest", "store", "establishment"]}, "ChIJsXw1pbIadkgRwtM1hClT2GM": {"geometry": {"location": {"lat": 51.5153954, "lng": -0.1757819}, "viewport": {"northeast": {"lat": 51.51681088029149, "lng": -0.174353969708498}, "southwest": {"lat": 51.5141129197085, "lng": -0.177051930291502}}}, "name": "Bureau De Change 0,96", "place_id": "ChIJsXw1pbIadkgRwtM1hClT2GM", "types": ["finance", "point_of_interest", "establishment"], "rating": 1, "user_ratings_total": 1}, "ChIJRzVcT1MbdkgRncBlmkwui3o": {"geometry": {"location": {"lat": 51.51544080000001, "lng": -0.1755039}, "viewport": {"northeast": {"lat": 51.5166011802915, "lng": -0.174492669708498}, "southwest": {"lat": 51.5139032197085, "lng": -0.177190630291502}}}, "name": "Commercial Property Solicitor Paddington", "place_id": "ChIJRzVcT1MbdkgRncBlmkwui3o", "types": ["lawyer", "point_of_interest", "establishment"]}, "ChIJsdVyQDUbdkgR1kgKyMcqyJk": {"geometry": {"location": {"lat": 51.5154675, "lng": -0.1753859}, "viewport": {"northeast": {"lat": 51.5168854302915, "lng": -0.174138969708498}, "southwest": {"lat": 51.5141874697085, "lng": -0.176836930291502}}}, "name": "Fourex Currency Exhange", "place_id": "ChIJsdVyQDUbdkgR1kgKyMcqyJk", "types": ["finance", "point_of_interest", "establishment"]}, "ChIJf-l-Xr8bdkgRSdSPm52eUg0": {"geometry": {"location": {"lat": 51.5153628, "lng": -0.1757874}, "viewport": {"northeast": {"lat": 51.5167945802915, "lng": -0.174368519708498}, "southwest": {"lat": 51.5140966197085, "lng": -0.177066480291502}}}, "name": "Paddington Spa", "place_id": "ChIJf-l-Xr8bdkgRSdSPm52eUg0", "types": ["spa", "point_of_interest", "establishment"], "rating": 5, "user_ratings_total": 2}, "ChIJBQv5WkcbdkgR4m_kuIWqgB4": {"geometry": {"location": {"lat": 51.5153628, "lng": -0.1757874}, "viewport": {"northeast": {"lat": 51.5167945802915, "lng": -0.174368519708498}, "southwest": {"lat": 51.5140966197085, "lng": -0.177066480291502}}}, "name": "LuggageHero", "place_id": "ChIJBQv5WkcbdkgR4m_kuIWqgB4", "types": ["storage", "point_of_interest", "establishment"]}, "ChIJOa_rr7IadkgRWKMi0jxHb2k": {"geometry": {"location": {"lat": 51.5153628, "lng": -0.1757874}, "viewport": {"northeast": {"lat": 51.5167945802915, "lng": -0.174368519708498}, "southwest": {"lat": 51.5140966197085, "lng": -0.177066480291502}}}, "name": "Safari Currency Exchange", "place_id": "ChIJOa_rr7IadkgRWKMi0jxHb2k", "types": ["finance", "point_of_interest", "store", "establishment"], "rating": 5, "user_ratings_total": 6}, "ChIJ9zZjubIadkgRa3FJ0nwpHFg": {"geometry": {"location": {"lat": 51.5157414, "lng": -0.1751576}, "viewport": {"northeast": {"lat": 51.51701208029149, "lng": -0.174002219708498}, "southwest": {"lat": 51.51431411970849, "lng": -0.176700180291502}}}, "name": "Intelligent Media Strategies LTD", "place_id": "ChIJ9zZjubIadkgRa3FJ0nwpHFg", "types": ["point_of_interest", "establishment"]}, "ChIJJYMGr7IadkgRqYMhbqbpMv0": {"geometry": {"location": {"lat": 51.5153565, "lng": -0.1758013}, "viewport": {"northeast": {"lat": 51.51679143029151, "lng": -0.174374869708498}, "southwest": {"lat": 51.51409346970851, "lng": -0.177072830291502}}}, "name": "Paddington Cars Ltd", "place_id": "ChIJJYMGr7IadkgRqYMhbqbpMv0", "types": ["point_of_interest", "establishment"], "rating": 3.3, "user_ratings_total": 11}, "ChIJo64Wv7IadkgRynd2x6-3vGk": {"geometry": {"location": {"lat": 51.5157242, "lng": -0.1751475}, "viewport": {"northeast": {"lat": 51.5170098802915, "lng": -0.173997169708498}, "southwest": {"lat": 51.5143119197085, "lng": -0.176695130291502}}}, "name": "Orbit", "place_id": "ChIJo64Wv7IadkgRynd2x6-3vGk", "types": ["gym", "health", "point_of_interest", "establishment"], "rating": 4.5, "user_ratings_total": 2}, "ChIJD5sTFyIbdkgRXQTYIT510Tk": {"geometry": {"location": {"lat": 51.5153322, "lng": -0.1758572}, "viewport": {"northeast": {"lat": 51.5167792802915, "lng": -0.174400069708498}, "southwest": {"lat": 51.5140813197085, "lng": -0.177098030291502}}}, "name": "MOBILE REPAIR & ACCESSORIES SHOP", "place_id": "ChIJD5sTFyIbdkgRXQTYIT510Tk", "types": ["point_of_interest", "establishment"]}, "ChIJPbzarrIadkgR0midZRQBoG8": {"geometry": {"location": {"lat": 51.5153322, "lng": -0.1758572}, "viewport": {"northeast": {"lat": 51.5167792802915, "lng": -0.174400069708498}, "southwest": {"lat": 51.5140813197085, "lng": -0.177098030291502}}}, "name": "Paddington Mobile Accessories Supplier / we epair all model phones , laptop , We also repair your device at home just book the appoinment", "place_id": "ChIJPbzarrIadkgR0midZRQBoG8", "types": ["point_of_interest", "establishment"], "rating": 4.5, "user_ratings_total": 2}, "ChIJS0gNubIadkgR-sUKkKEAzWs": {"geometry": {"location": {"lat": 51.51573500000001, "lng": -0.1750798}, "viewport": {"northeast": {"lat": 51.5171253802915, "lng": -0.173789919708498}, "southwest": {"lat": 51.5144274197085, "lng": -0.176487880291502}}}, "name": "EXSUS International", "place_id": "ChIJS0gNubIadkgR-sUKkKEAzWs", "types": ["accounting", "finance", "point_of_interest", "establishment"]}, "ChIJf6JAq7IadkgRuLXPvzIuoHk": {"geometry": {"location": {"lat": 51.51489535001834, "lng": -0.1759208999392051}, "viewport": {"northeast": {"lat": 51.51624433029151, "lng": -0.174571919708498}, "southwest": {"lat": 51.51354636970851, "lng": -0.177269880291502}}}, "name": "24-26 Spring St", "place_id": "ChIJf6JAq7IadkgRuLXPvzIuoHk", "types": ["route"]}, "ChIJFeoUVa0adkgRmrwOSFqBXtM": {"geometry": {"location": {"lat": 51.51501, "lng": -0.1763536}, "viewport": {"northeast": {"lat": 51.5164047802915, "lng": -0.175072069708498}, "southwest": {"lat": 51.5137068197085, "lng": -0.177770030291502}}}, "name": "The Pride Of Paddington", "place_id": "ChIJFeoUVa0adkgRmrwOSFqBXtM", "types": ["bar", "restaurant", "food", "point_of_interest", "establishment"], "rating": 4, "user_ratings_total": 2477}, "ChIJV3ueVK0adkgRQax7-lp3nPc": {"geometry": {"location": {"lat": 51.51494770000001, "lng": -0.1765065}, "viewport": {"northeast": {"lat": 51.5163356802915, "lng": -0.175214969708498}, "southwest": {"lat": 51.51363771970851, "lng": -0.177912930291502}}}, "name": "Metro Hotel", "place_id": "ChIJV3ueVK0adkgRQax7-lp3nPc", "types": ["lodging", "point_of_interest", "establishment"], "rating": 2.3, "user_ratings_total": 86}, "ChIJRU4GTk0FdkgRKmrTBQ8swtw": {"geometry": {"location": {"lat": 51.51446910000001, "lng": -0.1756339}, "viewport": {"northeast": {"lat": 51.51586828029151, "lng": -0.174193819708498}, "southwest": {"lat": 51.51317031970851, "lng": -0.1768917802915021}}}, "name": "London Short Letting Apartments", "place_id": "ChIJRU4GTk0FdkgRKmrTBQ8swtw", "types": ["real_estate_agency", "travel_agency", "point_of_interest", "establishment"], "rating": 3.1, "user_ratings_total": 7}, "ChIJBfCSSE0FdkgRybH96E8VI54": {"geometry": {"location": {"lat": 51.5144896, "lng": -0.1750318}, "viewport": {"northeast": {"lat": 51.5157946802915, "lng": -0.173769569708498}, "southwest": {"lat": 51.5130967197085, "lng": -0.176467530291502}}}, "name": "ASK Italian", "place_id": "ChIJBfCSSE0FdkgRybH96E8VI54", "types": ["restaurant", "food", "point_of_interest", "store", "establishment"], "rating": 4.2, "user_ratings_total": 1345}, "ChIJTY7lkdYEdkgRGSWl7fWXrUk": {"geometry": {"location": {"lat": 51.5148679, "lng": -0.1757196}, "viewport": {"northeast": {"lat": 51.51619273029149, "lng": -0.174414519708498}, "southwest": {"lat": 51.51349476970849, "lng": -0.177112480291502}}}, "name": "Bluemoon Investigation", "place_id": "ChIJTY7lkdYEdkgRGSWl7fWXrUk", "types": ["point_of_interest", "establishment"], "rating": 5, "user_ratings_total": 1}, "ChIJbyOmU00FdkgRUF960NYml90": {"geometry": {"location": {"lat": 51.5146646, "lng": -0.1758163}, "viewport": {"northeast": {"lat": 51.5160489802915, "lng": -0.1744030197084979}, "southwest": {"lat": 51.5133510197085, "lng": -0.177100980291502}}}, "name": "Franses Conservation", "place_id": "ChIJbyOmU00FdkgRUF960NYml90", "types": ["point_of_interest", "establishment"]}, "ChIJk7s7TU0FdkgRhIAmGLETpig": {"geometry": {"location": {"lat": 51.5146107, "lng": -0.1753296}, "viewport": {"northeast": {"lat": 51.5159317802915, "lng": -0.174031269708498}, "southwest": {"lat": 51.5132338197085, "lng": -0.176729230291502}}}, "name": "Wellness Therapy", "place_id": "ChIJk7s7TU0FdkgRhIAmGLETpig", "types": ["health", "point_of_interest", "establishment"]}, "ChIJ-f98srIadkgR7ji8Fs1OkuI": {"geometry": {"location": {"lat": 51.5146658, "lng": -0.1757978}, "viewport": {"northeast": {"lat": 51.51604708029149, "lng": -0.174390169708498}, "southwest": {"lat": 51.51334911970849, "lng": -0.1770881302915021}}}, "name": "Ian Franses Associates", "place_id": "ChIJ-f98srIadkgR7ji8Fs1OkuI", "types": ["point_of_interest", "establishment"]}, "ChIJLdIzTE0FdkgRptIpzPFA_0Y": {"geometry": {"location": {"lat": 51.5146204, "lng": -0.1753165}, "viewport": {"northeast": {"lat": 51.5159373302915, "lng": -0.174025719708498}, "southwest": {"lat": 51.5132393697085, "lng": -0.176723680291502}}}, "name": "Transform Your Life Coaching & Therapy", "place_id": "ChIJLdIzTE0FdkgRptIpzPFA_0Y", "types": ["health", "point_of_interest", "establishment"]}, "ChIJ_dsGr7IadkgR5DSK6bHwucs": {"geometry": {"location": {"lat": 51.5152024, "lng": -0.1760593}, "viewport": {"northeast": {"lat": 51.5167143802915, "lng": -0.174507819708498}, "southwest": {"lat": 51.5140164197085, "lng": -0.177205780291502}}}, "name": "Reload internet passport photos and printing", "place_id": "ChIJ_dsGr7IadkgR5DSK6bHwucs", "types": ["point_of_interest", "store", "establishment"], "rating": 4.6, "user_ratings_total": 323}, "ChIJw9vVU00FdkgRJ3kbGeRIQ_c": {"geometry": {"location": {"lat": 51.5145547, "lng": -0.1757398}, "viewport": {"northeast": {"lat": 51.5159514302915, "lng": -0.174304119708498}, "southwest": {"lat": 51.5132534697085, "lng": -0.177002080291502}}}, "name": "Headcase Barbers Paddington", "place_id": "ChIJw9vVU00FdkgRJ3kbGeRIQ_c", "types": ["hair_care", "health", "point_of_interest", "establishment"], "rating": 4.6, "user_ratings_total": 178}, "ChIJmQA0SU0FdkgRScZiDarJ1co": {"geometry": {"location": {"lat": 51.51453799999999, "lng": -0.175753}, "viewport": {"northeast": {"lat": 51.51594043029149, "lng": -0.174306969708498}, "southwest": {"lat": 51.51324246970849, "lng": -0.177004930291502}}},