{"E00024095": {"ChIJgXPUzgcQdkgR3nwSmINLWyY": {"geometry": {"location": {"lat": 51.52442603153056, "lng": -0.1904471796958388}, "viewport": {"northeast": {"lat": 51.5257760802915, "lng": -0.18902165}, "southwest": {"lat": 51.52307811970851, "lng": -0.19187465}}}, "name": "101-75 Sutherland Ave", "place_id": "ChIJgXPUzgcQdkgR3nwSmINLWyY", "types": ["route"]}, "ChIJnWfMzAcQdkgRzzN7-fKyJXs": {"geometry": {"location": {"lat": 51.52457440000001, "lng": -0.1906411}, "viewport": {"northeast": {"lat": 51.5258686802915, "lng": -0.189240619708498}, "southwest": {"lat": 51.5231707197085, "lng": -0.191938580291502}}}, "name": "captured by Juliana", "place_id": "ChIJnWfMzAcQdkgRzzN7-fKyJXs", "types": ["point_of_interest", "establishment"], "rating": 5, "user_ratings_total": 3}, "ChIJSc-Ctg8QdkgRi-qyBkEFw8E": {"geometry": {"location": {"lat": 51.52465830000001, "lng": -0.1904119}, "viewport": {"northeast": {"lat": 51.5261383802915, "lng": -0.189044169708498}, "southwest": {"lat": 51.5234404197085, "lng": -0.191742130291502}}}, "name": "Body Back Up Osteopath Healthcare", "place_id": "ChIJSc-Ctg8QdkgRi-qyBkEFw8E", "types": ["health", "point_of_interest", "establishment"], "rating": 4.8, "user_ratings_total": 6}, "ChIJeWak1g8QdkgR5Z7dxcnnweM": {"geometry": {"location": {"lat": 51.52465830000001, "lng": -0.1904119}, "viewport": {"northeast": {"lat": 51.5261383802915, "lng": -0.189044169708498}, "southwest": {"lat": 51.5234404197085, "lng": -0.191742130291502}}}, "name": "Bodybackup", "place_id": "ChIJeWak1g8QdkgR5Z7dxcnnweM", "types": ["health", "point_of_interest", "store", "establishment"], "rating": 5, "user_ratings_total": 4}, "ChIJBaxu_qcadkgRqk8lGm1L0BA": {"geometry": {"location": {"lat": 51.52465830000001, "lng": -0.1904119}, "viewport": {"northeast": {"lat": 51.52613788029149, "lng": -0.189048569708498}, "southwest": {"lat": 51.52343991970849, "lng": -0.191746530291502}}}, "name": "Maida Vale Library", "place_id": "ChIJBaxu_qcadkgRqk8lGm1L0BA", "types": ["library", "point_of_interest", "establishment"], "rating": 4.4, "user_ratings_total": 34}, "ChIJpwCPywcQdkgRDQsozFx6bxI": {"geometry": {"location": {"lat": 51.5244644, "lng": -0.1906853}, "viewport": {"northeast": {"lat": 51.5257814302915, "lng": -0.189312369708498}, "southwest": {"lat": 51.5230834697085, "lng": -0.192010330291502}}}, "name": "ubitricity Charging Station", "place_id": "ChIJpwCPywcQdkgRDQsozFx6bxI", "types": ["point_of_interest", "establishment"]}, "ChIJx1wP6FURdkgRtI9j8keC7DY": {"geometry": {"location": {"lat": 51.5243867, "lng": -0.1911871}, "viewport": {"northeast": {"lat": 51.5256780802915, "lng": -0.189780769708498}, "southwest": {"lat": 51.5229801197085, "lng": -0.192478730291502}}}, "name": "All Out Service", "place_id": "ChIJx1wP6FURdkgRtI9j8keC7DY", "types": ["finance", "point_of_interest", "establishment"]}, "ChIJx4clN48RdkgRoQf3hcNVH4A": {"geometry": {"location": {"lat": 51.5243867, "lng": -0.1911871}, "viewport": {"northeast": {"lat": 51.5256767302915, "lng": -0.1897825697084979}, "southwest": {"lat": 51.5229787697085, "lng": -0.192480530291502}}}, "name": "Rasa Medic", "place_id": "ChIJx4clN48RdkgRoQf3hcNVH4A", "types": ["point_of_interest", "establishment"]}, "ChIJiYNhrgcQdkgRA8F4njJdHRo": {"geometry": {"location": {"lat": 51.52330443626915, "lng": -0.1905943057141544}, "viewport": {"northeast": {"lat": 51.52459338029149, "lng": -0.1890694}, "southwest": {"lat": 51.5218954197085, "lng": -0.1920709999999999}}}, "name": "31 Aldsworth Cl", "place_id": "ChIJiYNhrgcQdkgRA8F4njJdHRo", "types": ["route"]}, "ChIJIZIwi2URdkgRgi4kY9Ql_Nk": {"geometry": {"location": {"lat": 51.5233793, "lng": -0.1902631}, "viewport": {"northeast": {"lat": 51.5247212302915, "lng": -0.188912569708498}, "southwest": {"lat": 51.52202326970851, "lng": -0.191610530291502}}}, "name": "Downtime Studios", "place_id": "ChIJIZIwi2URdkgRgi4kY9Ql_Nk", "types": ["point_of_interest", "establishment"], "rating": 5, "user_ratings_total": 3}, "ChIJpWLFpAcQdkgRMAmKs0KQ9G4": {"geometry": {"location": {"lat": 51.5233552, "lng": -0.1900741}, "viewport": {"northeast": {"lat": 51.5247360302915, "lng": -0.188732669708498}, "southwest": {"lat": 51.5220380697085, "lng": -0.191430630291502}}}, "name": "Maia Management Consulting Ltd", "place_id": "ChIJpWLFpAcQdkgRMAmKs0KQ9G4", "types": ["point_of_interest", "establishment"]}, "ChIJs6otrgcQdkgRH1KOmcjs2rQ": {"geometry": {"location": {"lat": 51.5233752, "lng": -0.1904738}, "viewport": {"northeast": {"lat": 51.52471386760202, "lng": -0.1891595109559283}, "southwest": {"lat": 51.52201590701902, "lng": -0.1918574715389323}}}, "name": "Parking lot", "place_id": "ChIJs6otrgcQdkgRH1KOmcjs2rQ", "types": ["parking", "premise", "point_of_interest", "establishment"]}, "ChIJ54ejGwcQdkgR-nBZXjlBLLo": {"geometry": {"location": {"lat": 51.52213673848239, "lng": -0.1908011204280679}, "viewport": {"northeast": {"lat": 51.52348323029149, "lng": -0.189455519708498}, "southwest": {"lat": 51.52078526970849, "lng": -0.192153480291502}}}, "name": "Woodchester Square", "place_id": "ChIJ54ejGwcQdkgR-nBZXjlBLLo", "types": ["route"]}, "ChIJ_2mV4AYQdkgRyuspERR8_9o": {"geometry": {"location": {"lat": 51.5218814, "lng": -0.1911236}, "viewport": {"northeast": {"lat": 51.5231048802915, "lng": -0.189807769708498}, "southwest": {"lat": 51.5204069197085, "lng": -0.192505730291502}}}, "name": "Forrester Court - Care UK", "place_id": "ChIJ_2mV4AYQdkgRyuspERR8_9o", "types": ["health", "point_of_interest", "establishment"], "rating": 4.5, "user_ratings_total": 12}, "ChIJ2WxrJMYRdkgRBbtEH5kt4KY": {"geometry": {"location": {"lat": 51.5224213, "lng": -0.1906266}, "viewport": {"northeast": {"lat": 51.52377603029149, "lng": -0.189374769708498}, "southwest": {"lat": 51.5210780697085, "lng": -0.192072730291502}}}, "name": "Max Effect Builders", "place_id": "ChIJ2WxrJMYRdkgRBbtEH5kt4KY", "types": ["point_of_interest", "establishment"]}, "ChIJ5z5VFwcQdkgRda_4KPSqFqI": {"geometry": {"location": {"lat": 51.52174900000001, "lng": -0.190295}, "viewport": {"northeast": {"lat": 51.52309298029149, "lng": -0.188965969708498}, "southwest": {"lat": 51.52039501970849, "lng": -0.191663930291502}}}, "name": "ubitricity Charging Station", "place_id": "ChIJ5z5VFwcQdkgRda_4KPSqFqI", "types": ["point_of_interest", "establishment"]}, "ChIJm05SAQcQdkgRL_jTZL-68Ks": {"geometry": {"location": {"lat": 51.5224506, "lng": -0.1908126}, "viewport": {"northeast": {"lat": 51.5237908565549, "lng": -0.1893408289381164}, "southwest": {"lat": 51.5210928959719, "lng": -0.1920387895211204}}}, "name": "Parking lot", "place_id": "ChIJm05SAQcQdkgRL_jTZL-68Ks", "types": ["parking", "premise", "point_of_interest", "establishment"]}, "ChIJD5u9RwYQdkgRXdl11rPIMoQ": {"geometry": {"location": {"lat": 51.52399775029346, "lng": -0.1918239505461462}, "viewport": {"northeast": {"lat": 51.52534673029151, "lng": -0.190474969708498}, "southwest": {"lat": 51.52264876970851, "lng": -0.193172930291502}}}, "name": "Sutherland Avenue", "place_id": "ChIJD5u9RwYQdkgRXdl11rPIMoQ", "types": ["route"]}, "ChIJd9xZNgYQdkgRlpc8DSm2uvk": {"geometry": {"location": {"lat": 51.5241847, "lng": -0.1916858}, "viewport": {"northeast": {"lat": 51.5254823302915, "lng": -0.190289019708498}, "southwest": {"lat": 51.52278436970851, "lng": -0.192986980291502}}}, "name": "The Marriage Development Company Ltd.", "place_id": "ChIJd9xZNgYQdkgRlpc8DSm2uvk", "types": ["point_of_interest", "establishment"]}, "ChIJjaTwLwYQdkgRsvLlgcTJWeI": {"geometry": {"location": {"lat": 51.5247532, "lng": -0.1918704}, "viewport": {"northeast": {"lat": 51.52607143029149, "lng": -0.190587119708498}, "southwest": {"lat": 51.5233734697085, "lng": -0.193285080291502}}}, "name": "CaseCheck Employment Lawyers London", "place_id": "ChIJjaTwLwYQdkgRsvLlgcTJWeI", "types": ["lawyer", "point_of_interest", "establishment"]}, "ChIJh_xYGAYQdkgRoeZVTzEqcbQ": {"geometry": {"location": {"lat": 51.5248617, "lng": -0.1926561}, "viewport": {"northeast": {"lat": 51.5261996302915, "lng": -0.191294219708498}, "southwest": {"lat": 51.5235016697085, "lng": -0.193992180291502}}}, "name": "Dancing Tao", "place_id": "ChIJh_xYGAYQdkgRoeZVTzEqcbQ", "types": ["point_of_interest", "establishment"]}, "ChIJLbqnaCzyd0gRe2g3CKtzoHk": {"geometry": {"location": {"lat": 51.5248617, "lng": -0.1926561}, "viewport": {"northeast": {"lat": 51.5261996302915, "lng": -0.191294219708498}, "southwest": {"lat": 51.5235016697085, "lng": -0.193992180291502}}}, "name": "United Teaching", "place_id": "ChIJLbqnaCzyd0gRe2g3CKtzoHk", "types": ["point_of_interest", "establishment"]}, "ChIJ65mG1R0RdkgR-I5w_lhDfnk": {"geometry": {"location": {"lat": 51.5242714, "lng": -0.1926344}, "viewport": {"northeast": {"lat": 51.5255985802915, "lng": -0.191333969708498}, "southwest": {"lat": 51.5229006197085, "lng": -0.194031930291502}}}, "name": "Ficticity", "place_id": "ChIJ65mG1R0RdkgR-I5w_lhDfnk", "types": ["point_of_interest", "establishment"]}, "ChIJvyMaujYRdkgRo5nP7cP5378": {"geometry": {"location": {"lat": 51.5244197, "lng": -0.1927177}, "viewport": {"northeast": {"lat": 51.52573383029149, "lng": -0.191447619708498}, "southwest": {"lat": 51.52303586970849, "lng": -0.194145580291502}}}, "name": "methodist church", "place_id": "ChIJvyMaujYRdkgRo5nP7cP5378", "types": ["church", "place_of_worship", "point_of_interest", "establishment"]}, "ChIJjaTwLwYQdkgRz_NuGg87-hc": {"geometry": {"location": {"lat": 51.52443029999999, "lng": -0.1920341}, "viewport": {"northeast": {"lat": 51.5258313302915, "lng": -0.1905738697084979}, "southwest": {"lat": 51.5231333697085, "lng": -0.193271830291502}}}, "name": "Loft King Ltd", "place_id": "ChIJjaTwLwYQdkgRz_NuGg87-hc", "types": ["general_contractor", "point_of_interest", "establishment"], "rating": 2, "user_ratings_total": 3}, "ChIJ9a9lxIgRdkgRJa2p4LHImHI": {"geometry": {"location": {"lat": 51.52462200000001, "lng": -0.1924624}, "viewport": {"northeast": {"lat": 51.52605243029151, "lng": -0.190939419708498}, "southwest": {"lat": 51.52335446970851, "lng": -0.193637380291502}}}, "name": "SA GLOBAL ENGINEERING", "place_id": "ChIJ9a9lxIgRdkgRJa2p4LHImHI", "types": ["plumber", "point_of_interest", "establishment"]}, "ChIJ9SJ20CIRdkgRR2fifuy2oKw": {"geometry": {"location": {"lat": 51.52421030000001, "lng": -0.1919577}, "viewport": {"northeast": {"lat": 51.5254616302915, "lng": -0.190517869708498}, "southwest": {"lat": 51.52276366970851, "lng": -0.193215830291502}}}, "name": "MUSIC GEMS LTD", "place_id": "ChIJ9SJ20CIRdkgRR2fifuy2oKw", "types": ["point_of_interest", "establishment"]}, "ChIJPf-PagYQdkgRfkvbamcmGsw": {"geometry": {"location": {"lat": 51.52392529999999, "lng": -0.1925718}, "viewport": {"northeast": {"lat": 51.5252005302915, "lng": -0.191154119708498}, "southwest": {"lat": 51.5225025697085, "lng": -0.193852080291502}}}, "name": "SCL Consultancy", "place_id": "ChIJPf-PagYQdkgRfkvbamcmGsw", "types": ["point_of_interest", "establishment"]}, "ChIJeVr_OAYQdkgRRrRvcCU9xWU": {"geometry": {"location": {"lat": 51.5241603, "lng": -0.1917672}, "viewport": {"northeast": {"lat": 51.5254560802915, "lng": -0.1903687197084979}, "southwest": {"lat": 51.5227581197085, "lng": -0.193066680291502}}}, "name": "Mint Kitchens", "place_id": "ChIJeVr_OAYQdkgRRrRvcCU9xWU", "types": ["home_goods_store", "general_contractor", "point_of_interest", "store", "establishment"], "rating": 5, "user_ratings_total": 2}, "ChIJweb2GQYQdkgRif2tw1ijrGA": {"geometry": {"location": {"lat": 51.524759, "lng": -0.192883}, "viewport": {"northeast": {"lat": 51.52609683029149, "lng": -0.191521019708498}, "southwest": {"lat": 51.52339886970849, "lng": -0.194218980291502}}}, "name": "Caramelo Latin Dance", "place_id": "ChIJweb2GQYQdkgRif2tw1ijrGA", "types": ["point_of_interest", "establishment"], "rating": 4.4, "user_ratings_total": 81}, "ChIJc4GVRwYQdkgR9AZMpj84e-4": {"geometry": {"location": {"lat": 51.52396950000001, "lng": -0.1918937}, "viewport": {"northeast": {"lat": 51.5253468802915, "lng": -0.190571169708498}, "southwest": {"lat": 51.52264891970851, "lng": -0.193269130291502}}}, "name": "ubitricity Charging Station", "place_id": "ChIJc4GVRwYQdkgR9AZMpj84e-4", "types": ["point_of_interest", "establishment"]}, "ChIJmbkPRkMRdkgRqMIIEHhG9hc": {"geometry": {"location": {"lat": 51.5246197, "lng": -0.1931123}, "viewport": {"northeast": {"lat": 51.5259774802915, "lng": -0.191774169708498}, "southwest": {"lat": 51.5232795197085, "lng": -0.194472130291502}}}, "name": "Central London Teaching School Hub", "place_id": "ChIJmbkPRkMRdkgRqMIIEHhG9hc", "types": ["point_of_interest", "establishment"]}, "ChIJ-eAoBkwRdkgRbLM5234JIg0": {"geometry": {"location": {"lat": 51.5248617, "lng": -0.1926561}, "viewport": {"northeast": {"lat": 51.5261996302915, "lng": -0.191294219708498}, "southwest": {"lat": 51.5235016697085, "lng": -0.193992180291502}}}, "name": "Bluebirds Ballet School", "place_id": "ChIJ-eAoBkwRdkgRbLM5234JIg0", "types": ["point_of_interest", "establishment"]}, "ChIJ5SWeaQYQdkgRDs9cvX-sHbM": {"geometry": {"location": {"lat": 51.52362084892876, "lng": -0.1926863161688535}, "viewport": {"northeast": {"lat": 51.5249794302915, "lng": -0.191344069708498}, "southwest": {"lat": 51.5222814697085, "lng": -0.194042030291502}}}, "name": "47-25 Sutherland Ave", "place_id": "ChIJ5SWeaQYQdkgRDs9cvX-sHbM", "types": ["route"]}, "ChIJrYY6WgYQdkgRZqbAS7FuFP4": {"geometry": {"location": {"lat": 51.52304029999999, "lng": -0.1918499999999999}, "viewport": {"northeast": {"lat": 51.52445618029149, "lng": -0.1905526197084979}, "southwest": {"lat": 51.5217582197085, "lng": -0.193250580291502}}}, "name": "Westminster Adult Education Service", "place_id": "ChIJrYY6WgYQdkgRZqbAS7FuFP4", "types": ["university", "point_of_interest", "establishment"], "rating": 4.8, "user_ratings_total": 4}, "ChIJSc6kHRcQdkgR0OaVEcc7rBo": {"geometry": {"location": {"lat": 51.52303190000001, "lng": -0.1920013}, "viewport": {"northeast": {"lat": 51.5244328302915, "lng": -0.190692419708498}, "southwest": {"lat": 51.5217348697085, "lng": -0.193390380291502}}}, "name": "ARK Atwood Primary Academy", "place_id": "ChIJSc6kHRcQdkgR0OaVEcc7rBo", "types": ["school", "point_of_interest", "establishment"], "rating": 4.5, "user_ratings_total": 18}, "ChIJ7fiHQgYQdkgRCOPsR3tzLko": {"geometry": {"location": {"lat": 51.5235564, "lng": -0.1924786999999999}, "viewport": {"northeast": {"lat": 51.5249575302915, "lng": -0.191178919708498}, "southwest": {"lat": 51.5222595697085, "lng": -0.193876880291502}}}, "name": "London Hostess Agency Limited", "place_id": "ChIJ7fiHQgYQdkgRCOPsR3tzLko", "types": ["point_of_interest", "establishment"], "rating": 1, "user_ratings_total": 1}, "ChIJP2nNo7gRdkgRLlGAf0rjKhA": {"geometry": {"location": {"lat": 51.52366439999999, "lng": -0.1925066}, "viewport": {"northeast": {"lat": 51.5250026302915, "lng": -0.191147519708498}, "southwest": {"lat": 51.5223046697085, "lng": -0.193845480291502}}}, "name": "Samuel Grayson Ltd", "place_id": "ChIJP2nNo7gRdkgRLlGAf0rjKhA", "types": ["general_contractor", "point_of_interest", "establishment"]}, "ChIJq6pqbwYQdkgR9w6iGzSmO6M": {"geometry": {"location": {"lat": 51.5234738, "lng": -0.1929824}, "viewport": {"northeast": {"lat": 51.5248235802915, "lng": -0.191634219708498}, "southwest": {"lat": 51.5221256197085, "lng": -0.194332180291502}}}, "name": "HIWINE", "place_id": "ChIJq6pqbwYQdkgR9w6iGzSmO6M", "types": ["liquor_store", "food", "point_of_interest", "store", "establishment"]}, "ChIJ60RjQQYQdkgR5LAmdvroHyM": {"geometry": {"location": {"lat": 51.523739, "lng": -0.19229}, "viewport": {"northeast": {"lat": 51.52509683029151, "lng": -0.190952719708498}, "southwest": {"lat": 51.52239886970851, "lng": -0.193650680291502}}}, "name": "Chargemaster Charging Station", "place_id": "ChIJ60RjQQYQdkgR5LAmdvroHyM", "types": ["point_of_interest", "establishment"]}, "ChIJ8ZQLdwYQdkgRz7T8NFUyaOM": {"geometry": {"location": {"lat": 51.5235006, "lng": -0.193133}, "viewport": {"northeast": {"lat": 51.5248329802915, "lng": -0.191741019708498}, "southwest": {"lat": 51.5221350197085, "lng": -0.194438980291502}}}, "name": "Afflick Photos", "place_id": "ChIJ8ZQLdwYQdkgRz7T8NFUyaOM", "types": ["point_of_interest", "establishment"]}, "ChIJmcr-bgYQdkgRW5mpmaKL37A": {"geometry": {"location": {"lat": 51.5235907, "lng": -0.1930709}, "viewport": {"northeast": {"lat": 51.5249363302915, "lng": -0.191719269708498}, "southwest": {"lat": 51.5222383697085, "lng": -0.194417230291502}}}, "name": "ubitricity Charging Station", "place_id": "ChIJmcr-bgYQdkgRW5mpmaKL37A", "types": ["point_of_interest", "establishment"]}, "ChIJCajVegYQdkgRjk7WK-vm5KA": {"geometry": {"location": {"lat": 51.5232347, "lng": -0.1932686}, "viewport": {"northeast": {"lat": 51.5246563802915, "lng": -0.191987119708498}, "southwest": {"lat": 51.5219584197085, "lng": -0.194685080291502}}}, "name": "Nicolacorp", "place_id": "ChIJCajVegYQdkgRjk7WK-vm5KA", "types": ["point_of_interest", "establishment"]}, "ChIJ81oR4wYQdkgRtnVD4pE6W0M": {"geometry": {"location": {"lat": 51.52186565355685, "lng": -0.1916902586218845}, "viewport": {"northeast": {"lat": 51.52321433029149, "lng": -0.190335119708498}, "southwest": {"lat": 51.5205163697085, "lng": -0.193033080291502}}}, "name": "Woodchester Square", "place_id": "ChIJ81oR4wYQdkgRtnVD4pE6W0M", "types": ["route"]}, "ChIJ___DZgMQdkgR2NkpPoB6ONo": {"geometry": {"location": {"lat": 51.52192169999999, "lng": -0.1928491}, "viewport": {"northeast": {"lat": 51.52319083029149, "lng": -0.191649219708498}, "southwest": {"lat": 51.52049286970849, "lng": -0.194347180291502}}}, "name": "Open Age Westbourne Hub", "place_id": "ChIJ___DZgMQdkgR2NkpPoB6ONo", "types": ["point_of_interest", "establishment"], "rating": 5, "user_ratings_total": 2}, "ChIJx0Wjo34RdkgR6XxGTeGmeEM": {"geometry": {"location": {"lat": 51.5219556, "lng": -0.1920976}, "viewport": {"northeast": {"lat": 51.52320683029149, "lng": -0.1907491197084979}, "southwest": {"lat": 51.52050886970849, "lng": -0.193447080291502}}}, "name": "Nawaz Solicitor", "place_id": "ChIJx0Wjo34RdkgR6XxGTeGmeEM", "types": ["point_of_interest", "establishment"]}, "ChIJeZO1ET4RdkgRy6ps2hNihMY": {"geometry": {"location": {"lat": 51.5219503, "lng": -0.1928317}, "viewport": {"northeast": {"lat": 51.5232992802915, "lng": -0.191482719708498}, "southwest": {"lat": 51.5206013197085, "lng": -0.194180680291502}}}, "name": "Warwick community hall", "place_id": "ChIJeZO1ET4RdkgRy6ps2hNihMY", "types": ["point_of_interest", "establishment"], "rating": 4.4, "user_ratings_total": 5}, "ChIJ2-uxkQYQdkgRdVRQey9Ma2o": {"geometry": {"location": {"lat": 51.52188830000001, "lng": -0.1921159}, "viewport": {"northeast": {"lat": 51.52296628029151, "lng": -0.190811519708498}, "southwest": {"lat": 51.52026831970851, "lng": -0.193509480291502}}}, "name": "Wilmcote House 1", "place_id": "ChIJ2-uxkQYQdkgRdVRQey9Ma2o", "types": ["lodging", "point_of_interest", "establishment"], "rating": 4.1, "user_ratings_total": 7}, "ChIJZ-U5rqQRdkgRNCzk43AO2GE": {"geometry": {"location": {"lat": 51.52260259999999, "lng": -0.1924146}, "viewport": {"northeast": {"lat": 51.52412033029149, "lng": -0.191211269708498}, "southwest": {"lat": 51.52142236970849, "lng": -0.193909230291502}}}, "name": "Litter Art", "place_id": "ChIJZ-U5rqQRdkgRNCzk43AO2GE", "types": ["tourist_attraction", "point_of_interest", "establishment"]}, "ChIJRSwl5QYQdkgRg-oV8x0tukM": {"geometry": {"location": {"lat": 51.52203, "lng": -0.191637}, "viewport": {"northeast": {"lat": 51.5233733302915, "lng": -0.190272469708498}, "southwest": {"lat": 51.5206753697085, "lng": -0.192970430291502}}}, "name": "ubitricity Charging Station", "place_id": "ChIJRSwl5QYQdkgRg-oV8x0tukM", "types": ["point_of_interest", "establishment"]}, "ChIJjyUR7gYQdkgRw1b5wlLFbag": {"geometry": {"location": {"lat": 51.5221204, "lng": -0.1918226}, "viewport": {"northeast": {"lat": 51.52337478328703, "lng": -0.1906797659896768}, "southwest": {"lat": 51.52067682270403, "lng": -0.1933777265726808}}}, "name": "Parking lot", "place_id": "ChIJjyUR7gYQdkgRw1b5wlLFbag", "types": ["parking", "premise", "point_of_interest", "establishment"]}, "ChIJL1KWCwYQdkgRmsnaHDhTel4": {"geometry": {"location": {"lat": 51.5243162500975, "lng": -0.1936393504139184}, "viewport": {"northeast": {"lat": 51.52566523029149, "lng": -0.192290369708498}, "southwest": {"lat": 51.5229672697085, "lng": -0.194988330291502}}}, "name": "49-41 Marylands Rd", "place_id": "ChIJL1KWCwYQdkgRmsnaHDhTel4", "types": ["route"]}, "ChIJTbnsCQYQdkgRVgbJ7LhdStU": {"geometry": {"location": {"lat": 51.5243655, "lng": -0.1939435}, "viewport": {"northeast": {"lat": 51.52565998029151, "lng": -0.192478819708498}, "southwest": {"lat": 51.52296201970851, "lng": -0.195176780291502}}}, "name": "Theta2Change", "place_id": "ChIJTbnsCQYQdkgRVgbJ7LhdStU", "types": ["bank", "finance", "point_of_interest", "establishment"]}, "ChIJw7Ro4AUQdkgRhOnNKSHkmM0": {"geometry": {"location": {"lat": 51.5240479, "lng": -0.1942805}, "viewport": {"northeast": {"lat": 51.5253500802915, "lng": -0.1928373697084979}, "southwest": {"lat": 51.5226521197085, "lng": -0.195535330291502}}}, "name": "Pimpernel Press Ltd", "place_id": "ChIJw7Ro4AUQdkgRhOnNKSHkmM0", "types": ["point_of_interest", "establishment"]}, "ChIJ_R-oOw0RdkgRoQ_IJq_4pbI": {"geometry": {"location": {"lat": 51.52433980000001, "lng": -0.19397}, "viewport": {"northeast": {"lat": 51.52563498029151, "lng": -0.192506819708498}, "southwest": {"lat": 51.52293701970851, "lng": -0.195204780291502}}}, "name": "hot male masseur", "place_id": "ChIJ_R-oOw0RdkgRoQ_IJq_4pbI", "types": ["point_of_interest", "establishment"]}, "ChIJb0ZUDgYQdkgROAqfWVrrSeI": {"geometry": {"location": {"lat": 51.524427, "lng": -0.1938108}, "viewport": {"northeast": {"lat": 51.52573013029149, "lng": -0.192364519708498}, "southwest": {"lat": 51.52303216970849, "lng": -0.195062480291502}}}, "name": "Lava Services", "place_id": "ChIJb0ZUDgYQdkgROAqfWVrrSeI", "types": ["point_of_interest", "establishment"]}, "ChIJ5Z1Ut1ARdkgRXNfiP7wQuG4": {"geometry": {"location": {"lat": 51.52408440000001, "lng": -0.1939182}, "viewport": {"northeast": {"lat": 51.52543338029152, "lng": -0.192569219708498}, "southwest": {"lat": 51.52273541970852, "lng": -0.195267180291502}}}, "name": "Progether", "place_id": "ChIJ5Z1Ut1ARdkgRXNfiP7wQuG4", "types": ["general_contractor", "point_of_interest", "establishment"], "rating": 5, "user_ratings_total": 1}, "ChIJGbaQgj8RdkgRCu5ICnu4a4M": {"geometry": {"location": {"lat": 51.524809, "lng": -0.194274}, "viewport": {"northeast": {"lat": 51.52619583029151, "lng": -0.192879769708498}, "southwest": {"lat": 51.52349786970851, "lng": -0.195577730291502}}}, "name": "SCHOOL", "place_id": "ChIJGbaQgj8RdkgRCu5ICnu4a4M", "types": ["school", "point_of_interest", "establishment"]}, "ChIJrar3_AUQdkgRRpeFEQeUw0k": {"geometry": {"location": {"lat": 51.52485229999999, "lng": -0.1942444}, "viewport": {"northeast": {"lat": 51.52621998029149, "lng": -0.192870319708498}, "southwest": {"lat": 51.52352201970849, "lng": -0.195568280291502}}}, "name": "ubitricity Charging Station", "place_id": "ChIJrar3_AUQdkgRRpeFEQeUw0k", "types": ["point_of_interest", "establishment"]}, "ChIJA0rI7AUQdkgR_PlPez25Q14": {"geometry": {"location": {"lat": 51.5244556, "lng": -0.1953823}, "viewport": {"northeast": {"lat": 51.52582037923237, "lng": -0.194056260479099}, "southwest": {"lat": 51.52312241864938, "lng": -0.1967542210621031}}}, "name": "Edbrooke Road Gardens", "place_id": "ChIJA0rI7AUQdkgR_PlPez25Q14", "types": ["park", "premise", "point_of_interest", "establishment"]}, "ChIJB3Op0wUQdkgRq_JpWsI0vrg": {"geometry": {"location": {"lat": 51.52290825006121, "lng": -0.1945110998636295}, "viewport": {"northeast": {"lat": 51.5242572302915, "lng": -0.1931621197084979}, "southwest": {"lat": 51.5215592697085, "lng": -0.195860080291502}}}, "name": "350 Harrow Rd", "place_id": "ChIJB3Op0wUQdkgRq_JpWsI0vrg", "types": ["route"]}, "ChIJY_IjzgUQdkgRBJcjQR3cypU": {"geometry": {"location": {"lat": 51.523126, "lng": -0.1946481}, "viewport": {"northeast": {"lat": 51.52440723029149, "lng": -0.193346719708498}, "southwest": {"lat": 51.5217092697085, "lng": -0.196044680291502}}}, "name": "Champers Wine", "place_id": "ChIJY_IjzgUQdkgRBJcjQR3cypU", "types": ["liquor_store", "point_of_interest", "store", "establishment"], "rating": 4.1, "user_ratings_total": 7}, "ChIJ8ZQLdwYQdkgRhB7flNJEpz8": {"geometry": {"location": {"lat": 51.5232998, "lng": -0.1942654}, "viewport": {"northeast": {"lat": 51.5245634802915, "lng": -0.192843719708498}, "southwest": {"lat": 51.5218655197085, "lng": -0.195541680291502}}}, "name": "Glauca Rossi School of Make Up", "place_id": "ChIJ8ZQLdwYQdkgRhB7flNJEpz8", "types": ["point_of_interest", "establishment"], "rating": 4.4, "user_ratings_total": 39}, "ChIJ0SEpdwYQdkgRmRpfV-DO3x4": {"geometry": {"location": {"lat": 51.5232543, "lng": -0.1942663}, "viewport": {"northeast": {"lat": 51.5245322302915, "lng": -0.192869569708498}, "southwest": {"lat": 51.5218342697085, "lng": -0.195567530291502}}}, "name": "The Real Art Estate Ltd", "place_id": "ChIJ0SEpdwYQdkgRmRpfV-DO3x4", "types": ["point_of_interest", "establishment"]}, "ChIJGRC2eAYQdkgRFfhWqrnGTz0": {"geometry": {"location": {"lat": 51.5230286, "lng": -0.1940163}, "viewport": {"northeast": {"lat": 51.52427103029149, "lng": -0.192816969708498}, "southwest": {"lat": 51.5215730697085, "lng": -0.195514930291502}}}, "name": "Fix Our Boiler", "place_id": "ChIJGRC2eAYQdkgRFfhWqrnGTz0", "types": ["plumber", "general_contractor", "point_of_interest", "establishment"], "rating": 5, "user_ratings_total": 25}, "ChIJKS_61QUQdkgRhisExRkGM8A": {"geometry": {"location": {"lat": 51.5230369, "lng": -0.1939646}, "viewport": {"northeast": {"lat": 51.5244418302915, "lng": -0.192663419708498}, "southwest": {"lat": 51.5217438697085, "lng": -0.195361380291502}}}, "name": "Ruqyah London", "place_id": "ChIJKS_61QUQdkgRhisExRkGM8A", "types": ["mosque", "place_of_worship", "health", "point_of_interest", "establishment"], "rating": 4.2, "user_ratings_total": 10}, "ChIJtXqmVrAddkgRtw2du2oWVSA": {"geometry": {"location": {"lat": 51.5234642, "lng": -0.1945084}, "viewport": {"northeast": {"lat": 51.5248482302915, "lng": -0.193225819708498}, "southwest": {"lat": 51.5221502697085, "lng": -0.195923780291502}}}, "name": "High End Kitchen", "place_id": "ChIJtXqmVrAddkgRtw2du2oWVSA", "types": ["furniture_store", "home_goods_store", "general_contractor", "point_of_interest", "store", "establishment"], "rating": 5, "user_ratings_total": 3}, "ChIJT9e_1gUQdkgRtzHGKDng_Zo": {"geometry": {"location": {"lat": 51.5233783, "lng": -0.1937128}, "viewport": {"northeast": {"lat": 51.5246862802915, "lng": -0.192325719708498}, "southwest": {"lat": 51.52198831970851, "lng": -0.195023680291502}}}, "name": "Zipcar", "place_id": "ChIJT9e_1gUQdkgRtzHGKDng_Zo", "types": ["car_rental", "point_of_interest", "establishment"], "rating": 1, "user_ratings_total": 1}, "ChIJr_FHLqcadkgRHv8vFe7i-7U": {"geometry": {"location": {"lat": 51.52314519999999, "lng": -0.1947449}, "viewport": {"northeast": {"lat": 51.52442773029149, "lng": -0.193435169708498}, "southwest": {"lat": 51.52172976970849, "lng": -0.196133130291502}}}, "name": "One 2 One Cars", "place_id": "ChIJr_FHLqcadkgRHv8vFe7i-7U", "types": ["point_of_interest", "establishment"], "rating": 4.3, "user_ratings_total": 57}, "ChIJ8zWPgAYQdkgRqxhoZWpSwiU": {"geometry": {"location": {"lat": 51.52288439999999, "lng": -0.194147}, "viewport": {"northeast": {"lat": 51.52418783029149, "lng": -0.192861969708498}, "southwest": {"lat": 51.52148986970849, "lng": -0.195559930291502}}}, "name": "Betfred", "place_id": "ChIJ8zWPgAYQdkgRqxhoZWpSwiU", "types": ["point_of_interest", "establishment"], "rating": 3, "user_ratings_total": 1}, "ChIJTTNmeQYQdkgRRs7mFsUk_m4": {"geometry": {"location": {"lat": 51.523114, "lng": -0.1935311}, "viewport": {"northeast": {"lat": 51.5245455302915, "lng": -0.192258769708498}, "southwest": {"lat": 51.5218475697085, "lng": -0.194956730291502}}}, "name": "M.W Air Conditioning & Refrigeration", "place_id": "ChIJTTNmeQYQdkgRRs7mFsUk_m4", "types": ["general_contractor", "point_of_interest", "establishment"], "rating": 5, "user_ratings_total": 2}, "ChIJd7r70QUQdkgRb2Q8jbskwEM": {"geometry": {"location": {"lat": 51.5231529, "lng": -0.1948728}, "viewport": {"northeast": {"lat": 51.5244422802915, "lng": -0.193526369708498}, "southwest": {"lat": 51.5217443197085, "lng": -0.196224330291502}}}, "name": "Papa John's Pizza", "place_id": "ChIJd7r70QUQdkgRb2Q8jbskwEM", "types": ["restaurant", "food", "point_of_interest", "establishment"], "rating": 3.8, "user_ratings_total": 147}, "ChIJH-06fAYQdkgR3sqQd2WpmYA": {"geometry": {"location": {"lat": 51.5229757, "lng": -0.1935818}, "viewport": {"northeast": {"lat": 51.52431458029149, "lng": -0.192260319708498}, "southwest": {"lat": 51.52161661970849, "lng": -0.194958280291502}}}, "name": "Ocean to Ocean Property Management", "place_id": "ChIJH-06fAYQdkgR3sqQd2WpmYA", "types": ["real_estate_agency", "point_of_interest", "establishment"]}, "ChIJSUSmxQUQdkgRfKMgteyB_Bk": {"geometry": {"location": {"lat": 51.52350980000001, "lng": -0.1949288}, "viewport": {"northeast": {"lat": 51.52482183029149, "lng": -0.193503019708498}, "southwest": {"lat": 51.5221238697085, "lng": -0.196200980291502}}}, "name": "Venice Gondola", "place_id": "ChIJSUSmxQUQdkgRfKMgteyB_Bk", "types": ["travel_agency", "point_of_interest", "establishment"]}, "ChIJi_R2dQYQdkgRrzGzFUDgrSE": {"geometry": {"location": {"lat": 51.523397, "lng": -0.194675}, "viewport": {"northeast": {"lat": 51.52476953029149, "lng": -0.193370669708498}, "southwest": {"lat": 51.52207156970849, "lng": -0.196068630291502}}}, "name": "Tsiakkos & Charcoal", "place_id": "ChIJi_R2dQYQdkgRrzGzFUDgrSE", "types": ["restaurant", "food", "point_of_interest", "establishment"], "rating": 4.6, "user_ratings_total": 269}, "ChIJ0SEpdwYQdkgRJG02eoPxWrE": {"geometry": {"location": {"lat": 51.52324549999999, "lng": -0.1944304}, "viewport": {"northeast": {"lat": 51.52450913029149, "lng": -0.193008669708498}, "southwest": {"lat": 51.52181116970849, "lng": -0.195706630291502}}}, "name": "Sparrow Dry Cleaners London", "place_id": "ChIJ0SEpdwYQdkgRJG02eoPxWrE", "types": ["laundry", "point_of_interest", "establishment"], "rating": 4.9, "user_ratings_total": 30}, "ChIJZawnmIARdkgRBlktUWOGsmU": {"geometry": {"location": {"lat": 51.5232995, "lng": -0.1941405}, "viewport": {"northeast": {"lat": 51.5245810302915, "lng": -0.192727469708498}, "southwest": {"lat": 51.5218830697085, "lng": -0.195425430291502}}}, "name": "Gents Grooming", "place_id": "ChIJZawnmIARdkgRBlktUWOGsmU", "types": ["hair_care", "health", "point_of_interest", "establishment"], "rating": 5, "user_ratings_total": 13}, "ChIJZerIjOERdkgRhtwzkZMWqJ8": {"geometry": {"location": {"lat": 51.5233504, "lng": -0.1939155}, "viewport": {"northeast": {"lat": 51.5246415302915, "lng": -0.192512769708498}, "southwest": {"lat": 51.5219435697085, "lng": -0.195210730291502}}}, "name": "Camilla Boniek Events", "place_id": "ChIJZerIjOERdkgRhtwzkZMWqJ8", "types": ["point_of_interest", "establishment"]}, "ChIJzbf2G8YRdkgR89b5R5j1FhY": {"geometry": {"location": {"lat": 51.523221, "lng": -0.1945127}, "viewport": {"northeast": {"lat": 51.52448358029149, "lng": -0.193090119708498}, "southwest": {"lat": 51.5217856197085, "lng": -0.195788080291502}}}, "name": "London Laser Clinic Maida Vale", "place_id": "ChIJzbf2G8YRdkgR89b5R5j1FhY", "types": ["beauty_salon", "hair_care", "spa", "health", "point_of_interest", "establishment"], "rating": 5, "user_ratings_total": 3}, "ChIJO8sa1QUQdkgRvjdIi8KizVw": {"geometry": {"location": {"lat": 51.5230899, "lng": -0.1939239}, "viewport": {"northeast": {"lat": 51.5244799302915, "lng": -0.192607919708498}, "southwest": {"lat": 51.5217819697085, "lng": -0.195305880291502}}}, "name": "Rasheed Supermarket", "place_id": "ChIJO8sa1QUQdkgRvjdIi8KizVw", "types": ["supermarket", "grocery_or_supermarket", "food", "point_of_interest", "store", "establishment"], "rating": 4.5, "user_ratings_total": 15}, "ChIJKS_61QUQdkgRLTmkz_IK2FE": {"geometry": {"location": {"lat": 51.5230286, "lng": -0.1940163}, "viewport": {"northeast": {"lat": 51.52427103029149, "lng": -0.192816969708498}, "southwest": {"lat": 51.5215730697085, "lng": -0.195514930291502}}}, "name": "Audley Metal Limited", "place_id": "ChIJKS_61QUQdkgRLTmkz_IK2FE", "types": ["point_of_interest", "establishment"]}, "ChIJKS_61QUQdkgRbAaPqYZ4N0E": {"geometry": {"location": {"lat": 51.5230286, "lng": -0.1940163}, "viewport": {"northeast": {"lat": 51.52427103029149, "lng": -0.192816969708498}, "southwest": {"lat": 51.5215730697085, "lng": -0.195514930291502}}}, "name": "Pronto Cars London Ltd", "place_id": "ChIJKS_61QUQdkgRbAaPqYZ4N0E", "types": ["point_of_interest", "establishment"], "rating": 4.7, "user_ratings_total": 59}, "ChIJq17v1QUQdkgRKBTj2lIrHcA": {"geometry": {"location": {"lat": 51.523019, "lng": -0.1940563}, "viewport": {"northeast": {"lat": 51.5242702802915, "lng": -0.192844519708498}, "southwest": {"lat": 51.5215723197085, "lng": -0.195542480291502}}}, "name": "Key Partners International Limited", "place_id": "ChIJq17v1QUQdkgRKBTj2lIrHcA", "types": ["real_estate_agency", "point_of_interest", "establishment"]}, "ChIJKS_61QUQdkgRzNL_7JjpCSk": {"geometry": {"location": {"lat": 51.5230369, "lng": -0.1939646}, "viewport": {"northeast": {"lat": 51.5244418302915, "lng": -0.192663419708498}, "southwest": {"lat": 51.5217438697085, "lng": -0.195361380291502}}}, "name": "Alruqya Healing", "place_id": "ChIJKS_61QUQdkgRzNL_7JjpCSk", "types": ["health", "point_of_interest", "establishment"]}, "ChIJCwE5mQsRdkgRap1J1AWCDG4": {"geometry": {"location": {"lat": 51.52310610000001, "lng": -0.1945213}, "viewport": {"northeast": {"lat": 51.5244122802915, "lng": -0.1931357697084979}, "southwest": {"lat": 51.5217143197085, "lng": -0.195833730291502}}}, "name": "Beauty touch", "place_id": "ChIJCwE5mQsRdkgRap1J1AWCDG4", "types": ["beauty_salon", "point_of_interest", "establishment"], "rating": 4.5, "user_ratings_total": 2}, "ChIJSVhH06UadkgR-lI4RW0abrg": {"geometry": {"location": {"lat": 51.522992, "lng": -0.1941207}, "viewport": {"northeast": {"lat": 51.52439843029149, "lng": -0.192804819708498}, "southwest": {"lat": 51.52170046970849, "lng": -0.195502780291502}}}, "name": "Cafe Nour", "place_id": "ChIJSVhH06UadkgR-lI4RW0abrg", "types": ["cafe", "food", "point_of_interest", "establishment"], "rating": 4.2, "user_ratings_total": 27}, "ChIJayLQqWIRdkgRfx-dG74Q_m8": {"geometry": {"location": {"lat": 51.52339929999999, "lng": -0.1946041}, "viewport": {"northeast": {"lat": 51.52478668029149, "lng": -0.193326869708498}, "southwest": {"lat": 51.5220887197085, "lng": -0.196024830291502}}}, "name": "Paddington Glass", "place_id": "ChIJayLQqWIRdkgRfx-dG74Q_m8", "types": ["point_of_interest", "establishment"]}, "ChIJY_IjzgUQdkgRs3NG2c-ZQUg": {"geometry": {"location": {"lat": 51.523124, "lng": -0.194677}, "viewport": {"northeast": {"lat": 51.5244065802915, "lng": -0.193362369708498}, "southwest": {"lat": 51.5217086197085, "lng": -0.196060330291502}}}, "name": "Golden Scissors", "place_id": "ChIJY_IjzgUQdkgRs3NG2c-ZQUg", "types": ["hair_care", "health", "point_of_interest", "establishment"], "rating": 4.7, "user_ratings_total": 190}, "ChIJO1lO2gUQdkgRGr0roWgyjOw": {"geometry": {"location": {"lat": 51.5235263, "lng": -0.1944908}, "viewport": {"northeast": {"lat": 51.5249041302915, "lng": -0.1931956697084979}, "southwest": {"lat": 51.5222061697085, "lng": -0.195893630291502}}}, "name": "Moreno Wines", "place_id": "ChIJO1lO2gUQdkgRGr0roWgyjOw", "types": ["point_of_interest", "establishment"]}, "ChIJWQABwBYRdkgRJ-QZREmS8EA": {"geometry": {"location": {"lat": 51.5235263, "lng": -0.1944908}, "viewport": {"northeast": {"lat": 51.5249041302915, "lng": -0.1931956697084979}, "southwest": {"lat": 51.5222061697085, "lng": -0.195893630291502}}}, "name": "Flora Fine Wines", "place_id": "ChIJWQABwBYRdkgRJ-QZREmS8EA", "types": ["bar", "food", "point_of_interest", "establishment"], "rating": 4.9, "user_ratings_total": 21}, "ChIJezZBt8ARdkgRzMVWT0KBdv4": {"geometry": {"location": {"lat": 51.52346319999999, "lng": -0.1945898}, "viewport": {"northeast": {"lat": 51.52483498029149, "lng": -0.193284569708498}, "southwest": {"lat": 51.5221370197085, "lng": -0.195982530291502}}}, "name": "Dream Home", "place_id": "ChIJezZBt8ARdkgRzMVWT0KBdv4", "types": ["general_contractor", "point_of_interest", "establishment"]}, "ChIJ-zWPgAYQdkgRhKtW_W2VUaY": {"geometry": {"location": {"lat": 51.5229526, "lng": -0.1943192}, "viewport": {"northeast": {"lat": 51.5242593802915, "lng": -0.193019219708498}, "southwest": {"lat": 51.5215614197085, "lng": -0.195717180291502}}}, "name": "West Nine Food & Wine", "place_id": "ChIJ-zWPgAYQdkgRhKtW_W2VUaY", "types": ["convenience_store", "food", "point_of_interest", "store", "establishment"], "rating": 3.8, "user_ratings_total": 8}, "ChIJ12Y9dgYQdkgRRIhBI4DaUyI": {"geometry": {"location": {"lat": 51.5236351, "lng": -0.1939434}, "viewport": {"northeast": {"lat": 51.5248157302915, "lng": -0.192438119708498}, "southwest": {"lat": 51.5221177697085, "lng": -0.195136080291502}}}, "name": "Lina Minimarket", "place_id": "ChIJ12Y9dgYQdkgRRIhBI4DaUyI", "types": ["store", "point_of_interest", "establishment"]}, "ChIJI9xsegYQdkgRpzzbI11KFWI": {"geometry": {"location": {"lat": 51.523352, "lng": -0.1935651999999999}, "viewport": {"northeast": {"lat": 51.5246925302915, "lng": -0.1922024197084979}, "southwest": {"lat": 51.5219945697085, "lng": -0.194900380291502}}}, "name": "ubitricity Charging Station", "place_id": "ChIJI9xsegYQdkgRpzzbI11KFWI", "types": ["point_of_interest", "establishment"]}, "ChIJD-D81QUQdkgRhk4SmMAl1l4": {"geometry": {"location": {"lat": 51.52291530000001, "lng": -0.1942251}, "viewport": {"northeast": {"lat": 51.5242220302915, "lng": -0.192935469708498}, "southwest": {"lat": 51.52152406970851, "lng": -0.195633430291502}}}, "name": "Masjid Khalil", "place_id": "ChIJD-D81QUQdkgRhk4SmMAl1l4", "types": ["mosque", "place_of_worship", "point_of_interest", "establishment"], "rating": 5, "user_ratings_total": 25}, "ChIJZ-MBfwYQdkgRADfuxGiq5lw": {"geometry": {"location": {"lat": 51.5229064, "lng": -0.1942068}, "viewport": {"northeast": {"lat": 51.5242128302915, "lng": -0.192917569708498}, "southwest": {"lat": 51.5215148697085, "lng": -0.195615530291502}}}, "name": "A I B Fashion", "place_id": "ChIJZ-MBfwYQdkgRADfuxGiq5lw", "types": ["clothing_store", "point_of_interest", "store", "establishment"]}, "ChIJWePp2wUQdkgRwb99pny0Q8Q": {"geometry": {"location": {"lat": 51.523637, "lng": -0.19443}, "viewport": {"northeast": {"lat": 51.52499993029149, "lng": -0.193099869708498}, "southwest": {"lat": 51.52230196970849, "lng": -0.195797830291502}}}, "name": "ubitricity Charging Station", "place_id": "ChIJWePp2wUQdkgRwb99pny0Q8Q", "types": ["point_of_interest", "establishment"]}, "ChIJea0fzgUQdkgRy3pl94c11QA": {"geometry": {"location": {"lat": 51.52313269999999, "lng": -0.1947375}, "viewport": {"northeast": {"lat": 51.5244213302915, "lng": -0.193430919708498}, "southwest": {"lat": 51.5217233697085, "lng": -0.196128880291502}}}, "name": "World Band Event Catering", "place_id": "ChIJea0fzgUQdkgRy3pl94c11QA", "types": ["point_of_interest", "establishment"]}, "ChIJmSBjmE8RdkgRVcYX2dGTh0Y": {"geometry": {"location": {"lat": 51.52317310000001, "lng": -0.1947635}, "viewport": {"northeast": {"lat": 51.5244471302915, "lng": -0.193464369708498}, "southwest": {"lat": 51.52174916970851, "lng": -0.196162330291502}}}, "name": "Direct Airport Cars", "place_id": "ChIJmSBjmE8RdkgRVcYX2dGTh0Y", "types": ["point_of_interest", "establishment"], "rating": 5, "user_ratings_total": 1}, "ChIJnRDKOscRdkgRDTDOuq7P3WM": {"geometry": {"location": {"lat": 51.52317310000001, "lng": -0.1947635}, "viewport": {"northeast": {"lat": 51.5244471302915, "lng": -0.193464369708498}, "southwest": {"lat": 51.52174916970851, "lng": -0.196162330291502}}}, "name": "Open House Maida Vale", "place_id": "ChIJnRDKOscRdkgRDTDOuq7P3WM", "types": ["point_of_interest", "establishment"], "rating": 4.6, "user_ratings_total": 9}, "ChIJl5b51AUQdkgRRz6u8tF1L-o": {"geometry": {"location": {"lat": 51.522885, "lng": -0.1942076}, "viewport": {"northeast": {"lat": 51.5242058302915, "lng": -0.192917819708498}, "southwest": {"lat": 51.5215078697085, "lng": -0.195615780291502}}}, "name": "Asian Muslim Cultural Centre", "place_id": "ChIJl5b51AUQdkgRRz6u8tF1L-o", "types": ["mosque", "place_of_worship", "point_of_interest", "establishment"], "rating": 4.8, "user_ratings_total": 49}, "ChIJAQAAAAUQdkgRXaseyP-IHbk": {"geometry": {"location": {"lat": 51.5228529, "lng": -0.1940913}, "viewport": {"northeast": {"lat": 51.5241479802915, "lng": -0.192787319708498}, "southwest": {"lat": 51.5214500197085, "lng": -0.195485280291502}}}, "name": "Smart Beauty Salon", "place_id": "ChIJAQAAAAUQdkgRXaseyP-IHbk", "types": ["hair_care", "point_of_interest", "establishment"], "rating": 4.4, "user_ratings_total": 52}, "ChIJw2XmjxoQdkgRarKUO8nzbPQ": {"geometry": {"location": {"lat": 51.52336420000001, "lng": -0.1948462}, "viewport": {"northeast": {"lat": 51.52470608029149, "lng": -0.1934814697084979}, "southwest": {"lat": 51.5220081197085, "lng": -0.196179430291502}}}, "name": "Katryan Property Services Ltd", "place_id": "ChIJw2XmjxoQdkgRarKUO8nzbPQ", "types": ["real_estate_agency", "point_of_interest", "establishment"], "rating": 3.3, "user_ratings_total": 4}, "ChIJ6_Dp1AUQdkgRAyeSsg7vb1M": {"geometry": {"location": {"lat": 51.5228175, "lng": -0.1942415}, "viewport": {"northeast": {"lat": 51.52416618029149, "lng": -0.192892919708498}, "southwest": {"lat": 51.5214682197085, "lng": -0.195590880291502}}}, "name": "Sutherland Avenue Harrow Rd", "place_id": "ChIJ6_Dp1AUQdkgRAyeSsg7vb1M", "types": ["transit_station", "point_of_interest", "establishment"]}, "ChIJjVw3-PERdkgRn7JzsXx2gJ8": {"geometry": {"location": {"lat": 51.52281359999999, "lng": -0.1940242}, "viewport": {"northeast": {"lat": 51.52410983029149, "lng": -0.1927265697084979}, "southwest": {"lat": 51.52141186970849, "lng": -0.195424530291502}}}, "name": "Vale cafe", "place_id": "ChIJjVw3-PERdkgRn7JzsXx2gJ8", "types": ["cafe", "food", "point_of_interest", "establishment"], "rating": 4.5, "user_ratings_total": 26}, "ChIJyfUh0wUQdkgRjQVyl4r50Ko": {"geometry": {"location": {"lat": 51.52286099999999, "lng": -0.194528}, "viewport": {"northeast": {"lat": 51.5242219302915, "lng": -0.193165169708498}, "southwest": {"lat": 51.5215239697085, "lng": -0.195863130291502}}}, "name": "Sutherland Avenue Westbourne Green (Stop RF)", "place_id": "ChIJyfUh0wUQdkgRjQVyl4r50Ko", "types": ["transit_station", "point_of_interest", "establishment"]}, "ChIJx6j2DSARdkgR6b21b7TcsyE": {"geometry": {"location": {"lat": 51.5231933, "lng": -0.1949478}, "viewport": {"northeast": {"lat": 51.52447893029151, "lng": -0.193640919708498}, "southwest": {"lat": 51.52178096970851, "lng": -0.196338880291502}}}, "name": "Large Skip Hire", "place_id": "ChIJx6j2DSARdkgR6b21b7TcsyE", "types": ["point_of_interest", "establishment"]}, "ChIJR6Jh1QUQdkgR5IG6SKO2B0g": {"geometry": {"location": {"lat": 51.522766, "lng": -0.194099}, "viewport": {"northeast": {"lat": 51.5241005802915, "lng": -0.192775369708498}, "southwest": {"lat": 51.5214026197085, "lng": -0.195473330291502}}}, "name": "Sutherland Avenue Westbourne Green (Stop RA)", "place_id": "ChIJR6Jh1QUQdkgR5IG6SKO2B0g", "types": ["transit_station", "point_of_interest", "establishment"], "rating": 5, "user_ratings_total": 1}, "ChIJTc-QfgYQdkgRIhZoBSud5C0": {"geometry": {"location": {"lat": 51.52292449999999, "lng": -0.1935419}, "viewport": {"northeast": {"lat": 51.52424188029149, "lng": -0.192172169708498}, "southwest": {"lat": 51.52154391970849, "lng": -0.194870130291502}}}, "name": "Mantis World", "place_id": "ChIJTc-QfgYQdkgRIhZoBSud5C0", "types": ["point_of_interest", "establishment"], "rating": 4.7, "user_ratings_total": 3}, "ChIJq6OOxQUQdkgRIjOZM04x-O8": {"geometry": {"location": {"lat": 51.5234134, "lng": -0.1949817}, "viewport": {"northeast": {"lat": 51.5247364802915, "lng": -0.193575669708498}, "southwest": {"lat": 51.5220385197085, "lng": -0.196273630291502}}}, "name": "Nicky Clarke", "place_id": "ChIJq6OOxQUQdkgRIjOZM04x-O8", "types": ["point_of_interest", "establishment"]}, "ChIJq6OOxQUQdkgRVSdgikAA71M": {"geometry": {"location": {"lat": 51.5234134, "lng": -0.1949817}, "viewport": {"northeast": {"lat": 51.5247364802915, "lng": -0.193575669708498}, "southwest": {"lat": 51.5220385197085, "lng": -0.196273630291502}}}, "name": "Andy's Barber", "place_id": "ChIJq6OOxQUQdkgRVSdgikAA71M", "types": ["hair_care", "health", "point_of_interest", "establishment"], "rating": 4.2, "user_ratings_total": 15}, "ChIJtffAgwYQdkgRJ1k7fmNIRmI": {"geometry": {"location": {"lat": 51.52233075696287, "lng": -0.1937197815458039}, "viewport": {"northeast": {"lat": 51.5236786802915, "lng": -0.192373719708498}, "southwest": {"lat": 51.5209807197085, "lng": -0.195071680291502}}}, "name": "332-302 Harrow Rd", "place_id": "ChIJtffAgwYQdkgRJ1k7fmNIRmI", "types": ["route"]}, "ChIJ8WFTJQQQdkgRDbnKXxO3BkE": {"geometry": {"location": {"lat": 51.52203349999999, "lng": -0.1946751}, "viewport": {"northeast": {"lat": 51.52346848029149, "lng": -0.193384219708498}, "southwest": {"lat": 51.52077051970849, "lng": -0.196082180291502}}}, "name": "CRM Ltd", "place_id": "ChIJ8WFTJQQQdkgRDbnKXxO3BkE", "types": ["lodging", "point_of_interest", "establishment"], "rating": 5, "user_ratings_total": 1}, "ChIJkWDeujQbdkgRDcvDrMO19no": {"geometry": {"location": {"lat": 51.5220464, "lng": -0.194695}, "viewport": {"northeast": {"lat": 51.5234736802915, "lng": -0.193398919708498}, "southwest": {"lat": 51.5207757197085, "lng": -0.196096880291502}}}, "name": "blue20 Hair", "place_id": "ChIJkWDeujQbdkgRDcvDrMO19no", "types": ["hair_care", "health", "point_of_interest", "establishment"], "rating": 5, "user_ratings_total": 5}, "ChIJwyKs9Xin2EcRfrxRqBtMgU4": {"geometry": {"location": {"lat": 51.5222476, "lng": -0.1935072}, "viewport": {"northeast": {"lat": 51.5235783302915, "lng": -0.192212669708498}, "southwest": {"lat": 51.5208803697085, "lng": -0.194910630291502}}}, "name": "City Pumps Ltd", "place_id": "ChIJwyKs9Xin2EcRfrxRqBtMgU4", "types": ["point_of_interest", "establishment"]}, "ChIJ8z6BgwYQdkgR3Fd3tYG7lVw": {"geometry": {"location": {"lat": 51.52229639999999, "lng": -0.193504}, "viewport": {"northeast": {"lat": 51.52362123029149, "lng": -0.192227069708498}, "southwest": {"lat": 51.52092326970849, "lng": -0.194925030291502}}}, "name": "My English Class Online", "place_id": "ChIJ8z6BgwYQdkgR3Fd3tYG7lVw", "types": ["point_of_interest", "establishment"]}, "ChIJMSplRbEadkgRxKsQQblbnq8": {"geometry": {"location": {"lat": 51.5224242, "lng": -0.1935708}, "viewport": {"northeast": {"lat": 51.5237432802915, "lng": -0.192310919708498}, "southwest": {"lat": 51.52104531970851, "lng": -0.195008880291502}}}, "name": "Chicken Valley", "place_id": "ChIJMSplRbEadkgRxKsQQblbnq8", "types": ["meal_takeaway", "restaurant", "food", "point_of_interest", "establishment"], "rating": 3.6, "user_ratings_total": 69}, "ChIJ-zWPgAYQdkgRKbK3PowmTpg": {"geometry": {"location": {"lat": 51.522381, "lng": -0.193596}, "viewport": {"northeast": {"lat": 51.5237082302915, "lng": -0.1923118197084979}, "southwest": {"lat": 51.5210102697085, "lng": -0.195009780291502}}}, "name": "Blue Ginger", "place_id": "ChIJ-zWPgAYQdkgRKbK3PowmTpg", "types": ["meal_takeaway", "restaurant", "food", "point_of_interest", "establishment"], "rating": 3.4, "user_ratings_total": 84}, "ChIJD1LQLwQQdkgR2azx2Qx6bg4": {"geometry": {"location": {"lat": 51.522207, "lng": -0.194685}, "viewport": {"northeast": {"lat": 51.52354933029149, "lng": -0.193331519708498}, "southwest": {"lat": 51.5208513697085, "lng": -0.196029480291502}}}, "name": "Weddings By Bespoke", "place_id": "ChIJD1LQLwQQdkgR2azx2Qx6bg4", "types": ["point_of_interest", "establishment"], "rating": 5, "user_ratings_total": 12}, "ChIJO7tshAYQdkgRmuokeZMGFPQ": {"geometry": {"location": {"lat": 51.52231949999999, "lng": -0.1935527}, "viewport": {"northeast": {"lat": 51.5236480302915, "lng": -0.192264669708498}, "southwest": {"lat": 51.5209500697085, "lng": -0.194962630291502}}}, "name": "Cafe Limo", "place_id": "ChIJO7tshAYQdkgRmuokeZMGFPQ", "types": ["cafe", "food", "point_of_interest", "establishment"]}, "ChIJ__9ahAYQdkgRh8jl65YNGzk": {"geometry": {"location": {"lat": 51.5222717, "lng": -0.1934917}, "viewport": {"northeast": {"lat": 51.52362068029149, "lng": -0.192142719708498}, "southwest": {"lat": 51.52092271970849, "lng": -0.194840680291502}}}, "name": "JACK BENNETT", "place_id": "ChIJ__9ahAYQdkgRh8jl65YNGzk", "types": ["point_of_interest", "establishment"]}, "ChIJ__9ahAYQdkgRtLZdfP1ndec": {"geometry": {"location": {"lat": 51.5222717, "lng": -0.1934917}, "viewport": {"northeast": {"lat": 51.5235976802915, "lng": -0.192211269708498}, "southwest": {"lat": 51.5208997197085, "lng": -0.194909230291502}}}, "name": "TOM CROOKE", "place_id": "ChIJ__9ahAYQdkgRtLZdfP1ndec", "types": ["point_of_interest", "establishment"]}, "ChIJV8F4M7sRdkgRE6MWjN_FeEg": {"geometry": {"location": {"lat": 51.52238319999999, "lng": -0.1935476}, "viewport": {"northeast": {"lat": 51.52370388029149, "lng": -0.192282919708498}, "southwest": {"lat": 51.5210059197085, "lng": -0.194980880291502}}}, "name": "Rapid Skip Hire Maida Hill", "place_id": "ChIJV8F4M7sRdkgRE6MWjN_FeEg", "types": ["point_of_interest", "establishment"]}, "ChIJc-_CRgQQdkgR0Vm4zNFNnJk": {"geometry": {"location": {"lat": 51.522583, "lng": -0.1943985}, "viewport": {"northeast": {"lat": 51.5237710302915, "lng": -0.1931592697084979}, "southwest": {"lat": 51.52107306970851, "lng": -0.195857230291502}}}, "name": "Carlton Gate Marketing Co Ltd", "place_id": "ChIJc-_CRgQQdkgR0Vm4zNFNnJk", "types": ["real_estate_agency", "point_of_interest", "establishment"], "rating": 4.1, "user_ratings_total": 28}, "ChIJGRDmxLURdkgReIs_F5qpdB0": {"geometry": {"location": {"lat": 51.5224242, "lng": -0.1935708}, "viewport": {"northeast": {"lat": 51.5237432802915, "lng": -0.192310919708498}, "southwest": {"lat": 51.52104531970851, "lng": -0.195008880291502}}}, "name": "Chicken valley harrow road", "place_id": "ChIJGRDmxLURdkgReIs_F5qpdB0", "types": ["restaurant", "food", "point_of_interest", "establishment"], "rating": 3, "user_ratings_total": 2}, "ChIJXWlCzCQRdkgRA7shkRQBwMY": {"geometry": {"location": {"lat": 51.5224807, "lng": -0.193634}, "viewport": {"northeast": {"lat": 51.52379793029149, "lng": -0.192366469708498}, "southwest": {"lat": 51.5210999697085, "lng": -0.195064430291502}}}, "name": "UPS Access Point", "place_id": "ChIJXWlCzCQRdkgRA7shkRQBwMY", "types": ["point_of_interest", "establishment"]}, "ChIJoVGuHbIRdkgRsxehsUON4aw": {"geometry": {"location": {"lat": 51.5225167, "lng": -0.1936923}, "viewport": {"northeast": {"lat": 51.5238404802915, "lng": -0.1924195697084979}, "southwest": {"lat": 51.5211425197085, "lng": -0.195117530291502}}}, "name": "Tannourine Lebanese Restaurant", "place_id": "ChIJoVGuHbIRdkgRsxehsUON4aw", "types": ["restaurant", "food", "point_of_interest", "establishment"], "rating": 4.5, "user_ratings_total": 47}, "ChIJp2w6gQYQdkgRnU6uECQt_Oc": {"geometry": {"location": {"lat": 51.5225128, "lng": -0.1936703}, "viewport": {"northeast": {"lat": 51.5239018302915, "lng": -0.192356669708498}, "southwest": {"lat": 51.52120386970851, "lng": -0.195054630291502}}}, "name": "Sara Foods", "place_id": "ChIJp2w6gQYQdkgRnU6uECQt_Oc", "types": ["restaurant", "food", "point_of_interest", "establishment"]}, "ChIJ05lFgQYQdkgR4XUcEFaSHtA": {"geometry": {"location": {"lat": 51.5224857, "lng": -0.1936173}, "viewport": {"northeast": {"lat": 51.5237998802915, "lng": -0.192357569708498}, "southwest": {"lat": 51.5211019197085, "lng": -0.195055530291502}}}, "name": "Best Buy Supermarket", "place_id": "ChIJ05lFgQYQdkgR4XUcEFaSHtA", "types": ["meal_takeaway", "restaurant", "food", "point_of_interest", "establishment"], "rating": 3.3, "user_ratings_total": 3}, "ChIJgak6C_URdkgRkTwnCeXCZQY": {"geometry": {"location": {"lat": 51.5225287, "lng": -0.1936908}, "viewport": {"northeast": {"lat": 51.5239089302915, "lng": -0.192369319708498}, "southwest": {"lat": 51.5212109697085, "lng": -0.195067280291502}}}, "name": "School", "place_id": "ChIJgak6C_URdkgRkTwnCeXCZQY", "types": ["school", "point_of_interest", "establishment"]}, "ChIJY0JBLxwRdkgRGVWVuUrtvEg": {"geometry": {"location": {"lat": 51.522544, "lng": -0.193648}, "viewport": {"northeast": {"lat": 51.52385908029151, "lng": -0.192401619708498}, "southwest": {"lat": 51.52116111970851, "lng": -0.195099580291502}}}, "name": "\u0645\u0637\u0639\u0645 \u062a\u0646\u0648\u0631\u064a\u0646", "place_id": "ChIJY0JBLxwRdkgRGVWVuUrtvEg", "types": ["restaurant", "food", "point_of_interest", "establishment"], "rating": 4.7, "user_ratings_total": 3}, "ChIJS-gcLQQQdkgRA4vObb4O1AE": {"geometry": {"location": {"lat": 51.5226142, "lng": -0.1945561}, "viewport": {"northeast": {"lat": 51.5237866302915, "lng": -0.1932380697084979}, "southwest": {"lat": 51.5210886697085, "lng": -0.195936030291502}}}, "name": "Home of Dissertations - Trusted Dissertation Help & Essay Help Assignment Writing Service, PhD Proposal & Thesis Proofreading", "place_id": "ChIJS-gcLQQQdkgRA4vObb4O1AE", "types": ["point_of_interest", "establishment"], "rating": 4.8, "user_ratings_total": 30}, "ChIJ5Q5rgAYQdkgRWN58Qjrl9-o": {"geometry": {"location": {"lat": 51.522657, "lng": -0.1938051}, "viewport": {"northeast": {"lat": 51.5239733802915, "lng": -0.192533169708498}, "southwest": {"lat": 51.5212754197085, "lng": -0.195231130291502}}}, "name": "Kranepeg Ltd", "place_id": "ChIJ5Q5rgAYQdkgRWN58Qjrl9-o", "types": ["finance", "point_of_interest", "establishment"]}, "ChIJ56ZYgAYQdkgRCM7XgjbhQG8": {"geometry": {"location": {"lat": 51.522657, "lng": -0.1938051}, "viewport": {"northeast": {"lat": 51.5239733802915, "lng": -0.192533169708498}, "southwest": {"lat": 51.5212754197085, "lng": -0.195231130291502}}}, "name": "Regal", "place_id": "ChIJ56ZYgAYQdkgRCM7XgjbhQG8", "types": ["point_of_interest", "establishment"]}, "ChIJvbY93toRdkgRa_AXKuCuSMc": {"geometry": {"location": {"lat": 51.5226613, "lng": -0.1937936}, "viewport": {"northeast": {"lat": 51.52397553029149, "lng": -0.192527419708498}, "southwest": {"lat": 51.5212775697085, "lng": -0.195225380291502}}}, "name": "Velvet Wax", "place_id": "ChIJvbY93toRdkgRa_AXKuCuSMc", "types": ["beauty_salon", "hair_care", "point_of_interest", "establishment"], "rating": 4.7, "user_ratings_total": 28}, "ChIJffTDdbkRdkgRk8qPJB-JRFM": {"geometry": {"location": {"lat": 51.5226613, "lng": -0.1937935}, "viewport": {"northeast": {"lat": 51.52397553029149, "lng": -0.192527369708498}, "southwest": {"lat": 51.5212775697085, "lng": -0.195225330291502}}}, "name": "Universal IT Services", "place_id": "ChIJffTDdbkRdkgRk8qPJB-JRFM", "types": ["point_of_interest", "establishment"]}, "ChIJEYjDwQUQdkgRpSrQtDItFRg": {"geometry": {"location": {"lat": 51.52423390017968, "lng": -0.1957450995647394}, "viewport": {"northeast": {"lat": 51.52558288029149, "lng": -0.194396119708498}, "southwest": {"lat": 51.5228849197085, "lng": -0.197094080291502}}}, "name": "31-19 Goldney Rd", "place_id": "ChIJEYjDwQUQdkgRpSrQtDItFRg", "types": ["route"]}, "ChIJkdt7XBARdkgRVoS6M-2AlUU": {"geometry": {"location": {"lat": 51.524382, "lng": -0.195594}, "viewport": {"northeast": {"lat": 51.52566118029151, "lng": -0.194329569708498}, "southwest": {"lat": 51.52296321970851, "lng": -0.1970275302915021}}}, "name": "Mike The Bike Guy", "place_id": "ChIJkdt7XBARdkgRVoS6M-2AlUU", "types": ["point_of_interest", "establishment"], "rating": 3.7, "user_ratings_total": 3}, "ChIJdV2H7AUQdkgR8whht2PwSj8": {"geometry": {"location": {"lat": 51.5242696, "lng": -0.1955464}, "viewport": {"northeast": {"lat": 51.5258000802915, "lng": -0.193983219708498}, "southwest": {"lat": 51.5231021197085, "lng": -0.196681180291502}}}, "name": "Edbrooke Rd Playground", "place_id": "ChIJdV2H7AUQdkgR8whht2PwSj8", "types": ["point_of_interest", "establishment"], "rating": 4.2, "user_ratings_total": 24}, "ChIJgQhBtgUQdkgRWr13uSa9l8c": {"geometry": {"location": {"lat": 51.52315044167744, "lng": -0.1955598512237988}, "viewport": {"northeast": {"lat": 51.5244998802915, "lng": -0.194210719708498}, "southwest": {"lat": 51.5218019197085, "lng": -0.196908680291502}}}, "name": "374-362 Harrow Rd", "place_id": "ChIJgQhBtgUQdkgRWr13uSa9l8c", "types": ["route"]}, "ChIJleTirwUQdkgRAoWfbVNv8So": {"geometry": {"location": {"lat": 51.52333789999999, "lng": -0.1962126}, "viewport": {"northeast": {"lat": 51.5246342802915, "lng": -0.194882819708498}, "southwest": {"lat": 51.5219363197085, "lng": -0.197580780291502}}}, "name": "Harrow Apartments", "place_id": "ChIJleTirwUQdkgRAoWfbVNv8So", "types": ["lodging", "point_of_interest", "establishment"], "rating": 3.9, "user_ratings_total": 10}, "ChIJW0VfuwUQdkgR_Ew1YnF6-8Q": {"geometry": {"location": {"lat": 51.5237197, "lng": -0.196117}, "viewport": {"northeast": {"lat": 51.52503223029149, "lng": -0.1947812697084979}, "southwest": {"lat": 51.5223342697085, "lng": -0.197479230291502}}}, "name": "Shannon Traditional Upholstery", "place_id": "ChIJW0VfuwUQdkgR_Ew1YnF6-8Q", "types": ["furniture_store", "home_goods_store", "point_of_interest", "store", "establishment"]}, "ChIJG4R2pQUQdkgRttBf1px0_DU": {"geometry": {"location": {"lat": 51.5232803, "lng": -0.1958389}, "viewport": {"northeast": {"lat": 51.5245819302915, "lng": -0.1944938697084979}, "southwest": {"lat": 51.5218839697085, "lng": -0.197191830291502}}}, "name": "Foundation Estates", "place_id": "ChIJG4R2pQUQdkgRttBf1px0_DU", "types": ["real_estate_agency", "point_of_interest", "establishment"]}, "ChIJG4R2pQUQdkgR4MGFypDd_XQ": {"geometry": {"location": {"lat": 51.52331100000001, "lng": -0.1957479999999999}, "viewport": {"northeast": {"lat": 51.52459243029151, "lng": -0.1944124697084979}, "southwest": {"lat": 51.52189446970851, "lng": -0.197110430291502}}}, "name": "Costa's hairdressing", "place_id": "ChIJG4R2pQUQdkgR4MGFypDd_XQ", "types": ["hair_care", "health", "point_of_interest", "establishment"], "rating": 3.8, "user_ratings_total": 90}, "ChIJv4HgPsoadkgR70t4VE2pOT0": {"geometry": {"location": {"lat": 51.52332209999999, "lng": -0.1961205}, "viewport": {"northeast": {"lat": 51.52461968029149, "lng": -0.194786019708498}, "southwest": {"lat": 51.52192171970849, "lng": -0.197483980291502}}}, "name": "Smart Specialists International", "place_id": "ChIJv4HgPsoadkgR70t4VE2pOT0", "types": ["point_of_interest", "establishment"]}, "ChIJl7j6TagadkgROTgku0fS5jw": {"geometry": {"location": {"lat": 51.5235211, "lng": -0.195809}, "viewport": {"northeast": {"lat": 51.5249066802915, "lng": -0.194445569708498}, "southwest": {"lat": 51.5222087197085, "lng": -0.197143530291502}}}, "name": "MADEINBRITALY", "place_id": "ChIJl7j6TagadkgROTgku0fS5jw", "types": ["art_gallery", "point_of_interest", "establishment"], "rating": 5, "user_ratings_total": 2}, "ChIJP9nlrwUQdkgR1sx_OQh9cR4": {"geometry": {"location": {"lat": 51.5232386, "lng": -0.1955024}, "viewport": {"northeast": {"lat": 51.5245417802915, "lng": -0.194165719708498}, "southwest": {"lat": 51.5218438197085, "lng": -0.196863680291502}}}, "name": "Open Age", "place_id": "ChIJP9nlrwUQdkgR1sx_OQh9cR4", "types": ["point_of_interest", "establishment"], "rating": 4, "user_ratings_total": 2}, "ChIJUZnFtwUQdkgRb18a6xKNRFg": {"geometry": {"location": {"lat": 51.52328079999999, "lng": -0.1954745}, "viewport": {"northeast": {"lat": 51.52456198029149, "lng": -0.194146269708498}, "southwest": {"lat": 51.5218640197085, "lng": -0.196844230291502}}}, "name": "Sams palace", "place_id": "ChIJUZnFtwUQdkgRb18a6xKNRFg", "types": ["cafe", "food", "point_of_interest", "store", "establishment"], "rating": 4.9, "user_ratings_total": 15}, "ChIJW0VfuwUQdkgRUsoL8x1g3oY": {"geometry": {"location": {"lat": 51.52367659999999, "lng": -0.1958191}, "viewport": {"northeast": {"lat": 51.5249895802915, "lng": -0.194484319708498}, "southwest": {"lat": 51.5222916197085, "lng": -0.197182280291502}}}, "name": "Olympics News", "place_id": "ChIJW0VfuwUQdkgRUsoL8x1g3oY", "types": ["point_of_interest", "store", "establishment"]}, "ChIJOdhAuQUQdkgR-v3M5GQLWHQ": {"geometry": {"location": {"lat": 51.5236512, "lng": -0.1957557999999999}, "viewport": {"northeast": {"lat": 51.5249736802915, "lng": -0.194417319708498}, "southwest": {"lat": 51.5222757197085, "lng": -0.197115280291502}}}, "name": "Sulgrave Estates", "place_id": "ChIJOdhAuQUQdkgR-v3M5GQLWHQ", "types": ["point_of_interest", "establishment"]}, "ChIJYdlRMgUQdkgRUNvgiQQi48c": {"geometry": {"location": {"lat": 51.52366669999999, "lng": -0.1958454}, "viewport": {"northeast": {"lat": 51.52498833029151, "lng": -0.194507069708498}, "southwest": {"lat": 51.52229036970851, "lng": -0.197205030291502}}}, "name": "Honor Riley", "place_id": "ChIJYdlRMgUQdkgRUNvgiQQi48c", "types": ["general_contractor", "point_of_interest", "establishment"]}, "ChIJYT7G4OIRdkgRnkiU3F55Ihc": {"geometry": {"location": {"lat": 51.52343609999999, "lng": -0.1952685}, "viewport": {"northeast": {"lat": 51.52482283029149, "lng": -0.193904619708498}, "southwest": {"lat": 51.5221248697085, "lng": -0.196602580291502}}}, "name": "M C Stone Ltd", "place_id": "ChIJYT7G4OIRdkgRnkiU3F55Ihc", "types": ["furniture_store", "home_goods_store", "point_of_interest", "store", "establishment"], "rating": 3.7, "user_ratings_total": 7}, "ChIJ_XQBtwUQdkgRS8N2HTvXT4M": {"geometry": {"location": {"lat": 51.5232681, "lng": -0.1956895}, "viewport": {"northeast": {"lat": 51.5245656302915, "lng": -0.194325469708498}, "southwest": {"lat": 51.5218676697085, "lng": -0.197023430291502}}}, "name": "Pars Persian Cuisine", "place_id": "ChIJ_XQBtwUQdkgRS8N2HTvXT4M", "types": ["meal_delivery", "meal_takeaway", "restaurant", "food", "point_of_interest", "establishment"], "rating": 4.2, "user_ratings_total": 161}, "ChIJ0Q3KoMURdkgRu5v8QIbkNYY": {"geometry": {"location": {"lat": 51.5233003, "lng": -0.1959624}, "viewport": {"northeast": {"lat": 51.5246000802915, "lng": -0.194560769708498}, "southwest": {"lat": 51.5219021197085, "lng": -0.197258730291502}}}, "name": "Creative Commerce", "place_id": "ChIJ0Q3KoMURdkgRu5v8QIbkNYY", "types": ["point_of_interest", "clothing_store", "store", "establishment"]}, "ChIJJ3jZSYoRdkgRjBzqJUNMs-c": {"geometry": {"location": {"lat": 51.5232982, "lng": -0.1959677}, "viewport": {"northeast": {"lat": 51.5245992802915, "lng": -0.194563019708498}, "southwest": {"lat": 51.5219013197085, "lng": -0.197260980291502}}}, "name": "Mashti", "place_id": "ChIJJ3jZSYoRdkgRjBzqJUNMs-c", "types": ["restaurant", "food", "point_of_interest", "establishment"], "rating": 5, "user_ratings_total": 3}, "ChIJy-LysAUQdkgRBbh1_xJ2CD4": {"geometry": {"location": {"lat": 51.52329690000001, "lng": -0.1959836}, "viewport": {"northeast": {"lat": 51.5245994302915, "lng": -0.194647719708498}, "southwest": {"lat": 51.5219014697085, "lng": -0.197345680291502}}}, "name": "Sufi Lounge", "place_id": "ChIJy-LysAUQdkgRBbh1_xJ2CD4", "types": ["point_of_interest", "establishment"]}, "ChIJE_oTsAUQdkgRQwFS6Mszp9M": {"geometry": {"location": {"lat": 51.5233265, "lng": -0.1961311}, "viewport": {"northeast": {"lat": 51.5246225302915, "lng": -0.1947971197084979}, "southwest": {"lat": 51.5219245697085, "lng": -0.197495080291502}}}, "name": "The Offices", "place_id": "ChIJE_oTsAUQdkgRQwFS6Mszp9M", "types": ["transit_station", "point_of_interest", "establishment"]}, "ChIJJXjlaqERdkgRTltWVnwg9fU": {"geometry": {"location": {"lat": 51.5234233, "lng": -0.196069}, "viewport": {"northeast": {"lat": 51.5246690802915, "lng": -0.194749219708498}, "southwest": {"lat": 51.5219711197085, "lng": -0.197447180291502}}}, "name": "The Enlighten Academy\u2122", "place_id": "ChIJJXjlaqERdkgRTltWVnwg9fU", "types": ["point_of_interest", "establishment"], "rating": 5, "user_ratings_total": 2}, "ChIJG4R2pQUQdkgR1xaUwIX4Pko": {"geometry": {"location": {"lat": 51.5232768, "lng": -0.1955608}, "viewport": {"northeast": {"lat": 51.5245648802915, "lng": -0.194230469708498}, "southwest": {"lat": 51.5218669197085, "lng": -0.196928430291502}}}, "name": "Pizza kebab chicken Centre", "place_id": "ChIJG4R2pQUQdkgR1xaUwIX4Pko", "types": ["meal_delivery", "meal_takeaway", "restaurant", "food", "point_of_interest", "establishment"], "rating": 3.7, "user_ratings_total": 30}, "ChIJLWeSrwUQdkgRo9u55AlDmUI": {"geometry": {"location": {"lat": 51.5233405, "lng": -0.1963078}, "viewport": {"northeast": {"lat": 51.5246420302915, "lng": -0.194976119708498}, "southwest": {"lat": 51.5219440697085, "lng": -0.197674080291502}}}, "name": "Le Diamont", "place_id": "ChIJLWeSrwUQdkgRo9u55AlDmUI", "types": ["point_of_interest", "establishment"]}, "ChIJAQBUpQUQdkgRhXRKjKmz2D0": {"geometry": {"location": {"lat": 51.52335720000001, "lng": -0.1963033}, "viewport": {"northeast": {"lat": 51.5246504802915, "lng": -0.194974619708498}, "southwest": {"lat": 51.52195251970851, "lng": -0.197672580291502}}}, "name": "Selma", "place_id": "ChIJAQBUpQUQdkgRhXRKjKmz2D0", "types": ["cafe", "food", "point_of_interest", "establishment"], "rating": 4.5, "user_ratings_total": 8}, "ChIJma0stgUQdkgRqoDnz_mYTRA": {"geometry": {"location": {"lat": 51.5232225, "lng": -0.1954912}, "viewport": {"northeast": {"lat": 51.52453278029149, "lng": -0.194154069708498}, "southwest": {"lat": 51.52183481970849, "lng": -0.196852030291502}}}, "name": "Joury Lounge", "place_id": "ChIJma0stgUQdkgRqoDnz_mYTRA", "types": ["point_of_interest", "establishment"]}, "ChIJofCvugUQdkgRgMhYN6Xgja0": {"geometry": {"location": {"lat": 51.5235184, "lng": -0.195631}, "viewport": {"northeast": {"lat": 51.5248673802915, "lng": -0.1942820197084979}, "southwest": {"lat": 51.5221694197085, "lng": -0.196979980291502}}}, "name": "Mews Garage", "place_id": "ChIJofCvugUQdkgRgMhYN6Xgja0", "types": ["car_repair", "point_of_interest", "establishment"], "rating": 4.9, "user_ratings_total": 18}, "ChIJRzyGzwUQdkgRl9HRaKo7OnY": {"geometry": {"location": {"lat": 51.5235777, "lng": -0.1959912}, "viewport": {"northeast": {"lat": 51.52494128029151, "lng": -0.1946369197084979}, "southwest": {"lat": 51.52224331970851, "lng": -0.197334880291502}}}, "name": "Rentalondon", "place_id": "ChIJRzyGzwUQdkgRl9HRaKo7OnY", "types": ["real_estate_agency", "point_of_interest", "establishment"], "rating": 4, "user_ratings_total": 1}, "ChIJffF1tgUQdkgR7isuOD8wf48": {"geometry": {"location": {"lat": 51.5230379, "lng": -0.1962204}, "viewport": {"northeast": {"lat": 51.5244786302915, "lng": -0.194845469708498}, "southwest": {"lat": 51.5217806697085, "lng": -0.197543430291502}}}, "name": "291 Harrow Road Care Home", "place_id": "ChIJffF1tgUQdkgR7isuOD8wf48", "types": ["health", "point_of_interest", "establishment"], "rating": 4, "user_ratings_total": 2}, "ChIJSS0wtuARdkgRGNMvEyStFHY": {"geometry": {"location": {"lat": 51.523263, "lng": -0.1953957}, "viewport": {"northeast": {"lat": 51.5245482802915, "lng": -0.194066219708498}, "southwest": {"lat": 51.52185031970851, "lng": -0.196764180291502}}}, "name": "Westcolt Surveyors", "place_id": "ChIJSS0wtuARdkgRGNMvEyStFHY", "types": ["point_of_interest", "establishment"], "rating": 3.1, "user_ratings_total": 19}, "ChIJP1E3n-URdkgRIbHFyxhRWfM": {"geometry": {"location": {"lat": 51.523263, "lng": -0.1953957}, "viewport": {"northeast": {"lat": 51.5245482802915, "lng": -0.194066219708498}, "southwest": {"lat": 51.52185031970851, "lng": -0.196764180291502}}}, "name": "Ecorp International", "place_id": "ChIJP1E3n-URdkgRIbHFyxhRWfM", "types": ["real_estate_agency", "point_of_interest", "establishment"]}, "ChIJAQA8uQUQdkgRlwhtJ36uDhk": {"geometry": {"location": {"lat": 51.52365409999999, "lng": -0.1957218}, "viewport": {"northeast": {"lat": 51.5249706802915, "lng": -0.194385519708498}, "southwest": {"lat": 51.5222727197085, "lng": -0.1970834802915021}}}, "name": "Wingrove Watts Block Management Ltd", "place_id": "ChIJAQA8uQUQdkgRlwhtJ36uDhk", "types": ["point_of_interest", "establishment"]}, "ChIJoY14ToIbdkgRBQlYTapxRmQ": {"geometry": {"location": {"lat": 51.5236847, "lng": -0.1958256}, "viewport": {"northeast": {"lat": 51.5249943302915, "lng": -0.194492169708498}, "southwest": {"lat": 51.5222963697085, "lng": -0.197190130291502}}}, "name": "Studio Faeger", "place_id": "ChIJoY14ToIbdkgRBQlYTapxRmQ", "types": ["home_goods_store", "general_contractor", "point_of_interest", "store", "establishment"]}, "ChIJB2d9TNAZdkgR56ruvHkyzok": {"geometry": {"location": {"lat": 51.5236157, "lng": -0.1955194}, "viewport": {"northeast": {"lat": 51.52493758029149, "lng": -0.194181119708498}, "southwest": {"lat": 51.5222396197085, "lng": -0.196879080291502}}}, "name": "Deep Clean Carpet Cleaning", "place_id": "ChIJB2d9TNAZdkgR56ruvHkyzok", "types": ["laundry", "general_contractor", "point_of_interest", "establishment"], "rating": 4.8, "user_ratings_total": 128}, "ChIJf7ajxQUQdkgRxl7dMOrbkLM": {"geometry": {"location": {"lat": 51.5237731, "lng": -0.1957111}, "viewport": {"northeast": {"lat": 51.52503283029149, "lng": -0.194397369708498}, "southwest": {"lat": 51.5223348697085, "lng": -0.197095330291502}}}, "name": "The Yaa Centre", "place_id": "ChIJf7ajxQUQdkgRxl7dMOrbkLM", "types": ["point_of_interest", "establishment"], "rating": 4.4, "user_ratings_total": 79}, "ChIJSUSmxQUQdkgR5d2ofnSvtTQ": {"geometry": {"location": {"lat": 51.52342520000001, "lng": -0.1951017}, "viewport": {"northeast": {"lat": 51.5247270302915, "lng": -0.193654719708498}, "southwest": {"lat": 51.52202906970851, "lng": -0.1963526802915021}}}, "name": "The Ravenous Pizza & Fish Bar", "place_id": "ChIJSUSmxQUQdkgR5d2ofnSvtTQ", "types": ["meal_takeaway", "restaurant", "food", "point_of_interest", "establishment"], "rating": 4.1, "user_ratings_total": 70}, "ChIJsStI3o8RdkgRB4m-e4TkpHU": {"geometry": {"location": {"lat": 51.52374549999999, "lng": -0.1963092}, "viewport": {"northeast": {"lat": 51.52505863029149, "lng": -0.194973219708498}, "southwest": {"lat": 51.52236066970849, "lng": -0.197671180291502}}}, "name": "Floodmaker", "place_id": "ChIJsStI3o8RdkgRB4m-e4TkpHU", "types": ["point_of_interest", "establishment"], "rating": 5, "user_ratings_total": 1}, "ChIJn-b-eQUQdkgRJBJ3wiJgAY0": {"geometry": {"location": {"lat": 51.52340879999999, "lng": -0.1950758}, "viewport": {"northeast": {"lat": 51.52471758029149, "lng": -0.193643269708498}, "southwest": {"lat": 51.52201961970849, "lng": -0.196341230291502}}}, "name": "Shu Jun Healthcare", "place_id": "ChIJn-b-eQUQdkgRJBJ3wiJgAY0", "types": ["health", "point_of_interest", "establishment"], "rating": 4.2, "user_ratings_total": 20}, "ChIJTZZEtQUQdkgRXkfzLvAEB4Q": {"geometry": {"location": {"lat": 51.522792, "lng": -0.1954857}, "viewport": {"northeast": {"lat": 51.52414195437373, "lng": -0.1941659701892461}, "southwest": {"lat": 51.52144399379073, "lng": -0.1968639307722501}}}, "name": "Parking lot", "place_id": "ChIJTZZEtQUQdkgRXkfzLvAEB4Q", "types": ["parking", "premise", "point_of_interest", "establishment"]}, "ChIJfRyzWwQQdkgRA9qMOMH91aU": {"geometry": {"location": {"lat": 51.5219487, "lng": -0.1963311}, "viewport": {"northeast": {"lat": 51.52354003029149, "lng": -0.195094269708498}, "southwest": {"lat": 51.52084206970849, "lng": -0.1977922302915021}}}, "name": "Walkies4u", "place_id": "ChIJfRyzWwQQdkgRA9qMOMH91aU", "types": ["point_of_interest", "store", "establishment"]}, "ChIJv5GLTAQQdkgRVl0-6cCARPI": {"geometry": {"location": {"lat": 51.5225806, "lng": -0.1959188}, "viewport": {"northeast": {"lat": 51.52391143029149, "lng": -0.194590319708498}, "southwest": {"lat": 51.5212134697085, "lng": -0.197288280291502}}}, "name": "VocalWorks London", "place_id": "ChIJv5GLTAQQdkgRVl0-6cCARPI", "types": ["electronics_store", "home_goods_store", "point_of_interest", "store", "establishment"]}, "ChIJHRhm0wcQdkgRUwQlbiv2t6o": {"geometry": {"location": {"lat": 51.524721, "lng": -0.1899966}, "viewport": {"northeast": {"lat": 51.5261000802915, "lng": -0.188608469708498}, "southwest": {"lat": 51.5234021197085, "lng": -0.191306430291502}}}, "name": "Windmill Montessori Nursery School", "place_id": "ChIJHRhm0wcQdkgRUwQlbiv2t6o", "types": ["school", "point_of_interest", "establishment"], "rating": 4, "user_ratings_total": 2}, "ChIJa40SLgYQdkgRaZCQy-CRxEQ": {"geometry": {"location": {"lat": 51.5247826, "lng": -0.1914781}, "viewport": {"northeast": {"lat": 51.52616958029149, "lng": -0.190052569708498}, "southwest": {"lat": 51.52347161970849, "lng": -0.192750530291502}}}, "name": "Hurrah Pictures Limited", "place_id": "ChIJa40SLgYQdkgRaZCQy-CRxEQ", "types": ["point_of_interest", "establishment"]}, "ChIJa40SLgYQdkgRHql7OyoL6LM": {"geometry": {"location": {"lat": 51.5247826, "lng": -0.1914781}, "viewport": {"northeast": {"lat": 51.52616958029149, "lng": -0.190052569708498}, "southwest": {"lat": 51.52347161970849, "lng": -0.192750530291502}}}, "name": "Rhapsody Opera", "place_id": "ChIJa40SLgYQdkgRHql7OyoL6LM", "types": ["point_of_interest", "establishment"]}, "ChIJ2Xd0SAYQdkgRyWcyEbWgQWU": {"geometry": {"location": {"lat": 51.52392225052817, "lng": -0.1918644009726711}, "viewport": {"northeast": {"lat": 51.5252712302915, "lng": -0.190515419708498}, "southwest": {"lat": 51.5225732697085, "lng": -0.193213380291502}}}, "name": "65-49 Sutherland Ave", "place_id": "ChIJ2Xd0SAYQdkgRyWcyEbWgQWU", "types": ["route"]}, "ChIJxamlvm0RdkgRtVjgQGCNcX8": {"geometry": {"location": {"lat": 51.5238837, "lng": -0.1915979}, "viewport": {"northeast": {"lat": 51.52528293029149, "lng": -0.190295219708498}, "southwest": {"lat": 51.52258496970849, "lng": -0.192993180291502}}}, "name": "Private Yoga London", "place_id": "ChIJxamlvm0RdkgRtVjgQGCNcX8", "types": ["school", "point_of_interest", "establishment"], "rating": 5, "user_ratings_total": 1}, "ChIJf9xzWc8RdkgRErBLIvKkB2U": {"geometry": {"location": {"lat": 51.52279590000001, "lng": -0.1918397000000001}, "viewport": {"northeast": {"lat": 51.5243123802915, "lng": -0.190619869708498}, "southwest": {"lat": 51.5216144197085, "lng": -0.193317830291502}}}, "name": "Waterfront Apartments", "place_id": "ChIJf9xzWc8RdkgRErBLIvKkB2U", "types": ["lodging", "point_of_interest", "establishment"], "rating": 5, "user_ratings_total": 1}, "ChIJ-fTmdgMRdkgRoVxADnzneIU": {"geometry": {"location": {"lat": 51.5227328, "lng": -0.1919898}, "viewport": {"northeast": {"lat": 51.5242566802915, "lng": -0.190775719708498}, "southwest": {"lat": 51.5215587197085, "lng": -0.193473680291502}}}, "name": "Boat 25 October 2020", "place_id": "ChIJ-fTmdgMRdkgRoVxADnzneIU", "types": ["lodging", "point_of_interest", "establishment"]}, "ChIJW0h5zUkRdkgR9hVG21Q-BwE": {"geometry": {"location": {"lat": 51.5227313, "lng": -0.1920895}, "viewport": {"northeast": {"lat": 51.52408028029151, "lng": -0.190740519708498}, "southwest": {"lat": 51.52138231970851, "lng": -0.1934384802915021}}}, "name": "Mentorink Limited", "place_id": "ChIJW0h5zUkRdkgR9hVG21Q-BwE", "types": ["point_of_interest", "establishment"]}, "ChIJUSLxDgYQdkgRQQKmo1h4FOM": {"geometry": {"location": {"lat": 51.52448482207051, "lng": -0.1934600952141952}, "viewport": {"northeast": {"lat": 51.52583488029149, "lng": -0.192116819708498}, "southwest": {"lat": 51.52313691970849, "lng": -0.194814780291502}}}, "name": "51 Marylands Rd", "place_id": "ChIJUSLxDgYQdkgRQQKmo1h4FOM", "types": ["route"]}, "ChIJ9a11aQYQdkgROmDzKpg2sBY": {"geometry": {"location": {"lat": 51.52363304207664, "lng": -0.1928358679463774}, "viewport": {"northeast": {"lat": 51.5249662302915, "lng": -0.191463369708498}, "southwest": {"lat": 51.5222682697085, "lng": -0.194161330291502}}}, "name": "Sutherland Avenue", "place_id": "ChIJ9a11aQYQdkgROmDzKpg2sBY", "types": ["route"]}, "ChIJjeczE_kFdkgRfSVwyHuLj2c": {"geometry": {"location": {"lat": 51.52362239999999, "lng": -0.1932405}, "viewport": {"northeast": {"lat": 51.5249280302915, "lng": -0.191816669708498}, "southwest": {"lat": 51.5222300697085, "lng": -0.194514630291502}}}, "name": "Your Mortgage Experts", "place_id": "ChIJjeczE_kFdkgRfSVwyHuLj2c", "types": ["finance", "point_of_interest", "establishment"], "rating": 5, "user_ratings_total": 33}, "ChIJF7u-gQYQdkgRTBJ6b54SkC4": {"geometry": {"location": {"lat": 51.52249630000509, "lng": -0.1938703499691077}, "viewport": {"northeast": {"lat": 51.5238452802915, "lng": -0.192521369708498}, "southwest": {"lat": 51.5211473197085, "lng": -0.195219330291502}}}, "name": "Harrow Road", "place_id": "ChIJF7u-gQYQdkgRTBJ6b54SkC4", "types": ["route"]}, "ChIJcyrIgAYQdkgRF7z9muZydWE": {"geometry": {"location": {"lat": 51.5226853, "lng": -0.1936334}, "viewport": {"northeast": {"lat": 51.5240191802915, "lng": -0.192271069708498}, "southwest": {"lat": 51.5213212197085, "lng": -0.194969030291502}}}, "name": "John Spary Associates (JSA)", "place_id": "ChIJcyrIgAYQdkgRF7z9muZydWE", "types": ["point_of_interest", "establishment"]}, "ChIJt56kfQYQdkgRSXSDfCuqeLA": {"geometry": {"location": {"lat": 51.5228843, "lng": -0.1934984}, "viewport": {"northeast": {"lat": 51.5242240802915, "lng": -0.192174519708498}, "southwest": {"lat": 51.5215261197085, "lng": -0.1948724802915021}}}, "name": "Re.Sustain Ltd", "place_id": "ChIJt56kfQYQdkgRSXSDfCuqeLA", "types": ["point_of_interest", "establishment"]}, "ChIJmx1EN7YcdkgRo-gMljuLoeo": {"geometry": {"location": {"lat": 51.5228843, "lng": -0.1934984}, "viewport": {"northeast": {"lat": 51.5242240802915, "lng": -0.192174519708498}, "southwest": {"lat": 51.5215261197085, "lng": -0.1948724802915021}}}, "name": "Oh Baby London", "place_id": "ChIJmx1EN7YcdkgRo-gMljuLoeo", "types": ["point_of_interest", "clothing_store", "store", "establishment"], "rating": 5, "user_ratings_total": 1}, "ChIJ-zWPgAYQdkgRLXCBAKYEMU0": {"geometry": {"location": {"lat": 51.5226948, "lng": -0.1938649}, "viewport": {"northeast": {"lat": 51.52400988029151, "lng": -0.192588769708498}, "southwest": {"lat": 51.52131191970851, "lng": -0.195286730291502}}}, "name": "Bento by Gourmet Oriental", "place_id": "ChIJ-zWPgAYQdkgRLXCBAKYEMU0", "types": ["meal_takeaway", "restaurant", "food", "point_of_interest", "establishment"], "rating": 3.6, "user_ratings_total": 75}, "ChIJcyrIgAYQdkgR76n9tRbMndg": {"geometry": {"location": {"lat": 51.52276010000001, "lng": -0.193648}, "viewport": {"northeast": {"lat": 51.5240570802915, "lng": -0.192253119708498}, "southwest": {"lat": 51.5213591197085, "lng": -0.194951080291502}}}, "name": "Mad Cow Films", "place_id": "ChIJcyrIgAYQdkgR76n9tRbMndg", "types": ["point_of_interest", "establishment"], "rating": 5, "user_ratings_total": 1}, "ChIJPeoFhwYQdkgRYw6F6bKLZK8": {"geometry": {"location": {"lat": 51.5226058, "lng": -0.1934641}, "viewport": {"northeast": {"lat": 51.52398618029149, "lng": -0.192142819708498}, "southwest": {"lat": 51.5212882197085, "lng": -0.194840780291502}}}, "name": "Westway Lodge", "place_id": "ChIJPeoFhwYQdkgRYw6F6bKLZK8", "types": ["point_of_interest", "establishment"], "rating": 4, "user_ratings_total": 2}, "ChIJxcgOgAYQdkgRf1GZZzT2PLk": {"geometry": {"location": {"lat": 51.5227128, "lng": -0.1939441}, "viewport": {"northeast": {"lat": 51.5240519802915, "lng": -0.1926619197084979}, "southwest": {"lat": 51.5213540197085, "lng": -0.195359880291502}}}, "name": "Sumer Health Ltd", "place_id": "ChIJxcgOgAYQdkgRf1GZZzT2PLk", "types": ["pharmacy", "health", "point_of_interest", "store", "establishment"], "rating": 3.9, "user_ratings_total": 11}, "ChIJN2sulwYQdkgRCDe3lHFGc-s": {"geometry": {"location": {"lat": 51.52175249364704, "lng": -0.1931283370804187}, "viewport": {"northeast": {"lat": 51.5231021302915, "lng": -0.191778119708498}, "southwest": {"lat": 51.52040416970851, "lng": -0.194476080291502}}}, "name": "Harrow Road", "place_id": "ChIJN2sulwYQdkgRCDe3lHFGc-s", "types": ["route"]}, "ChIJqwTf2gUQdkgREFAsYdANkdM": {"geometry": {"location": {"lat": 51.52354510008777, "lng": -0.1946284003367129}, "viewport": {"northeast": {"lat": 51.5248940802915, "lng": -0.193279419708498}, "southwest": {"lat": 51.5221961197085, "lng": -0.1959773802915021}}}, "name": "13-3 Marylands Rd", "place_id": "ChIJqwTf2gUQdkgREFAsYdANkdM", "types": ["route"]}, "ChIJBwgMwQUQdkgRqJOkeCQ94us": {"geometry": {"location": {"lat": 51.52386019999999, "lng": -0.1952141}, "viewport": {"northeast": {"lat": 51.52525178029149, "lng": -0.193815519708498}, "southwest": {"lat": 51.52255381970849, "lng": -0.196513480291502}}}, "name": "Rexstone Ltd", "place_id": "ChIJBwgMwQUQdkgRqJOkeCQ94us", "types": ["point_of_interest", "establishment"]}, "ChIJ-7t4G98PdkgR2wmXhUS_Rks": {"geometry": {"location": {"lat": 51.5235821, "lng": -0.1950117}, "viewport": {"northeast": {"lat": 51.5248814302915, "lng": -0.1936823197084979}, "southwest": {"lat": 51.5221834697085, "lng": -0.196380280291502}}}, "name": "Ebony Steelband Trust", "place_id": "ChIJ-7t4G98PdkgR2wmXhUS_Rks", "types": ["point_of_interest", "establishment"], "rating": 5, "user_ratings_total": 3}, "ChIJjbZMxAUQdkgR_e68yifLJ3A": {"geometry": {"location": {"lat": 51.5235542, "lng": -0.1949799}, "viewport": {"northeast": {"lat": 51.5248645302915, "lng": -0.193646969708498}, "southwest": {"lat": 51.5221665697085, "lng": -0.196344930291502}}}, "name": "Rumshop Cultural Club", "place_id": "ChIJjbZMxAUQdkgR_e68yifLJ3A", "types": ["point_of_interest", "establishment"]}, "ChIJjbZMxAUQdkgRTtnybgZ2-wQ": {"geometry": {"location": {"lat": 51.5235542, "lng": -0.1949799}, "viewport": {"northeast": {"lat": 51.5248645302915, "lng": -0.193646969708498}, "southwest": {"lat": 51.5221665697085, "lng": -0.196344930291502}}}, "name": "THE IMPROV!SATION ACADEMY", "place_id": "ChIJjbZMxAUQdkgRTtnybgZ2-wQ", "types": ["point_of_interest", "establishment"]}, "ChIJq0ob6gUQdkgRrrb3CqYEtig": {"geometry": {"location": {"lat": 51.52408639999999, "lng": -0.1951323}, "viewport": {"northeast": {"lat": 51.5253894302915, "lng": -0.193828919708498}, "southwest": {"lat": 51.5226914697085, "lng": -0.196526880291502}}}, "name": "Elmfield House", "place_id": "ChIJq0ob6gUQdkgRrrb3CqYEtig", "types": ["lodging", "point_of_interest", "establishment"], "rating": 4, "user_ratings_total": 2}, "ChIJedcIMMgRdkgRP4g_quCm18g": {"geometry": {"location": {"lat": 51.5235424, "lng": -0.1949962}, "viewport": {"northeast": {"lat": 51.52485943029149, "lng": -0.193660419708498}, "southwest": {"lat": 51.5221614697085, "lng": -0.196358380291502}}}, "name": "Perform Maida Vale", "place_id": "ChIJedcIMMgRdkgRP4g_quCm18g", "types": ["university", "point_of_interest", "establishment"]}, "ChIJ2RTTzQUQdkgRl7uIc3OrEOQ": {"geometry": {"location": {"lat": 51.52299145005676, "lng": -0.1947466499201968}, "viewport": {"northeast": {"lat": 51.5243404302915, "lng": -0.193397669708498}, "southwest": {"lat": 51.5216424697085, "lng": -0.196095630291502}}}, "name": "Harrow Road", "place_id": "ChIJ2RTTzQUQdkgRl7uIc3OrEOQ", "types": ["route"]}, "ChIJ99RhNgQQdkgR4J_-vCvKvMQ": {"geometry": {"location": {"lat": 51.52205963827303, "lng": -0.195499712648637}, "viewport": {"northeast": {"lat": 51.52367133029149, "lng": -0.1938984500000001}, "southwest": {"lat": 51.5209733697085, "lng": -0.19661985}}}, "name": "Admiral Walk", "place_id": "ChIJ99RhNgQQdkgR4J_-vCvKvMQ", "types": ["route"]}, "ChIJ2xsGrwUQdkgRkjqKFlftpFQ": {"geometry": {"location": {"lat": 51.52325240018942, "lng": -0.1963907998618539}, "viewport": {"northeast": {"lat": 51.52460138029149, "lng": -0.195041819708498}, "southwest": {"lat": 51.52190341970849, "lng": -0.197739780291502}}}, "name": "301-303 Harrow Rd", "place_id": "ChIJ2xsGrwUQdkgRkjqKFlftpFQ", "types": ["route"]}}}