{"E00023741": {"ChIJPaxHqv8PdkgRNFWQFgJnX8E": {"geometry": {"location": {"lat": 51.512360107045, "lng": -0.1906879765061712}, "viewport": {"northeast": {"lat": 51.5137082802915, "lng": -0.189338719708498}, "southwest": {"lat": 51.5110103197085, "lng": -0.1920366802915021}}}, "name": "Moscow Road", "place_id": "ChIJPaxHqv8PdkgRNFWQFgJnX8E", "types": ["route"]}, "ChIJD6CAS_4PdkgR9pGj0Vt4dw8": {"geometry": {"location": {"lat": 51.5129861, "lng": -0.191007}, "viewport": {"northeast": {"lat": 51.5143781302915, "lng": -0.189778569708498}, "southwest": {"lat": 51.5116801697085, "lng": -0.192476530291502}}}, "name": "Central Hotel", "place_id": "ChIJD6CAS_4PdkgR9pGj0Vt4dw8", "types": ["lodging", "point_of_interest", "establishment"], "rating": 2.8, "user_ratings_total": 142}, "ChIJabd5VP4PdkgReqVE5Soe5cI": {"geometry": {"location": {"lat": 51.51253060000001, "lng": -0.1912523}, "viewport": {"northeast": {"lat": 51.5137591302915, "lng": -0.1898974697084979}, "southwest": {"lat": 51.5110611697085, "lng": -0.192595430291502}}}, "name": "Secret Yoga Sutra", "place_id": "ChIJabd5VP4PdkgReqVE5Soe5cI", "types": ["school", "point_of_interest", "establishment"], "rating": 5, "user_ratings_total": 1}, "ChIJ4efhUv4PdkgRD-3CExOE0bA": {"geometry": {"location": {"lat": 51.5128673, "lng": -0.1908919}, "viewport": {"northeast": {"lat": 51.5141998802915, "lng": -0.189678769708498}, "southwest": {"lat": 51.5115019197085, "lng": -0.192376730291502}}}, "name": "Millside Heating services Ltd", "place_id": "ChIJ4efhUv4PdkgRD-3CExOE0bA", "types": ["point_of_interest", "establishment"], "rating": 5, "user_ratings_total": 1}, "ChIJT_Cv_P4PdkgRikTYnI2-f88": {"geometry": {"location": {"lat": 51.51218309999999, "lng": -0.1912024}, "viewport": {"northeast": {"lat": 51.5135492302915, "lng": -0.189739719708498}, "southwest": {"lat": 51.5108512697085, "lng": -0.192437680291502}}}, "name": "Paradigm Communications", "place_id": "ChIJT_Cv_P4PdkgRikTYnI2-f88", "types": ["point_of_interest", "clothing_store", "store", "establishment"]}, "ChIJ1dhUTP4PdkgRBi0jYSddz2o": {"geometry": {"location": {"lat": 51.51275709999999, "lng": -0.1913652}, "viewport": {"northeast": {"lat": 51.5142424302915, "lng": -0.190056469708498}, "southwest": {"lat": 51.5115444697085, "lng": -0.192754430291502}}}, "name": "Princes Square Hotel", "place_id": "ChIJ1dhUTP4PdkgRBi0jYSddz2o", "types": ["lodging", "point_of_interest", "establishment"], "rating": 3.6, "user_ratings_total": 318}, "ChIJM_3Csf8PdkgR76HMLOIXnjw": {"geometry": {"location": {"lat": 51.5130004, "lng": -0.1903257}, "viewport": {"northeast": {"lat": 51.5142785802915, "lng": -0.188827819708498}, "southwest": {"lat": 51.5115806197085, "lng": -0.191525780291502}}}, "name": "PureGym London Bayswater", "place_id": "ChIJM_3Csf8PdkgR76HMLOIXnjw", "types": ["gym", "health", "point_of_interest", "establishment"], "rating": 3.5, "user_ratings_total": 352}, "ChIJXW-SVv4PdkgR-3bUCOKPc7U": {"geometry": {"location": {"lat": 51.512415, "lng": -0.191416}, "viewport": {"northeast": {"lat": 51.5136828302915, "lng": -0.190020219708498}, "southwest": {"lat": 51.5109848697085, "lng": -0.192718180291502}}}, "name": "Greek Orthodox Cathedral of the Divine Wisdom (Hagia Sophia)", "place_id": "ChIJXW-SVv4PdkgR-3bUCOKPc7U", "types": ["tourist_attraction", "church", "place_of_worship", "point_of_interest", "establishment"], "rating": 4.8, "user_ratings_total": 348}, "ChIJB2pfqP8PdkgRQ95FXce_43I": {"geometry": {"location": {"lat": 51.5124921, "lng": -0.1908616}, "viewport": {"northeast": {"lat": 51.5137676802915, "lng": -0.189487369708498}, "southwest": {"lat": 51.5110697197085, "lng": -0.192185330291502}}}, "name": "Moscow Road Substation", "place_id": "ChIJB2pfqP8PdkgRQ95FXce_43I", "types": ["point_of_interest", "establishment"]}, "ChIJLS1wi6YPdkgRl2o79CXzay0": {"geometry": {"location": {"lat": 51.51244, "lng": -0.19096}, "viewport": {"northeast": {"lat": 51.5137855802915, "lng": -0.189639019708498}, "southwest": {"lat": 51.5110876197085, "lng": -0.192336980291502}}}, "name": "Santander Cycles", "place_id": "ChIJLS1wi6YPdkgRl2o79CXzay0", "types": ["point_of_interest", "establishment"], "rating": 5, "user_ratings_total": 1}, "ChIJF8U-qv8PdkgRn5MPCCTJAlo": {"geometry": {"location": {"lat": 51.5122704, "lng": -0.1906666}, "viewport": {"northeast": {"lat": 51.5136639802915, "lng": -0.189330619708498}, "southwest": {"lat": 51.5109660197085, "lng": -0.192028580291502}}}, "name": "Taskon Dry Cleaner and laundry in London, Bayswater", "place_id": "ChIJF8U-qv8PdkgRn5MPCCTJAlo", "types": ["laundry", "point_of_interest", "establishment"], "rating": 4.5, "user_ratings_total": 35}, "ChIJz8QAW1YPdkgRL-S4yzGNZ70": {"geometry": {"location": {"lat": 51.5121668, "lng": -0.1906934}, "viewport": {"northeast": {"lat": 51.5134971802915, "lng": -0.189468169708498}, "southwest": {"lat": 51.51079921970851, "lng": -0.192166130291502}}}, "name": "Pc and Laptop Repairs", "place_id": "ChIJz8QAW1YPdkgRL-S4yzGNZ70", "types": ["point_of_interest", "establishment"], "rating": 5, "user_ratings_total": 3}, "ChIJxULMp_8PdkgRxy6BqffurEo": {"geometry": {"location": {"lat": 51.512386, "lng": -0.1899733}, "viewport": {"northeast": {"lat": 51.51375898029149, "lng": -0.188629719708498}, "southwest": {"lat": 51.5110610197085, "lng": -0.191327680291502}}}, "name": "ubitricity Charging Station", "place_id": "ChIJxULMp_8PdkgRxy6BqffurEo", "types": ["point_of_interest", "establishment"]}, "ChIJ1eTxWf4PdkgRlCzyIoqKdvk": {"geometry": {"location": {"lat": 51.51249, "lng": -0.1914327}, "viewport": {"northeast": {"lat": 51.5137204302915, "lng": -0.190028019708498}, "southwest": {"lat": 51.5110224697085, "lng": -0.192725980291502}}}, "name": "Kumon Maths & English", "place_id": "ChIJ1eTxWf4PdkgRlCzyIoqKdvk", "types": ["secondary_school", "university", "school", "point_of_interest", "establishment"], "rating": 5, "user_ratings_total": 2}, "ChIJB-vG__4PdkgRie0M6XXFGjs": {"geometry": {"location": {"lat": 51.51211579999999, "lng": -0.1910472999999999}, "viewport": {"northeast": {"lat": 51.51347273029149, "lng": -0.1896455197084979}, "southwest": {"lat": 51.51077476970849, "lng": -0.192343480291502}}}, "name": "Mc Cue", "place_id": "ChIJB-vG__4PdkgRie0M6XXFGjs", "types": ["point_of_interest", "establishment"]}, "ChIJ1TiMVv4PdkgRQMR-bEIG750": {"geometry": {"location": {"lat": 51.512429, "lng": -0.1914801}, "viewport": {"northeast": {"lat": 51.51368358029151, "lng": -0.190086769708498}, "southwest": {"lat": 51.51098561970851, "lng": -0.1927847302915021}}}, "name": "Agios Fanourios", "place_id": "ChIJ1TiMVv4PdkgRQMR-bEIG750", "types": ["point_of_interest", "establishment"]}, "ChIJ-2KzivsbdkgRa1BjpmwuB0k": {"geometry": {"location": {"lat": 51.5128005, "lng": -0.1899659}, "viewport": {"northeast": {"lat": 51.5141548802915, "lng": -0.188588519708498}, "southwest": {"lat": 51.5114569197085, "lng": -0.191286480291502}}}, "name": "Personal training by Silvia Lozano", "place_id": "ChIJ-2KzivsbdkgRa1BjpmwuB0k", "types": ["health", "point_of_interest", "establishment"], "rating": 5, "user_ratings_total": 5}, "ChIJd9ffB9sPdkgRTTculeRYrFw": {"geometry": {"location": {"lat": 51.5130197, "lng": -0.1909875}, "viewport": {"northeast": {"lat": 51.5144019302915, "lng": -0.189763319708498}, "southwest": {"lat": 51.5117039697085, "lng": -0.1924612802915021}}}, "name": "Yumtaz Lotus Bites", "place_id": "ChIJd9ffB9sPdkgRTTculeRYrFw", "types": ["food", "health", "point_of_interest", "store", "establishment"], "rating": 5, "user_ratings_total": 21}, "ChIJ-ypWqJgPdkgR_8BJSeretKg": {"geometry": {"location": {"lat": 51.5129854, "lng": -0.1902189}, "viewport": {"northeast": {"lat": 51.5142715302915, "lng": -0.188774669708498}, "southwest": {"lat": 51.5115735697085, "lng": -0.191472630291502}}}, "name": "better.move", "place_id": "ChIJ-ypWqJgPdkgR_8BJSeretKg", "types": ["health", "point_of_interest", "establishment"]}, "ChIJVVWZuv8PdkgRGbZvBaRDN_I": {"geometry": {"location": {"lat": 51.5129854, "lng": -0.1902189}, "viewport": {"northeast": {"lat": 51.5142715302915, "lng": -0.188774669708498}, "southwest": {"lat": 51.5115735697085, "lng": -0.191472630291502}}}, "name": "La Fitness (Bayswater)", "place_id": "ChIJVVWZuv8PdkgRGbZvBaRDN_I", "types": ["gym", "health", "point_of_interest", "establishment"]}, "ChIJqfQjA_8PdkgRq5JAh7_xfPs": {"geometry": {"location": {"lat": 51.51154318259254, "lng": -0.1907277743363328}, "viewport": {"northeast": {"lat": 51.51289233029149, "lng": -0.189377769708498}, "southwest": {"lat": 51.51019436970849, "lng": -0.192075730291502}}}, "name": "48-10 St Petersburgh Pl", "place_id": "ChIJqfQjA_8PdkgRq5JAh7_xfPs", "types": ["route"]}, "ChIJqem1GP8PdkgR4uTPgXzr4qg": {"geometry": {"location": {"lat": 51.51111, "lng": -0.1902035000000001}, "viewport": {"northeast": {"lat": 51.5124256802915, "lng": -0.189022969708498}, "southwest": {"lat": 51.5097277197085, "lng": -0.191720930291502}}}, "name": "New West End Synagogue", "place_id": "ChIJqem1GP8PdkgR4uTPgXzr4qg", "types": ["synagogue", "tourist_attraction", "place_of_worship", "point_of_interest", "establishment"], "rating": 4.5, "user_ratings_total": 43}, "ChIJhwS6_P4PdkgRoVufguY-k5Q": {"geometry": {"location": {"lat": 51.5116731, "lng": -0.1911718}, "viewport": {"northeast": {"lat": 51.5130476802915, "lng": -0.189632819708498}, "southwest": {"lat": 51.5103497197085, "lng": -0.192330780291502}}}, "name": "Maria Montessori School - Bayswater", "place_id": "ChIJhwS6_P4PdkgRoVufguY-k5Q", "types": ["school", "point_of_interest", "establishment"]}, "ChIJe7q5_P4PdkgR_mJyIQZUgGg": {"geometry": {"location": {"lat": 51.511615, "lng": -0.191259}, "viewport": {"northeast": {"lat": 51.5129965302915, "lng": -0.1896687197084979}, "southwest": {"lat": 51.5102985697085, "lng": -0.192366680291502}}}, "name": "St Matthew's, Bayswater", "place_id": "ChIJe7q5_P4PdkgR_mJyIQZUgGg", "types": ["church", "place_of_worship", "point_of_interest", "establishment"], "rating": 4.6, "user_ratings_total": 33}, "ChIJF1zt0W8PdkgRBORGl09sLmw": {"geometry": {"location": {"lat": 51.5116997, "lng": -0.1904008}, "viewport": {"northeast": {"lat": 51.51302253029149, "lng": -0.189234769708498}, "southwest": {"lat": 51.51032456970849, "lng": -0.191932730291502}}}, "name": "Amelia Pink London", "place_id": "ChIJF1zt0W8PdkgRBORGl09sLmw", "types": ["jewelry_store", "point_of_interest", "store", "establishment"], "rating": 5, "user_ratings_total": 2}, "ChIJHf9yAf8PdkgRwH3tX6_-kyQ": {"geometry": {"location": {"lat": 51.51196789999999, "lng": -0.1906221}, "viewport": {"northeast": {"lat": 51.5132989302915, "lng": -0.189394419708498}, "southwest": {"lat": 51.5106009697085, "lng": -0.192092380291502}}}, "name": "Good London Builders", "place_id": "ChIJHf9yAf8PdkgRwH3tX6_-kyQ", "types": ["point_of_interest", "establishment"]}, "ChIJXTk1qvUPdkgRj-3_fok_ALo": {"geometry": {"location": {"lat": 51.5109532, "lng": -0.1907306}, "viewport": {"northeast": {"lat": 51.5120280802915, "lng": -0.189240569708498}, "southwest": {"lat": 51.5093301197085, "lng": -0.191938530291502}}}, "name": "Royal Dent", "place_id": "ChIJXTk1qvUPdkgRj-3_fok_ALo", "types": ["dentist", "health", "point_of_interest", "establishment"], "rating": 5, "user_ratings_total": 3}, "ChIJRz8WKf8PdkgRTKgp9a-giVQ": {"geometry": {"location": {"lat": 51.51002467225658, "lng": -0.1908272715529049}, "viewport": {"northeast": {"lat": 51.5113735302915, "lng": -0.189478269708498}, "southwest": {"lat": 51.5086755697085, "lng": -0.192176230291502}}}, "name": "Bayswater Road", "place_id": "ChIJRz8WKf8PdkgRTKgp9a-giVQ", "types": ["route"]}, "ChIJO7VMLv8PdkgRlhWmgC-2q4s": {"geometry": {"location": {"lat": 51.510377, "lng": -0.1905689}, "viewport": {"northeast": {"lat": 51.5118959302915, "lng": -0.1890968697084979}, "southwest": {"lat": 51.5091979697085, "lng": -0.191794830291502}}}, "name": "DoubleTree by Hilton Hotel London - Hyde Park", "place_id": "ChIJO7VMLv8PdkgRlhWmgC-2q4s", "types": ["lodging", "point_of_interest", "establishment"], "rating": 4.1, "user_ratings_total": 1061}, "ChIJZb24KP8PdkgRX-iXCOprr-s": {"geometry": {"location": {"lat": 51.5102594, "lng": -0.1904782}, "viewport": {"northeast": {"lat": 51.51175348029149, "lng": -0.189077019708498}, "southwest": {"lat": 51.50905551970849, "lng": -0.191774980291502}}}, "name": "Urban Meadow Cafe", "place_id": "ChIJZb24KP8PdkgRX-iXCOprr-s", "types": ["restaurant", "cafe", "food", "point_of_interest", "establishment"], "rating": 3.9, "user_ratings_total": 641}, "ChIJ0XL5ziAPdkgRD6IQymDXRCc": {"geometry": {"location": {"lat": 51.5102857, "lng": -0.1906145}, "viewport": {"northeast": {"lat": 51.5117666302915, "lng": -0.189145169708498}, "southwest": {"lat": 51.5090686697085, "lng": -0.191843130291502}}}, "name": "\u0641\u0646\u062f\u0642 \u0644\u0646\u062f\u0646", "place_id": "ChIJ0XL5ziAPdkgRD6IQymDXRCc", "types": ["lodging", "point_of_interest", "establishment"]}, "ChIJfXDtIf8PdkgR8mUAGVV0Oqc": {"geometry": {"location": {"lat": 51.5108372, "lng": -0.1906442}, "viewport": {"northeast": {"lat": 51.5121978802915, "lng": -0.189211819708498}, "southwest": {"lat": 51.5094999197085, "lng": -0.191909780291502}}}, "name": "St Olaves Court", "place_id": "ChIJfXDtIf8PdkgR8mUAGVV0Oqc", "types": ["point_of_interest", "establishment"]}, "ChIJC-BL0f4PdkgRSJeWmLtKFso": {"geometry": {"location": {"lat": 51.5099297, "lng": -0.1910666}, "viewport": {"northeast": {"lat": 51.5113187302915, "lng": -0.189701669708498}, "southwest": {"lat": 51.5086207697085, "lng": -0.192399630291502}}}, "name": "Palace Court (Stop S)", "place_id": "ChIJC-BL0f4PdkgRSJeWmLtKFso", "types": ["bus_station", "transit_station", "point_of_interest", "establishment"]}, "ChIJ12Sk2_4PdkgRPQuAJySNIgA": {"geometry": {"location": {"lat": 51.510458, "lng": -0.1914665}, "viewport": {"northeast": {"lat": 51.51182477782496, "lng": -0.1901313255248487}, "southwest": {"lat": 51.50912681724196, "lng": -0.1928292861078527}}}, "name": "Parking lot", "place_id": "ChIJ12Sk2_4PdkgRPQuAJySNIgA", "types": ["parking", "premise", "point_of_interest", "establishment"]}, "ChIJA_PhLP8PdkgRQ3xOmfdtLtg": {"geometry": {"location": {"lat": 51.5097616, "lng": -0.1904039}, "viewport": {"northeast": {"lat": 51.51104977890282, "lng": -0.1890368963539418}, "southwest": {"lat": 51.50835181831982, "lng": -0.1917348569369458}}}, "name": "Parking lot", "place_id": "ChIJA_PhLP8PdkgRQ3xOmfdtLtg", "types": ["parking", "premise", "point_of_interest", "establishment"]}, "ChIJY8VcQ_4PdkgREcn8I6evC_c": {"geometry": {"location": {"lat": 51.51295475288286, "lng": -0.1921018017019926}, "viewport": {"northeast": {"lat": 51.5143037302915, "lng": -0.1904548}, "southwest": {"lat": 51.51160576970851, "lng": -0.1937487999999999}}}, "name": "22-4 Prince's Square", "place_id": "ChIJY8VcQ_4PdkgREcn8I6evC_c", "types": ["route"]}, "ChIJLfsobVUFdkgRxt1wEwySYZc": {"geometry": {"location": {"lat": 51.5127419, "lng": -0.1926343}, "viewport": {"northeast": {"lat": 51.5141643802915, "lng": -0.1913070197084979}, "southwest": {"lat": 51.5114664197085, "lng": -0.194004980291502}}}, "name": "The Premier Notting Hill", "place_id": "ChIJLfsobVUFdkgRxt1wEwySYZc", "types": ["lodging", "point_of_interest", "establishment"], "rating": 3.7, "user_ratings_total": 404}, "ChIJwVRKZv4PdkgRBBB3-bb0gt8": {"geometry": {"location": {"lat": 51.51272290000001, "lng": -0.1928081}, "viewport": {"northeast": {"lat": 51.5141449802915, "lng": -0.191480669708498}, "southwest": {"lat": 51.51144701970851, "lng": -0.194178630291502}}}, "name": "Kensington Court Hotel Notting Hill", "place_id": "ChIJwVRKZv4PdkgRBBB3-bb0gt8", "types": ["lodging", "point_of_interest", "establishment"], "rating": 3.5, "user_ratings_total": 101}, "ChIJwVRKZv4PdkgR4IYAGpLFo3A": {"geometry": {"location": {"lat": 51.5127453, "lng": -0.1926437}, "viewport": {"northeast": {"lat": 51.51416563029149, "lng": -0.191315769708498}, "southwest": {"lat": 51.51146766970849, "lng": -0.194013730291502}}}, "name": "UniModelling", "place_id": "ChIJwVRKZv4PdkgR4IYAGpLFo3A", "types": ["point_of_interest", "establishment"]}, "ChIJqZG2Xf4PdkgRp26ZuhPAt_k": {"geometry": {"location": {"lat": 51.5125541, "lng": -0.1925053}, "viewport": {"northeast": {"lat": 51.5138706802915, "lng": -0.191146919708498}, "southwest": {"lat": 51.5111727197085, "lng": -0.193844880291502}}}, "name": "Katharine Wills Garden Design", "place_id": "ChIJqZG2Xf4PdkgRp26ZuhPAt_k", "types": ["general_contractor", "point_of_interest", "establishment"]}, "ChIJee1KYP4PdkgRYKe4n8NJi90": {"geometry": {"location": {"lat": 51.5123097, "lng": -0.1926207}, "viewport": {"northeast": {"lat": 51.51350328029149, "lng": -0.191169869708498}, "southwest": {"lat": 51.5108053197085, "lng": -0.193867830291502}}}, "name": "A&C Heating and Plumbing", "place_id": "ChIJee1KYP4PdkgRYKe4n8NJi90", "types": ["plumber", "general_contractor", "point_of_interest", "establishment"], "rating": 4.7, "user_ratings_total": 13}, "ChIJJTl6Zf4PdkgRuRhwHToPmkU": {"geometry": {"location": {"lat": 51.512745, "lng": -0.1930951}, "viewport": {"northeast": {"lat": 51.5141439302915, "lng": -0.191756719708498}, "southwest": {"lat": 51.5114459697085, "lng": -0.1944546802915021}}}, "name": "Princes Square Serviced Apartments", "place_id": "ChIJJTl6Zf4PdkgRuRhwHToPmkU", "types": ["lodging", "point_of_interest", "establishment"], "rating": 2.8, "user_ratings_total": 114}, "ChIJc6R1gpgPdkgRlhyMk18W0nc": {"geometry": {"location": {"lat": 51.512502, "lng": -0.1924636}, "viewport": {"northeast": {"lat": 51.5138674802915, "lng": -0.1911195197084979}, "southwest": {"lat": 51.5111695197085, "lng": -0.193817480291502}}}, "name": "Supermercaro", "place_id": "ChIJc6R1gpgPdkgRlhyMk18W0nc", "types": ["shopping_mall", "point_of_interest", "establishment"], "rating": 5, "user_ratings_total": 1}, "ChIJwVRKZv4PdkgRhByhDqWbDmo": {"geometry": {"location": {"lat": 51.5127453, "lng": -0.1926437}, "viewport": {"northeast": {"lat": 51.51416563029149, "lng": -0.191315769708498}, "southwest": {"lat": 51.51146766970849, "lng": -0.194013730291502}}}, "name": "London Models Wanted", "place_id": "ChIJwVRKZv4PdkgRhByhDqWbDmo", "types": ["point_of_interest", "establishment"]}, "ChIJP8hfWf4PdkgRsB_rci6J5Qs": {"geometry": {"location": {"lat": 51.51253009999999, "lng": -0.1919852}, "viewport": {"northeast": {"lat": 51.51391763029149, "lng": -0.190647419708498}, "southwest": {"lat": 51.5112196697085, "lng": -0.193345380291502}}}, "name": "PE Shirley Ltd", "place_id": "ChIJP8hfWf4PdkgRsB_rci6J5Qs", "types": ["accounting", "finance", "point_of_interest", "establishment"]}, "ChIJee1KYP4PdkgRalHngDU8tqg": {"geometry": {"location": {"lat": 51.5123097, "lng": -0.1926207}, "viewport": {"northeast": {"lat": 51.51350328029149, "lng": -0.191169869708498}, "southwest": {"lat": 51.5108053197085, "lng": -0.193867830291502}}}, "name": "Wessex Water Limited", "place_id": "ChIJee1KYP4PdkgRalHngDU8tqg", "types": ["point_of_interest", "establishment"]}, "ChIJ3W37KV0PdkgRXwGc7sivldA": {"geometry": {"location": {"lat": 51.51229290000001, "lng": -0.1926273}, "viewport": {"northeast": {"lat": 51.5137601802915, "lng": -0.191313919708498}, "southwest": {"lat": 51.5110622197085, "lng": -0.194011880291502}}}, "name": "\u05de\u05dc\u05d5\u05df", "place_id": "ChIJ3W37KV0PdkgRXwGc7sivldA", "types": ["lodging", "point_of_interest", "establishment"]}, "ChIJ867WZ_4PdkgRbyiR18ro6Qg": {"geometry": {"location": {"lat": 51.51286, "lng": -0.192608}, "viewport": {"northeast": {"lat": 51.51421368029149, "lng": -0.191260369708498}, "southwest": {"lat": 51.5115157197085, "lng": -0.193958330291502}}}, "name": "ubitricity Charging Station", "place_id": "ChIJ867WZ_4PdkgRbyiR18ro6Qg", "types": ["point_of_interest", "establishment"]}, "ChIJRbD1Bo8PdkgRCI3pKCM-XuU": {"geometry": {"location": {"lat": 51.5127764, "lng": -0.192818}, "viewport": {"northeast": {"lat": 51.5141720302915, "lng": -0.191482769708498}, "southwest": {"lat": 51.5114740697085, "lng": -0.194180730291502}}}, "name": "Hotel London", "place_id": "ChIJRbD1Bo8PdkgRCI3pKCM-XuU", "types": ["lodging", "point_of_interest", "establishment"]}, "ChIJ2ckaJQQPdkgRHhI3QqckSVE": {"geometry": {"location": {"lat": 51.512534, "lng": -0.192934}, "viewport": {"northeast": {"lat": 51.5138645802915, "lng": -0.191686119708498}, "southwest": {"lat": 51.5111666197085, "lng": -0.194384080291502}}}, "name": "Little Dogs House", "place_id": "ChIJ2ckaJQQPdkgRHhI3QqckSVE", "types": ["point_of_interest", "establishment"], "rating": 5, "user_ratings_total": 36}, "ChIJHVA2Q_4PdkgRwFAw_Ms7KpI": {"geometry": {"location": {"lat": 51.512908, "lng": -0.192182}, "viewport": {"northeast": {"lat": 51.5142623802915, "lng": -0.190834569708498}, "southwest": {"lat": 51.5115644197085, "lng": -0.193532530291502}}}, "name": "ubitricity Charging Station", "place_id": "ChIJHVA2Q_4PdkgRwFAw_Ms7KpI", "types": ["point_of_interest", "establishment"]}, "ChIJVS3wY_4PdkgRT-IC9Qelaec": {"geometry": {"location": {"lat": 51.5124984, "lng": -0.192964}, "viewport": {"northeast": {"lat": 51.5138328802915, "lng": -0.191694619708498}, "southwest": {"lat": 51.5111349197085, "lng": -0.194392580291502}}}, "name": "Kinglake Electrical", "place_id": "ChIJVS3wY_4PdkgRT-IC9Qelaec", "types": ["electrician", "point_of_interest", "establishment"]}, "ChIJ-9_BB_4PdkgRt7U1AfrTvcA": {"geometry": {"location": {"lat": 51.5125315, "lng": -0.1929953}, "viewport": {"northeast": {"lat": 51.5138673302915, "lng": -0.191718669708498}, "southwest": {"lat": 51.51116936970851, "lng": -0.194416630291502}}}, "name": "Berrington House", "place_id": "ChIJ-9_BB_4PdkgRt7U1AfrTvcA", "types": ["point_of_interest", "establishment"]}, "ChIJ0dF79v4PdkgRVnwXrixBvr8": {"geometry": {"location": {"lat": 51.5121929, "lng": -0.1920699}, "viewport": {"northeast": {"lat": 51.5135024302915, "lng": -0.190697069708498}, "southwest": {"lat": 51.5108044697085, "lng": -0.193395030291502}}}, "name": "Bayswater Telephone Exchange", "place_id": "ChIJ0dF79v4PdkgRVnwXrixBvr8", "types": ["point_of_interest", "establishment"], "rating": 5, "user_ratings_total": 3}, "ChIJwVRKZv4PdkgR0vWDnRVpdh0": {"geometry": {"location": {"lat": 51.5126933, "lng": -0.1930689}, "viewport": {"northeast": {"lat": 51.5141187302915, "lng": -0.191736119708498}, "southwest": {"lat": 51.5114207697085, "lng": -0.194434080291502}}}, "name": "Concept Studio Apartments", "place_id": "ChIJwVRKZv4PdkgR0vWDnRVpdh0", "types": ["point_of_interest", "establishment"], "rating": 4.2, "user_ratings_total": 68}, "ChIJdRo7Rf4PdkgRs8zqLUEQZs4": {"geometry": {"location": {"lat": 51.51293399999999, "lng": -0.1918439}, "viewport": {"northeast": {"lat": 51.5143005802915, "lng": -0.190500069708498}, "southwest": {"lat": 51.5116026197085, "lng": -0.193198030291502}}}, "name": "ubitricity Charging Station", "place_id": "ChIJdRo7Rf4PdkgRs8zqLUEQZs4", "types": ["point_of_interest", "establishment"]}, "ChIJUZG1fP4PdkgRd8xDmVYJM6I": {"geometry": {"location": {"lat": 51.512471, "lng": -0.193198}, "viewport": {"northeast": {"lat": 51.51382353029151, "lng": -0.191829369708498}, "southwest": {"lat": 51.51112556970851, "lng": -0.194527330291502}}}, "name": "ubitricity Charging Station", "place_id": "ChIJUZG1fP4PdkgRd8xDmVYJM6I", "types": ["point_of_interest", "establishment"]}, "ChIJHUJqjU8PdkgRK8njcT3J5rw": {"geometry": {"location": {"lat": 51.5130902, "lng": -0.1923017}, "viewport": {"northeast": {"lat": 51.5143626302915, "lng": -0.190930119708498}, "southwest": {"lat": 51.5116646697085, "lng": -0.1936280802915021}}}, "name": "Prince's Square Gardens", "place_id": "ChIJHUJqjU8PdkgRK8njcT3J5rw", "types": ["park", "point_of_interest", "establishment"], "rating": 5, "user_ratings_total": 4}, "ChIJX1zaYf4PdkgRPaEhNA-1lF4": {"geometry": {"location": {"lat": 51.5120591, "lng": -0.1925846}, "viewport": {"northeast": {"lat": 51.51337048029151, "lng": -0.191209919708498}, "southwest": {"lat": 51.51067251970851, "lng": -0.193907880291502}}}, "name": "Palace Court", "place_id": "ChIJX1zaYf4PdkgRPaEhNA-1lF4", "types": ["point_of_interest", "establishment"]}, "ChIJv2Y024sPdkgR52yNx4vfeWg": {"geometry": {"location": {"lat": 51.5130347, "lng": -0.1928041}, "viewport": {"northeast": {"lat": 51.51430618029151, "lng": -0.191432219708498}, "southwest": {"lat": 51.51160821970851, "lng": -0.194130180291502}}}, "name": "Prince\u2019s Square", "place_id": "ChIJv2Y024sPdkgR52yNx4vfeWg", "types": ["park", "point_of_interest", "establishment"], "rating": 1, "user_ratings_total": 1}, "ChIJ0yccN7APdkgRVH8tgj3xBNk": {"geometry": {"location": {"lat": 51.5129197, "lng": -0.1917178}, "viewport": {"northeast": {"lat": 51.51430688029149, "lng": -0.190380069708498}, "southwest": {"lat": 51.51160891970849, "lng": -0.193078030291502}}}, "name": "Azfarnism", "place_id": "ChIJ0yccN7APdkgRVH8tgj3xBNk", "types": ["point_of_interest", "establishment"]}, "ChIJ8fNXRf4PdkgRy0PyC-sIfG8": {"geometry": {"location": {"lat": 51.51292, "lng": -0.191718}, "viewport": {"northeast": {"lat": 51.5143070302915, "lng": -0.1903802697084979}, "southwest": {"lat": 51.5116090697085, "lng": -0.193078230291502}}}, "name": "Beaumont Student Living", "place_id": "ChIJ8fNXRf4PdkgRy0PyC-sIfG8", "types": ["point_of_interest", "establishment"], "rating": 3.3, "user_ratings_total": 14}, "ChIJ2-Rflf4PdkgR7kzyu3NLsa8": {"geometry": {"location": {"lat": 51.51135155127587, "lng": -0.1927099097889163}, "viewport": {"northeast": {"lat": 51.5127003302915, "lng": -0.191362219708498}, "southwest": {"lat": 51.5100023697085, "lng": -0.194060180291502}}}, "name": "26-20 Ossington St", "place_id": "ChIJ2-Rflf4PdkgR7kzyu3NLsa8", "types": ["route"]}, "ChIJrRPekv4PdkgR3LyggebbVsQ": {"geometry": {"location": {"lat": 51.51175199999999, "lng": -0.1924279}, "viewport": {"northeast": {"lat": 51.51311028029149, "lng": -0.191022269708498}, "southwest": {"lat": 51.51041231970849, "lng": -0.193720230291502}}}, "name": "Tiko Construction", "place_id": "ChIJrRPekv4PdkgR3LyggebbVsQ", "types": ["general_contractor", "point_of_interest", "establishment"]}, "ChIJkY7s7f4PdkgR40jO7_siEcw": {"geometry": {"location": {"lat": 51.5113196, "lng": -0.1919479}, "viewport": {"northeast": {"lat": 51.51265508029149, "lng": -0.190680769708498}, "southwest": {"lat": 51.5099571197085, "lng": -0.193378730291502}}}, "name": "claramoda ltd", "place_id": "ChIJkY7s7f4PdkgR40jO7_siEcw", "types": ["point_of_interest", "establishment"]}, "ChIJ8VgcI1kFdkgR831TulDinq8": {"geometry": {"location": {"lat": 51.51132, "lng": -0.191948}, "viewport": {"northeast": {"lat": 51.51265548029149, "lng": -0.190680869708498}, "southwest": {"lat": 51.5099575197085, "lng": -0.193378830291502}}}, "name": "Alexandra Lewis Divorce and Family Mediation", "place_id": "ChIJ8VgcI1kFdkgR831TulDinq8", "types": ["lawyer", "point_of_interest", "establishment"]}, "ChIJGeSSkf4PdkgRH3szs_CybpA": {"geometry": {"location": {"lat": 51.5114757, "lng": -0.1928632}, "viewport": {"northeast": {"lat": 51.5128322302915, "lng": -0.191466669708498}, "southwest": {"lat": 51.5101342697085, "lng": -0.194164630291502}}}, "name": "Peter Mann", "place_id": "ChIJGeSSkf4PdkgRH3szs_CybpA", "types": ["point_of_interest", "establishment"]}, "ChIJwa0fjv4PdkgRJSJ9WlgjOtE": {"geometry": {"location": {"lat": 51.5115724, "lng": -0.1928897000000001}, "viewport": {"northeast": {"lat": 51.5129270302915, "lng": -0.191505369708498}, "southwest": {"lat": 51.5102290697085, "lng": -0.194203330291502}}}, "name": "Bric Travel", "place_id": "ChIJwa0fjv4PdkgRJSJ9WlgjOtE", "types": ["travel_agency", "point_of_interest", "establishment"], "rating": 5, "user_ratings_total": 2}, "ChIJwa0fjv4PdkgRb-qGCL1CXXQ": {"geometry": {"location": {"lat": 51.51159349999999, "lng": -0.1929288}, "viewport": {"northeast": {"lat": 51.51295143029149, "lng": -0.191523319708498}, "southwest": {"lat": 51.51025346970849, "lng": -0.194221280291502}}}, "name": "Santamaria Shirtmakers. Open by appointment.", "place_id": "ChIJwa0fjv4PdkgRb-qGCL1CXXQ", "types": ["point_of_interest", "clothing_store", "store", "establishment"], "rating": 5, "user_ratings_total": 45}, "ChIJk8Bnkf4PdkgRJwt3i1zx42Q": {"geometry": {"location": {"lat": 51.511667, "lng": -0.1929699}, "viewport": {"northeast": {"lat": 51.5130732802915, "lng": -0.191595219708498}, "southwest": {"lat": 51.5103753197085, "lng": -0.194293180291502}}}, "name": "The Watch Men Agency", "place_id": "ChIJk8Bnkf4PdkgRJwt3i1zx42Q", "types": ["point_of_interest", "establishment"]}, "ChIJW4Li-v4PdkgRfUup0z4ICWo": {"geometry": {"location": {"lat": 51.5115719, "lng": -0.1915514}, "viewport": {"northeast": {"lat": 51.5129218302915, "lng": -0.190173369708498}, "southwest": {"lat": 51.5102238697085, "lng": -0.192871330291502}}}, "name": "McKenzie F J", "place_id": "ChIJW4Li-v4PdkgRfUup0z4ICWo", "types": ["health", "point_of_interest", "establishment"]}, "ChIJ1U1Z6P4PdkgR5zjsu6P3eqE": {"geometry": {"location": {"lat": 51.511056, "lng": -0.191817}, "viewport": {"northeast": {"lat": 51.5123901302915, "lng": -0.190558719708498}, "southwest": {"lat": 51.5096921697085, "lng": -0.193256680291502}}}, "name": "Zipcar - Palace Ct", "place_id": "ChIJ1U1Z6P4PdkgR5zjsu6P3eqE", "types": ["car_rental", "point_of_interest", "establishment"]}, "ChIJVcXip9EEdkgRyrH4KQfKpvc": {"geometry": {"location": {"lat": 51.5111235, "lng": -0.1918711}, "viewport": {"northeast": {"lat": 51.5124595302915, "lng": -0.190600869708498}, "southwest": {"lat": 51.5097615697085, "lng": -0.193298830291502}}}, "name": "Stephen Wiltshire", "place_id": "ChIJVcXip9EEdkgRyrH4KQfKpvc", "types": ["art_gallery", "point_of_interest", "establishment"], "rating": 4.9, "user_ratings_total": 112}, "ChIJqW288v4PdkgR9XdeuM8kgFo": {"geometry": {"location": {"lat": 51.511621, "lng": -0.192368}, "viewport": {"northeast": {"lat": 51.51297898029149, "lng": -0.190964419708498}, "southwest": {"lat": 51.5102810197085, "lng": -0.193662380291502}}}, "name": "ubitricity Charging Station", "place_id": "ChIJqW288v4PdkgR9XdeuM8kgFo", "types": ["point_of_interest", "establishment"]}, "ChIJob3x8v4PdkgRisgY7H1s8fc": {"geometry": {"location": {"lat": 51.51161219999999, "lng": -0.1924721}, "viewport": {"northeast": {"lat": 51.5129784302915, "lng": -0.1910181197084979}, "southwest": {"lat": 51.5102804697085, "lng": -0.193716080291502}}}, "name": "Capellania Catolica Espa\u00f1ola", "place_id": "ChIJob3x8v4PdkgRisgY7H1s8fc", "types": ["church", "place_of_worship", "point_of_interest", "establishment"], "rating": 4.5, "user_ratings_total": 4}, "ChIJjR-e6bsPdkgRb2dXPbInyKY": {"geometry": {"location": {"lat": 51.51161800000001, "lng": -0.1925687}, "viewport": {"northeast": {"lat": 51.5129914802915, "lng": -0.1910707197084979}, "southwest": {"lat": 51.5102935197085, "lng": -0.193768680291502}}}, "name": "Alice Meynell Blue Plaque", "place_id": "ChIJjR-e6bsPdkgRb2dXPbInyKY", "types": ["point_of_interest", "establishment"], "rating": 4, "user_ratings_total": 1}, "ChIJ_RB4jf4PdkgRiAHRBwUjiUo": {"geometry": {"location": {"lat": 51.51160269999999, "lng": -0.1926206}, "viewport": {"northeast": {"lat": 51.51298068029149, "lng": -0.191095319708498}, "southwest": {"lat": 51.51028271970849, "lng": -0.193793280291502}}}, "name": "47 Palace Court", "place_id": "ChIJ_RB4jf4PdkgRiAHRBwUjiUo", "types": ["point_of_interest", "establishment"]}, "ChIJ57AB7v4PdkgRhkfuPKV9quc": {"geometry": {"location": {"lat": 51.5115589, "lng": -0.1920583}, "viewport": {"northeast": {"lat": 51.5128950802915, "lng": -0.190787119708498}, "southwest": {"lat": 51.5101971197085, "lng": -0.193485080291502}}}, "name": "Dp Music Limited", "place_id": "ChIJ57AB7v4PdkgRhkfuPKV9quc", "types": ["point_of_interest", "establishment"]}, "ChIJ00jHycMPdkgRSSet6vc8nGI": {"geometry": {"location": {"lat": 51.5113196, "lng": -0.1919479}, "viewport": {"northeast": {"lat": 51.51265508029149, "lng": -0.190680769708498}, "southwest": {"lat": 51.5099571197085, "lng": -0.193378730291502}}}, "name": "Alexandra Lewis Family Law", "place_id": "ChIJ00jHycMPdkgRSSet6vc8nGI", "types": ["lawyer", "point_of_interest", "establishment"]}, "ChIJJ2NBjv4PdkgRdyQ6oHGcC4k": {"geometry": {"location": {"lat": 51.51166629999999, "lng": -0.1929153}, "viewport": {"northeast": {"lat": 51.51307293029149, "lng": -0.191595219708498}, "southwest": {"lat": 51.51037496970849, "lng": -0.194293180291502}}}, "name": "Yoga Ride", "place_id": "ChIJJ2NBjv4PdkgRdyQ6oHGcC4k", "types": ["gym", "health", "point_of_interest", "establishment"]}, "ChIJsxFxaCAPdkgR5l5Y5V_8bhA": {"geometry": {"location": {"lat": 51.5118814, "lng": -0.1924177}, "viewport": {"northeast": {"lat": 51.5132309802915, "lng": -0.191065019708498}, "southwest": {"lat": 51.5105330197085, "lng": -0.193762980291502}}}, "name": "Recycling", "place_id": "ChIJsxFxaCAPdkgR5l5Y5V_8bhA", "types": ["point_of_interest", "establishment"]}, "ChIJAQBMjv4PdkgRmWOlhu-BO4c": {"geometry": {"location": {"lat": 51.51166689999999, "lng": -0.1929698}, "viewport": {"northeast": {"lat": 51.5130732302915, "lng": -0.191595219708498}, "southwest": {"lat": 51.5103752697085, "lng": -0.194293180291502}}}, "name": "YOGA-WOOD", "place_id": "ChIJAQBMjv4PdkgRmWOlhu-BO4c", "types": ["gym", "health", "point_of_interest", "establishment"]}, "ChIJAQBMjv4PdkgRtuzjBsACTRI": {"geometry": {"location": {"lat": 51.51166689999999, "lng": -0.1929698}, "viewport": {"northeast": {"lat": 51.51308298029149, "lng": -0.191655069708498}, "southwest": {"lat": 51.51038501970849, "lng": -0.194353030291502}}}, "name": "Heartcore", "place_id": "ChIJAQBMjv4PdkgRtuzjBsACTRI", "types": ["gym", "health", "point_of_interest", "establishment"], "rating": 4.7, "user_ratings_total": 15}, "ChIJtxdYhf4PdkgRR4597ucPphg": {"geometry": {"location": {"lat": 51.51163150000001, "lng": -0.1931515}, "viewport": {"northeast": {"lat": 51.51304458029151, "lng": -0.191839319708498}, "southwest": {"lat": 51.51034661970851, "lng": -0.1945372802915021}}}, "name": "The Hill Cafe", "place_id": "ChIJtxdYhf4PdkgRR4597ucPphg", "types": ["cafe", "meal_takeaway", "restaurant", "food", "point_of_interest", "store", "establishment"], "rating": 4.2, "user_ratings_total": 56}, "ChIJ_yaR6f4PdkgR25rbGBVjZV0": {"geometry": {"location": {"lat": 51.51100549999999, "lng": -0.1921076}, "viewport": {"northeast": {"lat": 51.51236273029149, "lng": -0.190703119708498}, "southwest": {"lat": 51.50966476970849, "lng": -0.193401080291502}}}, "name": "ubitricity Charging Station", "place_id": "ChIJ_yaR6f4PdkgR25rbGBVjZV0", "types": ["point_of_interest", "establishment"]}, "ChIJN7dh6v4PdkgRAtQFNOIZH28": {"geometry": {"location": {"lat": 51.51097799999999, "lng": -0.192245}, "viewport": {"northeast": {"lat": 51.51234738029149, "lng": -0.1907711697084979}, "southwest": {"lat": 51.5096494197085, "lng": -0.193469130291502}}}, "name": "Brigham Young University", "place_id": "ChIJN7dh6v4PdkgRAtQFNOIZH28", "types": ["university", "point_of_interest", "establishment"], "rating": 5, "user_ratings_total": 8}, "ChIJJ-yz6f4PdkgRApwMmiPuJ_w": {"geometry": {"location": {"lat": 51.511015, "lng": -0.191903}, "viewport": {"northeast": {"lat": 51.5123581302915, "lng": -0.190589969708498}, "southwest": {"lat": 51.5096601697085, "lng": -0.193287930291502}}}, "name": "ubitricity Charging Station", "place_id": "ChIJJ-yz6f4PdkgRApwMmiPuJ_w", "types": ["point_of_interest", "establishment"]}, "ChIJhzRsyv4PdkgRI8kvHwtJg_M": {"geometry": {"location": {"lat": 51.50983825021017, "lng": -0.1923483502271862}, "viewport": {"northeast": {"lat": 51.5111872302915, "lng": -0.190999369708498}, "southwest": {"lat": 51.5084892697085, "lng": -0.193697330291502}}}, "name": "6-2 Bayswater Rd", "place_id": "ChIJhzRsyv4PdkgRI8kvHwtJg_M", "types": ["route"]}, "ChIJkzoUsP4PdkgRAeahj89gtuk": {"geometry": {"location": {"lat": 51.5102207, "lng": -0.1930007}, "viewport": {"northeast": {"lat": 51.51155608029151, "lng": -0.191755369708498}, "southwest": {"lat": 51.50885811970851, "lng": -0.1944533302915021}}}, "name": "Notting Hill Gate Hotel", "place_id": "ChIJkzoUsP4PdkgRAeahj89gtuk", "types": ["lodging", "point_of_interest", "establishment"], "rating": 3.4, "user_ratings_total": 359}, "ChIJT8Rttv4PdkgRoVr_ggPuB3g": {"geometry": {"location": {"lat": 51.5099872, "lng": -0.192386}, "viewport": {"northeast": {"lat": 51.5112655302915, "lng": -0.190998069708498}, "southwest": {"lat": 51.5085675697085, "lng": -0.193696030291502}}}, "name": "London Premier Laser Notting Hill Gate", "place_id": "ChIJT8Rttv4PdkgRoVr_ggPuB3g", "types": ["beauty_salon", "hair_care", "health", "point_of_interest", "establishment"], "rating": 4.5, "user_ratings_total": 142}, "ChIJT8Rttv4PdkgR2QsDEzqgKyo": {"geometry": {"location": {"lat": 51.50999729999999, "lng": -0.192242}, "viewport": {"northeast": {"lat": 51.5113500802915, "lng": -0.190861619708498}, "southwest": {"lat": 51.5086521197085, "lng": -0.193559580291502}}}, "name": "The Champion", "place_id": "ChIJT8Rttv4PdkgR2QsDEzqgKyo", "types": ["bar", "restaurant", "food", "point_of_interest", "establishment"], "rating": 4.4, "user_ratings_total": 1018}, "ChIJXUnPdNUadkgRCclssWggU00": {"geometry": {"location": {"lat": 51.5104245, "lng": -0.1918930999999999}, "viewport": {"northeast": {"lat": 51.5117848302915, "lng": -0.1904752197084979}, "southwest": {"lat": 51.5090868697085, "lng": -0.193173180291502}}}, "name": "Chelsea Education Ltd.", "place_id": "ChIJXUnPdNUadkgRCclssWggU00", "types": ["point_of_interest", "establishment"]}, "ChIJ5Rs_wf4PdkgRVVoN4SOJmT8": {"geometry": {"location": {"lat": 51.5103829, "lng": -0.1920411}, "viewport": {"northeast": {"lat": 51.5117559802915, "lng": -0.190545769708498}, "southwest": {"lat": 51.5090580197085, "lng": -0.193243730291502}}}, "name": "Kromat Trading Ltd", "place_id": "ChIJ5Rs_wf4PdkgRVVoN4SOJmT8", "types": ["point_of_interest", "establishment"]}, "ChIJuyB0uP4PdkgR0pOeOvW3E5A": {"geometry": {"location": {"lat": 51.51034780000001, "lng": -0.1924666}, "viewport": {"northeast": {"lat": 51.5117109802915, "lng": -0.191034019708498}, "southwest": {"lat": 51.5090130197085, "lng": -0.193731980291502}}}, "name": "Paul Raw", "place_id": "ChIJuyB0uP4PdkgR0pOeOvW3E5A", "types": ["health", "point_of_interest", "establishment"], "rating": 5, "user_ratings_total": 1}, "ChIJW_VDlC4FdkgRgivmQ23oPZE": {"geometry": {"location": {"lat": 51.5104245, "lng": -0.1918930999999999}, "viewport": {"northeast": {"lat": 51.5117848302915, "lng": -0.1904752197084979}, "southwest": {"lat": 51.5090868697085, "lng": -0.193173180291502}}}, "name": "Dover Construction", "place_id": "ChIJW_VDlC4FdkgRgivmQ23oPZE", "types": ["point_of_interest", "establishment"], "rating": 3, "user_ratings_total": 6}, "ChIJo44qDCIFdkgR8skZy3EorMU": {"geometry": {"location": {"lat": 51.5104245, "lng": -0.1918930999999999}, "viewport": {"northeast": {"lat": 51.5117848302915, "lng": -0.1904752197084979}, "southwest": {"lat": 51.5090868697085, "lng": -0.193173180291502}}}, "name": "Wholistic Body Life", "place_id": "ChIJo44qDCIFdkgR8skZy3EorMU", "types": ["health", "point_of_interest", "establishment"], "rating": 5, "user_ratings_total": 24}, "ChIJD6D8x5cPdkgRcWFK6T6pXuE": {"geometry": {"location": {"lat": 51.5105357, "lng": -0.1917929}, "viewport": {"northeast": {"lat": 51.51188468029149, "lng": -0.190443919708498}, "southwest": {"lat": 51.5091867197085, "lng": -0.193141880291502}}}, "name": "Talking Time Therapy", "place_id": "ChIJD6D8x5cPdkgRcWFK6T6pXuE", "types": ["health", "point_of_interest", "establishment"]}, "ChIJXRhAh_cPdkgRlu7C_31hGog": {"geometry": {"location": {"lat": 51.5099285, "lng": -0.1925029}, "viewport": {"northeast": {"lat": 51.5112224302915, "lng": -0.1911303197084979}, "southwest": {"lat": 51.5085244697085, "lng": -0.193828280291502}}}, "name": "Embassy of the Russian Federation", "place_id": "ChIJXRhAh_cPdkgRlu7C_31hGog", "types": ["embassy", "local_government_office", "point_of_interest", "establishment"], "rating": 3.9, "user_ratings_total": 206}, "ChIJT8Rttv4PdkgRXLeJ0TRtjkM": {"geometry": {"location": {"lat": 51.50995640000001, "lng": -0.1925265}, "viewport": {"northeast": {"lat": 51.51122203029151, "lng": -0.191209219708498}, "southwest": {"lat": 51.50852406970851, "lng": -0.193907180291502}}}, "name": "Cafe Diana", "place_id": "ChIJT8Rttv4PdkgRXLeJ0TRtjkM", "types": ["cafe", "night_club", "bar", "restaurant", "food", "point_of_interest", "establishment"], "rating": 4.2, "user_ratings_total": 661}, "ChIJAVMq6MIPdkgRCUlDiAA_KAc": {"geometry": {"location": {"lat": 51.51056790000001, "lng": -0.1931365}, "viewport": {"northeast": {"lat": 51.51190408029151, "lng": -0.191882719708498}, "southwest": {"lat": 51.50920611970852, "lng": -0.194580680291502}}}, "name": "we.are.DESI Ltd", "place_id": "ChIJAVMq6MIPdkgRCUlDiAA_KAc", "types": ["point_of_interest", "establishment"]}, "ChIJzR8nTPkPdkgRLhbmUl-XQeA": {"geometry": {"location": {"lat": 51.50994, "lng": -0.1924481}, "viewport": {"northeast": {"lat": 51.5112148302915, "lng": -0.191160419708498}, "southwest": {"lat": 51.5085168697085, "lng": -0.193858380291502}}}, "name": "Embassy of Slovakia", "place_id": "ChIJzR8nTPkPdkgRLhbmUl-XQeA", "types": ["embassy", "point_of_interest", "establishment"], "rating": 3.5, "user_ratings_total": 180}, "ChIJR6CBxv4PdkgRyXEvqXm4Xqk": {"geometry": {"location": {"lat": 51.5101065, "lng": -0.1920171}, "viewport": {"northeast": {"lat": 51.5113588802915, "lng": -0.190628569708498}, "southwest": {"lat": 51.5086609197085, "lng": -0.193326530291502}}}, "name": "Guyana High Commission", "place_id": "ChIJR6CBxv4PdkgRyXEvqXm4Xqk", "types": ["embassy", "point_of_interest", "establishment"], "rating": 4.5, "user_ratings_total": 17}, "ChIJhzAq8ZAPdkgRQfjrc8cD-nk": {"geometry": {"location": {"lat": 51.5102906, "lng": -0.1920061}, "viewport": {"northeast": {"lat": 51.5116639802915, "lng": -0.190508819708498}, "southwest": {"lat": 51.5089660197085, "lng": -0.193206780291502}}}, "name": "John Henderson Music", "place_id": "ChIJhzAq8ZAPdkgRQfjrc8cD-nk", "types": ["electronics_store", "home_goods_store", "point_of_interest", "store", "establishment"]}, "ChIJj1xUxP4PdkgR4HT3RaoF374": {"geometry": {"location": {"lat": 51.5104285, "lng": -0.1918963}, "viewport": {"northeast": {"lat": 51.5117889302915, "lng": -0.1904777197084979}, "southwest": {"lat": 51.5090909697085, "lng": -0.193175680291502}}}, "name": "Blixt Group Limited", "place_id": "ChIJj1xUxP4PdkgR4HT3RaoF374", "types": ["point_of_interest", "establishment"]}, "ChIJVbRSlLUPdkgRk_PCkgvIsmI": {"geometry": {"location": {"lat": 51.5104245, "lng": -0.1918930999999999}, "viewport": {"northeast": {"lat": 51.5117848302915, "lng": -0.1904752197084979}, "southwest": {"lat": 51.5090868697085, "lng": -0.193173180291502}}}, "name": "Tati Silva Private Psychotherapist", "place_id": "ChIJVbRSlLUPdkgRk_PCkgvIsmI", "types": ["health", "point_of_interest", "establishment"], "rating": 5, "user_ratings_total": 5}, "ChIJfyrn1cEPdkgRg3USH2Pq6eE": {"geometry": {"location": {"lat": 51.5104245, "lng": -0.1918930999999999}, "viewport": {"northeast": {"lat": 51.5117848302915, "lng": -0.1904752197084979}, "southwest": {"lat": 51.5090868697085, "lng": -0.193173180291502}}}, "name": "Uberpay365", "place_id": "ChIJfyrn1cEPdkgRg3USH2Pq6eE", "types": ["finance", "point_of_interest", "establishment"], "rating": 5, "user_ratings_total": 1}, "ChIJy9Ia3T4PdkgRDbSSGwJ--rQ": {"geometry": {"location": {"lat": 51.5104245, "lng": -0.1918930999999999}, "viewport": {"northeast": {"lat": 51.5117848302915, "lng": -0.1904752197084979}, "southwest": {"lat": 51.5090868697085, "lng": -0.193173180291502}}}, "name": "SNAP-IT - Plumbing supplies - Download our app for instant delivery", "place_id": "ChIJy9Ia3T4PdkgRDbSSGwJ--rQ", "types": ["point_of_interest", "store", "establishment"], "rating": 4.9, "user_ratings_total": 49}, "ChIJJydZp94PdkgR5aynjaj5H64": {"geometry": {"location": {"lat": 51.5104245, "lng": -0.1918930999999999}, "viewport": {"northeast": {"lat": 51.5117848302915, "lng": -0.1904752197084979}, "southwest": {"lat": 51.5090868697085, "lng": -0.193173180291502}}}, "name": "HotelSEO", "place_id": "ChIJJydZp94PdkgR5aynjaj5H64", "types": ["point_of_interest", "establishment"]}, "ChIJFxpDxeQPdkgRgwtBHUWqVYQ": {"geometry": {"location": {"lat": 51.5104245, "lng": -0.1918930999999999}, "viewport": {"northeast": {"lat": 51.5117848302915, "lng": -0.1904752197084979}, "southwest": {"lat": 51.5090868697085, "lng": -0.193173180291502}}}, "name": "Nammu Workplace", "place_id": "ChIJFxpDxeQPdkgRgwtBHUWqVYQ", "types": ["point_of_interest", "establishment"]}, "ChIJAY2_YUkPdkgRu06UwnJSy_Y": {"geometry": {"location": {"lat": 51.5104245, "lng": -0.1918930999999999}, "viewport": {"northeast": {"lat": 51.5117848302915, "lng": -0.1904752197084979}, "southwest": {"lat": 51.5090868697085, "lng": -0.193173180291502}}}, "name": "The Mindful Practice", "place_id": "ChIJAY2_YUkPdkgRu06UwnJSy_Y", "types": ["health", "point_of_interest", "establishment"]}, "ChIJGzSCVH8FdkgR2fMgA9fPGLU": {"geometry": {"location": {"lat": 51.5104245, "lng": -0.1918930999999999}, "viewport": {"northeast": {"lat": 51.5117848302915, "lng": -0.1904752197084979}, "southwest": {"lat": 51.5090868697085, "lng": -0.193173180291502}}}, "name": "Solvid", "place_id": "ChIJGzSCVH8FdkgR2fMgA9fPGLU", "types": ["point_of_interest", "establishment"], "rating": 5, "user_ratings_total": 6}, "ChIJT8Rttv4PdkgR79vRZWksUhw": {"geometry": {"location": {"lat": 51.5099718, "lng": -0.192516}, "viewport": {"northeast": {"lat": 51.51124183029151, "lng": -0.191138019708498}, "southwest": {"lat": 51.50854386970851, "lng": -0.1938359802915021}}}, "name": "Bruten & Co", "place_id": "ChIJT8Rttv4PdkgR79vRZWksUhw", "types": ["real_estate_agency", "point_of_interest", "establishment"], "rating": 1, "user_ratings_total": 23}, "ChIJfYMxyf4PdkgRLn638rohZpo": {"geometry": {"location": {"lat": 51.5100373, "lng": -0.1920869}, "viewport": {"northeast": {"lat": 51.5113818802915, "lng": -0.190769369708498}, "southwest": {"lat": 51.5086839197085, "lng": -0.193467330291502}}}, "name": "B&G", "place_id": "ChIJfYMxyf4PdkgRLn638rohZpo", "types": ["point_of_interest", "establishment"]}, "ChIJqcoVdpAPdkgRiwSELIZdn8U": {"geometry": {"location": {"lat": 51.5099705, "lng": -0.1925403}, "viewport": {"northeast": {"lat": 51.5112415802915, "lng": -0.191148319708498}, "southwest": {"lat": 51.5085436197085, "lng": -0.193846280291502}}}, "name": "Diana Lounge | Shisha | Hookah", "place_id": "ChIJqcoVdpAPdkgRiwSELIZdn8U", "types": ["restaurant", "food", "point_of_interest", "establishment"], "rating": 5, "user_ratings_total": 5}, "ChIJx_l2zO0PdkgRUPm71UH6Ios": {"geometry": {"location": {"lat": 51.51049980000001, "lng": -0.1930928}, "viewport": {"northeast": {"lat": 51.5118347302915, "lng": -0.191848669708498}, "southwest": {"lat": 51.5091367697085, "lng": -0.194546630291502}}}, "name": "EComputers repairs", "place_id": "ChIJx_l2zO0PdkgRUPm71UH6Ios", "types": ["point_of_interest", "establishment"]}, "ChIJs8Vttv4PdkgRniwYO8jN7qY": {"geometry": {"location": {"lat": 51.50995529999999, "lng": -0.1923425}, "viewport": {"northeast": {"lat": 51.5112520802915, "lng": -0.190964619708498}, "southwest": {"lat": 51.5085541197085, "lng": -0.193662580291502}}}, "name": "GA Notting Hill", "place_id": "ChIJs8Vttv4PdkgRniwYO8jN7qY", "types": ["hair_care", "point_of_interest", "establishment"], "rating": 4.8, "user_ratings_total": 91}, "ChIJ4dnoz_4PdkgRyuMLD2cJqPI": {"geometry": {"location": {"lat": 51.5101907, "lng": -0.1917639}, "viewport": {"northeast": {"lat": 51.51155028029149, "lng": -0.190358919708498}, "southwest": {"lat": 51.5088523197085, "lng": -0.193056880291502}}}, "name": "ubitricity Charging Station", "place_id": "ChIJ4dnoz_4PdkgRyuMLD2cJqPI", "types": ["point_of_interest", "establishment"]}, "ChIJmR4Q_9APdkgRy6bdzLDV0jg": {"geometry": {"location": {"lat": 51.5099438, "lng": -0.1924083}, "viewport": {"northeast": {"lat": 51.5112394302915, "lng": -0.191029869708498}, "southwest": {"lat": 51.5085414697085, "lng": -0.193727830291502}}}, "name": "Notting Hill Housing Charity Shop", "place_id": "ChIJmR4Q_9APdkgRy6bdzLDV0jg", "types": ["clothing_store", "point_of_interest", "store", "establishment"], "rating": 3, "user_ratings_total": 1}, "ChIJF_Vi8rIcdkgR-Izp1llhyWQ": {"geometry": {"location": {"lat": 51.5108468, "lng": -0.1922280999999999}, "viewport": {"northeast": {"lat": 51.5122189302915, "lng": -0.190736369708498}, "southwest": {"lat": 51.5095209697085, "lng": -0.193434330291502}}}, "name": "The 48 Group Club", "place_id": "ChIJF_Vi8rIcdkgR-Izp1llhyWQ", "types": ["point_of_interest", "establishment"], "rating": 5, "user_ratings_total": 2}, "ChIJ1Uggw_4PdkgRrw27qj86akQ": {"geometry": {"location": {"lat": 51.51073659999999, "lng": -0.1917833}, "viewport": {"northeast": {"lat": 51.5120793302915, "lng": -0.190473169708498}, "southwest": {"lat": 51.5093813697085, "lng": -0.193171130291502}}}, "name": "Zipcar", "place_id": "ChIJ1Uggw_4PdkgRrw27qj86akQ", "types": ["car_rental", "point_of_interest", "establishment"]}, "ChIJy9hZtP4PdkgRKvjkR8_OOHw": {"geometry": {"location": {"lat": 51.50993419999999, "lng": -0.1927903}, "viewport": {"northeast": {"lat": 51.51119768029149, "lng": -0.191397069708498}, "southwest": {"lat": 51.50849971970849, "lng": -0.194095030291502}}}, "name": "Nature Chinese Medicine Centre", "place_id": "ChIJy9hZtP4PdkgRKvjkR8_OOHw", "types": ["spa", "point_of_interest", "establishment"]}, "ChIJpUdftP4PdkgRncpKjwTzK0Y": {"geometry": {"location": {"lat": 51.50977065004209, "lng": -0.1926702000459727}, "viewport": {"northeast": {"lat": 51.5111196302915, "lng": -0.191321219708498}, "southwest": {"lat": 51.5084216697085, "lng": -0.194019180291502}}}, "name": "Notting Hill Gate", "place_id": "ChIJpUdftP4PdkgRncpKjwTzK0Y", "types": ["route"]}, "ChIJ695oGj0PdkgR1G_8KlYnHjE": {"geometry": {"location": {"lat": 51.50978490000001, "lng": -0.1925936}, "viewport": {"northeast": {"lat": 51.5111643302915, "lng": -0.191257619708498}, "southwest": {"lat": 51.5084663697085, "lng": -0.193955580291502}}}, "name": "Holland Park Electricians", "place_id": "ChIJ695oGj0PdkgR1G_8KlYnHjE", "types": ["electrician", "point_of_interest", "establishment"], "rating": 5, "user_ratings_total": 1}, "ChIJa13y1P0PdkgRJ5Ypkknr5XM": {"geometry": {"location": {"lat": 51.51231103527532, "lng": -0.1941674908652441}, "viewport": {"northeast": {"lat": 51.51365988029149, "lng": -0.1928195197084979}, "southwest": {"lat": 51.51096191970849, "lng": -0.195517480291502}}}, "name": "48 Chepstow Pl", "place_id": "ChIJa13y1P0PdkgRJ5Ypkknr5XM", "types": ["route"]}, "ChIJXdGdcP4PdkgRwdBqUcXiqro": {"geometry": {"location": {"lat": 51.5129205, "lng": -0.1935085}, "viewport": {"northeast": {"lat": 51.5143206302915, "lng": -0.192061169708498}, "southwest": {"lat": 51.5116226697085, "lng": -0.194759130291502}}}, "name": "The Prince Edward, Bayswater", "place_id": "ChIJXdGdcP4PdkgRwdBqUcXiqro", "types": ["bar", "restaurant", "food", "point_of_interest", "establishment"], "rating": 4.3, "user_ratings_total": 688}, "ChIJmewObv4PdkgRjXnuFgTg33A": {"geometry": {"location": {"lat": 51.5123329, "lng": -0.1943293}, "viewport": {"northeast": {"lat": 51.5136915302915, "lng": -0.1929063697084979}, "southwest": {"lat": 51.5109935697085, "lng": -0.195604330291502}}}, "name": "St Sophia\u2019s School", "place_id": "ChIJmewObv4PdkgRjXnuFgTg33A", "types": ["school", "point_of_interest", "establishment"]}, "ChIJSaoYyP0PdkgR2SI8xVNwCBk": {"geometry": {"location": {"lat": 51.51279110000001, "lng": -0.1946335}, "viewport": {"northeast": {"lat": 51.5140742302915, "lng": -0.193260519708498}, "southwest": {"lat": 51.5113762697085, "lng": -0.195958480291502}}}, "name": "Embassy of the P D R of Algeria", "place_id": "ChIJSaoYyP0PdkgR2SI8xVNwCBk", "types": ["embassy", "point_of_interest", "establishment"]}, "ChIJT4TSe_4PdkgRcD5d5usa3IE": {"geometry": {"location": {"lat": 51.51270460000001, "lng": -0.193508}, "viewport": {"northeast": {"lat": 51.5141015302915, "lng": -0.192174369708498}, "southwest": {"lat": 51.5114035697085, "lng": -0.194872330291502}}}, "name": "Gerard Nolan & Partners", "place_id": "ChIJT4TSe_4PdkgRcD5d5usa3IE", "types": ["finance", "point_of_interest", "establishment"]}, "ChIJga2medwPdkgRxRii1kscTCk": {"geometry": {"location": {"lat": 51.5124258, "lng": -0.193412}, "viewport": {"northeast": {"lat": 51.51380073029149, "lng": -0.191920519708498}, "southwest": {"lat": 51.51110276970849, "lng": -0.194618480291502}}}, "name": "Total Bliss", "place_id": "ChIJga2medwPdkgRxRii1kscTCk", "types": ["point_of_interest", "establishment"]}, "ChIJkTzP3fsPdkgR8GHXCPyZRb4": {"geometry": {"location": {"lat": 51.5127, "lng": -0.193356}, "viewport": {"northeast": {"lat": 51.5141157802915, "lng": -0.191949769708498}, "southwest": {"lat": 51.5114178197085, "lng": -0.194647730291502}}}, "name": "university of creative arts", "place_id": "ChIJkTzP3fsPdkgR8GHXCPyZRb4", "types": ["university", "point_of_interest", "establishment"]}, "ChIJ1Y0vhP0PdkgRwkAqLDO7gS8": {"geometry": {"location": {"lat": 51.51148999999999, "lng": -0.194389}, "viewport": {"northeast": {"lat": 51.5129076802915, "lng": -0.193065419708498}, "southwest": {"lat": 51.5102097197085, "lng": -0.195763380291502}}}, "name": "Hotel Bluebells", "place_id": "ChIJ1Y0vhP0PdkgRwkAqLDO7gS8", "types": ["lodging", "point_of_interest", "establishment"], "rating": 3.9, "user_ratings_total": 296}, "ChIJoYV9mf4PdkgRY6yjKq2b4AE": {"geometry": {"location": {"lat": 51.51123310000001, "lng": -0.1933898}, "viewport": {"northeast": {"lat": 51.5125693802915, "lng": -0.192125619708498}, "southwest": {"lat": 51.5098714197085, "lng": -0.194823580291502}}}, "name": "Urban Apartments Notting Hill", "place_id": "ChIJoYV9mf4PdkgRY6yjKq2b4AE", "types": ["lodging", "point_of_interest", "establishment"]}, "ChIJZ5iTnP4PdkgREUDrfzPYUss": {"geometry": {"location": {"lat": 51.5114556, "lng": -0.1936215}, "viewport": {"northeast": {"lat": 51.5127754802915, "lng": -0.192230519708498}, "southwest": {"lat": 51.5100775197085, "lng": -0.194928480291502}}}, "name": "Josephine Cicero Design", "place_id": "ChIJZ5iTnP4PdkgREUDrfzPYUss", "types": ["general_contractor", "point_of_interest", "establishment"]}, "ChIJ3f6sNvEPdkgR3an40OkqYU4": {"geometry": {"location": {"lat": 51.5114593, "lng": -0.1943483}, "viewport": {"northeast": {"lat": 51.5128943302915, "lng": -0.193031119708498}, "southwest": {"lat": 51.5101963697085, "lng": -0.195729080291502}}}, "name": "otel", "place_id": "ChIJ3f6sNvEPdkgR3an40OkqYU4", "types": ["lodging", "point_of_interest", "establishment"], "rating": 1, "user_ratings_total": 1}, "ChIJ0Vm9QPwPdkgRVY6ahLI9T1I": {"geometry": {"location": {"lat": 51.51159029999999, "lng": -0.1935174}, "viewport": {"northeast": {"lat": 51.51299523029149, "lng": -0.1921935697084979}, "southwest": {"lat": 51.5102972697085, "lng": -0.194891530291502}}}, "name": "Pembridge Hall School", "place_id": "ChIJ0Vm9QPwPdkgRVY6ahLI9T1I", "types": ["school", "point_of_interest", "establishment"], "rating": 4.5, "user_ratings_total": 2}, "ChIJVVXhOvwPdkgR5OEbgDgEt9g": {"geometry": {"location": {"lat": 51.51141750000001, "lng": -0.194762}, "viewport": {"northeast": {"lat": 51.5128442302915, "lng": -0.193441769708498}, "southwest": {"lat": 51.5101462697085, "lng": -0.196139730291502}}}, "name": "Green Edge Cloud Ltd", "place_id": "ChIJVVXhOvwPdkgR5OEbgDgEt9g", "types": ["point_of_interest", "establishment"]}, "ChIJ74ELS-APdkgRT8aZBGhLVDs": {"geometry": {"location": {"lat": 51.5111234, "lng": -0.1945674}, "viewport": {"northeast": {"lat": 51.5124314802915, "lng": -0.193280469708498}, "southwest": {"lat": 51.5097335197085, "lng": -0.195978430291502}}}, "name": "56 d Linden Gardens W4 2EH London", "place_id": "ChIJ74ELS-APdkgRT8aZBGhLVDs", "types": ["point_of_interest", "establishment"]}, "ChIJv6-uJncPdkgR19q1ILsZwRY": {"geometry": {"location": {"lat": 51.51123310000001, "lng": -0.1933898}, "viewport": {"northeast": {"lat": 51.5125693802915, "lng": -0.192125619708498}, "southwest": {"lat": 51.5098714197085, "lng": -0.194823580291502}}}, "name": "Massage Girl London", "place_id": "ChIJv6-uJncPdkgR19q1ILsZwRY", "types": ["point_of_interest", "establishment"], "rating": 5, "user_ratings_total": 2}, "ChIJDyc6jcgPdkgRa5M24JmX8PM": {"geometry": {"location": {"lat": 51.5110278, "lng": -0.1936589}, "viewport": {"northeast": {"lat": 51.5123872802915, "lng": -0.192231669708498}, "southwest": {"lat": 51.5096893197085, "lng": -0.194929630291502}}}, "name": "Sif N\u00f8rskov | Architectural & Interiors Photography", "place_id": "ChIJDyc6jcgPdkgRa5M24JmX8PM", "types": ["point_of_interest", "establishment"], "rating": 5, "user_ratings_total": 1}, "ChIJ-3KrG_wPdkgRooMOafZszUU": {"geometry": {"location": {"lat": 51.51044304037364, "lng": -0.1944524040202968}, "viewport": {"northeast": {"lat": 51.51179198029151, "lng": -0.193103719708498}, "southwest": {"lat": 51.50909401970851, "lng": -0.195801680291502}}}, "name": "77-89 Linden Gardens", "place_id": "ChIJ-3KrG_wPdkgRooMOafZszUU", "types": ["route"]}, "ChIJfZMAEPwPdkgROSVhAsMqfBc": {"geometry": {"location": {"lat": 51.5102615, "lng": -0.1946441}, "viewport": {"northeast": {"lat": 51.5115472802915, "lng": -0.193271369708498}, "southwest": {"lat": 51.5088493197085, "lng": -0.195969330291502}}}, "name": "Andre Wallace", "place_id": "ChIJfZMAEPwPdkgROSVhAsMqfBc", "types": ["point_of_interest", "establishment"], "rating": 5, "user_ratings_total": 1}, "ChIJIz-Ipv4PdkgRVj_ACbP1FoI": {"geometry": {"location": {"lat": 51.5104707, "lng": -0.1934562}, "viewport": {"northeast": {"lat": 51.5118295802915, "lng": -0.192033619708498}, "southwest": {"lat": 51.5091316197085, "lng": -0.194731580291502}}}, "name": "RH RUBBISH CLEARANCE (Richard Horsted Property)intenance \"", "place_id": "ChIJIz-Ipv4PdkgRVj_ACbP1FoI", "types": ["point_of_interest", "establishment"]}, "ChIJpYoPDvwPdkgRhgDUKxG9J5Y": {"geometry": {"location": {"lat": 51.5100095, "lng": -0.1944552}, "viewport": {"northeast": {"lat": 51.5113729802915, "lng": -0.193032569708498}, "southwest": {"lat": 51.50867501970851, "lng": -0.195730530291502}}}, "name": "Artprojects & Solutions Ltd", "place_id": "ChIJpYoPDvwPdkgRhgDUKxG9J5Y", "types": ["point_of_interest", "establishment"]}, "ChIJlcHzE_wPdkgRz6jzIEZqxG0": {"geometry": {"location": {"lat": 51.51053340000001, "lng": -0.1947923}, "viewport": {"northeast": {"lat": 51.5119017802915, "lng": -0.193295219708498}, "southwest": {"lat": 51.5092038197085, "lng": -0.195993180291502}}}, "name": "T L C Care Services", "place_id": "ChIJlcHzE_wPdkgRz6jzIEZqxG0", "types": ["point_of_interest", "establishment"]}, "ChIJE1wJF_wPdkgR6TWCCEzwAr4": {"geometry": {"location": {"lat": 51.51072349999999, "lng": -0.1947589}, "viewport": {"northeast": {"lat": 51.51208683029149, "lng": -0.193309869708498}, "southwest": {"lat": 51.50938886970849, "lng": -0.196007830291502}}}, "name": "Bendeck & Markham Partners Ltd", "place_id": "ChIJE1wJF_wPdkgR6TWCCEzwAr4", "types": ["point_of_interest", "establishment"]}, "ChIJZ0sA_s0PdkgRePVs1jCMqRQ": {"geometry": {"location": {"lat": 51.51016969999999, "lng": -0.1942804999999999}, "viewport": {"northeast": {"lat": 51.51151463029149, "lng": -0.192957269708498}, "southwest": {"lat": 51.5088166697085, "lng": -0.195655230291502}}}, "name": "Homeopathy Healing", "place_id": "ChIJZ0sA_s0PdkgRePVs1jCMqRQ", "types": ["health", "point_of_interest", "establishment"]}, "ChIJT7HcG_wPdkgRPbLAv0YLV7M": {"geometry": {"location": {"lat": 51.5106393, "lng": -0.1941678}, "viewport": {"northeast": {"lat": 51.5119662302915, "lng": -0.192986869708498}, "southwest": {"lat": 51.5092682697085, "lng": -0.195684830291502}}}, "name": "The Limes", "place_id": "ChIJT7HcG_wPdkgRPbLAv0YLV7M", "types": ["point_of_interest", "establishment"], "rating": 1, "user_ratings_total": 1}, "ChIJo-n6AvwPdkgR6gykV9KEPoc": {"geometry": {"location": {"lat": 51.5101196, "lng": -0.1940476}, "viewport": {"northeast": {"lat": 51.51141423029149, "lng": -0.192672019708498}, "southwest": {"lat": 51.50871626970849, "lng": -0.195369980291502}}}, "name": "Energy Healing London - Healing Meditation & Chakra Balancing", "place_id": "ChIJo-n6AvwPdkgR6gykV9KEPoc", "types": ["health", "point_of_interest", "establishment"], "rating": 5, "user_ratings_total": 7}, "ChIJm84rAhAbdkgRV2A5DpA8wME": {"geometry": {"location": {"lat": 51.5101258, "lng": -0.1942405}, "viewport": {"northeast": {"lat": 51.5114675302915, "lng": -0.1929387697084979}, "southwest": {"lat": 51.50876956970851, "lng": -0.195636730291502}}}, "name": "Housego Solutions Limited - Real Estate Financial Modelling, London UK", "place_id": "ChIJm84rAhAbdkgRV2A5DpA8wME", "types": ["finance", "point_of_interest", "establishment"]}, "ChIJm84rAhAbdkgR3haSaWmQ7YU": {"geometry": {"location": {"lat": 51.5101255, "lng": -0.1942403}, "viewport": {"northeast": {"lat": 51.5114672302915, "lng": -0.192938669708498}, "southwest": {"lat": 51.5087692697085, "lng": -0.195636630291502}}}, "name": "Teymour Housego - bansuri player, London UK", "place_id": "ChIJm84rAhAbdkgR3haSaWmQ7YU", "types": ["electronics_store", "home_goods_store", "point_of_interest", "store", "establishment"], "rating": 5, "user_ratings_total": 1}, "ChIJOdV2pv4PdkgRr9oIRJ9A8io": {"geometry": {"location": {"lat": 51.51036180000001, "lng": -0.1935585}, "viewport": {"northeast": {"lat": 51.51172923029149, "lng": -0.192069069708498}, "southwest": {"lat": 51.50903126970849, "lng": -0.194767030291502}}}, "name": "Glissen Management Ltd", "place_id": "ChIJOdV2pv4PdkgRr9oIRJ9A8io", "types": ["point_of_interest", "establishment"]}, "ChIJGW6oq_4PdkgRb7bw4o_xt2I": {"geometry": {"location": {"lat": 51.51055729999999, "lng": -0.1935141}, "viewport": {"northeast": {"lat": 51.5119179302915, "lng": -0.192078169708498}, "southwest": {"lat": 51.5092199697085, "lng": -0.194776130291502}}}, "name": "hotel fire safety", "place_id": "ChIJGW6oq_4PdkgRb7bw4o_xt2I", "types": ["point_of_interest", "establishment"]}, "ChIJl7JjlmAPdkgRS-1EpTdG80Y": {"geometry": {"location": {"lat": 51.5105417, "lng": -0.1934986}, "viewport": {"northeast": {"lat": 51.5119016802915, "lng": -0.1920675197084979}, "southwest": {"lat": 51.5092037197085, "lng": -0.194765480291502}}}, "name": "Incubator", "place_id": "ChIJl7JjlmAPdkgRS-1EpTdG80Y", "types": ["point_of_interest", "establishment"]}, "ChIJY0SGpf4PdkgRtHx6R1kQKd0": {"geometry": {"location": {"lat": 51.5102699, "lng": -0.1934661}, "viewport": {"northeast": {"lat": 51.5116334802915, "lng": -0.192005969708498}, "southwest": {"lat": 51.5089355197085, "lng": -0.1947039302915021}}}, "name": "Notting Hill Studio", "place_id": "ChIJY0SGpf4PdkgRtHx6R1kQKd0", "types": ["health", "point_of_interest", "establishment"]}, "ChIJVbahoP4PdkgRYLZz8CUDi-Q": {"geometry": {"location": {"lat": 51.5106183, "lng": -0.1938595}, "viewport": {"northeast": {"lat": 51.51200253685343, "lng": -0.1925431063159927}, "southwest": {"lat": 51.50930457627043, "lng": -0.1952410668989967}}}, "name": "Parking lot", "place_id": "ChIJVbahoP4PdkgRYLZz8CUDi-Q", "types": ["parking", "premise", "point_of_interest", "establishment"]}, "ChIJoWkJq_4PdkgRHdgp5rAaBEU": {"geometry": {"location": {"lat": 51.5097415, "lng": -0.1936503}, "viewport": {"northeast": {"lat": 51.51103293029149, "lng": -0.192271869708498}, "southwest": {"lat": 51.50833496970849, "lng": -0.194969830291502}}}, "name": "finebody\u2122 Personal Training", "place_id": "ChIJoWkJq_4PdkgRHdgp5rAaBEU", "types": ["gym", "health", "point_of_interest", "establishment"], "rating": 5, "user_ratings_total": 15}, "ChIJFfJNpv8PdkgRjlbyJKnC3KM": {"geometry": {"location": {"lat": 51.51242290128742, "lng": -0.1900952017431864}, "viewport": {"northeast": {"lat": 51.51377168029151, "lng": -0.188746169708498}, "southwest": {"lat": 51.51107371970851, "lng": -0.191444130291502}}}, "name": "51-59 Moscow Rd", "place_id": "ChIJFfJNpv8PdkgRjlbyJKnC3KM", "types": ["route"]}, "ChIJjbdBp_8PdkgRNTo8TidCl6Y": {"geometry": {"location": {"lat": 51.5123203, "lng": -0.1898346}, "viewport": {"northeast": {"lat": 51.51373193029151, "lng": -0.188501519708498}, "southwest": {"lat": 51.51103396970851, "lng": -0.191199480291502}}}, "name": "Phoenix", "place_id": "ChIJjbdBp_8PdkgRNTo8TidCl6Y", "types": ["bar", "point_of_interest", "establishment"], "rating": 4.2, "user_ratings_total": 538}, "ChIJPQQNwlUFdkgR2DYaJeMVEig": {"geometry": {"location": {"lat": 51.5120644, "lng": -0.1898986}, "viewport": {"northeast": {"lat": 51.51342603029149, "lng": -0.1884450697084979}, "southwest": {"lat": 51.5107280697085, "lng": -0.191143030291502}}}, "name": "Food Hygiene Centre", "place_id": "ChIJPQQNwlUFdkgR2DYaJeMVEig", "types": ["point_of_interest", "establishment"]}, "ChIJFz_OC_8PdkgRoWcy-uSZyEc": {"geometry": {"location": {"lat": 51.5120355, "lng": -0.1898162}, "viewport": {"northeast": {"lat": 51.5133943302915, "lng": -0.188397869708498}, "southwest": {"lat": 51.5106963697085, "lng": -0.191095830291502}}}, "name": "Absolutely Relocation", "place_id": "ChIJFz_OC_8PdkgRoWcy-uSZyEc", "types": ["point_of_interest", "establishment"]}, "ChIJ8dK8CP8PdkgRUOyNiNH2mG4": {"geometry": {"location": {"lat": 51.511967, "lng": -0.1901884}, "viewport": {"northeast": {"lat": 51.5133160302915, "lng": -0.1888387197084979}, "southwest": {"lat": 51.5106180697085, "lng": -0.191536680291502}}}, "name": "Drop Box", "place_id": "ChIJ8dK8CP8PdkgRUOyNiNH2mG4", "types": ["point_of_interest", "establishment"]}, "ChIJmbWpMf8PdkgRZ34rqhfVIWc": {"geometry": {"location": {"lat": 51.51007665021075, "lng": -0.1900200500584009}, "viewport": {"northeast": {"lat": 51.51142563029151, "lng": -0.188671069708498}, "southwest": {"lat": 51.50872766970851, "lng": -0.191369030291502}}}, "name": "Bayswater Road", "place_id": "ChIJmbWpMf8PdkgRZ34rqhfVIWc", "types": ["route"]}, "ChIJPyY_Tv4PdkgR5u_9LSn644o": {"geometry": {"location": {"lat": 51.5129535, "lng": -0.1914575}, "viewport": {"northeast": {"lat": 51.51433873029149, "lng": -0.190119219708498}, "southwest": {"lat": 51.51164076970849, "lng": -0.192817180291502}}}, "name": "Mara Inc (London) Limited", "place_id": "ChIJPyY_Tv4PdkgR5u_9LSn644o", "types": ["point_of_interest", "establishment"]}, "ChIJd5oBVv4PdkgRH0fzeyDi_CQ": {"geometry": {"location": {"lat": 51.51224881148346, "lng": -0.1913437804667693}, "viewport": {"northeast": {"lat": 51.51360463029149, "lng": -0.189998719708498}, "southwest": {"lat": 51.51090666970849, "lng": -0.192696680291502}}}, "name": "69-73 Moscow Rd", "place_id": "ChIJd5oBVv4PdkgRH0fzeyDi_CQ", "types": ["route"]}, "ChIJF33T_v4PdkgRr1UVfOZgToM": {"geometry": {"location": {"lat": 51.5120622, "lng": -0.1913403}, "viewport": {"northeast": {"lat": 51.51344143029149, "lng": -0.189790269708498}, "southwest": {"lat": 51.51074346970849, "lng": -0.1924882302915021}}}, "name": "Biolumina London", "place_id": "ChIJF33T_v4PdkgRr1UVfOZgToM", "types": ["point_of_interest", "establishment"]}, "ChIJ_Q4QGVcPdkgRin4ukBfk0LE": {"geometry": {"location": {"lat": 51.5120949, "lng": -0.1917714}, "viewport": {"northeast": {"lat": 51.5134772302915, "lng": -0.190441169708498}, "southwest": {"lat": 51.5107792697085, "lng": -0.193139130291502}}}, "name": "Cocktails Brew", "place_id": "ChIJ_Q4QGVcPdkgRin4ukBfk0LE", "types": ["meal_takeaway", "restaurant", "food", "point_of_interest", "establishment"]}, "ChIJYRvMDZYPdkgRE_gu3_UvjfA": {"geometry": {"location": {"lat": 51.5121276, "lng": -0.1912895}, "viewport": {"northeast": {"lat": 51.51350143029151, "lng": -0.189775519708498}, "southwest": {"lat": 51.51080346970851, "lng": -0.192473480291502}}}, "name": "Guillam Coffee House", "place_id": "ChIJYRvMDZYPdkgRE_gu3_UvjfA", "types": ["cafe", "food", "point_of_interest", "establishment"], "rating": 5, "user_ratings_total": 19}, "ChIJT8E5__4PdkgRK0Fp7Aku1nc": {"geometry": {"location": {"lat": 51.5121276, "lng": -0.1912895}, "viewport": {"northeast": {"lat": 51.5134999802915, "lng": -0.189774919708498}, "southwest": {"lat": 51.5108020197085, "lng": -0.192472880291502}}}, "name": "Wolff Olins", "place_id": "ChIJT8E5__4PdkgRK0Fp7Aku1nc", "types": ["point_of_interest", "establishment"]}, "ChIJFd4O7P4PdkgRu3d5iZ9Lvaw": {"geometry": {"location": {"lat": 51.51127532137798, "lng": -0.1921042061588831}, "viewport": {"northeast": {"lat": 51.51275420000004, "lng": -0.190755969708498}, "southwest": {"lat": 51.50979619999995, "lng": -0.193453930291502}}}, "name": "34-14 Palace Ct", "place_id": "ChIJFd4O7P4PdkgRu3d5iZ9Lvaw", "types": ["route"]}, "ChIJFRuFxxEPdkgRVQFagBokRN4": {"geometry": {"location": {"lat": 51.51092269999999, "lng": -0.1917547}, "viewport": {"northeast": {"lat": 51.5122564802915, "lng": -0.190499469708498}, "southwest": {"lat": 51.5095585197085, "lng": -0.193197430291502}}}, "name": "EPC Matter", "place_id": "ChIJFRuFxxEPdkgRVQFagBokRN4", "types": ["point_of_interest", "establishment"]}, "ChIJfW0-9EYPdkgRyRoLx2YYGCA": {"geometry": {"location": {"lat": 51.51092269999999, "lng": -0.1917547}, "viewport": {"northeast": {"lat": 51.5122564802915, "lng": -0.190499469708498}, "southwest": {"lat": 51.5095585197085, "lng": -0.193197430291502}}}, "name": "Polanco Sunglasses", "place_id": "ChIJfW0-9EYPdkgRyRoLx2YYGCA", "types": ["point_of_interest", "store", "establishment"]}, "ChIJow0f6P4PdkgR-4uECgpAyGA": {"geometry": {"location": {"lat": 51.5109216, "lng": -0.1917851}, "viewport": {"northeast": {"lat": 51.51225773029149, "lng": -0.190515419708498}, "southwest": {"lat": 51.5095597697085, "lng": -0.193213380291502}}}, "name": "Manuel Rico Freire", "place_id": "ChIJow0f6P4PdkgR-4uECgpAyGA", "types": ["point_of_interest", "establishment"]}, "ChIJyYWRAY4PdkgRt5-QILmMsCY": {"geometry": {"location": {"lat": 51.51092990000001, "lng": -0.1919052}, "viewport": {"northeast": {"lat": 51.5122788302915, "lng": -0.190556669708498}, "southwest": {"lat": 51.5095808697085, "lng": -0.193254630291502}}}, "name": "Bayswater Skips", "place_id": "ChIJyYWRAY4PdkgRt5-QILmMsCY", "types": ["point_of_interest", "establishment"], "rating": 5, "user_ratings_total": 2}, "ChIJAXT04P4PdkgRFdqP3Hrumpc": {"geometry": {"location": {"lat": 51.5110064, "lng": -0.1911699}, "viewport": {"northeast": {"lat": 51.5123951802915, "lng": -0.1895132697084979}, "southwest": {"lat": 51.5096972197085, "lng": -0.192211230291502}}}, "name": "Debra Press Fine Art", "place_id": "ChIJAXT04P4PdkgRFdqP3Hrumpc", "types": ["art_gallery", "point_of_interest", "establishment"]}, "ChIJfXlbnIgPdkgRd9nKRYg4ZXc": {"geometry": {"location": {"lat": 51.5110064, "lng": -0.1911699}, "viewport": {"northeast": {"lat": 51.5123951802915, "lng": -0.1895132697084979}, "southwest": {"lat": 51.5096972197085, "lng": -0.192211230291502}}}, "name": "Kankoor Education", "place_id": "ChIJfXlbnIgPdkgRd9nKRYg4ZXc", "types": ["point_of_interest", "establishment"]}, "ChIJx8tR0f4PdkgRvTBXXSSbdGw": {"geometry": {"location": {"lat": 51.50998479064372, "lng": -0.1913420299125306}, "viewport": {"northeast": {"lat": 51.51133188029151, "lng": -0.189992569708498}, "southwest": {"lat": 51.50863391970851, "lng": -0.192690530291502}}}, "name": "Bayswater Road", "place_id": "ChIJx8tR0f4PdkgRvTBXXSSbdGw", "types": ["route"]}, "ChIJhWOsfP4PdkgRirDBusyajz4": {"geometry": {"location": {"lat": 51.51265009231307, "lng": -0.1931940567138339}, "viewport": {"northeast": {"lat": 51.5139998802915, "lng": -0.191839669708498}, "southwest": {"lat": 51.5113019197085, "lng": -0.194537630291502}}}, "name": "Hereford Road", "place_id": "ChIJhWOsfP4PdkgRirDBusyajz4", "types": ["route"]}, "ChIJa7RLcP4PdkgRyx60QeJMgZY": {"geometry": {"location": {"lat": 51.5130276, "lng": -0.1932907}, "viewport": {"northeast": {"lat": 51.5143797802915, "lng": -0.191913769708498}, "southwest": {"lat": 51.5116818197085, "lng": -0.194611730291502}}}, "name": "Spanish Catholic Chaplaincy", "place_id": "ChIJa7RLcP4PdkgRyx60QeJMgZY", "types": ["place_of_worship", "point_of_interest", "establishment"]}, "ChIJA48WcP4PdkgRgNhLeilGkMQ": {"geometry": {"location": {"lat": 51.5129479, "lng": -0.1932511}, "viewport": {"northeast": {"lat": 51.5142983802915, "lng": -0.191889169708498}, "southwest": {"lat": 51.5116004197085, "lng": -0.194587130291502}}}, "name": "Zipcar", "place_id": "ChIJA48WcP4PdkgRgNhLeilGkMQ", "types": ["car_rental", "point_of_interest", "establishment"]}, "ChIJ--FMtP8PdkgRnmh-t46gw68": {"geometry": {"location": {"lat": 51.51301230000001, "lng": -0.1934613}, "viewport": {"northeast": {"lat": 51.51436988029151, "lng": -0.192038619708498}, "southwest": {"lat": 51.51167191970851, "lng": -0.194736580291502}}}, "name": "Investate", "place_id": "ChIJ--FMtP8PdkgRnmh-t46gw68", "types": ["real_estate_agency", "point_of_interest", "establishment"]}, "ChIJhSc6iP4PdkgRLKFXJJF_rNQ": {"geometry": {"location": {"lat": 51.51217789810889, "lng": -0.1929904320082919}, "viewport": {"northeast": {"lat": 51.5135274302915, "lng": -0.191638419708498}, "southwest": {"lat": 51.5108294697085, "lng": -0.194336380291502}}}, "name": "Hereford Road", "place_id": "ChIJhSc6iP4PdkgRLKFXJJF_rNQ", "types": ["route"]}, "ChIJ6y4Mh_4PdkgR37iG-vTx3vs": {"geometry": {"location": {"lat": 51.5121195, "lng": -0.1933966}, "viewport": {"northeast": {"lat": 51.5135037802915, "lng": -0.191847319708498}, "southwest": {"lat": 51.5108058197085, "lng": -0.194545280291502}}}, "name": "MyAppConverter Ltd", "place_id": "ChIJ6y4Mh_4PdkgR37iG-vTx3vs", "types": ["point_of_interest", "establishment"]}, "ChIJf-FIj_4PdkgR4ffiuLd5P1k": {"geometry": {"location": {"lat": 51.511861, "lng": -0.193102}, "viewport": {"northeast": {"lat": 51.5131771302915, "lng": -0.1917340197084979}, "southwest": {"lat": 51.5104791697085, "lng": -0.194431980291502}}}, "name": "ubitricity Charging Station", "place_id": "ChIJf-FIj_4PdkgR4ffiuLd5P1k", "types": ["point_of_interest", "establishment"]}, "ChIJRcxJhP4PdkgRryqLPJhZJTE": {"geometry": {"location": {"lat": 51.5118065, "lng": -0.1933953}, "viewport": {"northeast": {"lat": 51.51311793029149, "lng": -0.192024769708498}, "southwest": {"lat": 51.51041996970849, "lng": -0.194722730291502}}}, "name": "Prince Edward Mansions", "place_id": "ChIJRcxJhP4PdkgRryqLPJhZJTE", "types": ["point_of_interest", "establishment"], "rating": 4.5, "user_ratings_total": 2}, "ChIJq6p6h_4PdkgRxYChAWOpgcc": {"geometry": {"location": {"lat": 51.51217949999999, "lng": -0.1934103}, "viewport": {"northeast": {"lat": 51.51356268029149, "lng": -0.191867319708498}, "southwest": {"lat": 51.5108647197085, "lng": -0.194565280291502}}}, "name": "PABLO DE LABORDE LASCARIS", "place_id": "ChIJq6p6h_4PdkgRxYChAWOpgcc", "types": ["point_of_interest", "establishment"]}, "ChIJe-PJif4PdkgRv7JI7TaqEyQ": {"geometry": {"location": {"lat": 51.5121396, "lng": -0.192973}, "viewport": {"northeast": {"lat": 51.5134799802915, "lng": -0.191672719708498}, "southwest": {"lat": 51.5107820197085, "lng": -0.194370680291502}}}, "name": "Savana Urban Spa", "place_id": "ChIJe-PJif4PdkgRv7JI7TaqEyQ", "types": ["spa", "health", "point_of_interest", "establishment"]}, "ChIJ0VNnhf4PdkgRwH6iV-T1ljk": {"geometry": {"location": {"lat": 51.51164780000001, "lng": -0.1932009}, "viewport": {"northeast": {"lat": 51.51304878029151, "lng": -0.191881769708498}, "southwest": {"lat": 51.51035081970851, "lng": -0.1945797302915021}}}, "name": "Central Wash", "place_id": "ChIJ0VNnhf4PdkgRwH6iV-T1ljk", "types": ["laundry", "point_of_interest", "establishment"], "rating": 4, "user_ratings_total": 29}, "ChIJs6jzW0cPdkgRljF8gRCAwzE": {"geometry": {"location": {"lat": 51.5116366, "lng": -0.1932851}, "viewport": {"northeast": {"lat": 51.5130343302915, "lng": -0.191963569708498}, "southwest": {"lat": 51.5103363697085, "lng": -0.194661530291502}}}, "name": "Notting Hill Residences", "place_id": "ChIJs6jzW0cPdkgRljF8gRCAwzE", "types": ["lodging", "point_of_interest", "establishment"], "rating": 4.5, "user_ratings_total": 4}, "ChIJY14-hf4PdkgRbAcvM7ilSXQ": {"geometry": {"location": {"lat": 51.5116366, "lng": -0.1932851}, "viewport": {"northeast": {"lat": 51.5130342302915, "lng": -0.191964069708498}, "southwest": {"lat": 51.5103362697085, "lng": -0.194662030291502}}}, "name": "Tracing Services", "place_id": "ChIJY14-hf4PdkgRbAcvM7ilSXQ", "types": ["point_of_interest", "establishment"]}, "ChIJ2-Rflf4PdkgRVkTr-nIvWiw": {"geometry": {"location": {"lat": 51.51064166121266, "lng": -0.1924193290750132}, "viewport": {"northeast": {"lat": 51.5119900802915, "lng": -0.1910740197084979}, "southwest": {"lat": 51.5092921197085, "lng": -0.193771980291502}}}, "name": "20-2 Ossington St", "place_id": "ChIJ2-Rflf4PdkgRVkTr-nIvWiw", "types": ["route"]}, "ChIJeRvYof4PdkgRcfKHxT8QwTg": {"geometry": {"location": {"lat": 51.5109029, "lng": -0.1936759}, "viewport": {"northeast": {"lat": 51.5122662302915, "lng": -0.192219869708498}, "southwest": {"lat": 51.5095682697085, "lng": -0.194917830291502}}}, "name": "The Dome Apartments Notting Hill", "place_id": "ChIJeRvYof4PdkgRcfKHxT8QwTg", "types": ["lodging", "point_of_interest", "establishment"], "rating": 3.4, "user_ratings_total": 58}, "ChIJGW6oq_4PdkgR38lFK8g8yJ0": {"geometry": {"location": {"lat": 51.50989920000001, "lng": -0.1929262}, "viewport": {"northeast": {"lat": 51.51116618029149, "lng": -0.191535469708498}, "southwest": {"lat": 51.5084682197085, "lng": -0.194233430291502}}}, "name": "Zizzi", "place_id": "ChIJGW6oq_4PdkgR38lFK8g8yJ0", "types": ["restaurant", "food", "point_of_interest", "store", "establishment"], "rating": 4, "user_ratings_total": 799}, "ChIJYXn2rP4PdkgRczTXygmdEg8": {"geometry": {"location": {"lat": 51.5097828, "lng": -0.1934808}, "viewport": {"northeast": {"lat": 51.5110658802915, "lng": -0.1921001697084979}, "southwest": {"lat": 51.5083679197085, "lng": -0.194798130291502}}}, "name": "De Amicis", "place_id": "ChIJYXn2rP4PdkgRczTXygmdEg8", "types": ["meal_takeaway", "restaurant", "food", "point_of_interest", "establishment"], "rating": 4.3, "user_ratings_total": 255}, "ChIJGW6oq_4PdkgRvFsIgHS-Vy0": {"geometry": {"location": {"lat": 51.50973949999999, "lng": -0.1935456}, "viewport": {"northeast": {"lat": 51.51104003029149, "lng": -0.192174219708498}, "southwest": {"lat": 51.5083420697085, "lng": -0.194872180291502}}}, "name": "Embassy News", "place_id": "ChIJGW6oq_4PdkgRvFsIgHS-Vy0", "types": ["point_of_interest", "store", "establishment"], "rating": 4.5, "user_ratings_total": 10}, "ChIJ92z7sP4PdkgRxTHyQf9FwKU": {"geometry": {"location": {"lat": 51.50980079999999, "lng": -0.193227}, "viewport": {"northeast": {"lat": 51.5111594302915, "lng": -0.191805119708498}, "southwest": {"lat": 51.5084614697085, "lng": -0.194503080291502}}}, "name": "TVT Lettings", "place_id": "ChIJ92z7sP4PdkgRxTHyQf9FwKU", "types": ["real_estate_agency", "point_of_interest", "establishment"]}, "ChIJcxnEK9sPdkgR1gOFBWE2Kes": {"geometry": {"location": {"lat": 51.50977570000001, "lng": -0.1933874}, "viewport": {"northeast": {"lat": 51.5110629302915, "lng": -0.192034219708498}, "southwest": {"lat": 51.5083649697085, "lng": -0.194732180291502}}}, "name": "Pro Waxing", "place_id": "ChIJcxnEK9sPdkgR1gOFBWE2Kes", "types": ["beauty_salon", "hair_care", "point_of_interest", "establishment"], "rating": 4.4, "user_ratings_total": 24}, "ChIJtQWEq_4PdkgRbbH0TPr3ARo": {"geometry": {"location": {"lat": 51.5097358, "lng": -0.1935444}, "viewport": {"northeast": {"lat": 51.5110381302915, "lng": -0.192173869708498}, "southwest": {"lat": 51.5083401697085, "lng": -0.194871830291502}}}, "name": "Embassy Net", "place_id": "ChIJtQWEq_4PdkgRbbH0TPr3ARo", "types": ["point_of_interest", "store", "establishment"], "rating": 4.5, "user_ratings_total": 57}, "ChIJGW6oq_4PdkgRCtpMz-lz3J0": {"geometry": {"location": {"lat": 51.50979719999999, "lng": -0.1933981}, "viewport": {"northeast": {"lat": 51.5110736802915, "lng": -0.192039569708498}, "southwest": {"lat": 51.5083757197085, "lng": -0.194737530291502}}}, "name": "The Tanning Shop Notting Hill", "place_id": "ChIJGW6oq_4PdkgRCtpMz-lz3J0", "types": ["beauty_salon", "point_of_interest", "establishment"], "rating": 3.9, "user_ratings_total": 37}, "ChIJIyoaWAMbdkgRTMOeNwdUqJU": {"geometry": {"location": {"lat": 51.50979719999999, "lng": -0.1933981}, "viewport": {"northeast": {"lat": 51.5110736802915, "lng": -0.192045019708498}, "southwest": {"lat": 51.5083757197085, "lng": -0.194742980291502}}}, "name": "Kr\u0119garz", "place_id": "ChIJIyoaWAMbdkgRTMOeNwdUqJU", "types": ["physiotherapist", "health", "point_of_interest", "establishment"], "rating": 5, "user_ratings_total": 182}, "ChIJf2xOrP4PdkgRW-gdaFBEpfY": {"geometry": {"location": {"lat": 51.50979719999999, "lng": -0.1933981}, "viewport": {"northeast": {"lat": 51.5110736802915, "lng": -0.192046169708498}, "southwest": {"lat": 51.5083757197085, "lng": -0.194744130291502}}}, "name": "True Look", "place_id": "ChIJf2xOrP4PdkgRW-gdaFBEpfY", "types": ["point_of_interest", "establishment"], "rating": 5, "user_ratings_total": 1}, "ChIJz4qgziQbdkgRnbtkAShpv1k": {"geometry": {"location": {"lat": 51.50979719999999, "lng": -0.1933981}, "viewport": {"northeast": {"lat": 51.5110736802915, "lng": -0.192045019708498}, "southwest": {"lat": 51.5083757197085, "lng": -0.194742980291502}}}, "name": "Pro massage", "place_id": "ChIJz4qgziQbdkgRnbtkAShpv1k", "types": ["health", "point_of_interest", "establishment"], "rating": 5, "user_ratings_total": 126}, "ChIJPxaTrv4PdkgRttsPuCHYtFs": {"geometry": {"location": {"lat": 51.50999769999999, "lng": -0.1934106}, "viewport": {"northeast": {"lat": 51.51136358029149, "lng": -0.191932869708498}, "southwest": {"lat": 51.50866561970849, "lng": -0.194630830291502}}}, "name": "Be Essence", "place_id": "ChIJPxaTrv4PdkgRttsPuCHYtFs", "types": ["health", "point_of_interest", "establishment"]}, "ChIJg5AU2WwPdkgRv0CdaWavO24": {"geometry": {"location": {"lat": 51.5097603, "lng": -0.1935661}, "viewport": {"northeast": {"lat": 51.51104953029149, "lng": -0.192189469708498}, "southwest": {"lat": 51.50835156970849, "lng": -0.194887430291502}}}, "name": "Bounce - Luggage Storage Notting Hill Gate", "place_id": "ChIJg5AU2WwPdkgRv0CdaWavO24", "types": ["storage", "point_of_interest", "store", "establishment"]}, "ChIJSRC0UvkPdkgRDWbz4w-XsRc": {"geometry": {"location": {"lat": 51.5097526, "lng": -0.1936339}, "viewport": {"northeast": {"lat": 51.5110397802915, "lng": -0.192256319708498}, "southwest": {"lat": 51.5083418197085, "lng": -0.194954280291502}}}, "name": "Par M", "place_id": "ChIJSRC0UvkPdkgRDWbz4w-XsRc", "types": ["bar", "point_of_interest", "establishment"]}, "ChIJk6r2qv4PdkgRty64cCqNPXA": {"geometry": {"location": {"lat": 51.5097594, "lng": -0.1937035}, "viewport": {"northeast": {"lat": 51.5110378802915, "lng": -0.192318469708498}, "southwest": {"lat": 51.5083399197085, "lng": -0.195016430291502}}}, "name": "Aspect", "place_id": "ChIJk6r2qv4PdkgRty64cCqNPXA", "types": ["painter", "electrician", "plumber", "roofing_contractor", "general_contractor", "point_of_interest", "establishment"], "rating": 1.9, "user_ratings_total": 8}, "ChIJJW6oq_4PdkgRdh39o6vn4c4": {"geometry": {"location": {"lat": 51.509736, "lng": -0.1937168}, "viewport": {"northeast": {"lat": 51.51102393029149, "lng": -0.192336569708498}, "southwest": {"lat": 51.50832596970849, "lng": -0.195034530291502}}}, "name": "Notting Hill Gate Opticians", "place_id": "ChIJJW6oq_4PdkgRdh39o6vn4c4", "types": ["health", "point_of_interest", "store", "establishment"], "rating": 4.9, "user_ratings_total": 102}, "ChIJwYXvRUUPdkgRM3H_7AhV2OI": {"geometry": {"location": {"lat": 51.5098382, "lng": -0.1938081}, "viewport": {"northeast": {"lat": 51.5110715302915, "lng": -0.192399919708498}, "southwest": {"lat": 51.5083735697085, "lng": -0.195097880291502}}}, "name": "Nibble Group Ltd", "place_id": "ChIJwYXvRUUPdkgRM3H_7AhV2OI", "types": ["point_of_interest", "establishment"]}, "ChIJG8wZMvwPdkgRDIo9RI4KP0k": {"geometry": {"location": {"lat": 51.51194800171442, "lng": -0.1947079511458764}, "viewport": {"northeast": {"lat": 51.5132969802915, "lng": -0.1933589697084979}, "southwest": {"lat": 51.5105990197085, "lng": -0.196056930291502}}}, "name": "26-24 Pembridge Square", "place_id": "ChIJG8wZMvwPdkgRDIo9RI4KP0k", "types": ["route"]}, "ChIJNXz2LfwPdkgR94EaNt-vQM0": {"geometry": {"location": {"lat": 51.5119494, "lng": -0.1946525}, "viewport": {"northeast": {"lat": 51.5133319802915, "lng": -0.193314769708498}, "southwest": {"lat": 51.5106340197085, "lng": -0.196012730291502}}}, "name": "Estate Planning", "place_id": "ChIJNXz2LfwPdkgR94EaNt-vQM0", "types": ["lawyer", "point_of_interest", "establishment"]}, "ChIJz0C6MvwPdkgRvXHJMHmqZN0": {"geometry": {"location": {"lat": 51.51211579999999, "lng": -0.1946749}, "viewport": {"northeast": {"lat": 51.51338643029149, "lng": -0.1932997197084979}, "southwest": {"lat": 51.5106884697085, "lng": -0.195997680291502}}}, "name": "Andrews Travel House, ATH business travel solutions", "place_id": "ChIJz0C6MvwPdkgRvXHJMHmqZN0", "types": ["travel_agency", "point_of_interest", "establishment"], "rating": 5, "user_ratings_total": 1}, "ChIJRT-6MvwPdkgRqxjNK_Vgn64": {"geometry": {"location": {"lat": 51.51208049999999, "lng": -0.1946346}, "viewport": {"northeast": {"lat": 51.5133705302915, "lng": -0.193265919708498}, "southwest": {"lat": 51.5106725697085, "lng": -0.195963880291502}}}, "name": "Scandinavian Fitness", "place_id": "ChIJRT-6MvwPdkgRqxjNK_Vgn64", "types": ["park", "school", "gym", "health", "point_of_interest", "establishment"], "rating": 5, "user_ratings_total": 10}, "ChIJN2aeMvwPdkgR3lGaGooH2Gs": {"geometry": {"location": {"lat": 51.5121202, "lng": -0.1946609}, "viewport": {"northeast": {"lat": 51.51338958029149, "lng": -0.193285319708498}, "southwest": {"lat": 51.5106916197085, "lng": -0.195983280291502}}}, "name": "FDA London", "place_id": "ChIJN2aeMvwPdkgR3lGaGooH2Gs", "types": ["point_of_interest", "establishment"]}, "ChIJN2aeMvwPdkgR2XoUSN8us0c": {"geometry": {"location": {"lat": 51.5121202, "lng": -0.1946609}, "viewport": {"northeast": {"lat": 51.51338958029149, "lng": -0.193285319708498}, "southwest": {"lat": 51.5106916197085, "lng": -0.195983280291502}}}, "name": "FDA London", "place_id": "ChIJN2aeMvwPdkgR2XoUSN8us0c", "types": ["point_of_interest", "establishment"]}, "ChIJ69tqtRgPdkgRQo70u53mLNE": {"geometry": {"location": {"lat": 51.5121202, "lng": -0.1946609}, "viewport": {"northeast": {"lat": 51.51338958029149, "lng": -0.193285319708498}, "southwest": {"lat": 51.5106916197085, "lng": -0.195983280291502}}}, "name": "Registered Office", "place_id": "ChIJ69tqtRgPdkgRQo70u53mLNE", "types": ["point_of_interest", "establishment"]}, "ChIJA-VP2ocPdkgRyAXeVHrYkoo": {"geometry": {"location": {"lat": 51.50984680000001, "lng": -0.1948086}, "viewport": {"northeast": {"lat": 51.5109857802915, "lng": -0.193351419708498}, "southwest": {"lat": 51.50828781970851, "lng": -0.1960493802915021}}}, "name": "The Advanced Spiritual Institute", "place_id": "ChIJA-VP2ocPdkgRyAXeVHrYkoo", "types": ["point_of_interest", "establishment"], "rating": 5, "user_ratings_total": 3}, "ChIJa0wjCfwPdkgRoN0sMMaG0V0": {"geometry": {"location": {"lat": 51.5099733, "lng": -0.1946829}, "viewport": {"northeast": {"lat": 51.5113936802915, "lng": -0.193359219708498}, "southwest": {"lat": 51.5086957197085, "lng": -0.196057180291502}}}, "name": "Microcom Publishing Ltd", "place_id": "ChIJa0wjCfwPdkgRoN0sMMaG0V0", "types": ["point_of_interest", "establishment"]}}}