{"E00023841": {"ChIJuwVX_NMadkgRZ4qkEcdTtEk": {"geometry": {"location": {"lat": 51.51997029682945, "lng": -0.1474060661017676}, "viewport": {"northeast": {"lat": 51.52131928029149, "lng": -0.146057069708498}, "southwest": {"lat": 51.5186213197085, "lng": -0.148755030291502}}}, "name": "67-91 Harley St", "place_id": "ChIJuwVX_NMadkgRZ4qkEcdTtEk", "types": ["route"]}, "ChIJvyAYR9EadkgRIeOOH5yUsQk": {"geometry": {"location": {"lat": 51.51966999999999, "lng": -0.1475296}, "viewport": {"northeast": {"lat": 51.52104023029149, "lng": -0.146060119708498}, "southwest": {"lat": 51.51834226970849, "lng": -0.148758080291502}}}, "name": "Mr Solomon Abramovich", "place_id": "ChIJvyAYR9EadkgRIeOOH5yUsQk", "types": ["doctor", "health", "point_of_interest", "establishment"], "rating": 3.4, "user_ratings_total": 5}, "ChIJmY2D-9MadkgRN2oQzGPIcfs": {"geometry": {"location": {"lat": 51.5198324, "lng": -0.1471886}, "viewport": {"northeast": {"lat": 51.52116873029149, "lng": -0.145911169708498}, "southwest": {"lat": 51.51847076970849, "lng": -0.148609130291502}}}, "name": "The London Psychiatry Centre", "place_id": "ChIJmY2D-9MadkgRN2oQzGPIcfs", "types": ["doctor", "health", "point_of_interest", "establishment"], "rating": 4, "user_ratings_total": 25}, "ChIJS9fO_dMadkgR6igN_TtsFpM": {"geometry": {"location": {"lat": 51.52010730000001, "lng": -0.1471457}, "viewport": {"northeast": {"lat": 51.52142993029151, "lng": -0.145946119708498}, "southwest": {"lat": 51.51873196970851, "lng": -0.148644080291502}}}, "name": "Dr G Mikhail", "place_id": "ChIJS9fO_dMadkgR6igN_TtsFpM", "types": ["doctor", "health", "point_of_interest", "establishment"]}, "ChIJv18AV9EadkgREr7PYOlbcgA": {"geometry": {"location": {"lat": 51.520358, "lng": -0.1474456}, "viewport": {"northeast": {"lat": 51.52169578029149, "lng": -0.146160069708498}, "southwest": {"lat": 51.5189978197085, "lng": -0.148858030291502}}}, "name": "The Dental Company London", "place_id": "ChIJv18AV9EadkgREr7PYOlbcgA", "types": ["dentist", "health", "point_of_interest", "establishment"], "rating": 5, "user_ratings_total": 1}, "ChIJHZ9BItEadkgRJH8vkzEsXqk": {"geometry": {"location": {"lat": 51.5200235, "lng": -0.1471174}, "viewport": {"northeast": {"lat": 51.5213469302915, "lng": -0.1459132197084979}, "southwest": {"lat": 51.5186489697085, "lng": -0.148611180291502}}}, "name": "Rogers Medical Group", "place_id": "ChIJHZ9BItEadkgRJH8vkzEsXqk", "types": ["doctor", "health", "point_of_interest", "establishment"]}, "ChIJEcAlQtEadkgRJkOY_S8092Q": {"geometry": {"location": {"lat": 51.5199748, "lng": -0.1474138}, "viewport": {"northeast": {"lat": 51.52133283029151, "lng": -0.146013469708498}, "southwest": {"lat": 51.51863486970851, "lng": -0.1487114302915021}}}, "name": "Alan Treharne Chinese Herbal Medicine", "place_id": "ChIJEcAlQtEadkgRJkOY_S8092Q", "types": ["health", "point_of_interest", "establishment"]}, "ChIJX9u_iNQadkgRAWANryozUOU": {"geometry": {"location": {"lat": 51.5197405, "lng": -0.1476329}, "viewport": {"northeast": {"lat": 51.5211165802915, "lng": -0.1461304697084979}, "southwest": {"lat": 51.51841861970851, "lng": -0.148828430291502}}}, "name": "Dr. Keith Bush", "place_id": "ChIJX9u_iNQadkgRAWANryozUOU", "types": ["health", "point_of_interest", "establishment"], "rating": 4.5, "user_ratings_total": 8}, "ChIJdcXtj9QadkgRqdqXgniAid4": {"geometry": {"location": {"lat": 51.52003699999999, "lng": -0.14731}, "viewport": {"northeast": {"lat": 51.52137563029149, "lng": -0.146019569708498}, "southwest": {"lat": 51.5186776697085, "lng": -0.148717530291502}}}, "name": "Goodbye PMS Clinic", "place_id": "ChIJdcXtj9QadkgRqdqXgniAid4", "types": ["health", "point_of_interest", "establishment"]}, "ChIJtUFp-dMadkgRoiyg5c_pwwY": {"geometry": {"location": {"lat": 51.5197558, "lng": -0.1471486}, "viewport": {"northeast": {"lat": 51.5210917302915, "lng": -0.145873519708498}, "southwest": {"lat": 51.5183937697085, "lng": -0.148571480291502}}}, "name": "LPSA", "place_id": "ChIJtUFp-dMadkgRoiyg5c_pwwY", "types": ["doctor", "health", "point_of_interest", "establishment"], "rating": 5, "user_ratings_total": 3}, "ChIJRQTZftQadkgRuixYSSz-j9A": {"geometry": {"location": {"lat": 51.5196181, "lng": -0.1469887}, "viewport": {"northeast": {"lat": 51.52094608029149, "lng": -0.145758569708498}, "southwest": {"lat": 51.5182481197085, "lng": -0.148456530291502}}}, "name": "Harley Street Cosmetic Surgery Partners", "place_id": "ChIJRQTZftQadkgRuixYSSz-j9A", "types": ["doctor", "health", "point_of_interest", "store", "establishment"], "rating": 4.7, "user_ratings_total": 7}, "ChIJdcXtj9QadkgR7-v_XFFdM8U": {"geometry": {"location": {"lat": 51.51982279999999, "lng": -0.1476313}, "viewport": {"northeast": {"lat": 51.5211957302915, "lng": -0.146147019708498}, "southwest": {"lat": 51.5184977697085, "lng": -0.148844980291502}}}, "name": "Medics Direct", "place_id": "ChIJdcXtj9QadkgR7-v_XFFdM8U", "types": ["beauty_salon", "doctor", "health", "point_of_interest", "establishment"], "rating": 5, "user_ratings_total": 1}, "ChIJo_VsXkIFdkgR5B5BOVJThbI": {"geometry": {"location": {"lat": 51.520091, "lng": -0.14724}, "viewport": {"northeast": {"lat": 51.5214219302915, "lng": -0.145993319708498}, "southwest": {"lat": 51.5187239697085, "lng": -0.148691280291502}}}, "name": "Rani Kl\u00f6ckner - Hypnotherapy, ThetaHealing\u2122 and HypnoBirthing\u00ae", "place_id": "ChIJo_VsXkIFdkgR5B5BOVJThbI", "types": ["doctor", "health", "point_of_interest", "establishment"]}, "ChIJXxxeCtQadkgRZclDX8B5rXI": {"geometry": {"location": {"lat": 51.5198622, "lng": -0.1471476}, "viewport": {"northeast": {"lat": 51.52119408029149, "lng": -0.145895419708498}, "southwest": {"lat": 51.51849611970849, "lng": -0.148593380291502}}}, "name": "Issy Mahmood", "place_id": "ChIJXxxeCtQadkgRZclDX8B5rXI", "types": ["dentist", "health", "point_of_interest", "establishment"]}, "ChIJtUx1_tMadkgRCmAALc40d44": {"geometry": {"location": {"lat": 51.5201108, "lng": -0.1470832}, "viewport": {"northeast": {"lat": 51.52142818029149, "lng": -0.145913269708498}, "southwest": {"lat": 51.5187302197085, "lng": -0.148611230291502}}}, "name": "Benjamin Bonetti Ltd", "place_id": "ChIJtUx1_tMadkgRCmAALc40d44", "types": ["health", "point_of_interest", "establishment"]}, "ChIJaQgTVtEadkgRvXfejx5YPZM": {"geometry": {"location": {"lat": 51.5202445, "lng": -0.1473054}, "viewport": {"northeast": {"lat": 51.5215750302915, "lng": -0.146060819708498}, "southwest": {"lat": 51.5188770697085, "lng": -0.148758780291502}}}, "name": "Fine Dentistry", "place_id": "ChIJaQgTVtEadkgRvXfejx5YPZM", "types": ["dentist", "health", "point_of_interest", "establishment"], "rating": 5, "user_ratings_total": 3}, "ChIJmY2D-9MadkgRY2j0yAzGwFU": {"geometry": {"location": {"lat": 51.51989580000001, "lng": -0.1469776}, "viewport": {"northeast": {"lat": 51.5212125802915, "lng": -0.145811169708498}, "southwest": {"lat": 51.5185146197085, "lng": -0.148509130291502}}}, "name": "Dr Gillian Vanhegan", "place_id": "ChIJmY2D-9MadkgRY2j0yAzGwFU", "types": ["doctor", "health", "point_of_interest", "establishment"]}, "ChIJS9fO_dMadkgRpABr0Flu19A": {"geometry": {"location": {"lat": 51.5199703, "lng": -0.147406}, "viewport": {"northeast": {"lat": 51.5213278802915, "lng": -0.146008419708498}, "southwest": {"lat": 51.5186299197085, "lng": -0.148706380291502}}}, "name": "Czech Trade", "place_id": "ChIJS9fO_dMadkgRpABr0Flu19A", "types": ["point_of_interest", "establishment"]}, "ChIJaQgTVtEadkgRNxCEJPRqNsI": {"geometry": {"location": {"lat": 51.5202413, "lng": -0.1472927}, "viewport": {"northeast": {"lat": 51.5215709302915, "lng": -0.146053319708498}, "southwest": {"lat": 51.5188729697085, "lng": -0.148751280291502}}}, "name": "Delahaye Dr M", "place_id": "ChIJaQgTVtEadkgRNxCEJPRqNsI", "types": ["dentist", "health", "point_of_interest", "establishment"]}, "ChIJF2Wp-9MadkgRQKQ1BrRHJVY": {"geometry": {"location": {"lat": 51.51956300000001, "lng": -0.1473801}, "viewport": {"northeast": {"lat": 51.52092503029149, "lng": -0.145957219708498}, "southwest": {"lat": 51.51822706970849, "lng": -0.148655180291502}}}, "name": "Gavin a J Morrison", "place_id": "ChIJF2Wp-9MadkgRQKQ1BrRHJVY", "types": ["doctor", "health", "point_of_interest", "establishment"]}, "ChIJmY2D-9MadkgRnRFz6ut5YVo": {"geometry": {"location": {"lat": 51.519837, "lng": -0.1472058}, "viewport": {"northeast": {"lat": 51.5211745802915, "lng": -0.145921369708498}, "southwest": {"lat": 51.5184766197085, "lng": -0.148619330291502}}}, "name": "Nee Dental Practice", "place_id": "ChIJmY2D-9MadkgRnRFz6ut5YVo", "types": ["dentist", "health", "point_of_interest", "establishment"]}, "ChIJmY2D-9MadkgRUFkJp3nvTpw": {"geometry": {"location": {"lat": 51.51989580000001, "lng": -0.1469776}, "viewport": {"northeast": {"lat": 51.5212125802915, "lng": -0.145811169708498}, "southwest": {"lat": 51.5185146197085, "lng": -0.148509130291502}}}, "name": "Carling Dental", "place_id": "ChIJmY2D-9MadkgRUFkJp3nvTpw", "types": ["dentist", "health", "point_of_interest", "establishment"], "rating": 4.9, "user_ratings_total": 12}, "ChIJtWms5NMadkgRUFR4aRZhHFw": {"geometry": {"location": {"lat": 51.51989349999999, "lng": -0.1475029}, "viewport": {"northeast": {"lat": 51.52125323029149, "lng": -0.1460929197084979}, "southwest": {"lat": 51.51855526970849, "lng": -0.148790880291502}}}, "name": "Visioncare Medical Eye Centre", "place_id": "ChIJtWms5NMadkgRUFR4aRZhHFw", "types": ["health", "point_of_interest", "store", "establishment"]}, "ChIJ4T8u_NMadkgRbwgJqkOJmyc": {"geometry": {"location": {"lat": 51.519982, "lng": -0.147284}, "viewport": {"northeast": {"lat": 51.52132058029149, "lng": -0.145993969708498}, "southwest": {"lat": 51.51862261970849, "lng": -0.148691930291502}}}, "name": "Doctor K Harley St.", "place_id": "ChIJ4T8u_NMadkgRbwgJqkOJmyc", "types": ["health", "point_of_interest", "establishment"], "rating": 5, "user_ratings_total": 5}, "ChIJPRCr_dMadkgRVGTcRSULFMg": {"geometry": {"location": {"lat": 51.51982820000001, "lng": -0.1475997}, "viewport": {"northeast": {"lat": 51.5211982802915, "lng": -0.146131119708498}, "southwest": {"lat": 51.5185003197085, "lng": -0.148829080291502}}}, "name": "Future Drilling Ltd", "place_id": "ChIJPRCr_dMadkgRVGTcRSULFMg", "types": ["dentist", "health", "point_of_interest", "establishment"]}, "ChIJsQpZ_tMadkgR8yTCNsGk51k": {"geometry": {"location": {"lat": 51.52001, "lng": -0.1472207}, "viewport": {"northeast": {"lat": 51.5213423802915, "lng": -0.145965869708498}, "southwest": {"lat": 51.5186444197085, "lng": -0.148663830291502}}}, "name": "Howe Baker International Ltd", "place_id": "ChIJsQpZ_tMadkgR8yTCNsGk51k", "types": ["point_of_interest", "establishment"]}, "ChIJ0-pw-9MadkgRsyKb6eUuG7I": {"geometry": {"location": {"lat": 51.519823, "lng": -0.147631}, "viewport": {"northeast": {"lat": 51.5211958302915, "lng": -0.146146869708498}, "southwest": {"lat": 51.5184978697085, "lng": -0.148844830291502}}}, "name": "TDC Dental Implants", "place_id": "ChIJ0-pw-9MadkgRsyKb6eUuG7I", "types": ["dentist", "health", "point_of_interest", "establishment"], "rating": 4.2, "user_ratings_total": 19}, "ChIJj_ir5NMadkgRo3EC25qbPSM": {"geometry": {"location": {"lat": 51.51982279999999, "lng": -0.1476313}, "viewport": {"northeast": {"lat": 51.52119568029149, "lng": -0.146146969708498}, "southwest": {"lat": 51.51849771970849, "lng": -0.148844930291502}}}, "name": "Medical Legal Eye", "place_id": "ChIJj_ir5NMadkgRo3EC25qbPSM", "types": ["health", "point_of_interest", "establishment"]}, "ChIJfUTXQNEadkgRyT9_2QGMRQA": {"geometry": {"location": {"lat": 51.5197811, "lng": -0.1471815}, "viewport": {"northeast": {"lat": 51.5211187802915, "lng": -0.145896519708498}, "southwest": {"lat": 51.5184208197085, "lng": -0.148594480291502}}}, "name": "Dominic Bray Facial Plastic Surgery London", "place_id": "ChIJfUTXQNEadkgRyT9_2QGMRQA", "types": ["doctor", "health", "point_of_interest", "establishment"], "rating": 4.5, "user_ratings_total": 8}, "ChIJaQ4_4NAadkgRY4kxaWO7ziI": {"geometry": {"location": {"lat": 51.51978769999999, "lng": -0.1471713}, "viewport": {"northeast": {"lat": 51.5211242802915, "lng": -0.145892469708498}, "southwest": {"lat": 51.5184263197085, "lng": -0.148590430291502}}}, "name": "The Dr Giaroli & Associates Clinic", "place_id": "ChIJaQ4_4NAadkgRY4kxaWO7ziI", "types": ["hospital", "doctor", "health", "point_of_interest", "establishment"]}, "ChIJZz5y_dMadkgRo_0Erp5SzB8": {"geometry": {"location": {"lat": 51.52010620000001, "lng": -0.1474676}, "viewport": {"northeast": {"lat": 51.5214636802915, "lng": -0.146070319708498}, "southwest": {"lat": 51.5187657197085, "lng": -0.148768280291502}}}, "name": "London Consultants' Association", "place_id": "ChIJZz5y_dMadkgRo_0Erp5SzB8", "types": ["point_of_interest", "establishment"]}, "ChIJ34ewXtEadkgRtAfIOO3LSLk": {"geometry": {"location": {"lat": 51.51999180000001, "lng": -0.1477025}, "viewport": {"northeast": {"lat": 51.5213641802915, "lng": -0.146220869708498}, "southwest": {"lat": 51.5186662197085, "lng": -0.148918830291502}}}, "name": "Christine Frayret", "place_id": "ChIJ34ewXtEadkgRtAfIOO3LSLk", "types": ["doctor", "health", "point_of_interest", "establishment"], "rating": 3, "user_ratings_total": 4}, "ChIJEUlZ_tMadkgRjmeeLpMZM_g": {"geometry": {"location": {"lat": 51.5200243, "lng": -0.1471268}, "viewport": {"northeast": {"lat": 51.52134848029149, "lng": -0.145918469708498}, "southwest": {"lat": 51.51865051970849, "lng": -0.148616430291502}}}, "name": "Full Mouth Rehabilitation", "place_id": "ChIJEUlZ_tMadkgRjmeeLpMZM_g", "types": ["health", "point_of_interest", "establishment"]}, "ChIJqcZNdNQadkgRtZLeDtB7YqY": {"geometry": {"location": {"lat": 51.5200286, "lng": -0.1471287}, "viewport": {"northeast": {"lat": 51.5213527802915, "lng": -0.145920369708498}, "southwest": {"lat": 51.5186548197085, "lng": -0.148618330291502}}}, "name": "Care Oncology Clinic Ltd", "place_id": "ChIJqcZNdNQadkgRtZLeDtB7YqY", "types": ["doctor", "health", "point_of_interest", "establishment"], "rating": 4.4, "user_ratings_total": 9}, "ChIJsQpZ_tMadkgRnlXxE_3ooR4": {"geometry": {"location": {"lat": 51.5200286, "lng": -0.1471287}, "viewport": {"northeast": {"lat": 51.5213527802915, "lng": -0.145920369708498}, "southwest": {"lat": 51.5186548197085, "lng": -0.148618330291502}}}, "name": "Thread Vein Clinic", "place_id": "ChIJsQpZ_tMadkgRnlXxE_3ooR4", "types": ["doctor", "health", "point_of_interest", "establishment"], "rating": 5, "user_ratings_total": 18}, "ChIJEUlZ_tMadkgRUg9Ue-9mE5w": {"geometry": {"location": {"lat": 51.5200286, "lng": -0.1471287}, "viewport": {"northeast": {"lat": 51.5213527802915, "lng": -0.145920369708498}, "southwest": {"lat": 51.5186548197085, "lng": -0.148618330291502}}}, "name": "Skin Consultancy", "place_id": "ChIJEUlZ_tMadkgRUg9Ue-9mE5w", "types": ["doctor", "health", "point_of_interest", "establishment"], "rating": 4.9, "user_ratings_total": 13}, "ChIJd5GIz-0PdkgR3W9f048KEWs": {"geometry": {"location": {"lat": 51.5200286, "lng": -0.1471287}, "viewport": {"northeast": {"lat": 51.5213527802915, "lng": -0.145920369708498}, "southwest": {"lat": 51.5186548197085, "lng": -0.148618330291502}}}, "name": "Timeless Hair Transplant Clinic London", "place_id": "ChIJd5GIz-0PdkgR3W9f048KEWs", "types": ["hair_care", "health", "point_of_interest", "establishment"], "rating": 5, "user_ratings_total": 3}, "ChIJAzow_NMadkgRFuRP1ctGfD0": {"geometry": {"location": {"lat": 51.52002329999999, "lng": -0.1471175}, "viewport": {"northeast": {"lat": 51.52134673029149, "lng": -0.1459132197084979}, "southwest": {"lat": 51.51864876970849, "lng": -0.148611180291502}}}, "name": "Sophie Lane", "place_id": "ChIJAzow_NMadkgRFuRP1ctGfD0", "types": ["physiotherapist", "health", "point_of_interest", "establishment"]}, "ChIJAzow_NMadkgRqzsZoCSTrj8": {"geometry": {"location": {"lat": 51.52002329999999, "lng": -0.1471175}, "viewport": {"northeast": {"lat": 51.52134673029149, "lng": -0.1459132197084979}, "southwest": {"lat": 51.51864876970849, "lng": -0.148611180291502}}}, "name": "Mr Michael Hodge", "place_id": "ChIJAzow_NMadkgRqzsZoCSTrj8", "types": ["doctor", "health", "point_of_interest", "establishment"]}, "ChIJn2Eu_NMadkgR6bRPFE-FYCc": {"geometry": {"location": {"lat": 51.5200235, "lng": -0.1471174}, "viewport": {"northeast": {"lat": 51.5213469302915, "lng": -0.1459132197084979}, "southwest": {"lat": 51.5186489697085, "lng": -0.148611180291502}}}, "name": "Petro Winch Ltd", "place_id": "ChIJn2Eu_NMadkgR6bRPFE-FYCc", "types": ["point_of_interest", "establishment"]}, "ChIJnVwe49MadkgRdS5bG8z6Ljs": {"geometry": {"location": {"lat": 51.5199992, "lng": -0.147719}, "viewport": {"northeast": {"lat": 51.5213726802915, "lng": -0.146231319708498}, "southwest": {"lat": 51.5186747197085, "lng": -0.148929280291502}}}, "name": "The Harley Street Clinic Cancer & Radiotherapy Centre", "place_id": "ChIJnVwe49MadkgRdS5bG8z6Ljs", "types": ["hospital", "health", "point_of_interest", "establishment"], "rating": 1, "user_ratings_total": 1}, "ChIJrZTAiNQadkgRMnQG5pK3T-I": {"geometry": {"location": {"lat": 51.5197405, "lng": -0.1476329}, "viewport": {"northeast": {"lat": 51.5211165802915, "lng": -0.1461304697084979}, "southwest": {"lat": 51.51841861970851, "lng": -0.148828430291502}}}, "name": "The KB Clinic", "place_id": "ChIJrZTAiNQadkgRMnQG5pK3T-I", "types": ["health", "point_of_interest", "establishment"]}, "ChIJ_Q3S-9MadkgR3H9ecipJuD8": {"geometry": {"location": {"lat": 51.5197174, "lng": -0.1471611}, "viewport": {"northeast": {"lat": 51.5210558302915, "lng": -0.145872169708498}, "southwest": {"lat": 51.5183578697085, "lng": -0.148570130291502}}}, "name": "sinuslab (advanced sinus care, sinusitis treatment)", "place_id": "ChIJ_Q3S-9MadkgR3H9ecipJuD8", "types": ["health", "point_of_interest", "establishment"]}, "ChIJo4PY-tMadkgRkkhWq_Go7Qs": {"geometry": {"location": {"lat": 51.5196781, "lng": -0.1475501}, "viewport": {"northeast": {"lat": 51.5210497302915, "lng": -0.146072819708498}, "southwest": {"lat": 51.5183517697085, "lng": -0.148770780291502}}}, "name": "Dr John P. O'Connell", "place_id": "ChIJo4PY-tMadkgRkkhWq_Go7Qs", "types": ["doctor", "health", "point_of_interest", "establishment"], "rating": 5, "user_ratings_total": 1}, "ChIJFf84_9MadkgRtZ1_kFgbirs": {"geometry": {"location": {"lat": 51.51990559999999, "lng": -0.1469902}, "viewport": {"northeast": {"lat": 51.52122303029149, "lng": -0.145820019708498}, "southwest": {"lat": 51.5185250697085, "lng": -0.148517980291502}}}, "name": "Rafan House", "place_id": "ChIJFf84_9MadkgRtZ1_kFgbirs", "types": ["health", "point_of_interest", "establishment"]}, "ChIJW2w-_tMadkgRT6oYDXO-z7w": {"geometry": {"location": {"lat": 51.52010730000001, "lng": -0.1471455}, "viewport": {"northeast": {"lat": 51.5214298802915, "lng": -0.145946019708498}, "southwest": {"lat": 51.5187319197085, "lng": -0.148643980291502}}}, "name": "Harley Street Knee Clinic", "place_id": "ChIJW2w-_tMadkgRT6oYDXO-z7w", "types": ["health", "point_of_interest", "establishment"]}, "ChIJNR8h_NMadkgR59Pj1kewnz8": {"geometry": {"location": {"lat": 51.5200365, "lng": -0.1470461}, "viewport": {"northeast": {"lat": 51.5213535802915, "lng": -0.145877669708498}, "southwest": {"lat": 51.5186556197085, "lng": -0.148575630291502}}}, "name": "Fertile Matters Ltd.", "place_id": "ChIJNR8h_NMadkgR59Pj1kewnz8", "types": ["doctor", "health", "point_of_interest", "establishment"]}, "ChIJdSjH_dMadkgRLDN1trtY3MI": {"geometry": {"location": {"lat": 51.5201095, "lng": -0.1471487}, "viewport": {"northeast": {"lat": 51.5214322802915, "lng": -0.145948169708498}, "southwest": {"lat": 51.5187343197085, "lng": -0.148646130291502}}}, "name": "Mr Sanjeev Bassi", "place_id": "ChIJdSjH_dMadkgRLDN1trtY3MI", "types": ["doctor", "health", "point_of_interest", "establishment"], "rating": 4.6, "user_ratings_total": 7}, "ChIJASYs5dMadkgRmzYl6FDZCmo": {"geometry": {"location": {"lat": 51.51965070000001, "lng": -0.147631}, "viewport": {"northeast": {"lat": 51.5210299302915, "lng": -0.1461105197084979}, "southwest": {"lat": 51.51833196970851, "lng": -0.148808480291502}}}, "name": "Staley Hall", "place_id": "ChIJASYs5dMadkgRmzYl6FDZCmo", "types": ["lodging", "point_of_interest", "establishment"]}, "ChIJrzyM_dMadkgRhQcfb3uw-0U": {"geometry": {"location": {"lat": 51.52017799999999, "lng": -0.1472036}, "viewport": {"northeast": {"lat": 51.52150273029149, "lng": -0.145992119708498}, "southwest": {"lat": 51.5188047697085, "lng": -0.148690080291502}}}, "name": "F I P O Ltd", "place_id": "ChIJrzyM_dMadkgRhQcfb3uw-0U", "types": ["point_of_interest", "establishment"]}, "ChIJZwgTVtEadkgRJlunsR0Ja4o": {"geometry": {"location": {"lat": 51.52023370000001, "lng": -0.1473137}, "viewport": {"northeast": {"lat": 51.5215653302915, "lng": -0.1460630197084979}, "southwest": {"lat": 51.5188673697085, "lng": -0.148760980291502}}}, "name": "Farquharson Dr J K", "place_id": "ChIJZwgTVtEadkgRJlunsR0Ja4o", "types": ["dentist", "health", "point_of_interest", "establishment"]}, "ChIJ-0sJ_dMadkgRiu1dBDMzy0I": {"geometry": {"location": {"lat": 51.52023519999999, "lng": -0.1475268}, "viewport": {"northeast": {"lat": 51.5215927802915, "lng": -0.1461291197084979}, "southwest": {"lat": 51.5188948197085, "lng": -0.148827080291502}}}, "name": "The Dapeng Clinic", "place_id": "ChIJ-0sJ_dMadkgRiu1dBDMzy0I", "types": ["health", "point_of_interest", "establishment"]}, "ChIJO7FuGtcadkgRbFOaqtTvPP4": {"geometry": {"location": {"lat": 51.52023519999999, "lng": -0.1475268}, "viewport": {"northeast": {"lat": 51.5215927802915, "lng": -0.1461291197084979}, "southwest": {"lat": 51.5188948197085, "lng": -0.148827080291502}}}, "name": "Bhakti Marga UK", "place_id": "ChIJO7FuGtcadkgRbFOaqtTvPP4", "types": ["point_of_interest", "establishment"], "rating": 4.4, "user_ratings_total": 10}, "ChIJm-e8ONEadkgRPmaMKhiHku0": {"geometry": {"location": {"lat": 51.5201509, "lng": -0.1478189}, "viewport": {"northeast": {"lat": 51.52168733029149, "lng": -0.146556869708498}, "southwest": {"lat": 51.51898936970849, "lng": -0.149254830291502}}}, "name": "Health & Fitness Solutions: Physiotherapy, Podiatry, Sports Massage", "place_id": "ChIJm-e8ONEadkgRPmaMKhiHku0", "types": ["physiotherapist", "doctor", "health", "point_of_interest", "establishment"]}, "ChIJZwgTVtEadkgRUywBWOGFTq8": {"geometry": {"location": {"lat": 51.5202413, "lng": -0.1472927}, "viewport": {"northeast": {"lat": 51.5215709302915, "lng": -0.146053319708498}, "southwest": {"lat": 51.5188729697085, "lng": -0.148751280291502}}}, "name": "Kafetzidis Dr Harry", "place_id": "ChIJZwgTVtEadkgRUywBWOGFTq8", "types": ["dentist", "health", "point_of_interest", "establishment"]}, "ChIJNz-4-dMadkgRJnerClMqhaw": {"geometry": {"location": {"lat": 51.5196037, "lng": -0.1471088}, "viewport": {"northeast": {"lat": 51.5209420302915, "lng": -0.145820069708498}, "southwest": {"lat": 51.5182440697085, "lng": -0.148518030291502}}}, "name": "Enhance Your Body", "place_id": "ChIJNz-4-dMadkgRJnerClMqhaw", "types": ["doctor", "health", "point_of_interest", "establishment"]}, "ChIJc6lu-tMadkgRNhZ0cP0_PNY": {"geometry": {"location": {"lat": 51.5194943, "lng": -0.1474477}, "viewport": {"northeast": {"lat": 51.5208643802915, "lng": -0.145979069708498}, "southwest": {"lat": 51.51816641970851, "lng": -0.148677030291502}}}, "name": "MDG Health Harley Street Clinic", "place_id": "ChIJc6lu-tMadkgRNhZ0cP0_PNY", "types": ["doctor", "health", "point_of_interest", "establishment"]}, "ChIJvZkm4dAadkgRCyg_sT5BfmI": {"geometry": {"location": {"lat": 51.5196181, "lng": -0.1469887}, "viewport": {"northeast": {"lat": 51.52094608029149, "lng": -0.145758569708498}, "southwest": {"lat": 51.5182481197085, "lng": -0.148456530291502}}}, "name": "La Belle Forme", "place_id": "ChIJvZkm4dAadkgRCyg_sT5BfmI", "types": ["doctor", "health", "point_of_interest", "establishment"]}, "ChIJDcX6htQadkgRNUqwG7xa0yM": {"geometry": {"location": {"lat": 51.5196181, "lng": -0.1469887}, "viewport": {"northeast": {"lat": 51.52094608029149, "lng": -0.145758569708498}, "southwest": {"lat": 51.5182481197085, "lng": -0.148456530291502}}}, "name": "Linia", "place_id": "ChIJDcX6htQadkgRNUqwG7xa0yM", "types": ["health", "point_of_interest", "establishment"]}, "ChIJpzvB8dMadkgRrj2cHdLiEoc": {"geometry": {"location": {"lat": 51.51929055062095, "lng": -0.1475098005769468}, "viewport": {"northeast": {"lat": 51.5206395302915, "lng": -0.146160819708498}, "southwest": {"lat": 51.5179415697085, "lng": -0.148858780291502}}}, "name": "74-70 New Cavendish St", "place_id": "ChIJpzvB8dMadkgRrj2cHdLiEoc", "types": ["route"]}, "ChIJW_oBdtQadkgRDCxZL3tXL1o": {"geometry": {"location": {"lat": 51.5184669, "lng": -0.1468309}, "viewport": {"northeast": {"lat": 51.5198254302915, "lng": -0.145429519708498}, "southwest": {"lat": 51.5171274697085, "lng": -0.148127480291502}}}, "name": "Queen's College", "place_id": "ChIJW_oBdtQadkgRDCxZL3tXL1o", "types": ["university", "point_of_interest", "establishment"], "rating": 4.3, "user_ratings_total": 18}, "ChIJB9hYiNQadkgR9wlSqDK9IZ4": {"geometry": {"location": {"lat": 51.51895, "lng": -0.1475253}, "viewport": {"northeast": {"lat": 51.5203465302915, "lng": -0.145906069708498}, "southwest": {"lat": 51.5176485697085, "lng": -0.148604030291502}}}, "name": "Dr Justin Basquille", "place_id": "ChIJB9hYiNQadkgR9wlSqDK9IZ4", "types": ["doctor", "health", "point_of_interest", "establishment"]}, "ChIJR6n59NMadkgRDcB_7yo5_yY": {"geometry": {"location": {"lat": 51.5192915, "lng": -0.1469366}, "viewport": {"northeast": {"lat": 51.52062743029149, "lng": -0.145661769708498}, "southwest": {"lat": 51.51792946970849, "lng": -0.148359730291502}}}, "name": "The Face and Body Clinic", "place_id": "ChIJR6n59NMadkgRDcB_7yo5_yY", "types": ["beauty_salon", "health", "point_of_interest", "establishment"], "rating": 5, "user_ratings_total": 15}, "ChIJGdzLBbMadkgR6mWGjzhMmSI": {"geometry": {"location": {"lat": 51.5187695, "lng": -0.1470774}, "viewport": {"northeast": {"lat": 51.5201362302915, "lng": -0.145627569708498}, "southwest": {"lat": 51.51743826970851, "lng": -0.148325530291502}}}, "name": "London ENT Clinic", "place_id": "ChIJGdzLBbMadkgR6mWGjzhMmSI", "types": ["doctor", "health", "point_of_interest", "establishment"], "rating": 4.8, "user_ratings_total": 108}, "ChIJt605htMadkgReQQYbWJlXgc": {"geometry": {"location": {"lat": 51.5187819, "lng": -0.1470713}, "viewport": {"northeast": {"lat": 51.5201308802915, "lng": -0.1457223197084979}, "southwest": {"lat": 51.5174329197085, "lng": -0.148420280291502}}}, "name": "The Hamlet Clinic", "place_id": "ChIJt605htMadkgReQQYbWJlXgc", "types": ["doctor", "health", "point_of_interest", "establishment"], "rating": 4.6, "user_ratings_total": 11}, "ChIJf4_xcecOdkgRNTWjm3ZCU48": {"geometry": {"location": {"lat": 51.5188786, "lng": -0.1472146}, "viewport": {"northeast": {"lat": 51.5202524802915, "lng": -0.145724219708498}, "southwest": {"lat": 51.5175545197085, "lng": -0.1484221802915021}}}, "name": "Dr Martin Saweirs - Private GP at 55 Harley Street", "place_id": "ChIJf4_xcecOdkgRNTWjm3ZCU48", "types": ["doctor", "health", "point_of_interest", "establishment"], "rating": 5, "user_ratings_total": 175}, "ChIJz0NL7NEadkgRm5do3WS9HFg": {"geometry": {"location": {"lat": 51.5188786, "lng": -0.1472146}, "viewport": {"northeast": {"lat": 51.5202524802915, "lng": -0.145724219708498}, "southwest": {"lat": 51.5175545197085, "lng": -0.1484221802915021}}}, "name": "Dr Alberto Pertusa - Psychiatrist in London", "place_id": "ChIJz0NL7NEadkgRm5do3WS9HFg", "types": ["doctor", "health", "point_of_interest", "establishment"], "rating": 5, "user_ratings_total": 13}, "ChIJWQD1JE0DdkgREVWRfrL96RQ": {"geometry": {"location": {"lat": 51.518958, "lng": -0.147518}, "viewport": {"northeast": {"lat": 51.5203536302915, "lng": -0.145903869708498}, "southwest": {"lat": 51.5176556697085, "lng": -0.148601830291502}}}, "name": "Artistry Clinic by Dr Sarah Shah: Harley Street, London", "place_id": "ChIJWQD1JE0DdkgREVWRfrL96RQ", "types": ["beauty_salon", "hair_care", "health", "point_of_interest", "establishment"], "rating": 4.3, "user_ratings_total": 29}, "ChIJXf659NMadkgR9qsQ5EyoWF8": {"geometry": {"location": {"lat": 51.5188935, "lng": -0.1471531}, "viewport": {"northeast": {"lat": 51.5202617802915, "lng": -0.145694319708498}, "southwest": {"lat": 51.5175638197085, "lng": -0.148392280291502}}}, "name": "The Dermatology Clinic", "place_id": "ChIJXf659NMadkgR9qsQ5EyoWF8", "types": ["doctor", "health", "point_of_interest", "establishment"]}, "ChIJz7239NMadkgRlCU3qd9NVTY": {"geometry": {"location": {"lat": 51.5188935, "lng": -0.1471531}, "viewport": {"northeast": {"lat": 51.5202599302915, "lng": -0.145693469708498}, "southwest": {"lat": 51.5175619697085, "lng": -0.148391430291502}}}, "name": "Skin55 Limited", "place_id": "ChIJz7239NMadkgRlCU3qd9NVTY", "types": ["beauty_salon", "hair_care", "hospital", "doctor", "health", "point_of_interest", "establishment"], "rating": 3.9, "user_ratings_total": 14}, "ChIJwZ249NMadkgRkeBfBq6wb6w": {"geometry": {"location": {"lat": 51.51891299999999, "lng": -0.1471462}, "viewport": {"northeast": {"lat": 51.52028003029149, "lng": -0.145694719708498}, "southwest": {"lat": 51.51758206970849, "lng": -0.148392680291502}}}, "name": "Dermconsult Dermatology Clinic", "place_id": "ChIJwZ249NMadkgRkeBfBq6wb6w", "types": ["doctor", "health", "point_of_interest", "establishment"], "rating": 4.2, "user_ratings_total": 5}, "ChIJi16ZjdMadkgRdb8GleTI7GE": {"geometry": {"location": {"lat": 51.5186684, "lng": -0.1475341}, "viewport": {"northeast": {"lat": 51.5200074802915, "lng": -0.146180619708498}, "southwest": {"lat": 51.5173095197085, "lng": -0.148878580291502}}}, "name": "Leading Edge Guides", "place_id": "ChIJi16ZjdMadkgRdb8GleTI7GE", "types": ["point_of_interest", "establishment"]}, "ChIJ9V6ZjdMadkgRvQyqPCjpAu4": {"geometry": {"location": {"lat": 51.5186684, "lng": -0.1475342}, "viewport": {"northeast": {"lat": 51.5200074802915, "lng": -0.146180719708498}, "southwest": {"lat": 51.5173095197085, "lng": -0.1488786802915021}}}, "name": "Ocean Music Ltd.", "place_id": "ChIJ9V6ZjdMadkgRvQyqPCjpAu4", "types": ["point_of_interest", "establishment"]}, "ChIJtVkfi9MadkgRswTVXFWF2-g": {"geometry": {"location": {"lat": 51.5187754, "lng": -0.1470729}, "viewport": {"northeast": {"lat": 51.5201415302915, "lng": -0.145626419708498}, "southwest": {"lat": 51.5174435697085, "lng": -0.148324380291502}}}, "name": "Kalro Capital", "place_id": "ChIJtVkfi9MadkgRswTVXFWF2-g", "types": ["general_contractor", "point_of_interest", "establishment"]}, "ChIJ_ZQn9dMadkgRzPUuBqvGiM8": {"geometry": {"location": {"lat": 51.518905, "lng": -0.1470489}, "viewport": {"northeast": {"lat": 51.52026438029151, "lng": -0.145640769708498}, "southwest": {"lat": 51.51756641970851, "lng": -0.148338730291502}}}, "name": "London Facial Surgery", "place_id": "ChIJ_ZQn9dMadkgRzPUuBqvGiM8", "types": ["doctor", "health", "point_of_interest", "establishment"]}, "ChIJ5d369NMadkgRQD6mvfPDOzI": {"geometry": {"location": {"lat": 51.51896800000001, "lng": -0.1470889}, "viewport": {"northeast": {"lat": 51.52032833029151, "lng": -0.145675519708498}, "southwest": {"lat": 51.51763036970851, "lng": -0.148373480291502}}}, "name": "Be Cosmetic Gynecomastia Clinic London", "place_id": "ChIJ5d369NMadkgRQD6mvfPDOzI", "types": ["doctor", "health", "point_of_interest", "establishment"], "rating": 3.3, "user_ratings_total": 3}, "ChIJ5d369NMadkgRbakoSjzcQLQ": {"geometry": {"location": {"lat": 51.51898629999999, "lng": -0.1470903}, "viewport": {"northeast": {"lat": 51.5203460302915, "lng": -0.145680119708498}, "southwest": {"lat": 51.5176480697085, "lng": -0.148378080291502}}}, "name": "Go Cosmetic Clinics", "place_id": "ChIJ5d369NMadkgRbakoSjzcQLQ", "types": ["point_of_interest", "establishment"]}, "ChIJ5d369NMadkgRhSH3JsrcXVs": {"geometry": {"location": {"lat": 51.51898629999999, "lng": -0.1470903}, "viewport": {"northeast": {"lat": 51.5203460302915, "lng": -0.145680119708498}, "southwest": {"lat": 51.5176480697085, "lng": -0.148378080291502}}}, "name": "Kerstin Lehr Acupuncture", "place_id": "ChIJ5d369NMadkgRhSH3JsrcXVs", "types": ["health", "point_of_interest", "establishment"]}, "ChIJ5d369NMadkgR1iZhXCRcObU": {"geometry": {"location": {"lat": 51.51898629999999, "lng": -0.1470903}, "viewport": {"northeast": {"lat": 51.5203460302915, "lng": -0.145680119708498}, "southwest": {"lat": 51.5176480697085, "lng": -0.148378080291502}}}, "name": "Audley Parry Burnett MA Cantab, Lic Ac, MBAcC", "place_id": "ChIJ5d369NMadkgR1iZhXCRcObU", "types": ["health", "point_of_interest", "establishment"]}, "ChIJ5d369NMadkgRF4nSMiY-nzU": {"geometry": {"location": {"lat": 51.51898629999999, "lng": -0.1470903}, "viewport": {"northeast": {"lat": 51.5203460302915, "lng": -0.145680119708498}, "southwest": {"lat": 51.5176480697085, "lng": -0.148378080291502}}}, "name": "UK Gynecomastia Clinics~ gynecomastia surgery, male breast reduction, nipple surgery, London, UK", "place_id": "ChIJ5d369NMadkgRF4nSMiY-nzU", "types": ["doctor", "health", "point_of_interest", "establishment"], "rating": 5, "user_ratings_total": 3}, "ChIJ49369NMadkgROqaufyin2iU": {"geometry": {"location": {"lat": 51.51898629999999, "lng": -0.1470902}, "viewport": {"northeast": {"lat": 51.5203460302915, "lng": -0.145680069708498}, "southwest": {"lat": 51.5176480697085, "lng": -0.1483780302915021}}}, "name": "Maureen McCann Acupuncture", "place_id": "ChIJ49369NMadkgROqaufyin2iU", "types": ["health", "point_of_interest", "establishment"], "rating": 5, "user_ratings_total": 1}, "ChIJmy529NMadkgRZqpWWUMkikk": {"geometry": {"location": {"lat": 51.519075, "lng": -0.1472367}, "viewport": {"northeast": {"lat": 51.5204433802915, "lng": -0.145777419708498}, "southwest": {"lat": 51.5177454197085, "lng": -0.148475380291502}}}, "name": "Dr Vipul Kataria", "place_id": "ChIJmy529NMadkgRZqpWWUMkikk", "types": ["dentist", "health", "point_of_interest", "establishment"], "rating": 5, "user_ratings_total": 1}, "ChIJmy529NMadkgROl4xpZ-mhEE": {"geometry": {"location": {"lat": 51.519075, "lng": -0.1472367}, "viewport": {"northeast": {"lat": 51.5204433802915, "lng": -0.145777419708498}, "southwest": {"lat": 51.5177454197085, "lng": -0.148475380291502}}}, "name": "Harley Cosmetic Group Clinic", "place_id": "ChIJmy529NMadkgROl4xpZ-mhEE", "types": ["doctor", "health", "point_of_interest", "establishment"]}, "ChIJU_BFR9EadkgRwd4w-qMAzUE": {"geometry": {"location": {"lat": 51.5187687, "lng": -0.1469907}, "viewport": {"northeast": {"lat": 51.52012838029149, "lng": -0.145580869708498}, "southwest": {"lat": 51.5174304197085, "lng": -0.148278830291502}}}, "name": "Dr K W Kennedy", "place_id": "ChIJU_BFR9EadkgRwd4w-qMAzUE", "types": ["doctor", "health", "point_of_interest", "establishment"], "rating": 5, "user_ratings_total": 2}, "ChIJ3-Jf8tMadkgRUXDIh_aSWvw": {"geometry": {"location": {"lat": 51.5191112, "lng": -0.1471893}, "viewport": {"northeast": {"lat": 51.5204743802915, "lng": -0.145759569708498}, "southwest": {"lat": 51.5177764197085, "lng": -0.148457530291502}}}, "name": "Lxir", "place_id": "ChIJ3-Jf8tMadkgRUXDIh_aSWvw", "types": ["spa", "point_of_interest", "establishment"]}, "ChIJH-An8tMadkgROtLBPNqvvBc": {"geometry": {"location": {"lat": 51.5191814, "lng": -0.1474691}, "viewport": {"northeast": {"lat": 51.5205841302915, "lng": -0.146145069708498}, "southwest": {"lat": 51.5178861697085, "lng": -0.148843030291502}}}, "name": "Colin Henshaw", "place_id": "ChIJH-An8tMadkgROtLBPNqvvBc", "types": ["health", "point_of_interest", "establishment"], "rating": 5, "user_ratings_total": 1}, "ChIJCV_c7dMadkgR9Af6tLVstzo": {"geometry": {"location": {"lat": 51.5191556, "lng": -0.1477152}, "viewport": {"northeast": {"lat": 51.5205497802915, "lng": -0.146387219708498}, "southwest": {"lat": 51.5178518197085, "lng": -0.149085180291502}}}, "name": "Dollar Bill Plant", "place_id": "ChIJCV_c7dMadkgR9Af6tLVstzo", "types": ["point_of_interest", "establishment"]}, "ChIJsTq_CtQadkgR81hRHBvfu8Y": {"geometry": {"location": {"lat": 51.51892289999999, "lng": -0.1467866}, "viewport": {"northeast": {"lat": 51.5202602802915, "lng": -0.145503719708498}, "southwest": {"lat": 51.5175623197085, "lng": -0.148201680291502}}}, "name": "Rosina's Lotions & Potions", "place_id": "ChIJsTq_CtQadkgR81hRHBvfu8Y", "types": ["point_of_interest", "establishment"], "rating": 5, "user_ratings_total": 2}, "ChIJCYlN9dMadkgRpf42jfkRlQ0": {"geometry": {"location": {"lat": 51.51887869999999, "lng": -0.1467672}, "viewport": {"northeast": {"lat": 51.5202174302915, "lng": -0.1454845697084979}, "southwest": {"lat": 51.5175194697085, "lng": -0.148182530291502}}}, "name": "Clare M. Keogh", "place_id": "ChIJCYlN9dMadkgRpf42jfkRlQ0", "types": ["health", "point_of_interest", "establishment"]}, "ChIJoZm0CtQadkgRbel-FMz_6d8": {"geometry": {"location": {"lat": 51.5188676, "lng": -0.1466908}, "viewport": {"northeast": {"lat": 51.5201991802915, "lng": -0.145440619708498}, "southwest": {"lat": 51.5175012197085, "lng": -0.148138580291502}}}, "name": "Guaranteed Property Ltd", "place_id": "ChIJoZm0CtQadkgRbel-FMz_6d8", "types": ["general_contractor", "point_of_interest", "establishment"], "rating": 2, "user_ratings_total": 1}, "ChIJZcVM9dMadkgRpFQiqYu8JeY": {"geometry": {"location": {"lat": 51.5184887, "lng": -0.1470057}, "viewport": {"northeast": {"lat": 51.5198610802915, "lng": -0.145528569708498}, "southwest": {"lat": 51.5171631197085, "lng": -0.148226530291502}}}, "name": "Arm Lift/Flab Centre London", "place_id": "ChIJZcVM9dMadkgRpFQiqYu8JeY", "types": ["doctor", "health", "point_of_interest", "establishment"], "rating": 1, "user_ratings_total": 1}, "ChIJKcXt69MadkgRHGaYfdO456Q": {"geometry": {"location": {"lat": 51.519063, "lng": -0.1479878}, "viewport": {"northeast": {"lat": 51.5204778802915, "lng": -0.146668469708498}, "southwest": {"lat": 51.5177799197085, "lng": -0.149366430291502}}}, "name": "Balance Centre London", "place_id": "ChIJKcXt69MadkgRHGaYfdO456Q", "types": ["point_of_interest", "establishment"]}, "ChIJue0n-9MadkgRsM2xHAnblEA": {"geometry": {"location": {"lat": 51.5192442, "lng": -0.1472053}, "viewport": {"northeast": {"lat": 51.52060378029149, "lng": -0.145796119708498}, "southwest": {"lat": 51.5179058197085, "lng": -0.148494080291502}}}, "name": "73 Harley Street", "place_id": "ChIJue0n-9MadkgRsM2xHAnblEA", "types": ["doctor", "health", "point_of_interest", "establishment"]}, "ChIJacPy4tAadkgRVd7b4Brhd8Q": {"geometry": {"location": {"lat": 51.5188195, "lng": -0.1467099}, "viewport": {"northeast": {"lat": 51.5201544302915, "lng": -0.145440769708498}, "southwest": {"lat": 51.5174564697085, "lng": -0.148138730291502}}}, "name": "The British Dental Acupuncture Society", "place_id": "ChIJacPy4tAadkgRVd7b4Brhd8Q", "types": ["dentist", "health", "point_of_interest", "establishment"]}, "ChIJzVMvddQadkgR3D6bMP-LxVM": {"geometry": {"location": {"lat": 51.5188195, "lng": -0.1467099}, "viewport": {"northeast": {"lat": 51.5201544302915, "lng": -0.145440769708498}, "southwest": {"lat": 51.5174564697085, "lng": -0.148138730291502}}}, "name": "IAOMT UK", "place_id": "ChIJzVMvddQadkgR3D6bMP-LxVM", "types": ["dentist", "health", "point_of_interest", "establishment"], "rating": 3, "user_ratings_total": 2}, "ChIJh3PVCtQadkgRxy6mfjWoG9M": {"geometry": {"location": {"lat": 51.5188676, "lng": -0.1466908}, "viewport": {"northeast": {"lat": 51.5201991802915, "lng": -0.145440619708498}, "southwest": {"lat": 51.5175012197085, "lng": -0.148138580291502}}}, "name": "Catherine Perry", "place_id": "ChIJh3PVCtQadkgRxy6mfjWoG9M", "types": ["health", "point_of_interest", "establishment"]}, "ChIJa2Q1ddQadkgRtO__m81Wwyc": {"geometry": {"location": {"lat": 51.5188676, "lng": -0.1466908}, "viewport": {"northeast": {"lat": 51.5201991802915, "lng": -0.145440619708498}, "southwest": {"lat": 51.5175012197085, "lng": -0.148138580291502}}}, "name": "Anchor Counselling", "place_id": "ChIJa2Q1ddQadkgRtO__m81Wwyc", "types": ["health", "point_of_interest", "establishment"], "rating": 5, "user_ratings_total": 4}, "ChIJiXPVCtQadkgRl6b_WpDjF_o": {"geometry": {"location": {"lat": 51.5188676, "lng": -0.1466907}, "viewport": {"northeast": {"lat": 51.5201991802915, "lng": -0.145440569708498}, "southwest": {"lat": 51.5175012197085, "lng": -0.148138530291502}}}, "name": "Liz Hopkinson Wildi MBACP(Senior Accred)", "place_id": "ChIJiXPVCtQadkgRl6b_WpDjF_o", "types": ["health", "point_of_interest", "establishment"]}, "ChIJk5369dMadkgR254C1rQYmIw": {"geometry": {"location": {"lat": 51.51914889999999, "lng": -0.1468947}, "viewport": {"northeast": {"lat": 51.52048663029149, "lng": -0.1456092697084979}, "southwest": {"lat": 51.51778866970849, "lng": -0.148307230291502}}}, "name": "Dr Gabriela Clinic Aesthetic Clinic", "place_id": "ChIJk5369dMadkgR254C1rQYmIw", "types": ["health", "point_of_interest", "establishment"], "rating": 4.6, "user_ratings_total": 69}, "ChIJoZm0CtQadkgRP39YwMK7sGM": {"geometry": {"location": {"lat": 51.5188116, "lng": -0.1466652}, "viewport": {"northeast": {"lat": 51.5201431802915, "lng": -0.145415119708498}, "southwest": {"lat": 51.5174452197085, "lng": -0.148113080291502}}}, "name": "F.Mavroskoufis", "place_id": "ChIJoZm0CtQadkgRP39YwMK7sGM", "types": ["dentist", "doctor", "health", "point_of_interest", "establishment"], "rating": 4.7, "user_ratings_total": 3}, "ChIJlY3ZdNQadkgR25SU_wnK5cY": {"geometry": {"location": {"lat": 51.5188116, "lng": -0.1466652}, "viewport": {"northeast": {"lat": 51.5201431802915, "lng": -0.145415119708498}, "southwest": {"lat": 51.5174452197085, "lng": -0.148113080291502}}}, "name": "d4h SEMINARS", "place_id": "ChIJlY3ZdNQadkgR25SU_wnK5cY", "types": ["point_of_interest", "establishment"]}, "ChIJ-7BuCNEadkgRKpxHD-mKeh8": {"geometry": {"location": {"lat": 51.5191034, "lng": -0.146801}, "viewport": {"northeast": {"lat": 51.5204352302915, "lng": -0.145549419708498}, "southwest": {"lat": 51.5177372697085, "lng": -0.148247380291502}}}, "name": "Cognacity", "place_id": "ChIJ-7BuCNEadkgRKpxHD-mKeh8", "types": ["health", "point_of_interest", "establishment"], "rating": 3, "user_ratings_total": 7}, "ChIJn9RnBMwadkgRX9s0VQUXn7Y": {"geometry": {"location": {"lat": 51.51905199999999, "lng": -0.1480774}, "viewport": {"northeast": {"lat": 51.5204647302915, "lng": -0.146757119708498}, "southwest": {"lat": 51.5177667697085, "lng": -0.149455080291502}}}, "name": "Norton Newman Investments Ltd", "place_id": "ChIJn9RnBMwadkgRX9s0VQUXn7Y", "types": ["finance", "real_estate_agency", "point_of_interest", "establishment"]}, "ChIJK3UlqOkCdkgRN9EpfKXa2Kw": {"geometry": {"location": {"lat": 51.51905199999999, "lng": -0.1480774}, "viewport": {"northeast": {"lat": 51.5204647302915, "lng": -0.146757119708498}, "southwest": {"lat": 51.5177667697085, "lng": -0.149455080291502}}}, "name": "Accounting for Energy", "place_id": "ChIJK3UlqOkCdkgRN9EpfKXa2Kw", "types": ["accounting", "finance", "point_of_interest", "establishment"]}, "ChIJf-jSEksbdkgRZmnu1qGTQYE": {"geometry": {"location": {"lat": 51.51905199999999, "lng": -0.1480774}, "viewport": {"northeast": {"lat": 51.5204647302915, "lng": -0.146757119708498}, "southwest": {"lat": 51.5177667697085, "lng": -0.149455080291502}}}, "name": "Patrick Cannon", "place_id": "ChIJf-jSEksbdkgRZmnu1qGTQYE", "types": ["lawyer", "point_of_interest", "establishment"], "rating": 5, "user_ratings_total": 11}, "ChIJuQb3XbUadkgRCSCvdVsfP1I": {"geometry": {"location": {"lat": 51.51905199999999, "lng": -0.1480774}, "viewport": {"northeast": {"lat": 51.5204647302915, "lng": -0.146757119708498}, "southwest": {"lat": 51.5177667697085, "lng": -0.149455080291502}}}, "name": "AMAFHH Investments", "place_id": "ChIJuQb3XbUadkgRCSCvdVsfP1I", "types": ["finance", "point_of_interest", "establishment"], "rating": 5, "user_ratings_total": 1}, "ChIJaa2ICtQadkgRIPwbbYuL_2I": {"geometry": {"location": {"lat": 51.51892300000001, "lng": -0.146714}, "viewport": {"northeast": {"lat": 51.52025443029151, "lng": -0.145464719708498}, "southwest": {"lat": 51.51755646970851, "lng": -0.148162680291502}}}, "name": "Harley Street Skin Clinic", "place_id": "ChIJaa2ICtQadkgRIPwbbYuL_2I", "types": ["health", "point_of_interest", "establishment"], "rating": 4.2, "user_ratings_total": 241}, "ChIJNRy769MadkgRQhWmvdDuAcQ": {"geometry": {"location": {"lat": 51.519069, "lng": -0.1480997}, "viewport": {"northeast": {"lat": 51.5204720802915, "lng": -0.146775019708498}, "southwest": {"lat": 51.5177741197085, "lng": -0.149472980291502}}}, "name": "Pi", "place_id": "ChIJNRy769MadkgRQhWmvdDuAcQ", "types": ["finance", "point_of_interest", "establishment"]}, "ChIJPyOKiNQadkgRwZ1p04S7te8": {"geometry": {"location": {"lat": 51.51865429999999, "lng": -0.1466605}, "viewport": {"northeast": {"lat": 51.5199913802915, "lng": -0.145378369708498}, "southwest": {"lat": 51.5172934197085, "lng": -0.148076330291502}}}, "name": "Harley Surgery London: Dr. Riccardo Frati", "place_id": "ChIJPyOKiNQadkgRwZ1p04S7te8", "types": ["doctor", "health", "point_of_interest", "establishment"], "rating": 4.9, "user_ratings_total": 29}, "ChIJyx2769MadkgR04U7loAgGPM": {"geometry": {"location": {"lat": 51.51906899999999, "lng": -0.1480998}, "viewport": {"northeast": {"lat": 51.5204720302915, "lng": -0.1467751197084979}, "southwest": {"lat": 51.5177740697085, "lng": -0.149473080291502}}}, "name": "Burlington Partners LLP", "place_id": "ChIJyx2769MadkgR04U7loAgGPM", "types": ["point_of_interest", "establishment"]}, "ChIJBwil69MadkgRK0trpZ8ridk": {"geometry": {"location": {"lat": 51.51906899999999, "lng": -0.1480998}, "viewport": {"northeast": {"lat": 51.5204720302915, "lng": -0.1467751197084979}, "southwest": {"lat": 51.5177740697085, "lng": -0.149473080291502}}}, "name": "Goldcin Partners Llp", "place_id": "ChIJBwil69MadkgRK0trpZ8ridk", "types": ["point_of_interest", "establishment"]}, "ChIJjx57edQadkgRkj-nQ1Xal90": {"geometry": {"location": {"lat": 51.5185767, "lng": -0.146709}, "viewport": {"northeast": {"lat": 51.5199244802915, "lng": -0.145366569708498}, "southwest": {"lat": 51.5172265197085, "lng": -0.148064530291502}}}, "name": "Buttock Implant Centre London", "place_id": "ChIJjx57edQadkgRkj-nQ1Xal90", "types": ["doctor", "health", "point_of_interest", "establishment"]}, "ChIJx9Ffg9QadkgR4381oeULfqI": {"geometry": {"location": {"lat": 51.5188689, "lng": -0.1466974}, "viewport": {"northeast": {"lat": 51.52020098029151, "lng": -0.145444419708498}, "southwest": {"lat": 51.51750301970851, "lng": -0.148142380291502}}}, "name": "Harley Medical Foot and Nail Laser Clinic London", "place_id": "ChIJx9Ffg9QadkgR4381oeULfqI", "types": ["beauty_salon", "doctor", "health", "point_of_interest", "establishment"], "rating": 4.6, "user_ratings_total": 30}, "ChIJkW4vfdQadkgRtM4uer_amjc": {"geometry": {"location": {"lat": 51.51872230000001, "lng": -0.1465572}, "viewport": {"northeast": {"lat": 51.52004773029151, "lng": -0.145337269708498}, "southwest": {"lat": 51.51734976970851, "lng": -0.148035230291502}}}, "name": "Bodyset", "place_id": "ChIJkW4vfdQadkgRtM4uer_amjc", "types": ["physiotherapist", "gym", "health", "point_of_interest", "establishment"], "rating": 5, "user_ratings_total": 26}, "ChIJc9AN9tMadkgRMQQeXjH6xyI": {"geometry": {"location": {"lat": 51.5192347, "lng": -0.1468491}, "viewport": {"northeast": {"lat": 51.5205656302915, "lng": -0.145602869708498}, "southwest": {"lat": 51.5178676697085, "lng": -0.148300830291502}}}, "name": "London Heart Diagnostics", "place_id": "ChIJc9AN9tMadkgRMQQeXjH6xyI", "types": ["health", "point_of_interest", "establishment"]}, "ChIJo33addQadkgRsJ_PQf1ThJE": {"geometry": {"location": {"lat": 51.5186147, "lng": -0.1466349}, "viewport": {"northeast": {"lat": 51.5199509302915, "lng": -0.145355819708498}, "southwest": {"lat": 51.5172529697085, "lng": -0.148053780291502}}}, "name": "Dr Patrick Tarrant - Harley Street Dental Ltd", "place_id": "ChIJo33addQadkgRsJ_PQf1ThJE", "types": ["dentist", "health", "point_of_interest", "establishment"], "rating": 5, "user_ratings_total": 9}, "ChIJ-fgcddQadkgRDRffg7jIzU8": {"geometry": {"location": {"lat": 51.51872459999999, "lng": -0.1465706}, "viewport": {"northeast": {"lat": 51.5200510802915, "lng": -0.1453449697084979}, "southwest": {"lat": 51.5173531197085, "lng": -0.148042930291502}}}, "name": "Italian Clinic", "place_id": "ChIJ-fgcddQadkgRDRffg7jIzU8", "types": ["dentist", "health", "point_of_interest", "establishment"]}, "ChIJswYFHtEadkgRJf78YhJXk0U": {"geometry": {"location": {"lat": 51.5187244, "lng": -0.1465698}, "viewport": {"northeast": {"lat": 51.5200507802915, "lng": -0.145344519708498}, "southwest": {"lat": 51.5173528197085, "lng": -0.148042480291502}}}, "name": "Kersley Eye Clinic", "place_id": "ChIJswYFHtEadkgRJf78YhJXk0U", "types": ["health", "point_of_interest", "establishment"], "rating": 5, "user_ratings_total": 9}, "ChIJxw_-ndMadkgRP1Y8TIuKblE": {"geometry": {"location": {"lat": 51.51755944199867, "lng": -0.1479555941934665}, "viewport": {"northeast": {"lat": 51.5189084302915, "lng": -0.146606569708498}, "southwest": {"lat": 51.5162104697085, "lng": -0.149304530291502}}}, "name": "16-10 Wimpole St", "place_id": "ChIJxw_-ndMadkgRP1Y8TIuKblE", "types": ["route"]}, "ChIJb4kJl9QadkgRuiCSNtjNZuw": {"geometry": {"location": {"lat": 51.517429, "lng": -0.147598}, "viewport": {"northeast": {"lat": 51.5187534302915, "lng": -0.146386319708498}, "southwest": {"lat": 51.5160554697085, "lng": -0.1490842802915021}}}, "name": "Clear Ear Clinic", "place_id": "ChIJb4kJl9QadkgRuiCSNtjNZuw", "types": ["health", "point_of_interest", "establishment"], "rating": 4.8, "user_ratings_total": 78}, "ChIJZcQjhtMadkgRofYMaiQqLbQ": {"geometry": {"location": {"lat": 51.5181887, "lng": -0.1470589}, "viewport": {"northeast": {"lat": 51.5194774802915, "lng": -0.145683369708498}, "southwest": {"lat": 51.5167795197085, "lng": -0.148381330291502}}}, "name": "Queen Anne Street Medical Centre", "place_id": "ChIJZcQjhtMadkgRofYMaiQqLbQ", "types": ["hospital", "health", "point_of_interest", "establishment"], "rating": 4.1, "user_ratings_total": 10}, "ChIJrS94hNMadkgRYzXdDmh_jBc": {"geometry": {"location": {"lat": 51.5178218, "lng": -0.1473298}, "viewport": {"northeast": {"lat": 51.5192596302915, "lng": -0.146020019708498}, "southwest": {"lat": 51.5165616697085, "lng": -0.148717980291502}}}, "name": "The Empire Design Company Ltd", "place_id": "ChIJrS94hNMadkgRYzXdDmh_jBc", "types": ["point_of_interest", "establishment"], "rating": 4.3, "user_ratings_total": 4}, "ChIJkyQDwNMadkgRgh7tCovs1vU": {"geometry": {"location": {"lat": 51.5180307, "lng": -0.1477767}, "viewport": {"northeast": {"lat": 51.5193359302915, "lng": -0.146408419708498}, "southwest": {"lat": 51.5166379697085, "lng": -0.149106380291502}}}, "name": "Office Concierge", "place_id": "ChIJkyQDwNMadkgRgh7tCovs1vU", "types": ["point_of_interest", "establishment"], "rating": 2.6, "user_ratings_total": 31}, "ChIJ4-GxG7EcdkgRpQC03GOcD1w": {"geometry": {"location": {"lat": 51.5178523, "lng": -0.147768}, "viewport": {"northeast": {"lat": 51.51924118029149, "lng": -0.146436619708498}, "southwest": {"lat": 51.5165432197085, "lng": -0.149134580291502}}}, "name": "Unicorn Jobs", "place_id": "ChIJ4-GxG7EcdkgRpQC03GOcD1w", "types": ["point_of_interest", "establishment"]}, "ChIJIWipd9MadkgRQgOY6FggMEw": {"geometry": {"location": {"lat": 51.5174281, "lng": -0.147596}, "viewport": {"northeast": {"lat": 51.51875238029149, "lng": -0.146385019708498}, "southwest": {"lat": 51.51605441970849, "lng": -0.149082980291502}}}, "name": "Ace Dental London", "place_id": "ChIJIWipd9MadkgRQgOY6FggMEw", "types": ["dentist", "health", "point_of_interest", "establishment"], "rating": 4.4, "user_ratings_total": 57}, "ChIJVekiBMwEdkgRPDUStP5T2tg": {"geometry": {"location": {"lat": 51.5174286, "lng": -0.1475983}, "viewport": {"northeast": {"lat": 51.51875303029149, "lng": -0.146386369708498}, "southwest": {"lat": 51.5160550697085, "lng": -0.149084330291502}}}, "name": "Quality Dental Care", "place_id": "ChIJVekiBMwEdkgRPDUStP5T2tg", "types": ["dentist", "health", "point_of_interest", "establishment"]}, "ChIJ9XW3hNMadkgRzoplX2Y1iDs": {"geometry": {"location": {"lat": 51.5178478, "lng": -0.1474881}, "viewport": {"northeast": {"lat": 51.5192609802915, "lng": -0.146167419708498}, "southwest": {"lat": 51.51656301970851, "lng": -0.148865380291502}}}, "name": "Dr N Bloom", "place_id": "ChIJ9XW3hNMadkgRzoplX2Y1iDs", "types": ["doctor", "health", "point_of_interest", "establishment"]}, "ChIJRQTZftQadkgRW2baR3oK0GI": {"geometry": {"location": {"lat": 51.5177703, "lng": -0.1467491}, "viewport": {"northeast": {"lat": 51.51914783029149, "lng": -0.145236569708498}, "southwest": {"lat": 51.5164498697085, "lng": -0.147934530291502}}}, "name": "Wizart Publishing Ltd", "place_id": "ChIJRQTZftQadkgRW2baR3oK0GI", "types": ["point_of_interest", "establishment"]}, "ChIJwVdBnNMadkgR9bJQ8984nUQ": {"geometry": {"location": {"lat": 51.5178028, "lng": -0.1478971}, "viewport": {"northeast": {"lat": 51.5192044302915, "lng": -0.146571319708498}, "southwest": {"lat": 51.5165064697085, "lng": -0.149269280291502}}}, "name": "Kyriakides & Braier Solicitors", "place_id": "ChIJwVdBnNMadkgR9bJQ8984nUQ", "types": ["lawyer", "point_of_interest", "establishment"], "rating": 5, "user_ratings_total": 1}, "ChIJ9XW3hNMadkgRQBGWvnhvUUI": {"geometry": {"location": {"lat": 51.5178478, "lng": -0.1474881}, "viewport": {"northeast": {"lat": 51.5192609802915, "lng": -0.146167419708498}, "southwest": {"lat": 51.51656301970851, "lng": -0.148865380291502}}}, "name": "Jennifer Ransome", "place_id": "ChIJ9XW3hNMadkgRQBGWvnhvUUI", "types": ["doctor", "health", "point_of_interest", "establishment"]}, "ChIJwb5gg9MadkgRv53E3RlStEA": {"geometry": {"location": {"lat": 51.51782439999999, "lng": -0.1474835}, "viewport": {"northeast": {"lat": 51.5192488302915, "lng": -0.146167819708498}, "southwest": {"lat": 51.5165508697085, "lng": -0.148865780291502}}}, "name": "Parte C", "place_id": "ChIJwb5gg9MadkgRv53E3RlStEA", "types": ["dentist", "health", "point_of_interest", "establishment"], "rating": 3.7, "user_ratings_total": 3}, "ChIJfw0Cl9QadkgRpZH8V720FY0": {"geometry": {"location": {"lat": 51.5174305, "lng": -0.1475889}, "viewport": {"northeast": {"lat": 51.5187540802915, "lng": -0.146381719708498}, "southwest": {"lat": 51.5160561197085, "lng": -0.149079680291502}}}, "name": "Dr Neil Kramer Endodontist", "place_id": "ChIJfw0Cl9QadkgRpZH8V720FY0", "types": ["dentist", "health", "point_of_interest", "establishment"]}, "ChIJP3xBe1MXdkgR0hhFMXK1R0E": {"geometry": {"location": {"lat": 51.5181104, "lng": -0.1472596}, "viewport": {"northeast": {"lat": 51.51941963029149, "lng": -0.145893069708498}, "southwest": {"lat": 51.5167216697085, "lng": -0.148591030291502}}}, "name": "JBi Digital", "place_id": "ChIJP3xBe1MXdkgR0hhFMXK1R0E", "types": ["point_of_interest", "establishment"], "rating": 4.2, "user_ratings_total": 6}, "ChIJPYyegdMadkgR0r67KqklePU": {"geometry": {"location": {"lat": 51.5176963, "lng": -0.1471579}, "viewport": {"northeast": {"lat": 51.5189966802915, "lng": -0.145776069708498}, "southwest": {"lat": 51.5162987197085, "lng": -0.148474030291502}}}, "name": "Whiz Accounting Services Ltd", "place_id": "ChIJPYyegdMadkgR0r67KqklePU", "types": ["accounting", "finance", "point_of_interest", "establishment"]}, "ChIJG6YzgdMadkgRN4xPz_orQSU": {"geometry": {"location": {"lat": 51.5178612, "lng": -0.1471088}, "viewport": {"northeast": {"lat": 51.51929828029149, "lng": -0.145798669708498}, "southwest": {"lat": 51.51660031970849, "lng": -0.148496630291502}}}, "name": "Eye Doctor London", "place_id": "ChIJG6YzgdMadkgRN4xPz_orQSU", "types": ["doctor", "health", "point_of_interest", "establishment"]}, "ChIJGaYzgdMadkgRahRzX1spyP8": {"geometry": {"location": {"lat": 51.51786130000001, "lng": -0.1471088}, "viewport": {"northeast": {"lat": 51.51929833029151, "lng": -0.145798669708498}, "southwest": {"lat": 51.51660036970851, "lng": -0.148496630291502}}}, "name": "Optegra", "place_id": "ChIJGaYzgdMadkgRahRzX1spyP8", "types": ["doctor", "health", "point_of_interest", "establishment"], "rating": 4.4, "user_ratings_total": 21}, "ChIJGXIrcNEadkgRoM8PKCMLpLw": {"geometry": {"location": {"lat": 51.5178648, "lng": -0.1471017}, "viewport": {"northeast": {"lat": 51.51930078029149, "lng": -0.145791069708498}, "southwest": {"lat": 51.5166028197085, "lng": -0.148489030291502}}}, "name": "Mr Alex J. Shortt", "place_id": "ChIJGXIrcNEadkgRoM8PKCMLpLw", "types": ["doctor", "health", "point_of_interest", "establishment"], "rating": 4.8, "user_ratings_total": 26}, "ChIJe-and9MadkgRTYcm0m0jMOg": {"geometry": {"location": {"lat": 51.5174201, "lng": -0.1476436}, "viewport": {"northeast": {"lat": 51.5187486302915, "lng": -0.146408969708498}, "southwest": {"lat": 51.51605066970851, "lng": -0.149106930291502}}}, "name": "Chong B S", "place_id": "ChIJe-and9MadkgRTYcm0m0jMOg", "types": ["dentist", "health", "point_of_interest", "establishment"]}, "ChIJFZMkh9MadkgRe1QQkRGdAn4": {"geometry": {"location": {"lat": 51.5179295, "lng": -0.1470103}, "viewport": {"northeast": {"lat": 51.51934263029151, "lng": -0.1456896197084979}, "southwest": {"lat": 51.51664466970851, "lng": -0.148387580291502}}}, "name": "HSMA", "place_id": "ChIJFZMkh9MadkgRe1QQkRGdAn4", "types": ["hospital", "health", "point_of_interest", "establishment"]}, "ChIJaauUd9MadkgR0juGhM0o3cg": {"geometry": {"location": {"lat": 51.5174281, "lng": -0.147596}, "viewport": {"northeast": {"lat": 51.51875238029149, "lng": -0.146385019708498}, "southwest": {"lat": 51.51605441970849, "lng": -0.149082980291502}}}, "name": "Clinic 1.6", "place_id": "ChIJaauUd9MadkgR0juGhM0o3cg", "types": ["health", "point_of_interest", "establishment"], "rating": 5, "user_ratings_total": 4}, "ChIJ74UneNMadkgR7w-2HaJnJgk": {"geometry": {"location": {"lat": 51.5174281, "lng": -0.147596}, "viewport": {"northeast": {"lat": 51.51875238029149, "lng": -0.146385019708498}, "southwest": {"lat": 51.51605441970849, "lng": -0.149082980291502}}}, "name": "Oryon Develop", "place_id": "ChIJ74UneNMadkgR7w-2HaJnJgk", "types": ["point_of_interest", "establishment"], "rating": 4.9, "user_ratings_total": 98}, "ChIJ74UneNMadkgR9WIU5PDShVY": {"geometry": {"location": {"lat": 51.5174281, "lng": -0.147596}, "viewport": {"northeast": {"lat": 51.51875238029149, "lng": -0.146385019708498}, "southwest": {"lat": 51.51605441970849, "lng": -0.149082980291502}}}, "name": "Dementech Neurosciences", "place_id": "ChIJ74UneNMadkgR9WIU5PDShVY", "types": ["doctor", "health", "point_of_interest", "establishment"], "rating": 4.6, "user_ratings_total": 33}, "ChIJ74UneNMadkgRdIj9Po1i7-g": {"geometry": {"location": {"lat": 51.5174281, "lng": -0.147596}, "viewport": {"northeast": {"lat": 51.51875238029149, "lng": -0.146385019708498}, "southwest": {"lat": 51.51605441970849, "lng": -0.149082980291502}}}, "name": "Evelyn Dorkel, Registered Dietitian", "place_id": "ChIJ74UneNMadkgRdIj9Po1i7-g", "types": ["health", "point_of_interest", "establishment"]}, "ChIJqSmId9MadkgRvWPH04S5KPA": {"geometry": {"location": {"lat": 51.5174286, "lng": -0.1475983}, "viewport": {"northeast": {"lat": 51.51875303029149, "lng": -0.146386369708498}, "southwest": {"lat": 51.5160550697085, "lng": -0.149084330291502}}}, "name": "The One Wellness Clinic", "place_id": "ChIJqSmId9MadkgRvWPH04S5KPA", "types": ["health", "point_of_interest", "establishment"]}, "ChIJIWipd9MadkgR9nY7Fi6FZlQ": {"geometry": {"location": {"lat": 51.5174201, "lng": -0.1476436}, "viewport": {"northeast": {"lat": 51.5187486302915, "lng": -0.146408969708498}, "southwest": {"lat": 51.51605066970851, "lng": -0.149106930291502}}}, "name": "Facial Wellness", "place_id": "ChIJIWipd9MadkgR9nY7Fi6FZlQ", "types": ["dentist", "health", "point_of_interest", "establishment"]}, "ChIJq6qad9MadkgRSXY8MuOCw7M": {"geometry": {"location": {"lat": 51.5174201, "lng": -0.1476436}, "viewport": {"northeast": {"lat": 51.5187486302915, "lng": -0.146408969708498}, "southwest": {"lat": 51.51605066970851, "lng": -0.149106930291502}}}, "name": "Dr A Barkhordar - Lister House Dental Implant Clinic", "place_id": "ChIJq6qad9MadkgRSXY8MuOCw7M", "types": ["dentist", "health", "point_of_interest", "establishment"], "rating": 5, "user_ratings_total": 1}, "ChIJIWipd9MadkgRQrjzs2kHI3U": {"geometry": {"location": {"lat": 51.5174201, "lng": -0.1476436}, "viewport": {"northeast": {"lat": 51.5187486302915, "lng": -0.146408969708498}, "southwest": {"lat": 51.51605066970851, "lng": -0.149106930291502}}}, "name": "Gutkin N", "place_id": "ChIJIWipd9MadkgRQrjzs2kHI3U", "types": ["dentist", "health", "point_of_interest", "establishment"]}, "ChIJRQTZftQadkgRHmrqp56ihVc": {"geometry": {"location": {"lat": 51.5177703, "lng": -0.1467491}, "viewport": {"northeast": {"lat": 51.51914783029149, "lng": -0.145236569708498}, "southwest": {"lat": 51.5164498697085, "lng": -0.147934530291502}}}, "name": "Green Path Recruitment", "place_id": "ChIJRQTZftQadkgRHmrqp56ihVc", "types": ["point_of_interest", "establishment"]}, "ChIJwwKKBNcadkgRZySmBAoGRpM": {"geometry": {"location": {"lat": 51.5174106, "lng": -0.1477518}, "viewport": {"northeast": {"lat": 51.51874968029151, "lng": -0.146465719708498}, "southwest": {"lat": 51.51605171970851, "lng": -0.149163680291502}}}, "name": "The London Allergy Clinic", "place_id": "ChIJwwKKBNcadkgRZySmBAoGRpM", "types": ["health", "point_of_interest", "establishment"], "rating": 4.9, "user_ratings_total": 13}, "ChIJRQTZftQadkgR-UlTz1OCyl8": {"geometry": {"location": {"lat": 51.5177703, "lng": -0.1467491}, "viewport": {"northeast": {"lat": 51.51914783029149, "lng": -0.145236569708498}, "southwest": {"lat": 51.5164498697085, "lng": -0.147934530291502}}}, "name": "TOP DESTINATIONS LIMITED", "place_id": "ChIJRQTZftQadkgR-UlTz1OCyl8", "types": ["point_of_interest", "establishment"]}, "ChIJYeJ-ftQadkgRjcwFBozKvXQ": {"geometry": {"location": {"lat": 51.517647, "lng": -0.1467944}, "viewport": {"northeast": {"lat": 51.51903273029149, "lng": -0.145235069708498}, "southwest": {"lat": 51.5163347697085, "lng": -0.147933030291502}}}, "name": "Business Telephony Ltd", "place_id": "ChIJYeJ-ftQadkgRjcwFBozKvXQ", "types": ["point_of_interest", "establishment"]}, "ChIJRQTZftQadkgROOm8X2u6tig": {"geometry": {"location": {"lat": 51.5177703, "lng": -0.1467491}, "viewport": {"northeast": {"lat": 51.51914783029149, "lng": -0.145236569708498}, "southwest": {"lat": 51.5164498697085, "lng": -0.147934530291502}}}, "name": "JsTray Ltd. Software Development Company", "place_id": "ChIJRQTZftQadkgROOm8X2u6tig", "types": ["electronics_store", "point_of_interest", "store", "establishment"]}, "ChIJRQTZftQadkgRdDK8gCy4si8": {"geometry": {"location": {"lat": 51.5177703, "lng": -0.1467491}, "viewport": {"northeast": {"lat": 51.51914783029149, "lng": -0.145236569708498}, "southwest": {"lat": 51.5164498697085, "lng": -0.147934530291502}}}, "name": "Stork Domestic Solutions Ltd", "place_id": "ChIJRQTZftQadkgRdDK8gCy4si8", "types": ["point_of_interest", "establishment"]}, "ChIJRQTZftQadkgRBLyLZgB_N8k": {"geometry": {"location": {"lat": 51.5177703, "lng": -0.1467491}, "viewport": {"northeast": {"lat": 51.51914783029149, "lng": -0.145236569708498}, "southwest": {"lat": 51.5164498697085, "lng": -0.147934530291502}}}, "name": "Real Estate Value Ltd (REV Ltd)", "place_id": "ChIJRQTZftQadkgRBLyLZgB_N8k", "types": ["point_of_interest", "establishment"], "rating": 1, "user_ratings_total": 1}, "ChIJw_J9hNQadkgR-YjigogQE9U": {"geometry": {"location": {"lat": 51.5176526, "lng": -0.1467623}, "viewport": {"northeast": {"lat": 51.51903548029149, "lng": -0.145219019708498}, "southwest": {"lat": 51.51633751970849, "lng": -0.147916980291502}}}, "name": "Mr Manoj Sood Hip & Knee Specialist", "place_id": "ChIJw_J9hNQadkgR-YjigogQE9U", "types": ["doctor", "health", "point_of_interest", "establishment"], "rating": 5, "user_ratings_total": 1}, "ChIJ2apOmdEadkgRACc-RULoCy0": {"geometry": {"location": {"lat": 51.5176526, "lng": -0.1467623}, "viewport": {"northeast": {"lat": 51.51903548029149, "lng": -0.145219019708498}, "southwest": {"lat": 51.51633751970849, "lng": -0.147916980291502}}}, "name": "GP at Home", "place_id": "ChIJ2apOmdEadkgRACc-RULoCy0", "types": ["point_of_interest", "establishment"]}, "ChIJw_J9hNQadkgRhxyHHYjmsSU": {"geometry": {"location": {"lat": 51.5176526, "lng": -0.1467623}, "viewport": {"northeast": {"lat": 51.51903548029149, "lng": -0.145219019708498}, "southwest": {"lat": 51.51633751970849, "lng": -0.147916980291502}}}, "name": "Dr Cam Wareham", "place_id": "ChIJw_J9hNQadkgRhxyHHYjmsSU", "types": ["doctor", "health", "point_of_interest", "establishment"], "rating": 5, "user_ratings_total": 1}, "ChIJ7W4gf9QadkgRFI6VfG4IqDY": {"geometry": {"location": {"lat": 51.5177703, "lng": -0.1467491}, "viewport": {"northeast": {"lat": 51.51914783029149, "lng": -0.145236569708498}, "southwest": {"lat": 51.5164498697085, "lng": -0.147934530291502}}}, "name": "Patient Advisory Service", "place_id": "ChIJ7W4gf9QadkgRFI6VfG4IqDY", "types": ["doctor", "health", "point_of_interest", "establishment"]}, "ChIJRQTZftQadkgRzRX6Q4Hkq9c": {"geometry": {"location": {"lat": 51.5177703, "lng": -0.1467491}, "viewport": {"northeast": {"lat": 51.51914783029149, "lng": -0.145236569708498}, "southwest": {"lat": 51.5164498697085, "lng": -0.147934530291502}}}, "name": "Blue Vervet Ltd", "place_id": "ChIJRQTZftQadkgRzRX6Q4Hkq9c", "types": ["point_of_interest", "establishment"]}, "ChIJRQTZftQadkgRu0mXI5BXopg": {"geometry": {"location": {"lat": 51.5177703, "lng": -0.1467491}, "viewport": {"northeast": {"lat": 51.51914783029149, "lng": -0.145236569708498}, "southwest": {"lat": 51.5164498697085, "lng": -0.147934530291502}}}, "name": "Lambria", "place_id": "ChIJRQTZftQadkgRu0mXI5BXopg", "types": ["point_of_interest", "establishment"]}, "ChIJBXKwf9QadkgRHcViX_RTbyo": {"geometry": {"location": {"lat": 51.51766139999999, "lng": -0.1467228}, "viewport": {"northeast": {"lat": 51.5190407802915, "lng": -0.145199669708498}, "southwest": {"lat": 51.5163428197085, "lng": -0.147897630291502}}}, "name": "The London Residence Company Ltd", "place_id": "ChIJBXKwf9QadkgRHcViX_RTbyo", "types": ["point_of_interest", "establishment"]}, "ChIJRQTZftQadkgRne6d1ffIbrI": {"geometry": {"location": {"lat": 51.5177858, "lng": -0.1466812}, "viewport": {"northeast": {"lat": 51.51915728029149, "lng": -0.145203369708498}, "southwest": {"lat": 51.5164593197085, "lng": -0.147901330291502}}}, "name": "Virtual Office London", "place_id": "ChIJRQTZftQadkgRne6d1ffIbrI", "types": ["point_of_interest", "establishment"]}, "ChIJRQTZftQadkgRfyAAT9lxFGo": {"geometry": {"location": {"lat": 51.5177828, "lng": -0.146696}, "viewport": {"northeast": {"lat": 51.5191555802915, "lng": -0.145210669708498}, "southwest": {"lat": 51.5164576197085, "lng": -0.1479086302915021}}}, "name": "Penguin Commercial Ltd.", "place_id": "ChIJRQTZftQadkgRfyAAT9lxFGo", "types": ["point_of_interest", "establishment"]}, "ChIJWR8iQ9EadkgRKbtj3JRwFdc": {"geometry": {"location": {"lat": 51.5180035, "lng": -0.146866}, "viewport": {"northeast": {"lat": 51.5193819802915, "lng": -0.145348019708498}, "southwest": {"lat": 51.5166840197085, "lng": -0.148045980291502}}}, "name": "London Rhinoplasty", "place_id": "ChIJWR8iQ9EadkgRKbtj3JRwFdc", "types": ["doctor", "health", "point_of_interest", "establishment"], "rating": 5, "user_ratings_total": 43}, "ChIJ8ZbehdMadkgRfIFHQFukOU0": {"geometry": {"location": {"lat": 51.5181602, "lng": -0.1472738}, "viewport": {"northeast": {"lat": 51.51944513029149, "lng": -0.145896569708498}, "southwest": {"lat": 51.51674716970849, "lng": -0.148594530291502}}}, "name": "MCG Law", "place_id": "ChIJ8ZbehdMadkgRfIFHQFukOU0", "types": ["point_of_interest", "establishment"], "rating": 5, "user_ratings_total": 2}, "ChIJK3Wxf9QadkgRQNyOEn9FOJg": {"geometry": {"location": {"lat": 51.5176568, "lng": -0.1467082}, "viewport": {"northeast": {"lat": 51.5190351802915, "lng": -0.1451909197084979}, "southwest": {"lat": 51.5163372197085, "lng": -0.147888880291502}}}, "name": "HDRI-Studio", "place_id": "ChIJK3Wxf9QadkgRQNyOEn9FOJg", "types": ["point_of_interest", "establishment"]}, "ChIJ7W4gf9QadkgRUKccwuRifaw": {"geometry": {"location": {"lat": 51.5177858, "lng": -0.1466812}, "viewport": {"northeast": {"lat": 51.51915728029149, "lng": -0.145203369708498}, "southwest": {"lat": 51.5164593197085, "lng": -0.147901330291502}}}, "name": "Katrin Hempel Heilpraktikerin, Sanguinum-Kur Standort", "place_id": "ChIJ7W4gf9QadkgRUKccwuRifaw", "types": ["doctor", "health", "point_of_interest", "establishment"]}, "ChIJzxqImNMadkgRP8vk0lmJajU": {"geometry": {"location": {"lat": 51.5181801, "lng": -0.1474867}, "viewport": {"northeast": {"lat": 51.5195997302915, "lng": -0.146193519708498}, "southwest": {"lat": 51.5169017697085, "lng": -0.148891480291502}}}, "name": "Camerons Solicitors LLP", "place_id": "ChIJzxqImNMadkgRP8vk0lmJajU", "types": ["lawyer", "point_of_interest", "establishment"]}, "ChIJWRjbddQadkgRljE4r_ZJgrk": {"geometry": {"location": {"lat": 51.5177828, "lng": -0.146696}, "viewport": {"northeast": {"lat": 51.5191555802915, "lng": -0.145210669708498}, "southwest": {"lat": 51.5164576197085, "lng": -0.1479086302915021}}}, "name": "Jooky Limited", "place_id": "ChIJWRjbddQadkgRljE4r_ZJgrk", "types": ["point_of_interest", "establishment"]}, "ChIJT5B_htMadkgRpUJ7Po41wVQ": {"geometry": {"location": {"lat": 51.51815939999999, "lng": -0.1472746}, "viewport": {"northeast": {"lat": 51.5194446802915, "lng": -0.145897519708498}, "southwest": {"lat": 51.5167467197085, "lng": -0.148595480291502}}}, "name": "Alan Burger Attorneys", "place_id": "ChIJT5B_htMadkgRpUJ7Po41wVQ", "types": ["point_of_interest", "establishment"]}, "ChIJ-ax_htMadkgR8vCNME_USfI": {"geometry": {"location": {"lat": 51.51815939999999, "lng": -0.1472746}, "viewport": {"northeast": {"lat": 51.5194446802915, "lng": -0.145897519708498}, "southwest": {"lat": 51.5167467197085, "lng": -0.148595480291502}}}, "name": "Miltenglade Ltd", "place_id": "ChIJ-ax_htMadkgR8vCNME_USfI", "types": ["point_of_interest", "establishment"]}, "ChIJk8r6hdMadkgRcan3ffHbe-w": {"geometry": {"location": {"lat": 51.5181602, "lng": -0.1472737}, "viewport": {"northeast": {"lat": 51.5194451802915, "lng": -0.145896469708498}, "southwest": {"lat": 51.5167472197085, "lng": -0.148594430291502}}}, "name": "Freehold Portfolios GR Ltd", "place_id": "ChIJk8r6hdMadkgRcan3ffHbe-w", "types": ["real_estate_agency", "point_of_interest", "establishment"]}, "ChIJfd_Zm9MadkgRbLU--VObuEw": {"geometry": {"location": {"lat": 51.51799459999999, "lng": -0.147952}, "viewport": {"northeast": {"lat": 51.5193026802915, "lng": -0.146584969708498}, "southwest": {"lat": 51.5166047197085, "lng": -0.149282930291502}}}, "name": "Fdcovers", "place_id": "ChIJfd_Zm9MadkgRbLU--VObuEw", "types": ["point_of_interest", "establishment"]}, "ChIJtQZKp9MadkgR0WQ_h0Q5NTQ": {"geometry": {"location": {"lat": 51.5181738, "lng": -0.1474675}, "viewport": {"northeast": {"lat": 51.5195965802915, "lng": -0.146183919708498}, "southwest": {"lat": 51.5168986197085, "lng": -0.148881880291502}}}, "name": "Exley Hervey Ltd", "place_id": "ChIJtQZKp9MadkgR0WQ_h0Q5NTQ", "types": ["point_of_interest", "establishment"], "rating": 4, "user_ratings_total": 1}, "ChIJZYMxktMadkgRedW0lidphcI": {"geometry": {"location": {"lat": 51.5181801, "lng": -0.1474867}, "viewport": {"northeast": {"lat": 51.5195997302915, "lng": -0.146193519708498}, "southwest": {"lat": 51.5169017697085, "lng": -0.148891480291502}}}, "name": "The London Reflexology Centre", "place_id": "ChIJZYMxktMadkgRedW0lidphcI", "types": ["physiotherapist", "health", "point_of_interest", "establishment"]}, "ChIJ3XbDAS0FdkgRt9IdWd3MUyo": {"geometry": {"location": {"lat": 51.51816799999999, "lng": -0.147477}, "viewport": {"northeast": {"lat": 51.51959368029149, "lng": -0.146188669708498}, "southwest": {"lat": 51.51689571970849, "lng": -0.148886630291502}}}, "name": "Huntwood Associates - Executive Coaching Consultancy", "place_id": "ChIJ3XbDAS0FdkgRt9IdWd3MUyo", "types": ["point_of_interest", "establishment"]}, "ChIJ0X-Ye9QadkgR66gVt0iWJ24": {"geometry": {"location": {"lat": 51.5177858, "lng": -0.1466812}, "viewport": {"northeast": {"lat": 51.51915728029149, "lng": -0.145203369708498}, "southwest": {"lat": 51.5164593197085, "lng": -0.147901330291502}}}, "name": "Run Energy", "place_id": "ChIJ0X-Ye9QadkgR66gVt0iWJ24", "types": ["premise", "point_of_interest", "establishment"]}, "ChIJjy1OadMadkgRzZXkAD5OEZU": {"geometry": {"location": {"lat": 51.51657355007632, "lng": -0.1476417000672235}, "viewport": {"northeast": {"lat": 51.5179225302915, "lng": -0.146292719708498}, "southwest": {"lat": 51.5152245697085, "lng": -0.148990680291502}}}, "name": "28-26 Wigmore St", "place_id": "ChIJjy1OadMadkgRzZXkAD5OEZU", "types": ["route"]}, "ChIJ9faiY9MadkgRWc1hTBHePkQ": {"geometry": {"location": {"lat": 51.51675580000001, "lng": -0.1471011}, "viewport": {"northeast": {"lat": 51.51806283029149, "lng": -0.145731669708498}, "southwest": {"lat": 51.5153648697085, "lng": -0.148429630291502}}}, "name": "PetLondon", "place_id": "ChIJ9faiY9MadkgRWc1hTBHePkQ", "types": ["point_of_interest", "store", "establishment"], "rating": 4.2, "user_ratings_total": 148}, "ChIJ-dNEa9MadkgRNYqylAShZqU": {"geometry": {"location": {"lat": 51.5165965, "lng": -0.1482377}, "viewport": {"northeast": {"lat": 51.51788803029149, "lng": -0.146860069708498}, "southwest": {"lat": 51.5151900697085, "lng": -0.149558030291502}}}, "name": "Wigmore Hall", "place_id": "ChIJ-dNEa9MadkgRNYqylAShZqU", "types": ["cafe", "bar", "restaurant", "food", "point_of_interest", "establishment"], "rating": 4.7, "user_ratings_total": 855}, "ChIJkfwUndQadkgRaWbMsk6-pbA": {"geometry": {"location": {"lat": 51.5169052, "lng": -0.1466781}, "viewport": {"northeast": {"lat": 51.5182001302915, "lng": -0.145388119708498}, "southwest": {"lat": 51.5155021697085, "lng": -0.1480860802915021}}}, "name": "2 Veneti", "place_id": "ChIJkfwUndQadkgRaWbMsk6-pbA", "types": ["meal_takeaway", "restaurant", "food", "point_of_interest", "establishment"], "rating": 4.4, "user_ratings_total": 314}, "ChIJr7BER9EadkgRcpaQmkamm90": {"geometry": {"location": {"lat": 51.51638730000001, "lng": -0.1472804}, "viewport": {"northeast": {"lat": 51.5177254802915, "lng": -0.145991819708498}, "southwest": {"lat": 51.5150275197085, "lng": -0.148689780291502}}}, "name": "London Skin Clinic", "place_id": "ChIJr7BER9EadkgRcpaQmkamm90", "types": ["doctor", "health", "point_of_interest", "establishment"], "rating": 4, "user_ratings_total": 1}, "ChIJUz95a9MadkgRuu9BHHsqMGE": {"geometry": {"location": {"lat": 51.5166058, "lng": -0.1480234}, "viewport": {"northeast": {"lat": 51.5179049802915, "lng": -0.146698219708498}, "southwest": {"lat": 51.51520701970851, "lng": -0.149396180291502}}}, "name": "Margaret Howell", "place_id": "ChIJUz95a9MadkgRuu9BHHsqMGE", "types": ["point_of_interest", "clothing_store", "store", "establishment"], "rating": 3.5, "user_ratings_total": 34}, "ChIJ9Y6ObtMadkgRADyLkY-FHb4": {"geometry": {"location": {"lat": 51.516627, "lng": -0.1478239}, "viewport": {"northeast": {"lat": 51.51793668029151, "lng": -0.146457569708498}, "southwest": {"lat": 51.51523871970851, "lng": -0.149155530291502}}}, "name": "Back2 International - Back Care Shop", "place_id": "ChIJ9Y6ObtMadkgRADyLkY-FHb4", "types": ["furniture_store", "home_goods_store", "point_of_interest", "store", "establishment"], "rating": 4.8, "user_ratings_total": 186}, "ChIJ9faiY9MadkgRX7NQOXOB05A": {"geometry": {"location": {"lat": 51.5167526, "lng": -0.1471024}, "viewport": {"northeast": {"lat": 51.5180592802915, "lng": -0.145735669708498}, "southwest": {"lat": 51.5153613197085, "lng": -0.148433630291502}}}, "name": "Intervari", "place_id": "ChIJ9faiY9MadkgRX7NQOXOB05A", "types": ["home_goods_store", "general_contractor", "point_of_interest", "store", "establishment"], "rating": 4.7, "user_ratings_total": 6}, "ChIJKelpmtQadkgRYzAEII4xDmk": {"geometry": {"location": {"lat": 51.5166653, "lng": -0.1476859}, "viewport": {"northeast": {"lat": 51.5180262302915, "lng": -0.146268819708498}, "southwest": {"lat": 51.5153282697085, "lng": -0.148966780291502}}}, "name": "PPD Learning Ltd", "place_id": "ChIJKelpmtQadkgRYzAEII4xDmk", "types": ["point_of_interest", "establishment"]}, "ChIJpTlnY9MadkgRGgb_gpWxp9U": {"geometry": {"location": {"lat": 51.5167635, "lng": -0.1472724}, "viewport": {"northeast": {"lat": 51.51805213029151, "lng": -0.145926169708498}, "southwest": {"lat": 51.51535416970851, "lng": -0.148624130291502}}}, "name": "AP Parties", "place_id": "ChIJpTlnY9MadkgRGgb_gpWxp9U", "types": ["point_of_interest", "establishment"]}, "ChIJqSEsZ9MadkgRZ1xpyGapkYw": {"geometry": {"location": {"lat": 51.51638730000001, "lng": -0.1472804}, "viewport": {"northeast": {"lat": 51.5177254802915, "lng": -0.145991819708498}, "southwest": {"lat": 51.5150275197085, "lng": -0.148689780291502}}}, "name": "Body Psychotherapy", "place_id": "ChIJqSEsZ9MadkgRZ1xpyGapkYw", "types": ["health", "point_of_interest", "establishment"]}, "ChIJ0W23ZtMadkgR1KcgO5flSOw": {"geometry": {"location": {"lat": 51.51647139999999, "lng": -0.1471866}, "viewport": {"northeast": {"lat": 51.5179032802915, "lng": -0.145872369708498}, "southwest": {"lat": 51.5152053197085, "lng": -0.148570330291502}}}, "name": "Cooper Kendall", "place_id": "ChIJ0W23ZtMadkgR1KcgO5flSOw", "types": ["point_of_interest", "establishment"]}, "ChIJHcd3ZNMadkgRaAbzggdjLD8": {"geometry": {"location": {"lat": 51.516774, "lng": -0.1472987}, "viewport": {"northeast": {"lat": 51.51805573029149, "lng": -0.145936419708498}, "southwest": {"lat": 51.51535776970849, "lng": -0.148634380291502}}}, "name": "Wigmore Commercial", "place_id": "ChIJHcd3ZNMadkgRaAbzggdjLD8", "types": ["real_estate_agency", "point_of_interest", "establishment"]}, "ChIJzRGm1-wddkgRcsBIlIpyXV0": {"geometry": {"location": {"lat": 51.5170087, "lng": -0.1474765}, "viewport": {"northeast": {"lat": 51.51833853029149, "lng": -0.146227869708498}, "southwest": {"lat": 51.5156405697085, "lng": -0.148925830291502}}}, "name": "City Dampcoursing Ltd", "place_id": "ChIJzRGm1-wddkgRcsBIlIpyXV0", "types": ["point_of_interest", "establishment"], "rating": 5, "user_ratings_total": 10}, "ChIJub8EXNMadkgR5Fn8zXL-3hg": {"geometry": {"location": {"lat": 51.5167424, "lng": -0.1477549}, "viewport": {"northeast": {"lat": 51.51810613029149, "lng": -0.146322069708498}, "southwest": {"lat": 51.51540816970849, "lng": -0.149020030291502}}}, "name": "3D Scan London", "place_id": "ChIJub8EXNMadkgR5Fn8zXL-3hg", "types": ["health", "point_of_interest", "establishment"]}, "ChIJI96Tb9MadkgRkQQE-7qU7M4": {"geometry": {"location": {"lat": 51.5167424, "lng": -0.1477549}, "viewport": {"northeast": {"lat": 51.51810613029149, "lng": -0.146322069708498}, "southwest": {"lat": 51.51540816970849, "lng": -0.149020030291502}}}, "name": "Private Equity Investor Plc", "place_id": "ChIJI96Tb9MadkgRkQQE-7qU7M4", "types": ["finance", "point_of_interest", "establishment"]}, "ChIJ9aFEZtMadkgRBAKXb_BPmv0": {"geometry": {"location": {"lat": 51.51636800000001, "lng": -0.147279}, "viewport": {"northeast": {"lat": 51.5177067802915, "lng": -0.1459869697084979}, "southwest": {"lat": 51.5150088197085, "lng": -0.148684930291502}}}, "name": "Dermadoc Clinic", "place_id": "ChIJ9aFEZtMadkgRBAKXb_BPmv0", "types": ["beauty_salon", "hospital", "dentist", "spa", "health", "point_of_interest", "establishment"], "rating": 4.8, "user_ratings_total": 16}, "ChIJF6zJWisFdkgRzpektPyNDtE": {"geometry": {"location": {"lat": 51.51638699999999, "lng": -0.14728}, "viewport": {"northeast": {"lat": 51.5177251802915, "lng": -0.145991569708498}, "southwest": {"lat": 51.5150272197085, "lng": -0.148689530291502}}}, "name": "Baroni 077", "place_id": "ChIJF6zJWisFdkgRzpektPyNDtE", "types": ["clothing_store", "point_of_interest", "store", "establishment"], "rating": 5, "user_ratings_total": 1}, "ChIJXTqGiNQadkgRbdNUK89lc3o": {"geometry": {"location": {"lat": 51.5168654, "lng": -0.1478475}, "viewport": {"northeast": {"lat": 51.5182320802915, "lng": -0.146397619708498}, "southwest": {"lat": 51.5155341197085, "lng": -0.149095580291502}}}, "name": "The Regency Practice", "place_id": "ChIJXTqGiNQadkgRbdNUK89lc3o", "types": ["health", "point_of_interest", "establishment"]}, "ChIJB4i3vyoFdkgRpeS9Io_HCqM": {"geometry": {"location": {"lat": 51.5165386, "lng": -0.1472781}, "viewport": {"northeast": {"lat": 51.5178708302915, "lng": -0.146022869708498}, "southwest": {"lat": 51.5151728697085, "lng": -0.148720830291502}}}, "name": "MindX", "place_id": "ChIJB4i3vyoFdkgRpeS9Io_HCqM", "types": ["point_of_interest", "establishment"], "rating": 5, "user_ratings_total": 1}, "ChIJc7jGoNMadkgR6dsP--42tPc": {"geometry": {"location": {"lat": 51.5168074, "lng": -0.1474894}, "viewport": {"northeast": {"lat": 51.5181101302915, "lng": -0.146173169708498}, "southwest": {"lat": 51.5154121697085, "lng": -0.148871130291502}}}, "name": "I F D C Ltd", "place_id": "ChIJc7jGoNMadkgR6dsP--42tPc", "types": ["finance", "point_of_interest", "establishment"]}, "ChIJ3zcZbtMadkgRc2QyDOzPQLg": {"geometry": {"location": {"lat": 51.5165659, "lng": -0.1471314}, "viewport": {"northeast": {"lat": 51.5178849802915, "lng": -0.145949719708498}, "southwest": {"lat": 51.5151870197085, "lng": -0.148647680291502}}}, "name": "Dr Nuria Gen\u00e9-Cos", "place_id": "ChIJ3zcZbtMadkgRc2QyDOzPQLg", "types": ["doctor", "health", "point_of_interest", "establishment"]}, "ChIJvT7-ZNMadkgR8ZCDA_mohms": {"geometry": {"location": {"lat": 51.5166745, "lng": -0.1477377}, "viewport": {"northeast": {"lat": 51.5179689302915, "lng": -0.146364669708498}, "southwest": {"lat": 51.5152709697085, "lng": -0.149062630291502}}}, "name": "Salvatori UK ltd", "place_id": "ChIJvT7-ZNMadkgR8ZCDA_mohms", "types": ["home_goods_store", "point_of_interest", "store", "establishment"], "rating": 4, "user_ratings_total": 1}, "ChIJpTgtZdMadkgReBHwGk5R57c": {"geometry": {"location": {"lat": 51.5168828, "lng": -0.147451}, "viewport": {"northeast": {"lat": 51.5182166302915, "lng": -0.146188369708498}, "southwest": {"lat": 51.5155186697085, "lng": -0.148886330291502}}}, "name": "Amanda Garber", "place_id": "ChIJpTgtZdMadkgReBHwGk5R57c", "types": ["health", "point_of_interest", "establishment"]}, "ChIJd55Td9MadkgRguvmc_GEsAE": {"geometry": {"location": {"lat": 51.51688410000001, "lng": -0.1474441}, "viewport": {"northeast": {"lat": 51.5182172802915, "lng": -0.146184969708498}, "southwest": {"lat": 51.5155193197085, "lng": -0.148882930291502}}}, "name": "Auria Creative", "place_id": "ChIJd55Td9MadkgRguvmc_GEsAE", "types": ["accounting", "finance", "point_of_interest", "establishment"]}, "ChIJd55Td9MadkgRtGdeYUtYkks": {"geometry": {"location": {"lat": 51.51688410000001, "lng": -0.1474441}, "viewport": {"northeast": {"lat": 51.5182172802915, "lng": -0.146184969708498}, "southwest": {"lat": 51.5155193197085, "lng": -0.148882930291502}}}, "name": "Auria Group", "place_id": "ChIJd55Td9MadkgRtGdeYUtYkks", "types": ["accounting", "finance", "point_of_interest", "establishment"]}, "ChIJh8pfrboqdEgRtbaNM7tTDPI": {"geometry": {"location": {"lat": 51.51688410000001, "lng": -0.1474441}, "viewport": {"northeast": {"lat": 51.5182172802915, "lng": -0.146184969708498}, "southwest": {"lat": 51.5155193197085, "lng": -0.148882930291502}}}, "name": "CCK Group Ltd", "place_id": "ChIJh8pfrboqdEgRtbaNM7tTDPI", "types": ["point_of_interest", "establishment"]}, "ChIJI40eRdYEdkgRuwAJA3VZYb8": {"geometry": {"location": {"lat": 51.5166842, "lng": -0.147758}, "viewport": {"northeast": {"lat": 51.5180502802915, "lng": -0.146311519708498}, "southwest": {"lat": 51.51535231970851, "lng": -0.149009480291502}}}, "name": "Haloodies", "place_id": "ChIJI40eRdYEdkgRuwAJA3VZYb8", "types": ["food", "point_of_interest", "store", "establishment"], "rating": 4, "user_ratings_total": 8}, "ChIJ10sDb9MadkgRFHNXhUue8iY": {"geometry": {"location": {"lat": 51.51668199999999, "lng": -0.1477595}, "viewport": {"northeast": {"lat": 51.5180482802915, "lng": -0.146311819708498}, "southwest": {"lat": 51.5153503197085, "lng": -0.149009780291502}}}, "name": "P1 SuperStock", "place_id": "ChIJ10sDb9MadkgRFHNXhUue8iY", "types": ["point_of_interest", "establishment"]}, "ChIJ10sDb9MadkgR1joIIlno968": {"geometry": {"location": {"lat": 51.51668199999999, "lng": -0.1477595}, "viewport": {"northeast": {"lat": 51.5180482802915, "lng": -0.146311819708498}, "southwest": {"lat": 51.5153503197085, "lng": -0.149009780291502}}}, "name": "P1 AquaX", "place_id": "ChIJ10sDb9MadkgR1joIIlno968", "types": ["point_of_interest", "establishment"], "rating": 4.5, "user_ratings_total": 2}, "ChIJ10sDb9MadkgR9o8PySv7Nr0": {"geometry": {"location": {"lat": 51.51668199999999, "lng": -0.1477595}, "viewport": {"northeast": {"lat": 51.5180482802915, "lng": -0.146311819708498}, "southwest": {"lat": 51.5153503197085, "lng": -0.149009780291502}}}, "name": "MAITS", "place_id": "ChIJ10sDb9MadkgR9o8PySv7Nr0", "types": ["point_of_interest", "establishment"]}, "ChIJVVVVVbQcdkgRojGiN11hPns": {"geometry": {"location": {"lat": 51.51672569999999, "lng": -0.1478058}, "viewport": {"northeast": {"lat": 51.51809413029149, "lng": -0.146345869708498}, "southwest": {"lat": 51.51539616970849, "lng": -0.149043830291502}}}, "name": "British Pakistan Foundation", "place_id": "ChIJVVVVVbQcdkgRojGiN11hPns", "types": ["point_of_interest", "establishment"]}, "ChIJHaQnZ9MadkgR_6dV12b9PVg": {"geometry": {"location": {"lat": 51.51638730000001, "lng": -0.1472804}, "viewport": {"northeast": {"lat": 51.5177254802915, "lng": -0.145991819708498}, "southwest": {"lat": 51.5150275197085, "lng": -0.148689780291502}}}, "name": "Wimpole Face and Body", "place_id": "ChIJHaQnZ9MadkgR_6dV12b9PVg", "types": ["beauty_salon", "point_of_interest", "establishment"]}, "ChIJW84-wZ9tdkgRE886SfkDQe4": {"geometry": {"location": {"lat": 51.51638730000001, "lng": -0.1472804}, "viewport": {"northeast": {"lat": 51.5177254802915, "lng": -0.145991819708498}, "southwest": {"lat": 51.5150275197085, "lng": -0.148689780291502}}}, "name": "VOICE CARE CENTRE - Specialist Vocal Massage, London", "place_id": "ChIJW84-wZ9tdkgRE886SfkDQe4", "types": ["health", "point_of_interest", "establishment"], "rating": 5, "user_ratings_total": 62}, "ChIJF3wGwtQEdkgRTI_pq10UIU0": {"geometry": {"location": {"lat": 51.51638730000001, "lng": -0.1472804}, "viewport": {"northeast": {"lat": 51.5177254802915, "lng": -0.145991819708498}, "southwest": {"lat": 51.5150275197085, "lng": -0.148689780291502}}}, "name": "Osteon", "place_id": "ChIJF3wGwtQEdkgRTI_pq10UIU0", "types": ["health", "point_of_interest", "establishment"]}, "ChIJ9aFEZtMadkgRR1pJOEWtW2M": {"geometry": {"location": {"lat": 51.51638699999999, "lng": -0.14728}, "viewport": {"northeast": {"lat": 51.5177251802915, "lng": -0.145991569708498}, "southwest": {"lat": 51.5150272197085, "lng": -0.148689530291502}}}, "name": "Perfect Definition Microblading, SMP, Permanent Makeup & Aesthetics by El Truchan Harley Street", "place_id": "ChIJ9aFEZtMadkgRR1pJOEWtW2M", "types": ["beauty_salon", "hair_care", "spa", "doctor", "health", "point_of_interest", "establishment"], "rating": 5, "user_ratings_total": 70}, "ChIJKWPVZtMadkgRGZrI9gaTHBM": {"geometry": {"location": {"lat": 51.51639459999999, "lng": -0.147233}, "viewport": {"northeast": {"lat": 51.51772858029149, "lng": -0.145967869708498}, "southwest": {"lat": 51.51503061970849, "lng": -0.148665830291502}}}, "name": "Fascinating A\u00efda", "place_id": "ChIJKWPVZtMadkgRGZrI9gaTHBM", "types": ["point_of_interest", "establishment"]}, "ChIJW07dgvjmh0gRCOBtFGWJet0": {"geometry": {"location": {"lat": 51.5163821, "lng": -0.1472468}, "viewport": {"northeast": {"lat": 51.51771773029149, "lng": -0.145972669708498}, "southwest": {"lat": 51.51501976970849, "lng": -0.148670630291502}}}, "name": "Dance Movement Psychotherapy", "place_id": "ChIJW07dgvjmh0gRCOBtFGWJet0", "types": ["health", "point_of_interest", "establishment"]}, "ChIJE5xcZtMadkgRA59oMhR_o7s": {"geometry": {"location": {"lat": 51.5163742, "lng": -0.1472873}, "viewport": {"northeast": {"lat": 51.5177135302915, "lng": -0.145992819708498}, "southwest": {"lat": 51.5150155697085, "lng": -0.148690780291502}}}, "name": "Dr. Tasos Vartholomaios", "place_id": "ChIJE5xcZtMadkgRA59oMhR_o7s", "types": ["doctor", "health", "point_of_interest", "establishment"]}, "ChIJVVVDZtMadkgRAYfC15uZH1s": {"geometry": {"location": {"lat": 51.5163742, "lng": -0.1472873}, "viewport": {"northeast": {"lat": 51.5177135302915, "lng": -0.145992819708498}, "southwest": {"lat": 51.5150155697085, "lng": -0.148690780291502}}}, "name": "Your Childs Development", "place_id": "ChIJVVVDZtMadkgRAYfC15uZH1s", "types": ["health", "point_of_interest", "establishment"]}, "ChIJVVVDZtMadkgR1paFQzyvsWU": {"geometry": {"location": {"lat": 51.5163742, "lng": -0.1472873}, "viewport": {"northeast": {"lat": 51.5177135302915, "lng": -0.145992819708498}, "southwest": {"lat": 51.5150155697085, "lng": -0.148690780291502}}}, "name": "Tmcoaching", "place_id": "ChIJVVVDZtMadkgR1paFQzyvsWU", "types": ["point_of_interest", "establishment"]}, "ChIJI7GpZ9MadkgRDJ7QP2yadU0": {"geometry": {"location": {"lat": 51.5163742, "lng": -0.1472873}, "viewport": {"northeast": {"lat": 51.5177135302915, "lng": -0.145992819708498}, "southwest": {"lat": 51.5150155697085, "lng": -0.148690780291502}}}, "name": "Be Slim Institute", "place_id": "ChIJI7GpZ9MadkgRDJ7QP2yadU0", "types": ["health", "point_of_interest", "establishment"], "rating": 5, "user_ratings_total": 1}, "ChIJz5faTscbdkgRxgHMvZx2rJ4": {"geometry": {"location": {"lat": 51.516863, "lng": -0.147888}, "viewport": {"northeast": {"lat": 51.5182330802915, "lng": -0.146418819708498}, "southwest": {"lat": 51.5155351197085, "lng": -0.149116780291502}}}, "name": "Sue Belton Coaching", "place_id": "ChIJz5faTscbdkgRxgHMvZx2rJ4", "types": ["point_of_interest", "establishment"], "rating": 5, "user_ratings_total": 17}, "ChIJnZy-mdMadkgRmJEjz4H4QN0": {"geometry": {"location": {"lat": 51.51687440000001, "lng": -0.1478324}, "viewport": {"northeast": {"lat": 51.5182395302915, "lng": -0.146391369708498}, "southwest": {"lat": 51.5155415697085, "lng": -0.149089330291502}}}, "name": "Psuche Consulting", "place_id": "ChIJnZy-mdMadkgRmJEjz4H4QN0", "types": ["health", "point_of_interest", "establishment"]}, "ChIJ9R5tYdMadkgRrMARFjRjZOc": {"geometry": {"location": {"lat": 51.5164969, "lng": -0.1469721}, "viewport": {"northeast": {"lat": 51.5179331802915, "lng": -0.145659719708498}, "southwest": {"lat": 51.5152352197085, "lng": -0.148357680291502}}}, "name": "Vinci Hair Clinic", "place_id": "ChIJ9R5tYdMadkgRrMARFjRjZOc", "types": ["hair_care", "doctor", "health", "point_of_interest", "establishment"], "rating": 4.9, "user_ratings_total": 91}, "ChIJI2bGYdMadkgRuWAxip184JE": {"geometry": {"location": {"lat": 51.5164933, "lng": -0.1469685}, "viewport": {"northeast": {"lat": 51.51793153029151, "lng": -0.145656919708498}, "southwest": {"lat": 51.51523356970851, "lng": -0.148354880291502}}}, "name": "Ascot Lloyd", "place_id": "ChIJI2bGYdMadkgRuWAxip184JE", "types": ["finance", "point_of_interest", "establishment"], "rating": 5, "user_ratings_total": 1}, "ChIJLw2UYdMadkgRz4ifXhPa1Go": {"geometry": {"location": {"lat": 51.5164949, "lng": -0.1469666}, "viewport": {"northeast": {"lat": 51.5179325302915, "lng": -0.145654769708498}, "southwest": {"lat": 51.5152345697085, "lng": -0.148352730291502}}}, "name": "Techbridge Limited", "place_id": "ChIJLw2UYdMadkgRz4ifXhPa1Go", "types": ["point_of_interest", "establishment"]}, "ChIJZXwOetMadkgR42iLl-C1F8U": {"geometry": {"location": {"lat": 51.51662880000001, "lng": -0.1478941}, "viewport": {"northeast": {"lat": 51.5180079802915, "lng": -0.146372919708498}, "southwest": {"lat": 51.5153100197085, "lng": -0.149070880291502}}}, "name": "BusinessVibes", "place_id": "ChIJZXwOetMadkgR42iLl-C1F8U", "types": ["point_of_interest", "establishment"]}, "ChIJG6QnZ9MadkgRHMCyAvR84-A": {"geometry": {"location": {"lat": 51.51635580000001, "lng": -0.1476177}, "viewport": {"northeast": {"lat": 51.5177601302915, "lng": -0.146166619708498}, "southwest": {"lat": 51.5150621697085, "lng": -0.1488645802915021}}}, "name": "Adelaide Children's Physio", "place_id": "ChIJG6QnZ9MadkgRHMCyAvR84-A", "types": ["physiotherapist", "health", "point_of_interest", "establishment"], "rating": 5, "user_ratings_total": 6}, "ChIJ3yDmcdMadkgRkUUHGVsI55o": {"geometry": {"location": {"lat": 51.51687519999999, "lng": -0.1478327}, "viewport": {"northeast": {"lat": 51.5182403302915, "lng": -0.146391719708498}, "southwest": {"lat": 51.5155423697085, "lng": -0.149089680291502}}}, "name": "Lucia Mizzoni", "place_id": "ChIJ3yDmcdMadkgRkUUHGVsI55o", "types": ["health", "point_of_interest", "establishment"]}, "ChIJF6s5btMadkgRdlOvkWK3BTM": {"geometry": {"location": {"lat": 51.5168654, "lng": -0.1478475}, "viewport": {"northeast": {"lat": 51.5182320802915, "lng": -0.146397619708498}, "southwest": {"lat": 51.5155341197085, "lng": -0.149095580291502}}}, "name": "CBT & Neuropsychology Centre", "place_id": "ChIJF6s5btMadkgRdlOvkWK3BTM", "types": ["health", "point_of_interest", "establishment"]}, "ChIJr_gchdQadkgRcxEqxTBSv1I": {"geometry": {"location": {"lat": 51.5168654, "lng": -0.1478475}, "viewport": {"northeast": {"lat": 51.5182320802915, "lng": -0.146397619708498}, "southwest": {"lat": 51.5155341197085, "lng": -0.149095580291502}}}, "name": "Dr. Sarah Davies", "place_id": "ChIJr_gchdQadkgRcxEqxTBSv1I", "types": ["health", "point_of_interest", "establishment"], "rating": 5, "user_ratings_total": 1}, "ChIJxTcZbtMadkgR87AVVsEGAUk": {"geometry": {"location": {"lat": 51.5168633, "lng": -0.1478875}, "viewport": {"northeast": {"lat": 51.51823333029149, "lng": -0.146418619708498}, "southwest": {"lat": 51.51553536970849, "lng": -0.149116580291502}}}, "name": "David Scott", "place_id": "ChIJxTcZbtMadkgR87AVVsEGAUk", "types": ["health", "point_of_interest", "establishment"]}, "ChIJxTcZbtMadkgR2rnISgtzZY8": {"geometry": {"location": {"lat": 51.5168633, "lng": -0.1478875}, "viewport": {"northeast": {"lat": 51.51823333029149, "lng": -0.146418619708498}, "southwest": {"lat": 51.51553536970849, "lng": -0.149116580291502}}}, "name": "Dr Frank Ryan", "place_id": "ChIJxTcZbtMadkgR2rnISgtzZY8", "types": ["health", "point_of_interest", "establishment"]}, "ChIJxTcZbtMadkgRjklli8pxvIg": {"geometry": {"location": {"lat": 51.5168633, "lng": -0.1478875}, "viewport": {"northeast": {"lat": 51.51823333029149, "lng": -0.146418619708498}, "southwest": {"lat": 51.51553536970849, "lng": -0.149116580291502}}}, "name": "Woman to Woman", "place_id": "ChIJxTcZbtMadkgRjklli8pxvIg", "types": ["health", "point_of_interest", "establishment"]}, "ChIJxTcZbtMadkgRO194JjFMMNM": {"geometry": {"location": {"lat": 51.5168633, "lng": -0.1478875}, "viewport": {"northeast": {"lat": 51.51823333029149, "lng": -0.146418619708498}, "southwest": {"lat": 51.51553536970849, "lng": -0.149116580291502}}}, "name": "Alison Hunt", "place_id": "ChIJxTcZbtMadkgRO194JjFMMNM", "types": ["health", "point_of_interest", "establishment"]}, "ChIJxTcZbtMadkgROYU42eKxnNE": {"geometry": {"location": {"lat": 51.5168633, "lng": -0.1478875}, "viewport": {"northeast": {"lat": 51.51823333029149, "lng": -0.146418619708498}, "southwest": {"lat": 51.51553536970849, "lng": -0.149116580291502}}}, "name": "Jill Davidson", "place_id": "ChIJxTcZbtMadkgROYU42eKxnNE", "types": ["health", "point_of_interest", "establishment"]}, "ChIJ3zcZbtMadkgR07g4e_03x_g": {"geometry": {"location": {"lat": 51.5168632, "lng": -0.1478876}, "viewport": {"northeast": {"lat": 51.51823323029149, "lng": -0.146418669708498}, "southwest": {"lat": 51.5155352697085, "lng": -0.149116630291502}}}, "name": "Cognitive Practice", "place_id": "ChIJ3zcZbtMadkgR07g4e_03x_g", "types": ["health", "point_of_interest", "establishment"], "rating": 5, "user_ratings_total": 1}, "ChIJQW1qftEadkgRdOFhZdmfTmI": {"geometry": {"location": {"lat": 51.52026655046024, "lng": -0.1495402503782388}, "viewport": {"northeast": {"lat": 51.5216155302915, "lng": -0.1481912697084979}, "southwest": {"lat": 51.5189175697085, "lng": -0.150889230291502}}}, "name": "43-45 Weymouth St", "place_id": "ChIJQW1qftEadkgRdOFhZdmfTmI", "types": ["route"]}, "ChIJ16zE0tMadkgRL_XleuaYzz0": {"geometry": {"location": {"lat": 51.5196199, "lng": -0.1497263}, "viewport": {"northeast": {"lat": 51.52094178029149, "lng": -0.148490219708498}, "southwest": {"lat": 51.51824381970849, "lng": -0.151188180291502}}}, "name": "University College Hospital at Westmoreland Street", "place_id": "ChIJ16zE0tMadkgRL_XleuaYzz0", "types": ["hospital", "health", "point_of_interest", "establishment"], "rating": 4, "user_ratings_total": 100}, "ChIJlzJs19MadkgRYlr-kIEq2H8": {"geometry": {"location": {"lat": 51.5198616, "lng": -0.1492884}, "viewport": {"northeast": {"lat": 51.5212344302915, "lng": -0.147806169708498}, "southwest": {"lat": 51.5185364697085, "lng": -0.1505041302915021}}}, "name": "MyHealthPortal", "place_id": "ChIJlzJs19MadkgRYlr-kIEq2H8", "types": ["hospital", "health", "point_of_interest", "establishment"]}, "ChIJyelp19MadkgRkn4Co6pxWiw": {"geometry": {"location": {"lat": 51.5198806, "lng": -0.1492626}, "viewport": {"northeast": {"lat": 51.52125058029149, "lng": -0.147796319708498}, "southwest": {"lat": 51.5185526197085, "lng": -0.150494280291502}}}, "name": "Pearly Penile Papules Centre", "place_id": "ChIJyelp19MadkgRkn4Co6pxWiw", "types": ["hospital", "health", "point_of_interest", "establishment"]}, "ChIJuyz52NMadkgREMGuPkT9JrE": {"geometry": {"location": {"lat": 51.5200563, "lng": -0.1488908}, "viewport": {"northeast": {"lat": 51.5213888302915, "lng": -0.147633719708498}, "southwest": {"lat": 51.51869086970851, "lng": -0.150331680291502}}}, "name": "Rothschild Diamonds", "place_id": "ChIJuyz52NMadkgREMGuPkT9JrE", "types": ["jewelry_store", "point_of_interest", "store", "establishment"], "rating": 5, "user_ratings_total": 1}, "ChIJ-fgcddQadkgR1_r0zwMCAIU": {"geometry": {"location": {"lat": 51.5200563, "lng": -0.1488908}, "viewport": {"northeast": {"lat": 51.5213888302915, "lng": -0.147633719708498}, "southwest": {"lat": 51.51869086970851, "lng": -0.150331680291502}}}, "name": "Sarah Burns Orthodontics", "place_id": "ChIJ-fgcddQadkgR1_r0zwMCAIU", "types": ["dentist", "health", "point_of_interest", "establishment"], "rating": 3.5, "user_ratings_total": 2}, "ChIJMafWrNYadkgR7CXDEYiFrZA": {"geometry": {"location": {"lat": 51.5202517, "lng": -0.149266}, "viewport": {"northeast": {"lat": 51.52162508029149, "lng": -0.147927069708498}, "southwest": {"lat": 51.5189271197085, "lng": -0.150625030291502}}}, "name": "Elite Orthodontics", "place_id": "ChIJMafWrNYadkgR7CXDEYiFrZA", "types": ["dentist", "health", "point_of_interest", "establishment"], "rating": 5, "user_ratings_total": 1}, "ChIJY1Iy1tMadkgRevrFk8D0Y8Y": {"geometry": {"location": {"lat": 51.52011899999999, "lng": -0.149281}, "viewport": {"northeast": {"lat": 51.52148103029149, "lng": -0.147856969708498}, "southwest": {"lat": 51.5187830697085, "lng": -0.150554930291502}}}, "name": "Dawood and Tanner Specialist Dental Practice", "place_id": "ChIJY1Iy1tMadkgRevrFk8D0Y8Y", "types": ["dentist", "doctor", "health", "point_of_interest", "establishment"], "rating": 4.5, "user_ratings_total": 26}, "ChIJaT7q4tAadkgRoIfJsLj0yPo": {"geometry": {"location": {"lat": 51.520024, "lng": -0.1492891}, "viewport": {"northeast": {"lat": 51.5213906802915, "lng": -0.147841219708498}, "southwest": {"lat": 51.5186927197085, "lng": -0.150539180291502}}}, "name": "Wimpole Eye Clinic", "place_id": "ChIJaT7q4tAadkgRoIfJsLj0yPo", "types": ["health", "point_of_interest", "establishment"]}, "ChIJCYDW19MadkgRuVp9pmJT0jI": {"geometry": {"location": {"lat": 51.5201747, "lng": -0.1493695}, "viewport": {"northeast": {"lat": 51.5215422802915, "lng": -0.147916619708498}, "southwest": {"lat": 51.5188443197085, "lng": -0.150614580291502}}}, "name": "Cavendish Implants Ltd", "place_id": "ChIJCYDW19MadkgRuVp9pmJT0jI", "types": ["point_of_interest", "establishment"]}, "ChIJ4erW1tMadkgR7JduywaQf6w": {"geometry": {"location": {"lat": 51.5198671, "lng": -0.1492820000000001}, "viewport": {"northeast": {"lat": 51.5212459302915, "lng": -0.147806969708498}, "southwest": {"lat": 51.5185479697085, "lng": -0.1505049302915021}}}, "name": "Vitiligo Treatments Centre", "place_id": "ChIJ4erW1tMadkgR7JduywaQf6w", "types": ["health", "point_of_interest", "establishment"], "rating": 5, "user_ratings_total": 1}, "ChIJ7WnnNIQPdkgRNKBVciy57_0": {"geometry": {"location": {"lat": 51.5198671, "lng": -0.1492821}, "viewport": {"northeast": {"lat": 51.5212391802915, "lng": -0.147803919708498},