{"E00023878": {"ChIJv50klRMQdkgRVyxjBWinSMU": {"geometry": {"location": {"lat": 51.53186450120051, "lng": -0.2045252518617417}, "viewport": {"northeast": {"lat": 51.53337185000004, "lng": -0.2031403197084979}, "southwest": {"lat": 51.53036724999995, "lng": -0.205838280291502}}}, "name": "265-203 Portnall Rd", "place_id": "ChIJv50klRMQdkgRVyxjBWinSMU", "types": ["route"]}, "ChIJtfSW8QgQdkgR2MxGBXP-WOk": {"geometry": {"location": {"lat": 51.53195789999999, "lng": -0.2044474}, "viewport": {"northeast": {"lat": 51.5332955802915, "lng": -0.203154969708498}, "southwest": {"lat": 51.53059761970851, "lng": -0.205852930291502}}}, "name": "Luxe Lash", "place_id": "ChIJtfSW8QgQdkgR2MxGBXP-WOk", "types": ["beauty_salon", "point_of_interest", "establishment"], "rating": 4.1, "user_ratings_total": 43}, "ChIJ91xInKQRdkgRWRUHI_meI4o": {"geometry": {"location": {"lat": 51.5318103, "lng": -0.204319}, "viewport": {"northeast": {"lat": 51.5331438802915, "lng": -0.203052719708498}, "southwest": {"lat": 51.53044591970851, "lng": -0.205750680291502}}}, "name": "Lara Romanelli Voice Over", "place_id": "ChIJ91xInKQRdkgRWRUHI_meI4o", "types": ["point_of_interest", "establishment"]}, "ChIJBWqx7BMQdkgR9QVYklUqH5Y": {"geometry": {"location": {"lat": 51.5318906, "lng": -0.2047974}, "viewport": {"northeast": {"lat": 51.53326313029149, "lng": -0.203330619708498}, "southwest": {"lat": 51.5305651697085, "lng": -0.206028580291502}}}, "name": "High Rose House", "place_id": "ChIJBWqx7BMQdkgR9QVYklUqH5Y", "types": ["point_of_interest", "establishment"]}, "ChIJuRNgzNwRdkgRHNUfS33QEfo": {"geometry": {"location": {"lat": 51.531526, "lng": -0.204156}, "viewport": {"northeast": {"lat": 51.53285733029149, "lng": -0.202901819708498}, "southwest": {"lat": 51.5301593697085, "lng": -0.205599780291502}}}, "name": "Roobarb", "place_id": "ChIJuRNgzNwRdkgRHNUfS33QEfo", "types": ["point_of_interest", "establishment"]}, "ChIJQ8dpxxMQdkgRCs9lhjG2w1Q": {"geometry": {"location": {"lat": 51.5321173, "lng": -0.2038958}, "viewport": {"northeast": {"lat": 51.5334779302915, "lng": -0.2024858697084979}, "southwest": {"lat": 51.5307799697085, "lng": -0.205183830291502}}}, "name": "S Desiderio", "place_id": "ChIJQ8dpxxMQdkgRCs9lhjG2w1Q", "types": ["health", "point_of_interest", "establishment"], "rating": 4, "user_ratings_total": 2}, "ChIJ0UxTuBMQdkgR-SIU1JEdYVY": {"geometry": {"location": {"lat": 51.53208100000001, "lng": -0.203788}, "viewport": {"northeast": {"lat": 51.5334410302915, "lng": -0.202427169708498}, "southwest": {"lat": 51.5307430697085, "lng": -0.2051251302915021}}}, "name": "ubitricity Charging Station", "place_id": "ChIJ0UxTuBMQdkgR-SIU1JEdYVY", "types": ["point_of_interest", "establishment"]}, "ChIJpwujyBMQdkgRzTqFb8ex8FY": {"geometry": {"location": {"lat": 51.531656, "lng": -0.203592}, "viewport": {"northeast": {"lat": 51.5330060302915, "lng": -0.202237469708498}, "southwest": {"lat": 51.5303080697085, "lng": -0.204935430291502}}}, "name": "ubitricity Charging Station", "place_id": "ChIJpwujyBMQdkgRzTqFb8ex8FY", "types": ["point_of_interest", "establishment"]}, "ChIJWx9xZREQdkgRybdJsA3JKBE": {"geometry": {"location": {"lat": 51.53001497662544, "lng": -0.2036508205111329}, "viewport": {"northeast": {"lat": 51.53182645000005, "lng": -0.202394269708498}, "southwest": {"lat": 51.52818064999995, "lng": -0.205092230291502}}}, "name": "201-131 Portnall Rd", "place_id": "ChIJWx9xZREQdkgRybdJsA3JKBE", "types": ["route"]}, "ChIJZXI13xMQdkgRTsCxxBtGWag": {"geometry": {"location": {"lat": 51.5307079, "lng": -0.2041276}, "viewport": {"northeast": {"lat": 51.5320703802915, "lng": -0.202704519708498}, "southwest": {"lat": 51.5293724197085, "lng": -0.205402480291502}}}, "name": "Anthony James Electrical", "place_id": "ChIJZXI13xMQdkgRTsCxxBtGWag", "types": ["electrician", "point_of_interest", "establishment"], "rating": 5, "user_ratings_total": 4}, "ChIJmZNbXhEQdkgRKA_21dpYNVI": {"geometry": {"location": {"lat": 51.5303788, "lng": -0.2045092999999999}, "viewport": {"northeast": {"lat": 51.5317087802915, "lng": -0.203267469708498}, "southwest": {"lat": 51.5290108197085, "lng": -0.205965430291502}}}, "name": "Flash Jungle", "place_id": "ChIJmZNbXhEQdkgRKA_21dpYNVI", "types": ["point_of_interest", "store", "establishment"], "rating": 5, "user_ratings_total": 1}, "ChIJzzg5thkRdkgRZ_W4R87AEIk": {"geometry": {"location": {"lat": 51.5308945, "lng": -0.2042539}, "viewport": {"northeast": {"lat": 51.5322597802915, "lng": -0.202812969708498}, "southwest": {"lat": 51.5295618197085, "lng": -0.2055109302915021}}}, "name": "Pipeline solutions london ltd", "place_id": "ChIJzzg5thkRdkgRZ_W4R87AEIk", "types": ["plumber", "general_contractor", "point_of_interest", "establishment"]}, "ChIJg_w9WxEQdkgRImwdmxsJ0Sk": {"geometry": {"location": {"lat": 51.53068219999999, "lng": -0.2050371}, "viewport": {"northeast": {"lat": 51.53204378029149, "lng": -0.2036151197084979}, "southwest": {"lat": 51.5293458197085, "lng": -0.206313080291502}}}, "name": "French to English Translations", "place_id": "ChIJg_w9WxEQdkgRImwdmxsJ0Sk", "types": ["point_of_interest", "establishment"]}, "ChIJESZsdJ0RdkgRcStlbeRmlsY": {"geometry": {"location": {"lat": 51.5304432, "lng": -0.2049809}, "viewport": {"northeast": {"lat": 51.5318094302915, "lng": -0.203534619708498}, "southwest": {"lat": 51.5291114697085, "lng": -0.206232580291502}}}, "name": "Ethical Kind", "place_id": "ChIJESZsdJ0RdkgRcStlbeRmlsY", "types": ["home_goods_store", "point_of_interest", "store", "establishment"], "rating": 5, "user_ratings_total": 6}, "ChIJE1CYXBEQdkgRQFPguXOq06A": {"geometry": {"location": {"lat": 51.53003552143473, "lng": -0.2045792636893307}, "viewport": {"northeast": {"lat": 51.53178780000006, "lng": -0.203296169708498}, "southwest": {"lat": 51.52826579999995, "lng": -0.205994130291502}}}, "name": "86-148 Bravington Rd", "place_id": "ChIJE1CYXBEQdkgRQFPguXOq06A", "types": ["route"]}, "ChIJiys6ahEQdkgR8ztDFqWgR7c": {"geometry": {"location": {"lat": 51.5293611, "lng": -0.204128}, "viewport": {"northeast": {"lat": 51.5307027802915, "lng": -0.202892369708498}, "southwest": {"lat": 51.5280048197085, "lng": -0.205590330291502}}}, "name": "High-Tech Autos", "place_id": "ChIJiys6ahEQdkgR8ztDFqWgR7c", "types": ["car_repair", "point_of_interest", "establishment"], "rating": 4.6, "user_ratings_total": 16}, "ChIJpR7eaREQdkgRDJsHdSsOmqg": {"geometry": {"location": {"lat": 51.52970080000001, "lng": -0.2041954}, "viewport": {"northeast": {"lat": 51.5310358802915, "lng": -0.202966519708498}, "southwest": {"lat": 51.52833791970851, "lng": -0.2056644802915021}}}, "name": "Untitled studios", "place_id": "ChIJpR7eaREQdkgRDJsHdSsOmqg", "types": ["point_of_interest", "establishment"]}, "ChIJgfs9WxEQdkgRhrLHZb2DBzA": {"geometry": {"location": {"lat": 51.5293581, "lng": -0.204574}, "viewport": {"northeast": {"lat": 51.5307139802915, "lng": -0.203117469708498}, "southwest": {"lat": 51.5280160197085, "lng": -0.205815430291502}}}, "name": "Queen's Park Children's Centre", "place_id": "ChIJgfs9WxEQdkgRhrLHZb2DBzA", "types": ["point_of_interest", "establishment"], "rating": 4.5, "user_ratings_total": 65}, "ChIJg_w9WxEQdkgR0_sPOhiQiiM": {"geometry": {"location": {"lat": 51.5300153, "lng": -0.204824}, "viewport": {"northeast": {"lat": 51.53138353029149, "lng": -0.203356469708498}, "southwest": {"lat": 51.5286855697085, "lng": -0.206054430291502}}}, "name": "Abivage Services Ltd", "place_id": "ChIJg_w9WxEQdkgR0_sPOhiQiiM", "types": ["point_of_interest", "establishment"], "rating": 5, "user_ratings_total": 1}, "ChIJy4LfrvkRdkgRuLrufv9e7Nc": {"geometry": {"location": {"lat": 51.5295432, "lng": -0.2044002}, "viewport": {"northeast": {"lat": 51.53088853029149, "lng": -0.203101419708498}, "southwest": {"lat": 51.52819056970849, "lng": -0.205799380291502}}}, "name": "deliciously sweet", "place_id": "ChIJy4LfrvkRdkgRuLrufv9e7Nc", "types": ["bakery", "food", "point_of_interest", "store", "establishment"]}, "ChIJ3azBZ5kRdkgRX0UaGKF2WAs": {"geometry": {"location": {"lat": 51.5295432, "lng": -0.2044002}, "viewport": {"northeast": {"lat": 51.5308872802915, "lng": -0.203101219708498}, "southwest": {"lat": 51.5281893197085, "lng": -0.205799180291502}}}, "name": "Lastminute Driving School", "place_id": "ChIJ3azBZ5kRdkgRX0UaGKF2WAs", "types": ["point_of_interest", "establishment"], "rating": 5, "user_ratings_total": 4}, "ChIJ01oApdYRdkgRZNn2QqHV7M0": {"geometry": {"location": {"lat": 51.5295628, "lng": -0.2041781}, "viewport": {"northeast": {"lat": 51.53090098029151, "lng": -0.202939919708498}, "southwest": {"lat": 51.52820301970851, "lng": -0.205637880291502}}}, "name": "VIGOR REPAIRS LTD", "place_id": "ChIJ01oApdYRdkgRZNn2QqHV7M0", "types": ["point_of_interest", "establishment"]}, "ChIJVVKoaxEQdkgRHTw0-yCt8_A": {"geometry": {"location": {"lat": 51.52946, "lng": -0.2041286}, "viewport": {"northeast": {"lat": 51.5307970302915, "lng": -0.2029019197084979}, "southwest": {"lat": 51.5280990697085, "lng": -0.205599880291502}}}, "name": "Removal Company Maida Vale", "place_id": "ChIJVVKoaxEQdkgRHTw0-yCt8_A", "types": ["point_of_interest", "establishment"]}, "ChIJaQL8Uu0RdkgRtaOQfbJ_Ies": {"geometry": {"location": {"lat": 51.5293946, "lng": -0.2043627}, "viewport": {"northeast": {"lat": 51.53074033029149, "lng": -0.203064069708498}, "southwest": {"lat": 51.52804236970849, "lng": -0.205762030291502}}}, "name": "Octavia Mews", "place_id": "ChIJaQL8Uu0RdkgRtaOQfbJ_Ies", "types": ["lodging", "point_of_interest", "establishment"]}, "ChIJ22GAbREQdkgRRwENXK3oN4c": {"geometry": {"location": {"lat": 51.5294627, "lng": -0.2036163}, "viewport": {"northeast": {"lat": 51.5308185802915, "lng": -0.202195919708498}, "southwest": {"lat": 51.5281206197085, "lng": -0.204893880291502}}}, "name": "Selclene", "place_id": "ChIJ22GAbREQdkgRRwENXK3oN4c", "types": ["point_of_interest", "establishment"]}, "ChIJT_4FbREQdkgRN0TAUU8OgRE": {"geometry": {"location": {"lat": 51.5293633, "lng": -0.2036651}, "viewport": {"northeast": {"lat": 51.53071793029149, "lng": -0.202210269708498}, "southwest": {"lat": 51.5280199697085, "lng": -0.204908230291502}}}, "name": "Automatika Driving School", "place_id": "ChIJT_4FbREQdkgRN0TAUU8OgRE", "types": ["point_of_interest", "establishment"], "rating": 5, "user_ratings_total": 25}, "ChIJF33lSBEQdkgRII1hl70kv6Y": {"geometry": {"location": {"lat": 51.529491, "lng": -0.205131}, "viewport": {"northeast": {"lat": 51.53084792973655, "lng": -0.203874644292704}, "southwest": {"lat": 51.52814996915356, "lng": -0.2065726048757081}}}, "name": "Parking lot", "place_id": "ChIJF33lSBEQdkgRII1hl70kv6Y", "types": ["parking", "premise", "point_of_interest", "establishment"]}, "ChIJKb79PREQdkgR_GjxH0qjCzg": {"geometry": {"location": {"lat": 51.52896630000001, "lng": -0.2044829}, "viewport": {"northeast": {"lat": 51.53021133029151, "lng": -0.203124319708498}, "southwest": {"lat": 51.52751336970852, "lng": -0.205822280291502}}}, "name": "KESZ Construction LTD", "place_id": "ChIJKb79PREQdkgR_GjxH0qjCzg", "types": ["general_contractor", "point_of_interest", "establishment"], "rating": 4, "user_ratings_total": 4}, "ChIJy1BvPBEQdkgRveHXzQqL240": {"geometry": {"location": {"lat": 51.52881790000001, "lng": -0.2046034}, "viewport": {"northeast": {"lat": 51.53013453029151, "lng": -0.203260669708498}, "southwest": {"lat": 51.52743656970851, "lng": -0.205958630291502}}}, "name": "Mozart Dairy", "place_id": "ChIJy1BvPBEQdkgRveHXzQqL240", "types": ["convenience_store", "food", "point_of_interest", "store", "establishment"], "rating": 3.5, "user_ratings_total": 4}, "ChIJNbtFPBEQdkgRrojwaNFfgmc": {"geometry": {"location": {"lat": 51.5288477, "lng": -0.2045814}, "viewport": {"northeast": {"lat": 51.5301500802915, "lng": -0.203228119708498}, "southwest": {"lat": 51.5274521197085, "lng": -0.205926080291502}}}, "name": "Aaniya Freya & Co Ltd", "place_id": "ChIJNbtFPBEQdkgRrojwaNFfgmc", "types": ["point_of_interest", "establishment"]}, "ChIJryPXExEQdkgRj9HgcYBLXzc": {"geometry": {"location": {"lat": 51.5289453, "lng": -0.2038423}, "viewport": {"northeast": {"lat": 51.53034038029149, "lng": -0.202469169708498}, "southwest": {"lat": 51.52764241970849, "lng": -0.205167130291502}}}, "name": "Ashanti Jewels", "place_id": "ChIJryPXExEQdkgRj9HgcYBLXzc", "types": ["jewelry_store", "point_of_interest", "store", "establishment"]}, "ChIJCQW99BMQdkgRcKQ8LGPoeRQ": {"geometry": {"location": {"lat": 51.53178746785336, "lng": -0.2055407449146193}, "viewport": {"northeast": {"lat": 51.53337655000004, "lng": -0.204153919708498}, "southwest": {"lat": 51.53021434999996, "lng": -0.2068518802915021}}}, "name": "148-218 Bravington Rd", "place_id": "ChIJCQW99BMQdkgRcKQ8LGPoeRQ", "types": ["route"]}, "ChIJm7OD9RMQdkgRGD9X-wy6y08": {"geometry": {"location": {"lat": 51.531738, "lng": -0.2058077}, "viewport": {"northeast": {"lat": 51.5331185802915, "lng": -0.204329769708498}, "southwest": {"lat": 51.5304206197085, "lng": -0.207027730291502}}}, "name": "Fs Partnership", "place_id": "ChIJm7OD9RMQdkgRGD9X-wy6y08", "types": ["point_of_interest", "establishment"]}, "ChIJ8-6sbBQQdkgRZTezQPyQ7Nc": {"geometry": {"location": {"lat": 51.5319183, "lng": -0.2069139}, "viewport": {"northeast": {"lat": 51.5332437802915, "lng": -0.2055582197084979}, "southwest": {"lat": 51.5305458197085, "lng": -0.208256180291502}}}, "name": "West Region", "place_id": "ChIJ8-6sbBQQdkgRZTezQPyQ7Nc", "types": ["point_of_interest", "establishment"]}, "ChIJPewVjRMRdkgR7aAmLxWh2tI": {"geometry": {"location": {"lat": 51.53201009999999, "lng": -0.2055449}, "viewport": {"northeast": {"lat": 51.5333438302915, "lng": -0.204256569708498}, "southwest": {"lat": 51.5306458697085, "lng": -0.206954530291502}}}, "name": "Web Watch", "place_id": "ChIJPewVjRMRdkgR7aAmLxWh2tI", "types": ["general_contractor", "point_of_interest", "establishment"]}, "ChIJtVVwpjkRdkgReRx74UVqf14": {"geometry": {"location": {"lat": 51.531755, "lng": -0.205383}, "viewport": {"northeast": {"lat": 51.5330876302915, "lng": -0.204100769708498}, "southwest": {"lat": 51.53038966970851, "lng": -0.206798730291502}}}, "name": "all round care network", "place_id": "ChIJtVVwpjkRdkgReRx74UVqf14", "types": ["point_of_interest", "establishment"]}, "ChIJ4wVDCBQQdkgR7lbbQtDnxOI": {"geometry": {"location": {"lat": 51.5313792, "lng": -0.2058815}, "viewport": {"northeast": {"lat": 51.53269964881335, "lng": -0.2046144007989744}, "southwest": {"lat": 51.53000168823036, "lng": -0.2073123613819784}}}, "name": "Parking lot", "place_id": "ChIJ4wVDCBQQdkgR7lbbQtDnxOI", "types": ["parking", "premise", "point_of_interest", "establishment"]}, "ChIJraFeABQQdkgRjc8tgpNYsCk": {"geometry": {"location": {"lat": 51.5307517548981, "lng": -0.2059073570047276}, "viewport": {"northeast": {"lat": 51.53209718029149, "lng": -0.204556869708498}, "southwest": {"lat": 51.52939921970849, "lng": -0.207254830291502}}}, "name": "15-3 Dart St", "place_id": "ChIJraFeABQQdkgRjc8tgpNYsCk", "types": ["route"]}, "ChIJDSFiAhQQdkgRWYsePzN0JqI": {"geometry": {"location": {"lat": 51.5307445, "lng": -0.2064188}, "viewport": {"northeast": {"lat": 51.5320560802915, "lng": -0.205050919708498}, "southwest": {"lat": 51.5293581197085, "lng": -0.207748880291502}}}, "name": "Dr Lai Surgery", "place_id": "ChIJDSFiAhQQdkgRWYsePzN0JqI", "types": ["doctor", "health", "point_of_interest", "establishment"], "rating": 2.7, "user_ratings_total": 6}, "ChIJDSFiAhQQdkgRJNeBuWmEMN8": {"geometry": {"location": {"lat": 51.53066500000001, "lng": -0.2063963}, "viewport": {"northeast": {"lat": 51.53198543029149, "lng": -0.2050329697084979}, "southwest": {"lat": 51.52928746970849, "lng": -0.207730930291502}}}, "name": "Westminster Primary Care Trust", "place_id": "ChIJDSFiAhQQdkgRJNeBuWmEMN8", "types": ["health", "point_of_interest", "establishment"]}, "ChIJq6ofBBQQdkgRdg7xQ4r3E8Q": {"geometry": {"location": {"lat": 51.5309987, "lng": -0.2062125}, "viewport": {"northeast": {"lat": 51.53233118029149, "lng": -0.204990419708498}, "southwest": {"lat": 51.52963321970849, "lng": -0.207688380291502}}}, "name": "Regus Plc", "place_id": "ChIJq6ofBBQQdkgRdg7xQ4r3E8Q", "types": ["real_estate_agency", "point_of_interest", "establishment"]}, "ChIJQVhK_xMQdkgROQ7Al0ME0WM": {"geometry": {"location": {"lat": 51.530917, "lng": -0.2057482}, "viewport": {"northeast": {"lat": 51.5322000802915, "lng": -0.204372469708498}, "southwest": {"lat": 51.5295021197085, "lng": -0.207070430291502}}}, "name": "Magic Flute", "place_id": "ChIJQVhK_xMQdkgROQ7Al0ME0WM", "types": ["point_of_interest", "establishment"]}, "ChIJXTsuHRQQdkgRRsO-vfVJXr8": {"geometry": {"location": {"lat": 51.530713, "lng": -0.206591}, "viewport": {"northeast": {"lat": 51.5320206302915, "lng": -0.205250569708498}, "southwest": {"lat": 51.5293226697085, "lng": -0.207948530291502}}}, "name": "Coronation Mini Market", "place_id": "ChIJXTsuHRQQdkgRRsO-vfVJXr8", "types": ["convenience_store", "food", "point_of_interest", "store", "establishment"], "rating": 4.9, "user_ratings_total": 15}, "ChIJb9bqpxYQdkgRSzb-jl1APHA": {"geometry": {"location": {"lat": 51.5304979, "lng": -0.20659}, "viewport": {"northeast": {"lat": 51.53183793029149, "lng": -0.205311069708498}, "southwest": {"lat": 51.5291399697085, "lng": -0.208009030291502}}}, "name": "Naylor House", "place_id": "ChIJb9bqpxYQdkgRSzb-jl1APHA", "types": ["point_of_interest", "establishment"], "rating": 5, "user_ratings_total": 1}, "ChIJ12yrHRQQdkgRIEv7QNUm96A": {"geometry": {"location": {"lat": 51.53075449999999, "lng": -0.2067691}, "viewport": {"northeast": {"lat": 51.53202983029149, "lng": -0.205379519708498}, "southwest": {"lat": 51.52933186970849, "lng": -0.208077480291502}}}, "name": "ATM", "place_id": "ChIJ12yrHRQQdkgRIEv7QNUm96A", "types": ["atm", "finance", "point_of_interest", "establishment"]}, "ChIJcymGthYQdkgR0soiWqLWCyI": {"geometry": {"location": {"lat": 51.52945577103899, "lng": -0.2062551860865521}, "viewport": {"northeast": {"lat": 51.53080263029149, "lng": -0.2048611697084979}, "southwest": {"lat": 51.5281046697085, "lng": -0.207559130291502}}}, "name": "79-60 Bruckner St", "place_id": "ChIJcymGthYQdkgR0soiWqLWCyI", "types": ["route"]}, "ChIJvyFQNBEQdkgR9MNw9e7TG6E": {"geometry": {"location": {"lat": 51.52937979999999, "lng": -0.2058524}, "viewport": {"northeast": {"lat": 51.53073813029149, "lng": -0.204380319708498}, "southwest": {"lat": 51.5280401697085, "lng": -0.207078280291502}}}, "name": "1smile4charity", "place_id": "ChIJvyFQNBEQdkgR9MNw9e7TG6E", "types": ["point_of_interest", "establishment"]}, "ChIJAXvI7fkRdkgRrPAD1RZUc4A": {"geometry": {"location": {"lat": 51.5289064, "lng": -0.2064669}, "viewport": {"northeast": {"lat": 51.5301915302915, "lng": -0.205102469708498}, "southwest": {"lat": 51.5274935697085, "lng": -0.207800430291502}}}, "name": "NoLimits Marketing", "place_id": "ChIJAXvI7fkRdkgRrPAD1RZUc4A", "types": ["point_of_interest", "establishment"]}, "ChIJ57YsyRYQdkgRH1TAP10236E": {"geometry": {"location": {"lat": 51.5289567, "lng": -0.2063423}, "viewport": {"northeast": {"lat": 51.5303068802915, "lng": -0.204935219708498}, "southwest": {"lat": 51.52760891970851, "lng": -0.207633180291502}}}, "name": "Housing Solutions Service - Family Centre", "place_id": "ChIJ57YsyRYQdkgRH1TAP10236E", "types": ["point_of_interest", "establishment"]}, "ChIJG3e6QBQQdkgR4iIgmDujaqI": {"geometry": {"location": {"lat": 51.53199171891642, "lng": -0.2078654411304412}, "viewport": {"northeast": {"lat": 51.53333918029149, "lng": -0.206521719708498}, "southwest": {"lat": 51.5306412197085, "lng": -0.209219680291502}}}, "name": "67-97 Herries St", "place_id": "ChIJG3e6QBQQdkgR4iIgmDujaqI", "types": ["route"]}, "ChIJsfjINxQQdkgRz2WTY_BZC8Y": {"geometry": {"location": {"lat": 51.53182460000001, "lng": -0.2083129}, "viewport": {"northeast": {"lat": 51.5333060302915, "lng": -0.207002019708498}, "southwest": {"lat": 51.5306080697085, "lng": -0.209699980291502}}}, "name": "Wilberforce Primary School", "place_id": "ChIJsfjINxQQdkgRz2WTY_BZC8Y", "types": ["primary_school", "school", "point_of_interest", "establishment"], "rating": 2.9, "user_ratings_total": 10}, "ChIJwciacpARdkgRthU7J9xA5s8": {"geometry": {"location": {"lat": 51.5319391, "lng": -0.2081887}, "viewport": {"northeast": {"lat": 51.5333740302915, "lng": -0.206901069708498}, "southwest": {"lat": 51.5306760697085, "lng": -0.209599030291502}}}, "name": "Carena Rogers Counselling and Therapy", "place_id": "ChIJwciacpARdkgRthU7J9xA5s8", "types": ["health", "point_of_interest", "establishment"]}, "ChIJrYglSRQQdkgRvZXqv7J8rJg": {"geometry": {"location": {"lat": 51.5321967, "lng": -0.2081899}, "viewport": {"northeast": {"lat": 51.53354425204085, "lng": -0.2069184183390447}, "southwest": {"lat": 51.53084629145786, "lng": -0.2096163789220487}}}, "name": "Parking lot", "place_id": "ChIJrYglSRQQdkgRvZXqv7J8rJg", "types": ["parking", "premise", "point_of_interest", "establishment"]}, "ChIJJ0NsghYQdkgR4hnMxcZVNdM": {"geometry": {"location": {"lat": 51.53053900929003, "lng": -0.2083823895903231}, "viewport": {"northeast": {"lat": 51.53189528029149, "lng": -0.207028069708498}, "southwest": {"lat": 51.52919731970849, "lng": -0.2097260302915021}}}, "name": "91-107 Third Ave", "place_id": "ChIJJ0NsghYQdkgR4hnMxcZVNdM", "types": ["route"]}, "ChIJNS3QKRQQdkgRN_b3mHHU9RU": {"geometry": {"location": {"lat": 51.530656, "lng": -0.2083856}, "viewport": {"northeast": {"lat": 51.5319589302915, "lng": -0.2070743197084979}, "southwest": {"lat": 51.5292609697085, "lng": -0.209772280291502}}}, "name": "A 2 Dominion Housing Group", "place_id": "ChIJNS3QKRQQdkgRN_b3mHHU9RU", "types": ["point_of_interest", "establishment"], "rating": 3, "user_ratings_total": 2}, "ChIJgcPnJRQQdkgRKua5WLvXjCk": {"geometry": {"location": {"lat": 51.530649, "lng": -0.207176}, "viewport": {"northeast": {"lat": 51.5320129302915, "lng": -0.205754119708498}, "southwest": {"lat": 51.5293149697085, "lng": -0.208452080291502}}}, "name": "SEED Madagascar", "place_id": "ChIJgcPnJRQQdkgRKua5WLvXjCk", "types": ["point_of_interest", "establishment"]}, "ChIJ3zmFLhQQdkgRuMO14G5hAIs": {"geometry": {"location": {"lat": 51.5307787, "lng": -0.2072198}, "viewport": {"northeast": {"lat": 51.53214408029149, "lng": -0.205812219708498}, "southwest": {"lat": 51.5294461197085, "lng": -0.208510180291502}}}, "name": "Pest Removals London", "place_id": "ChIJ3zmFLhQQdkgRuMO14G5hAIs", "types": ["home_goods_store", "point_of_interest", "store", "establishment"]}, "ChIJgcPnJRQQdkgR4hQlsEGH0Tw": {"geometry": {"location": {"lat": 51.530617, "lng": -0.2071881}, "viewport": {"northeast": {"lat": 51.53198168029149, "lng": -0.205752619708498}, "southwest": {"lat": 51.52928371970849, "lng": -0.208450580291502}}}, "name": "Westbound Educational Services", "place_id": "ChIJgcPnJRQQdkgR4hQlsEGH0Tw", "types": ["point_of_interest", "establishment"]}, "ChIJgcPnJRQQdkgR8xxJOJ9fDuU": {"geometry": {"location": {"lat": 51.5305687, "lng": -0.2072396}, "viewport": {"northeast": {"lat": 51.5319396302915, "lng": -0.205769919708498}, "southwest": {"lat": 51.5292416697085, "lng": -0.208467880291502}}}, "name": "Treadline Electrical Services Ltd", "place_id": "ChIJgcPnJRQQdkgR8xxJOJ9fDuU", "types": ["electrician", "point_of_interest", "establishment"]}, "ChIJ9a_TncoadkgRWnnI3IVc7Lk": {"geometry": {"location": {"lat": 51.53116, "lng": -0.207746}, "viewport": {"northeast": {"lat": 51.53246113029149, "lng": -0.2064317697084979}, "southwest": {"lat": 51.5297631697085, "lng": -0.209129730291502}}}, "name": "Age UK Westminster", "place_id": "ChIJ9a_TncoadkgRWnnI3IVc7Lk", "types": ["point_of_interest", "establishment"], "rating": 3, "user_ratings_total": 2}, "ChIJNS3QKRQQdkgRAgv9YkKv588": {"geometry": {"location": {"lat": 51.5305182, "lng": -0.2077203}, "viewport": {"northeast": {"lat": 51.5318212302915, "lng": -0.206357919708498}, "southwest": {"lat": 51.5291232697085, "lng": -0.209055880291502}}}, "name": "Queens Park Creches", "place_id": "ChIJNS3QKRQQdkgRAgv9YkKv588", "types": ["point_of_interest", "establishment"]}, "ChIJUUvTHxQQdkgRL3Rloa5-zbk": {"geometry": {"location": {"lat": 51.5306211, "lng": -0.2071192}, "viewport": {"northeast": {"lat": 51.53197988029149, "lng": -0.205716319708498}, "southwest": {"lat": 51.5292819197085, "lng": -0.208414280291502}}}, "name": "Tanya Dimitrova Sampling and Production", "place_id": "ChIJUUvTHxQQdkgRL3Rloa5-zbk", "types": ["point_of_interest", "clothing_store", "store", "establishment"], "rating": 5, "user_ratings_total": 11}, "ChIJ_X27ARQQdkgRDJoC86zlpP0": {"geometry": {"location": {"lat": 51.53055459999999, "lng": -0.2076251}, "viewport": {"northeast": {"lat": 51.5318475802915, "lng": -0.2062545697084979}, "southwest": {"lat": 51.5291496197085, "lng": -0.208952530291502}}}, "name": "Queens Park Health Centre", "place_id": "ChIJ_X27ARQQdkgRDJoC86zlpP0", "types": ["health", "point_of_interest", "establishment"], "rating": 2.4, "user_ratings_total": 16}, "ChIJDSFiAhQQdkgRoIdWwkiPeik": {"geometry": {"location": {"lat": 51.53055459999999, "lng": -0.2076251}, "viewport": {"northeast": {"lat": 51.5318475802915, "lng": -0.2062545697084979}, "southwest": {"lat": 51.5291496197085, "lng": -0.208952530291502}}}, "name": "Queen's Park Dental Surgery", "place_id": "ChIJDSFiAhQQdkgRoIdWwkiPeik", "types": ["dentist", "health", "point_of_interest", "establishment"], "rating": 4, "user_ratings_total": 9}, "ChIJKYLSKRQQdkgRU0k_VNvh8UY": {"geometry": {"location": {"lat": 51.53063520000001, "lng": -0.2082343}, "viewport": {"northeast": {"lat": 51.5319272802915, "lng": -0.206931219708498}, "southwest": {"lat": 51.52922931970851, "lng": -0.209629180291502}}}, "name": "Carers Network", "place_id": "ChIJKYLSKRQQdkgRU0k_VNvh8UY", "types": ["point_of_interest", "establishment"], "rating": 5, "user_ratings_total": 3}, "ChIJhfIcnhYQdkgRJwGgs612APQ": {"geometry": {"location": {"lat": 51.53055500000001, "lng": -0.207625}, "viewport": {"northeast": {"lat": 51.5318477802915, "lng": -0.206254419708498}, "southwest": {"lat": 51.5291498197085, "lng": -0.208952380291502}}}, "name": "Queens Park Health Centre - Dr N Ahmed", "place_id": "ChIJhfIcnhYQdkgRJwGgs612APQ", "types": ["doctor", "health", "point_of_interest", "establishment"], "rating": 2.7, "user_ratings_total": 22}, "ChIJY8lcvF0RdkgRkd3rLXj_vyk": {"geometry": {"location": {"lat": 51.5305621, "lng": -0.2074678}, "viewport": {"northeast": {"lat": 51.53186233029149, "lng": -0.206100569708498}, "southwest": {"lat": 51.5291643697085, "lng": -0.208798530291502}}}, "name": "Shirland Medical - Queens Park Health Centre", "place_id": "ChIJY8lcvF0RdkgRkd3rLXj_vyk", "types": ["hospital", "doctor", "health", "point_of_interest", "establishment"], "rating": 5, "user_ratings_total": 5}, "ChIJlyc6IhQQdkgRK_KK1Tdo10c": {"geometry": {"location": {"lat": 51.53094919999999, "lng": -0.2074528}, "viewport": {"northeast": {"lat": 51.5323041802915, "lng": -0.206099319708498}, "southwest": {"lat": 51.5296062197085, "lng": -0.208797280291502}}}, "name": "ubitricity Charging Station", "place_id": "ChIJlyc6IhQQdkgRK_KK1Tdo10c", "types": ["point_of_interest", "establishment"]}, "ChIJiYpfnhYQdkgRY0HLy5Dd1GI": {"geometry": {"location": {"lat": 51.5304317, "lng": -0.2075717}, "viewport": {"northeast": {"lat": 51.5317618302915, "lng": -0.206215419708498}, "southwest": {"lat": 51.5290638697085, "lng": -0.208913380291502}}}, "name": "Dr Plc Fong - Lai Chung Fong P", "place_id": "ChIJiYpfnhYQdkgRY0HLy5Dd1GI", "types": ["doctor", "health", "point_of_interest", "establishment"], "rating": 3, "user_ratings_total": 8}, "ChIJYwKjIxQQdkgRNxGKflSFU-Q": {"geometry": {"location": {"lat": 51.53108299999999, "lng": -0.2077218}, "viewport": {"northeast": {"lat": 51.53241348029149, "lng": -0.206386969708498}, "southwest": {"lat": 51.5297155197085, "lng": -0.209084930291502}}}, "name": "ubitricity Charging Station", "place_id": "ChIJYwKjIxQQdkgRNxGKflSFU-Q", "types": ["point_of_interest", "establishment"]}, "ChIJKf5ioBYQdkgRDeokLwlifCk": {"geometry": {"location": {"lat": 51.5306211, "lng": -0.2071193}, "viewport": {"northeast": {"lat": 51.53197988029149, "lng": -0.205716419708498}, "southwest": {"lat": 51.5292819197085, "lng": -0.208414380291502}}}, "name": "Quick London Cars", "place_id": "ChIJKf5ioBYQdkgRDeokLwlifCk", "types": ["point_of_interest", "establishment"], "rating": 3, "user_ratings_total": 2}, "ChIJTR8OKhQQdkgRL843bj7S18U": {"geometry": {"location": {"lat": 51.53064610000001, "lng": -0.2084618}, "viewport": {"northeast": {"lat": 51.53196258029151, "lng": -0.207139569708498}, "southwest": {"lat": 51.52926461970851, "lng": -0.209837530291502}}}, "name": "Paddington Development Trust", "place_id": "ChIJTR8OKhQQdkgRL843bj7S18U", "types": ["point_of_interest", "establishment"]}, "ChIJqcnb_CERdkgREARYio0cBDc": {"geometry": {"location": {"lat": 51.530617, "lng": -0.2071881}, "viewport": {"northeast": {"lat": 51.53198168029149, "lng": -0.205752619708498}, "southwest": {"lat": 51.52928371970849, "lng": -0.208450580291502}}}, "name": "Mithra Trade London", "place_id": "ChIJqcnb_CERdkgREARYio0cBDc", "types": ["point_of_interest", "establishment"], "rating": 3.9, "user_ratings_total": 18}, "ChIJxxrEkFkRdkgRco9Hu1DarUY": {"geometry": {"location": {"lat": 51.530617, "lng": -0.2071881}, "viewport": {"northeast": {"lat": 51.5319140302915, "lng": -0.205815469708498}, "southwest": {"lat": 51.5292160697085, "lng": -0.208513430291502}}}, "name": "The Art of Sunnah", "place_id": "ChIJxxrEkFkRdkgRco9Hu1DarUY", "types": ["health", "point_of_interest", "establishment"]}, "ChIJ3zmFLhQQdkgRjrlcrEUqYQk": {"geometry": {"location": {"lat": 51.530617, "lng": -0.2071881}, "viewport": {"northeast": {"lat": 51.53198168029149, "lng": -0.205752619708498}, "southwest": {"lat": 51.52928371970849, "lng": -0.208450580291502}}}, "name": "P McFarlane", "place_id": "ChIJ3zmFLhQQdkgRjrlcrEUqYQk", "types": ["point_of_interest", "establishment"]}, "ChIJ_f_bHxQQdkgRRKrT1t2Sbl4": {"geometry": {"location": {"lat": 51.53061699999999, "lng": -0.207188}, "viewport": {"northeast": {"lat": 51.53198168029149, "lng": -0.2057525697084979}, "southwest": {"lat": 51.52928371970849, "lng": -0.208450530291502}}}, "name": "Blake Ida Bridal", "place_id": "ChIJ_f_bHxQQdkgRRKrT1t2Sbl4", "types": ["point_of_interest", "establishment"], "rating": 4.2, "user_ratings_total": 5}, "ChIJ_f_bHxQQdkgRoMnSWZG-K-4": {"geometry": {"location": {"lat": 51.53061699999999, "lng": -0.207188}, "viewport": {"northeast": {"lat": 51.53198168029149, "lng": -0.2057525697084979}, "southwest": {"lat": 51.52928371970849, "lng": -0.208450530291502}}}, "name": "Hewitt Heritage Fabrics", "place_id": "ChIJ_f_bHxQQdkgRoMnSWZG-K-4", "types": ["point_of_interest", "establishment"]}, "ChIJH8yNLxQQdkgRuUP_x14tP-Q": {"geometry": {"location": {"lat": 51.53112420000001, "lng": -0.2081351}, "viewport": {"northeast": {"lat": 51.53247798029149, "lng": -0.206758319708498}, "southwest": {"lat": 51.5297800197085, "lng": -0.2094562802915021}}}, "name": "ubitricity Charging Station", "place_id": "ChIJH8yNLxQQdkgRuUP_x14tP-Q", "types": ["point_of_interest", "establishment"]}, "ChIJW0vTHxQQdkgRKtNEPiw2eI0": {"geometry": {"location": {"lat": 51.5306211, "lng": -0.2071193}, "viewport": {"northeast": {"lat": 51.53197988029149, "lng": -0.205716419708498}, "southwest": {"lat": 51.5292819197085, "lng": -0.208414380291502}}}, "name": "Lluks London", "place_id": "ChIJW0vTHxQQdkgRKtNEPiw2eI0", "types": ["point_of_interest", "clothing_store", "store", "establishment"], "rating": 4, "user_ratings_total": 3}, "ChIJ8VW9JxQQdkgRtsALkYaxLAg": {"geometry": {"location": {"lat": 51.5307184, "lng": -0.2079026}, "viewport": {"northeast": {"lat": 51.53202639710018, "lng": -0.2065544614303164}, "southwest": {"lat": 51.52932843651718, "lng": -0.2092524220133204}}}, "name": "Parking lot", "place_id": "ChIJ8VW9JxQQdkgRtsALkYaxLAg", "types": ["parking", "premise", "point_of_interest", "establishment"]}, "ChIJrcx1LBQQdkgRi3A4XTAM-rk": {"geometry": {"location": {"lat": 51.53088160000001, "lng": -0.2085484}, "viewport": {"northeast": {"lat": 51.53228191012735, "lng": -0.2071726077299592}, "southwest": {"lat": 51.52958394954435, "lng": -0.2098705683129632}}}, "name": "Parking lot", "place_id": "ChIJrcx1LBQQdkgRi3A4XTAM-rk", "types": ["parking", "premise", "point_of_interest", "establishment"]}, "ChIJHfS6lhYQdkgRjVpFai7hRVQ": {"geometry": {"location": {"lat": 51.52966015000069, "lng": -0.2076112499860113}, "viewport": {"northeast": {"lat": 51.53100913029149, "lng": -0.206262269708498}, "southwest": {"lat": 51.52831116970849, "lng": -0.208960230291502}}}, "name": "86 Third Ave", "place_id": "ChIJHfS6lhYQdkgRjVpFai7hRVQ", "types": ["route"]}, "ChIJx7SdkRYQdkgRHGeMCM2LK5I": {"geometry": {"location": {"lat": 51.529566, "lng": -0.2080501}, "viewport": {"northeast": {"lat": 51.5309770302915, "lng": -0.2066858697084979}, "southwest": {"lat": 51.5282790697085, "lng": -0.209383830291502}}}, "name": "Zipcar UK - Lothrop St", "place_id": "ChIJx7SdkRYQdkgRHGeMCM2LK5I", "types": ["point_of_interest", "establishment"]}, "ChIJ19Sf9wQOdkgRSVFgRh-d-Oc": {"geometry": {"location": {"lat": 51.5295679, "lng": -0.2077169}, "viewport": {"northeast": {"lat": 51.53092293029149, "lng": -0.206304969708498}, "southwest": {"lat": 51.52822496970849, "lng": -0.209002930291502}}}, "name": "Copyright Brand Protection", "place_id": "ChIJ19Sf9wQOdkgRSVFgRh-d-Oc", "types": ["local_government_office", "point_of_interest", "establishment"]}, "ChIJIR6cKTURdkgRDll6ASBkQYE": {"geometry": {"location": {"lat": 51.5294828, "lng": -0.207654}, "viewport": {"northeast": {"lat": 51.5308350802915, "lng": -0.206270069708498}, "southwest": {"lat": 51.5281371197085, "lng": -0.208968030291502}}}, "name": "Utilities Wizard", "place_id": "ChIJIR6cKTURdkgRDll6ASBkQYE", "types": ["point_of_interest", "establishment"]}, "ChIJ7XXjiBYQdkgREsQEZsMP3w0": {"geometry": {"location": {"lat": 51.529789, "lng": -0.208529}, "viewport": {"northeast": {"lat": 51.5311240302915, "lng": -0.207183819708498}, "southwest": {"lat": 51.5284260697085, "lng": -0.209881780291502}}}, "name": "ubitricity Charging Station", "place_id": "ChIJ7XXjiBYQdkgREsQEZsMP3w0", "types": ["point_of_interest", "establishment"]}, "ChIJMVMVB9QRdkgRZZQ5GLlntqE": {"geometry": {"location": {"lat": 51.5293642, "lng": -0.2072019}, "viewport": {"northeast": {"lat": 51.5306974802915, "lng": -0.206016919708498}, "southwest": {"lat": 51.5279995197085, "lng": -0.208714880291502}}}, "name": "Le noodles de giulivi", "place_id": "ChIJMVMVB9QRdkgRZZQ5GLlntqE", "types": ["restaurant", "food", "point_of_interest", "establishment"], "rating": 4.9, "user_ratings_total": 7}, "ChIJs3z26RYQdkgRPtn2Bttaqjc": {"geometry": {"location": {"lat": 51.528944, "lng": -0.207357}, "viewport": {"northeast": {"lat": 51.53029043029149, "lng": -0.206034569708498}, "southwest": {"lat": 51.52759246970849, "lng": -0.208732530291502}}}, "name": "ubitricity Charging Station", "place_id": "ChIJs3z26RYQdkgRPtn2Bttaqjc", "types": ["point_of_interest", "establishment"]}, "ChIJx6jf6hYQdkgRoA7peWpinv0": {"geometry": {"location": {"lat": 51.530758, "lng": -0.208927}, "viewport": {"northeast": {"lat": 51.5321101302915, "lng": -0.207574069708498}, "southwest": {"lat": 51.5294121697085, "lng": -0.210272030291502}}}, "name": "Creative Futures (UK) Limited", "place_id": "ChIJx6jf6hYQdkgRoA7peWpinv0", "types": ["point_of_interest", "establishment"], "rating": 5, "user_ratings_total": 1}, "ChIJL1iAjhYQdkgRTmCvd9sGbvQ": {"geometry": {"location": {"lat": 51.5303567, "lng": -0.2092237}, "viewport": {"northeast": {"lat": 51.5316608802915, "lng": -0.207886869708498}, "southwest": {"lat": 51.5289629197085, "lng": -0.210584830291502}}}, "name": "Pomodoro E Basilico", "place_id": "ChIJL1iAjhYQdkgRTmCvd9sGbvQ", "types": ["restaurant", "food", "point_of_interest", "establishment"], "rating": 3.8, "user_ratings_total": 13}, "ChIJx6jf6hYQdkgRatk0IQbKalA": {"geometry": {"location": {"lat": 51.53099280000001, "lng": -0.2088558}, "viewport": {"northeast": {"lat": 51.5322467802915, "lng": -0.207625469708498}, "southwest": {"lat": 51.5295488197085, "lng": -0.210323430291502}}}, "name": "Queens Park Community Council", "place_id": "ChIJx6jf6hYQdkgRatk0IQbKalA", "types": ["point_of_interest", "establishment"], "rating": 4, "user_ratings_total": 1}, "ChIJT0ww0xUQdkgRvYoHfQXeyc0": {"geometry": {"location": {"lat": 51.53091440000001, "lng": -0.2090869}, "viewport": {"northeast": {"lat": 51.5322273802915, "lng": -0.207782419708498}, "southwest": {"lat": 51.5295294197085, "lng": -0.210480380291502}}}, "name": "Friends of Queen\u2019s Park Gardens", "place_id": "ChIJT0ww0xUQdkgRvYoHfQXeyc0", "types": ["point_of_interest", "establishment"], "rating": 3, "user_ratings_total": 1}, "ChIJrwaEKNkPdkgRQPyEaOfDP-E": {"geometry": {"location": {"lat": 51.5309148, "lng": -0.2090284}, "viewport": {"northeast": {"lat": 51.5322188802915, "lng": -0.207734969708498}, "southwest": {"lat": 51.5295209197085, "lng": -0.210432930291502}}}, "name": "Support 4 Grenfell Community Hub", "place_id": "ChIJrwaEKNkPdkgRQPyEaOfDP-E", "types": ["point_of_interest", "establishment"], "rating": 5, "user_ratings_total": 2}, "ChIJkckUeRYQdkgRqNgW3xM1Scw": {"geometry": {"location": {"lat": 51.53034779999999, "lng": -0.2092519}, "viewport": {"northeast": {"lat": 51.5316565802915, "lng": -0.2079142697084979}, "southwest": {"lat": 51.5289586197085, "lng": -0.210612230291502}}}, "name": "Du Plessis & Company", "place_id": "ChIJkckUeRYQdkgRqNgW3xM1Scw", "types": ["point_of_interest", "establishment"]}, "ChIJNS3QKRQQdkgR3m7aU8S5nzw": {"geometry": {"location": {"lat": 51.5310005, "lng": -0.2088487}, "viewport": {"northeast": {"lat": 51.5322506302915, "lng": -0.207621919708498}, "southwest": {"lat": 51.5295526697085, "lng": -0.210319880291502}}}, "name": "A2Dominion | Beethoven Community Centre", "place_id": "ChIJNS3QKRQQdkgR3m7aU8S5nzw", "types": ["point_of_interest", "establishment"], "rating": 4.2, "user_ratings_total": 90}, "ChIJNS3QKRQQdkgRGnJS-H5qeH4": {"geometry": {"location": {"lat": 51.53080360000001, "lng": -0.208763}, "viewport": {"northeast": {"lat": 51.53209973029151, "lng": -0.207463219708498}, "southwest": {"lat": 51.52940176970851, "lng": -0.210161180291502}}}, "name": "Child Bereavement UK", "place_id": "ChIJNS3QKRQQdkgRGnJS-H5qeH4", "types": ["point_of_interest", "establishment"]}, "ChIJVbNA0xUQdkgRCtOw_yE_-LA": {"geometry": {"location": {"lat": 51.5310005, "lng": -0.2088486}, "viewport": {"northeast": {"lat": 51.5322505802915, "lng": -0.207621819708498}, "southwest": {"lat": 51.5295526197085, "lng": -0.210319780291502}}}, "name": "Marcia Sharp", "place_id": "ChIJVbNA0xUQdkgRCtOw_yE_-LA", "types": ["school", "point_of_interest", "establishment"]}, "ChIJGT8-0hUQdkgR4s6oPBLjAM0": {"geometry": {"location": {"lat": 51.5312092, "lng": -0.2091034}, "viewport": {"northeast": {"lat": 51.53251449937071, "lng": -0.2077237209811908}, "southwest": {"lat": 51.52981653878771, "lng": -0.2104216815641949}}}, "name": "Parking lot", "place_id": "ChIJGT8-0hUQdkgR4s6oPBLjAM0", "types": ["parking", "premise", "point_of_interest", "establishment"]}, "ChIJmSJnZRYQdkgReQG0JE15taQ": {"geometry": {"location": {"lat": 51.52979766087189, "lng": -0.2090454595133395}, "viewport": {"northeast": {"lat": 51.5311543802915, "lng": -0.20652165}, "southwest": {"lat": 51.5284564197085, "lng": -0.21156825}}}, "name": "1-73 Lothrop St", "place_id": "ChIJmSJnZRYQdkgReQG0JE15taQ", "types": ["route"]}, "ChIJK5sWYxYQdkgRhgr8Ghqdh3A": {"geometry": {"location": {"lat": 51.529841, "lng": -0.209022}, "viewport": {"northeast": {"lat": 51.5311765302915, "lng": -0.207676719708498}, "southwest": {"lat": 51.5284785697085, "lng": -0.210374680291502}}}, "name": "ubitricity Charging Station", "place_id": "ChIJK5sWYxYQdkgRhgr8Ghqdh3A", "types": ["point_of_interest", "establishment"]}, "ChIJ_daZzxMQdkgR03acbgLsPEU": {"geometry": {"location": {"lat": 51.531384, "lng": -0.203547}, "viewport": {"northeast": {"lat": 51.5327450802915, "lng": -0.2021295697084979}, "southwest": {"lat": 51.5300471197085, "lng": -0.204827530291502}}}, "name": "Therapy for You", "place_id": "ChIJ_daZzxMQdkgR03acbgLsPEU", "types": ["health", "point_of_interest", "establishment"]}, "ChIJQ6LNbREQdkgR7Pqhmt6yh68": {"geometry": {"location": {"lat": 51.531246, "lng": -0.2040054}, "viewport": {"northeast": {"lat": 51.5325754802915, "lng": -0.202755819708498}, "southwest": {"lat": 51.5298775197085, "lng": -0.2054537802915021}}}, "name": "Vegerun Limited", "place_id": "ChIJQ6LNbREQdkgR7Pqhmt6yh68", "types": ["point_of_interest", "establishment"]}, "ChIJVVXwzxMQdkgRAPnCZaZEUZc": {"geometry": {"location": {"lat": 51.53131129999999, "lng": -0.2035903999999999}, "viewport": {"northeast": {"lat": 51.53267868029149, "lng": -0.2021375197084979}, "southwest": {"lat": 51.52998071970849, "lng": -0.204835480291502}}}, "name": "Budget Flats in Zone 2", "place_id": "ChIJVVXwzxMQdkgRAPnCZaZEUZc", "types": ["lodging", "point_of_interest", "establishment"], "rating": 3, "user_ratings_total": 6}, "ChIJZ9aZzxMQdkgRPI4U7xFnmJQ": {"geometry": {"location": {"lat": 51.53138379999999, "lng": -0.2035467}, "viewport": {"northeast": {"lat": 51.5327448802915, "lng": -0.202129369708498}, "southwest": {"lat": 51.5300469197085, "lng": -0.204827330291502}}}, "name": "Studio Flats Queens Park", "place_id": "ChIJZ9aZzxMQdkgRPI4U7xFnmJQ", "types": ["lodging", "point_of_interest", "establishment"]}, "ChIJ__-q3BMQdkgRg4PV17e78Lc": {"geometry": {"location": {"lat": 51.531249, "lng": -0.2040043}, "viewport": {"northeast": {"lat": 51.5325782302915, "lng": -0.202755919708498}, "southwest": {"lat": 51.5298802697085, "lng": -0.205453880291502}}}, "name": "Azuronaut Ltd", "place_id": "ChIJ__-q3BMQdkgRg4PV17e78Lc", "types": ["point_of_interest", "establishment"]}, "ChIJb5sRZREQdkgRvOVVaumytYU": {"geometry": {"location": {"lat": 51.530051, "lng": -0.203744}, "viewport": {"northeast": {"lat": 51.5314054802915, "lng": -0.202359069708498}, "southwest": {"lat": 51.5287075197085, "lng": -0.205057030291502}}}, "name": "ubitricity Charging Station", "place_id": "ChIJb5sRZREQdkgRvOVVaumytYU", "types": ["point_of_interest", "establishment"]}, "ChIJz4_kDREQdkgRsf8R5qaZFYU": {"geometry": {"location": {"lat": 51.52898940003791, "lng": -0.2035462499647325}, "viewport": {"northeast": {"lat": 51.5303383802915, "lng": -0.2021972697084979}, "southwest": {"lat": 51.5276404197085, "lng": -0.204895230291502}}}, "name": "270-272 Shirland Rd", "place_id": "ChIJz4_kDREQdkgRsf8R5qaZFYU", "types": ["route"]}, "ChIJpz9qExEQdkgRFNBHNtKkQzg": {"geometry": {"location": {"lat": 51.52913419999999, "lng": -0.2036666}, "viewport": {"northeast": {"lat": 51.5304277802915, "lng": -0.202346669708498}, "southwest": {"lat": 51.5277298197085, "lng": -0.2050446302915021}}}, "name": "Dr M Sarnicki", "place_id": "ChIJpz9qExEQdkgRFNBHNtKkQzg", "types": ["doctor", "health", "point_of_interest", "establishment"], "rating": 5, "user_ratings_total": 1}, "ChIJJU44EhEQdkgRRxIXuuZ1kOo": {"geometry": {"location": {"lat": 51.52913419999999, "lng": -0.2036666}, "viewport": {"northeast": {"lat": 51.5304277802915, "lng": -0.202346669708498}, "southwest": {"lat": 51.5277298197085, "lng": -0.2050446302915021}}}, "name": "Garfield & Sarnicki", "place_id": "ChIJJU44EhEQdkgRRxIXuuZ1kOo", "types": ["doctor", "health", "point_of_interest", "establishment"]}, "ChIJpz9qExEQdkgRCUuuUVGK8Y0": {"geometry": {"location": {"lat": 51.52913419999999, "lng": -0.2036666}, "viewport": {"northeast": {"lat": 51.5304277802915, "lng": -0.202346669708498}, "southwest": {"lat": 51.5277298197085, "lng": -0.2050446302915021}}}, "name": "Dr Garfield & Dr Sarnicki", "place_id": "ChIJpz9qExEQdkgRCUuuUVGK8Y0", "types": ["doctor", "health", "point_of_interest", "establishment"], "rating": 2.3, "user_ratings_total": 3}, "ChIJmTIPEjgRdkgRQ_69bbWw2Lw": {"geometry": {"location": {"lat": 51.5291542, "lng": -0.2035426}, "viewport": {"northeast": {"lat": 51.5305063302915, "lng": -0.202134219708498}, "southwest": {"lat": 51.5278083697085, "lng": -0.204832180291502}}}, "name": "FABPARTIESUK", "place_id": "ChIJmTIPEjgRdkgRQ_69bbWw2Lw", "types": ["point_of_interest", "establishment"], "rating": 5, "user_ratings_total": 8}, "ChIJ__-IEhEQdkgRO4rtzrp22aA": {"geometry": {"location": {"lat": 51.52913419999999, "lng": -0.2036666}, "viewport": {"northeast": {"lat": 51.5304277802915, "lng": -0.202346669708498}, "southwest": {"lat": 51.5277298197085, "lng": -0.2050446302915021}}}, "name": "Dr E Farrell - Shirland Road Medical Centre", "place_id": "ChIJ__-IEhEQdkgRO4rtzrp22aA", "types": ["doctor", "health", "point_of_interest", "establishment"]}, "ChIJBRWPEhEQdkgRV5Z1kqwxidE": {"geometry": {"location": {"lat": 51.5291501, "lng": -0.2036616}, "viewport": {"northeast": {"lat": 51.5304360302915, "lng": -0.202345669708498}, "southwest": {"lat": 51.52773806970851, "lng": -0.205043630291502}}}, "name": "Geom Construction Ltd", "place_id": "ChIJBRWPEhEQdkgRV5Z1kqwxidE", "types": ["general_contractor", "point_of_interest", "establishment"]}, "ChIJuTgpWhEQdkgRhSPQroAexxY": {"geometry": {"location": {"lat": 51.5302549, "lng": -0.2049355}, "viewport": {"northeast": {"lat": 51.5316244802915, "lng": -0.203470319708498}, "southwest": {"lat": 51.52892651970851, "lng": -0.2061682802915021}}}, "name": "Maidavale Removals", "place_id": "ChIJuTgpWhEQdkgRhSPQroAexxY", "types": ["moving_company", "point_of_interest", "establishment"]}, "ChIJBXwptRYQdkgRqblEPzbU8d0": {"geometry": {"location": {"lat": 51.52916411470881, "lng": -0.205567751826792}, "viewport": {"northeast": {"lat": 51.5305122302915, "lng": -0.204233819708498}, "southwest": {"lat": 51.5278142697085, "lng": -0.206931780291502}}}, "name": "20-16 Lancefield St", "place_id": "ChIJBXwptRYQdkgRqblEPzbU8d0", "types": ["route"]}, "ChIJ0eJIKjwQdkgR_WVHCqKKgLg": {"geometry": {"location": {"lat": 51.5292231, "lng": -0.2053409}, "viewport": {"northeast": {"lat": 51.5305451302915, "lng": -0.204105719708498}, "southwest": {"lat": 51.5278471697085, "lng": -0.206803680291502}}}, "name": "Sunrise Day Nursery", "place_id": "ChIJ0eJIKjwQdkgR_WVHCqKKgLg", "types": ["school", "point_of_interest", "establishment"], "rating": 4.8, "user_ratings_total": 10}, "ChIJ6yFQNBEQdkgRESNuey4Jv4c": {"geometry": {"location": {"lat": 51.52908490000001, "lng": -0.2055895}, "viewport": {"northeast": {"lat": 51.53043323029149, "lng": -0.204262819708498}, "southwest": {"lat": 51.52773526970849, "lng": -0.206960780291502}}}, "name": "Bangla Relief", "place_id": "ChIJ6yFQNBEQdkgRESNuey4Jv4c", "types": ["point_of_interest", "establishment"]}, "ChIJRzQZEBQQdkgRTENCy7RKVLc": {"geometry": {"location": {"lat": 51.53135004700937, "lng": -0.2065916198245673}, "viewport": {"northeast": {"lat": 51.53269933029151, "lng": -0.205240519708498}, "southwest": {"lat": 51.53000136970851, "lng": -0.207938480291502}}}, "name": "24-20 Dowland St", "place_id": "ChIJRzQZEBQQdkgRTENCy7RKVLc", "types": ["route"]}, "ChIJwwRgoBYQdkgR7-RX9uOyhII": {"geometry": {"location": {"lat": 51.53053080002353, "lng": -0.2070404000214088}, "viewport": {"northeast": {"lat": 51.5318797802915, "lng": -0.205691419708498}, "southwest": {"lat": 51.5291818197085, "lng": -0.208389380291502}}}, "name": "4 Dart St", "place_id": "ChIJwwRgoBYQdkgR7-RX9uOyhII", "types": ["route"]}, "ChIJXZEJ9JcRdkgRerZKgJw2FXU": {"geometry": {"location": {"lat": 51.5300217, "lng": -0.2070226}, "viewport": {"northeast": {"lat": 51.5313701302915, "lng": -0.205725969708498}, "southwest": {"lat": 51.5286721697085, "lng": -0.208423930291502}}}, "name": "Sharpvs", "place_id": "ChIJXZEJ9JcRdkgRerZKgJw2FXU", "types": ["point_of_interest", "establishment"]}, "ChIJcXmI6RYQdkgRRPWv4_p_5oM": {"geometry": {"location": {"lat": 51.52894061158023, "lng": -0.2074345272413616}, "viewport": {"northeast": {"lat": 51.53028888029149, "lng": -0.2060966197084979}, "southwest": {"lat": 51.5275909197085, "lng": -0.208794580291502}}}, "name": "41-51 Third Ave", "place_id": "ChIJcXmI6RYQdkgRRPWv4_p_5oM", "types": ["route"]}, "ChIJu7CU-YURdkgR7QWmpGK1DLQ": {"geometry": {"location": {"lat": 51.5293688, "lng": -0.2070188}, "viewport": {"northeast": {"lat": 51.5307211802915, "lng": -0.205643319708498}, "southwest": {"lat": 51.5280232197085, "lng": -0.208341280291502}}}, "name": "William Hill Discount", "place_id": "ChIJu7CU-YURdkgR7QWmpGK1DLQ", "types": ["point_of_interest", "establishment"]}, "ChIJKXa7yxUQdkgRBsuAjWl0ehc": {"geometry": {"location": {"lat": 51.53155219941515, "lng": -0.2090646645172722}, "viewport": {"northeast": {"lat": 51.53297518029149, "lng": -0.20701685}, "southwest": {"lat": 51.53027721970849, "lng": -0.21091065}}}, "name": "70-22 Beethoven St", "place_id": "ChIJKXa7yxUQdkgRBsuAjWl0ehc", "types": ["route"]}, "ChIJcRophxYQdkgRu6ho_4xZNHI": {"geometry": {"location": {"lat": 51.530237, "lng": -0.208605}, "viewport": {"northeast": {"lat": 51.53157468029151, "lng": -0.207259319708498}, "southwest": {"lat": 51.52887671970851, "lng": -0.209957280291502}}}, "name": "ubitricity Charging Station", "place_id": "ChIJcRophxYQdkgRu6ho_4xZNHI", "types": ["point_of_interest", "establishment"]}, "ChIJ-9HBl_IRdkgRPifDtr8vUlU": {"geometry": {"location": {"lat": 51.5289141, "lng": -0.2087414}, "viewport": {"northeast": {"lat": 51.5302087802915, "lng": -0.207407219708498}, "southwest": {"lat": 51.5275108197085, "lng": -0.210105180291502}}}, "name": "New renewals by Ricardo of london", "place_id": "ChIJ-9HBl_IRdkgRPifDtr8vUlU", "types": ["general_contractor", "point_of_interest", "establishment"]}, "ChIJuxzrAiERdkgR-lxw10oKbnQ": {"geometry": {"location": {"lat": 51.5288923, "lng": -0.2086134}, "viewport": {"northeast": {"lat": 51.5301910302915, "lng": -0.207278119708498}, "southwest": {"lat": 51.52749306970851, "lng": -0.209976080291502}}}, "name": "Pro Ace Security", "place_id": "ChIJuxzrAiERdkgR-lxw10oKbnQ", "types": ["point_of_interest", "establishment"], "rating": 5, "user_ratings_total": 3}, "ChIJVyPGihYQdkgRWv1K-BuwWgM": {"geometry": {"location": {"lat": 51.52932300000001, "lng": -0.208659}, "viewport": {"northeast": {"lat": 51.5306581802915, "lng": -0.207313669708498}, "southwest": {"lat": 51.5279602197085, "lng": -0.210011630291502}}}, "name": "ubitricity Charging Station", "place_id": "ChIJVyPGihYQdkgRWv1K-BuwWgM", "types": ["point_of_interest", "establishment"]}}}