{"E00024098": {"ChIJ2Xd0SAYQdkgRyWcyEbWgQWU": {"geometry": {"location": {"lat": 51.52392225052817, "lng": -0.1918644009726711}, "viewport": {"northeast": {"lat": 51.5252712302915, "lng": -0.190515419708498}, "southwest": {"lat": 51.5225732697085, "lng": -0.193213380291502}}}, "name": "65-49 Sutherland Ave", "place_id": "ChIJ2Xd0SAYQdkgRyWcyEbWgQWU", "types": ["route"]}, "ChIJrYY6WgYQdkgRZqbAS7FuFP4": {"geometry": {"location": {"lat": 51.52304029999999, "lng": -0.1918499999999999}, "viewport": {"northeast": {"lat": 51.52445618029149, "lng": -0.1905526197084979}, "southwest": {"lat": 51.5217582197085, "lng": -0.193250580291502}}}, "name": "Westminster Adult Education Service", "place_id": "ChIJrYY6WgYQdkgRZqbAS7FuFP4", "types": ["university", "point_of_interest", "establishment"], "rating": 4.8, "user_ratings_total": 4}, "ChIJ60RjQQYQdkgR5LAmdvroHyM": {"geometry": {"location": {"lat": 51.523739, "lng": -0.19229}, "viewport": {"northeast": {"lat": 51.52509683029151, "lng": -0.190952719708498}, "southwest": {"lat": 51.52239886970851, "lng": -0.193650680291502}}}, "name": "Chargemaster Charging Station", "place_id": "ChIJ60RjQQYQdkgR5LAmdvroHyM", "types": ["point_of_interest", "establishment"]}, "ChIJxamlvm0RdkgRtVjgQGCNcX8": {"geometry": {"location": {"lat": 51.5238837, "lng": -0.1915979}, "viewport": {"northeast": {"lat": 51.52528293029149, "lng": -0.190295219708498}, "southwest": {"lat": 51.52258496970849, "lng": -0.192993180291502}}}, "name": "Private Yoga London", "place_id": "ChIJxamlvm0RdkgRtVjgQGCNcX8", "types": ["school", "point_of_interest", "establishment"], "rating": 5, "user_ratings_total": 1}, "ChIJ7fiHQgYQdkgRCOPsR3tzLko": {"geometry": {"location": {"lat": 51.5235564, "lng": -0.1924786999999999}, "viewport": {"northeast": {"lat": 51.5249575302915, "lng": -0.191178919708498}, "southwest": {"lat": 51.5222595697085, "lng": -0.193876880291502}}}, "name": "London Hostess Agency Limited", "place_id": "ChIJ7fiHQgYQdkgRCOPsR3tzLko", "types": ["point_of_interest", "establishment"], "rating": 1, "user_ratings_total": 1}, "ChIJP2nNo7gRdkgRLlGAf0rjKhA": {"geometry": {"location": {"lat": 51.52366439999999, "lng": -0.1925066}, "viewport": {"northeast": {"lat": 51.5250026302915, "lng": -0.191147519708498}, "southwest": {"lat": 51.5223046697085, "lng": -0.193845480291502}}}, "name": "Samuel Grayson Ltd", "place_id": "ChIJP2nNo7gRdkgRLlGAf0rjKhA", "types": ["general_contractor", "point_of_interest", "establishment"]}, "ChIJc4GVRwYQdkgR9AZMpj84e-4": {"geometry": {"location": {"lat": 51.52396950000001, "lng": -0.1918937}, "viewport": {"northeast": {"lat": 51.5253468802915, "lng": -0.190571169708498}, "southwest": {"lat": 51.52264891970851, "lng": -0.193269130291502}}}, "name": "ubitricity Charging Station", "place_id": "ChIJc4GVRwYQdkgR9AZMpj84e-4", "types": ["point_of_interest", "establishment"]}, "ChIJ81oR4wYQdkgR7Iwxg2LE_9w": {"geometry": {"location": {"lat": 51.52209962316942, "lng": -0.1912938449618717}, "viewport": {"northeast": {"lat": 51.52343523029149, "lng": -0.1899342197084979}, "southwest": {"lat": 51.5207372697085, "lng": -0.192632180291502}}}, "name": "Woodchester Square", "place_id": "ChIJ81oR4wYQdkgR7Iwxg2LE_9w", "types": ["route"]}, "ChIJ-fTmdgMRdkgRoVxADnzneIU": {"geometry": {"location": {"lat": 51.5227328, "lng": -0.1919898}, "viewport": {"northeast": {"lat": 51.5242566802915, "lng": -0.190775719708498}, "southwest": {"lat": 51.5215587197085, "lng": -0.193473680291502}}}, "name": "Boat 25 October 2020", "place_id": "ChIJ-fTmdgMRdkgRoVxADnzneIU", "types": ["lodging", "point_of_interest", "establishment"]}, "ChIJW0h5zUkRdkgR9hVG21Q-BwE": {"geometry": {"location": {"lat": 51.5227313, "lng": -0.1920895}, "viewport": {"northeast": {"lat": 51.52408028029151, "lng": -0.190740519708498}, "southwest": {"lat": 51.52138231970851, "lng": -0.1934384802915021}}}, "name": "Mentorink Limited", "place_id": "ChIJW0h5zUkRdkgR9hVG21Q-BwE", "types": ["point_of_interest", "establishment"]}, "ChIJf9xzWc8RdkgRErBLIvKkB2U": {"geometry": {"location": {"lat": 51.52279590000001, "lng": -0.1918397000000001}, "viewport": {"northeast": {"lat": 51.5243123802915, "lng": -0.190619869708498}, "southwest": {"lat": 51.5216144197085, "lng": -0.193317830291502}}}, "name": "Waterfront Apartments", "place_id": "ChIJf9xzWc8RdkgRErBLIvKkB2U", "types": ["lodging", "point_of_interest", "establishment"], "rating": 5, "user_ratings_total": 1}, "ChIJZ-U5rqQRdkgRNCzk43AO2GE": {"geometry": {"location": {"lat": 51.52260259999999, "lng": -0.1924146}, "viewport": {"northeast": {"lat": 51.52412033029149, "lng": -0.191211269708498}, "southwest": {"lat": 51.52142236970849, "lng": -0.193909230291502}}}, "name": "Litter Art", "place_id": "ChIJZ-U5rqQRdkgRNCzk43AO2GE", "types": ["tourist_attraction", "point_of_interest", "establishment"]}, "ChIJRSwl5QYQdkgRg-oV8x0tukM": {"geometry": {"location": {"lat": 51.52203, "lng": -0.191637}, "viewport": {"northeast": {"lat": 51.5233733302915, "lng": -0.190272469708498}, "southwest": {"lat": 51.5206753697085, "lng": -0.192970430291502}}}, "name": "ubitricity Charging Station", "place_id": "ChIJRSwl5QYQdkgRg-oV8x0tukM", "types": ["point_of_interest", "establishment"]}, "ChIJx0Wjo34RdkgR6XxGTeGmeEM": {"geometry": {"location": {"lat": 51.5219556, "lng": -0.1920976}, "viewport": {"northeast": {"lat": 51.52320683029149, "lng": -0.1907491197084979}, "southwest": {"lat": 51.52050886970849, "lng": -0.193447080291502}}}, "name": "Nawaz Solicitor", "place_id": "ChIJx0Wjo34RdkgR6XxGTeGmeEM", "types": ["point_of_interest", "establishment"]}, "ChIJjyUR7gYQdkgRw1b5wlLFbag": {"geometry": {"location": {"lat": 51.5221204, "lng": -0.1918226}, "viewport": {"northeast": {"lat": 51.52337478328703, "lng": -0.1906797659896768}, "southwest": {"lat": 51.52067682270403, "lng": -0.1933777265726808}}}, "name": "Parking lot", "place_id": "ChIJjyUR7gYQdkgRw1b5wlLFbag", "types": ["parking", "premise", "point_of_interest", "establishment"]}, "ChIJVVobxQYQdkgRggYa6H8mQls": {"geometry": {"location": {"lat": 51.52096675211945, "lng": -0.1920006080594914}, "viewport": {"northeast": {"lat": 51.52231568029149, "lng": -0.190651719708498}, "southwest": {"lat": 51.5196177197085, "lng": -0.193349680291502}}}, "name": "290-272 Harrow Rd", "place_id": "ChIJVVobxQYQdkgRggYa6H8mQls", "types": ["route"]}, "ChIJkcGV4AYQdkgRdb50OjFx1Xs": {"geometry": {"location": {"lat": 51.5212828, "lng": -0.1914681}, "viewport": {"northeast": {"lat": 51.5226670802915, "lng": -0.190210069708498}, "southwest": {"lat": 51.5199691197085, "lng": -0.1929080302915021}}}, "name": "Our Lady of Dolours R C School", "place_id": "ChIJkcGV4AYQdkgRdb50OjFx1Xs", "types": ["school", "point_of_interest", "establishment"], "rating": 4.4, "user_ratings_total": 11}, "ChIJ1QwjmpAadkgR2luVD7Ts2Xs": {"geometry": {"location": {"lat": 51.521417, "lng": -0.1915909}, "viewport": {"northeast": {"lat": 51.52274353029151, "lng": -0.190296619708498}, "southwest": {"lat": 51.52004556970851, "lng": -0.192994580291502}}}, "name": "Lebanese Maronite Catholic Church", "place_id": "ChIJ1QwjmpAadkgR2luVD7Ts2Xs", "types": ["church", "place_of_worship", "point_of_interest", "establishment"], "rating": 4.7, "user_ratings_total": 19}, "ChIJgQetxgYQdkgRFRuw6f3QBAc": {"geometry": {"location": {"lat": 51.52123, "lng": -0.191976}, "viewport": {"northeast": {"lat": 51.52260718029149, "lng": -0.1905750697084979}, "southwest": {"lat": 51.5199092197085, "lng": -0.193273030291502}}}, "name": "West End Locksmith", "place_id": "ChIJgQetxgYQdkgRFRuw6f3QBAc", "types": ["locksmith", "point_of_interest", "establishment"], "rating": 3.7, "user_ratings_total": 6}, "ChIJ6xuJ5wYQdkgRZC9mrM8X5_A": {"geometry": {"location": {"lat": 51.5213583, "lng": -0.1915388}, "viewport": {"northeast": {"lat": 51.52268928029149, "lng": -0.190245769708498}, "southwest": {"lat": 51.5199913197085, "lng": -0.192943730291502}}}, "name": "Our Lady of Sorrows", "place_id": "ChIJ6xuJ5wYQdkgRZC9mrM8X5_A", "types": ["church", "place_of_worship", "point_of_interest", "establishment"], "rating": 4.9, "user_ratings_total": 14}, "ChIJ75prwwYQdkgRyqoIgZu5dlg": {"geometry": {"location": {"lat": 51.5211632, "lng": -0.1918818}, "viewport": {"northeast": {"lat": 51.5225402802915, "lng": -0.1904810197084979}, "southwest": {"lat": 51.5198423197085, "lng": -0.193178980291502}}}, "name": "Landmark Legal LLP", "place_id": "ChIJ75prwwYQdkgRyqoIgZu5dlg", "types": ["lawyer", "point_of_interest", "establishment"], "rating": 3.7, "user_ratings_total": 3}, "ChIJkcGV4AYQdkgRRzokG3lNZYI": {"geometry": {"location": {"lat": 51.5215127, "lng": -0.1913036}, "viewport": {"northeast": {"lat": 51.52289658029149, "lng": -0.189979119708498}, "southwest": {"lat": 51.5201986197085, "lng": -0.192677080291502}}}, "name": "Care UK Community Partnership Plc", "place_id": "ChIJkcGV4AYQdkgRRzokG3lNZYI", "types": ["health", "point_of_interest", "establishment"]}, "ChIJsYA72wYQdkgRO3oTb3s27rc": {"geometry": {"location": {"lat": 51.5209809, "lng": -0.1916653}, "viewport": {"northeast": {"lat": 51.5223658302915, "lng": -0.190253719708498}, "southwest": {"lat": 51.5196678697085, "lng": -0.192951680291502}}}, "name": "Bleglot Amusement Industry t/a Barefoot Marathon Running Series", "place_id": "ChIJsYA72wYQdkgRO3oTb3s27rc", "types": ["point_of_interest", "establishment"]}, "ChIJiZUB2wYQdkgR3Q7ne3hNoQM": {"geometry": {"location": {"lat": 51.52124130000001, "lng": -0.1920776}, "viewport": {"northeast": {"lat": 51.5226314302915, "lng": -0.190651969708498}, "southwest": {"lat": 51.5199334697085, "lng": -0.193349930291502}}}, "name": "Paddington Glass Co Ltd", "place_id": "ChIJiZUB2wYQdkgR3Q7ne3hNoQM", "types": ["point_of_interest", "establishment"], "rating": 4.3, "user_ratings_total": 9}, "ChIJT6biwAYQdkgRBp2DdMLwl44": {"geometry": {"location": {"lat": 51.5210338, "lng": -0.1918001}, "viewport": {"northeast": {"lat": 51.52234608029149, "lng": -0.190541069708498}, "southwest": {"lat": 51.51964811970849, "lng": -0.193239030291502}}}, "name": "Costcutter", "place_id": "ChIJT6biwAYQdkgRBp2DdMLwl44", "types": ["supermarket", "grocery_or_supermarket", "food", "point_of_interest", "store", "establishment"], "rating": 3.5, "user_ratings_total": 86}, "ChIJpT9TwQYQdkgRRMBXqJ1Ha0M": {"geometry": {"location": {"lat": 51.52119010000001, "lng": -0.1919638}, "viewport": {"northeast": {"lat": 51.52257403029149, "lng": -0.190550469708498}, "southwest": {"lat": 51.51987606970849, "lng": -0.193248430291502}}}, "name": "Millennium Launderette", "place_id": "ChIJpT9TwQYQdkgRRMBXqJ1Ha0M", "types": ["laundry", "point_of_interest", "establishment"], "rating": 3.9, "user_ratings_total": 28}, "ChIJT3OcwwYQdkgR0vNx3WnC7Lk": {"geometry": {"location": {"lat": 51.5211823, "lng": -0.1919733}, "viewport": {"northeast": {"lat": 51.5225693802915, "lng": -0.190554169708498}, "southwest": {"lat": 51.5198714197085, "lng": -0.193252130291502}}}, "name": "Arts Salon", "place_id": "ChIJT3OcwwYQdkgR0vNx3WnC7Lk", "types": ["hair_care", "health", "point_of_interest", "establishment"], "rating": 4.7, "user_ratings_total": 50}, "ChIJJxycxAYQdkgR_EyVEYlhTxY": {"geometry": {"location": {"lat": 51.5211176, "lng": -0.1918565}, "viewport": {"northeast": {"lat": 51.5225006802915, "lng": -0.190444769708498}, "southwest": {"lat": 51.5198027197085, "lng": -0.193142730291502}}}, "name": "MBG Design & Print", "place_id": "ChIJJxycxAYQdkgR_EyVEYlhTxY", "types": ["point_of_interest", "store", "establishment"], "rating": 4.4, "user_ratings_total": 11}, "ChIJXWSb6gYQdkgRt08JODOE89s": {"geometry": {"location": {"lat": 51.5214434, "lng": -0.1923779}, "viewport": {"northeast": {"lat": 51.52274243029149, "lng": -0.191120269708498}, "southwest": {"lat": 51.52004446970849, "lng": -0.193818230291502}}}, "name": "Leyf Nurseries", "place_id": "ChIJXWSb6gYQdkgRt08JODOE89s", "types": ["point_of_interest", "establishment"]}, "ChIJUdPWwgkRdkgRIvrmKsE5Fv8": {"geometry": {"location": {"lat": 51.52106819999999, "lng": -0.1917305}, "viewport": {"northeast": {"lat": 51.52235218029149, "lng": -0.190495619708498}, "southwest": {"lat": 51.51965421970849, "lng": -0.193193580291502}}}, "name": "ATM (Costcutter)", "place_id": "ChIJUdPWwgkRdkgRIvrmKsE5Fv8", "types": ["atm", "finance", "point_of_interest", "establishment"], "rating": 3, "user_ratings_total": 1}, "ChIJlZ6zxAYQdkgRSl98amG6-M8": {"geometry": {"location": {"lat": 51.5210362, "lng": -0.1917817}, "viewport": {"northeast": {"lat": 51.5223380302915, "lng": -0.190520069708498}, "southwest": {"lat": 51.5196400697085, "lng": -0.193218030291502}}}, "name": "KeyNest - Smart Key Exchange", "place_id": "ChIJlZ6zxAYQdkgRSl98amG6-M8", "types": ["point_of_interest", "store", "establishment"]}, "ChIJN783MHoRdkgRZvj5X95nYXY": {"geometry": {"location": {"lat": 51.5210338, "lng": -0.1918001}, "viewport": {"northeast": {"lat": 51.5223402302915, "lng": -0.190532519708498}, "southwest": {"lat": 51.51964226970851, "lng": -0.193230480291502}}}, "name": "Hermes ParcelShop", "place_id": "ChIJN783MHoRdkgRZvj5X95nYXY", "types": ["point_of_interest", "establishment"], "rating": 5, "user_ratings_total": 1}, "ChIJYVIu2wYQdkgRVAcUIMf2ARE": {"geometry": {"location": {"lat": 51.5210286, "lng": -0.1916939}, "viewport": {"northeast": {"lat": 51.5224069802915, "lng": -0.190293669708498}, "southwest": {"lat": 51.5197090197085, "lng": -0.192991630291502}}}, "name": "Benson Pharmacy", "place_id": "ChIJYVIu2wYQdkgRVAcUIMf2ARE", "types": ["pharmacy", "health", "point_of_interest", "store", "establishment"], "rating": 4.9, "user_ratings_total": 16}, "ChIJrSgv3QYQdkgR0kPCuIECPDg": {"geometry": {"location": {"lat": 51.52102199999999, "lng": -0.1916886}, "viewport": {"northeast": {"lat": 51.52240108029149, "lng": -0.190287169708498}, "southwest": {"lat": 51.5197031197085, "lng": -0.192985130291502}}}, "name": "Leaflet distribution london", "place_id": "ChIJrSgv3QYQdkgR0kPCuIECPDg", "types": ["point_of_interest", "establishment"]}, "ChIJsYA72wYQdkgR1c808a0qprg": {"geometry": {"location": {"lat": 51.5209809, "lng": -0.1916653}, "viewport": {"northeast": {"lat": 51.5223658302915, "lng": -0.190253719708498}, "southwest": {"lat": 51.5196678697085, "lng": -0.192951680291502}}}, "name": "Westminster Council Estates' Residents (WCER) Group", "place_id": "ChIJsYA72wYQdkgR1c808a0qprg", "types": ["point_of_interest", "establishment"]}, "ChIJYRdUxAYQdkgRh3Cbs9cIuc8": {"geometry": {"location": {"lat": 51.520947, "lng": -0.1919709}, "viewport": {"northeast": {"lat": 51.5223170302915, "lng": -0.190584969708498}, "southwest": {"lat": 51.5196190697085, "lng": -0.193282930291502}}}, "name": "Westminster Academy Cirencester St", "place_id": "ChIJYRdUxAYQdkgRh3Cbs9cIuc8", "types": ["transit_station", "point_of_interest", "establishment"]}, "ChIJUUY4GF4RdkgRs2I8J3j2M9Q": {"geometry": {"location": {"lat": 51.5209577, "lng": -0.1916702}, "viewport": {"northeast": {"lat": 51.5223487302915, "lng": -0.190247969708498}, "southwest": {"lat": 51.5196507697085, "lng": -0.192945930291502}}}, "name": "Maceam Alwadi London", "place_id": "ChIJUUY4GF4RdkgRs2I8J3j2M9Q", "types": ["point_of_interest", "establishment"]}, "ChIJ08sqxAYQdkgRvgu5qXetov4": {"geometry": {"location": {"lat": 51.5209614, "lng": -0.1921674}, "viewport": {"northeast": {"lat": 51.5223374302915, "lng": -0.190770969708498}, "southwest": {"lat": 51.5196394697085, "lng": -0.193468930291502}}}, "name": "Westminster Academy Cirencester Street (Stop RE)", "place_id": "ChIJ08sqxAYQdkgRvgu5qXetov4", "types": ["bus_station", "transit_station", "point_of_interest", "establishment"], "rating": 5, "user_ratings_total": 1}, "ChIJIT9MuAYQdkgRwd-mwZos4So": {"geometry": {"location": {"lat": 51.5209953, "lng": -0.1923118}, "viewport": {"northeast": {"lat": 51.5223859802915, "lng": -0.190889669708498}, "southwest": {"lat": 51.5196880197085, "lng": -0.193587630291502}}}, "name": "The Sir Naim Dangoor Centre", "place_id": "ChIJIT9MuAYQdkgRwd-mwZos4So", "types": ["school", "point_of_interest", "establishment"], "rating": 5, "user_ratings_total": 1}, "ChIJSYxhxAYQdkgR2JBEglmxQnY": {"geometry": {"location": {"lat": 51.5209065, "lng": -0.191746}, "viewport": {"northeast": {"lat": 51.5222297802915, "lng": -0.1904421697084979}, "southwest": {"lat": 51.5195318197085, "lng": -0.193140130291502}}}, "name": "Westminster Academy / Cirencester Street (Stop RB)", "place_id": "ChIJSYxhxAYQdkgR2JBEglmxQnY", "types": ["transit_station", "point_of_interest", "establishment"]}, "ChIJ2-uxkQYQdkgRdVRQey9Ma2o": {"geometry": {"location": {"lat": 51.52188830000001, "lng": -0.1921159}, "viewport": {"northeast": {"lat": 51.52296628029151, "lng": -0.190811519708498}, "southwest": {"lat": 51.52026831970851, "lng": -0.193509480291502}}}, "name": "Wilmcote House 1", "place_id": "ChIJ2-uxkQYQdkgRdVRQey9Ma2o", "types": ["lodging", "point_of_interest", "establishment"], "rating": 4.1, "user_ratings_total": 7}, "ChIJ9wTT0ToRdkgRtZg8-rMaIh8": {"geometry": {"location": {"lat": 51.5209187, "lng": -0.1916246}, "viewport": {"northeast": {"lat": 51.5223116302915, "lng": -0.190199069708498}, "southwest": {"lat": 51.51961366970851, "lng": -0.192897030291502}}}, "name": "English Tea House", "place_id": "ChIJ9wTT0ToRdkgRtZg8-rMaIh8", "types": ["cafe", "food", "point_of_interest", "establishment"], "rating": 2, "user_ratings_total": 1}, "ChIJrXGy3gYQdkgRx3qf_ERB_PM": {"geometry": {"location": {"lat": 51.52097149999999, "lng": -0.1911706}, "viewport": {"northeast": {"lat": 51.52245687040852, "lng": -0.1900042645909869}, "southwest": {"lat": 51.51975890982552, "lng": -0.1927022251739909}}}, "name": "Parking lot", "place_id": "ChIJrXGy3gYQdkgRx3qf_ERB_PM", "types": ["parking", "premise", "point_of_interest", "establishment"]}, "ChIJ74EUegYQdkgR7EDOSJSy0WA": {"geometry": {"location": {"lat": 51.52333405055811, "lng": -0.193531551036433}, "viewport": {"northeast": {"lat": 51.5246830302915, "lng": -0.192182569708498}, "southwest": {"lat": 51.5219850697085, "lng": -0.194880530291502}}}, "name": "25-9 Sutherland Ave", "place_id": "ChIJ74EUegYQdkgR7EDOSJSy0WA", "types": ["route"]}, "ChIJT9e_1gUQdkgRtzHGKDng_Zo": {"geometry": {"location": {"lat": 51.5233783, "lng": -0.1937128}, "viewport": {"northeast": {"lat": 51.5246862802915, "lng": -0.192325719708498}, "southwest": {"lat": 51.52198831970851, "lng": -0.195023680291502}}}, "name": "Zipcar", "place_id": "ChIJT9e_1gUQdkgRtzHGKDng_Zo", "types": ["car_rental", "point_of_interest", "establishment"], "rating": 1, "user_ratings_total": 1}, "ChIJTTNmeQYQdkgRRs7mFsUk_m4": {"geometry": {"location": {"lat": 51.523114, "lng": -0.1935311}, "viewport": {"northeast": {"lat": 51.5245455302915, "lng": -0.192258769708498}, "southwest": {"lat": 51.5218475697085, "lng": -0.194956730291502}}}, "name": "M.W Air Conditioning & Refrigeration", "place_id": "ChIJTTNmeQYQdkgRRs7mFsUk_m4", "types": ["general_contractor", "point_of_interest", "establishment"], "rating": 5, "user_ratings_total": 2}, "ChIJ8ZQLdwYQdkgRhB7flNJEpz8": {"geometry": {"location": {"lat": 51.5232998, "lng": -0.1942654}, "viewport": {"northeast": {"lat": 51.5245634802915, "lng": -0.192843719708498}, "southwest": {"lat": 51.5218655197085, "lng": -0.195541680291502}}}, "name": "Glauca Rossi School of Make Up", "place_id": "ChIJ8ZQLdwYQdkgRhB7flNJEpz8", "types": ["point_of_interest", "establishment"], "rating": 4.4, "user_ratings_total": 39}, "ChIJ0SEpdwYQdkgRmRpfV-DO3x4": {"geometry": {"location": {"lat": 51.5232543, "lng": -0.1942663}, "viewport": {"northeast": {"lat": 51.5245322302915, "lng": -0.192869569708498}, "southwest": {"lat": 51.5218342697085, "lng": -0.195567530291502}}}, "name": "The Real Art Estate Ltd", "place_id": "ChIJ0SEpdwYQdkgRmRpfV-DO3x4", "types": ["point_of_interest", "establishment"]}, "ChIJ12Y9dgYQdkgRRIhBI4DaUyI": {"geometry": {"location": {"lat": 51.5236351, "lng": -0.1939434}, "viewport": {"northeast": {"lat": 51.5248157302915, "lng": -0.192438119708498}, "southwest": {"lat": 51.5221177697085, "lng": -0.195136080291502}}}, "name": "Lina Minimarket", "place_id": "ChIJ12Y9dgYQdkgRRIhBI4DaUyI", "types": ["store", "point_of_interest", "establishment"]}, "ChIJI9xsegYQdkgRpzzbI11KFWI": {"geometry": {"location": {"lat": 51.523352, "lng": -0.1935651999999999}, "viewport": {"northeast": {"lat": 51.5246925302915, "lng": -0.1922024197084979}, "southwest": {"lat": 51.5219945697085, "lng": -0.194900380291502}}}, "name": "ubitricity Charging Station", "place_id": "ChIJI9xsegYQdkgRpzzbI11KFWI", "types": ["point_of_interest", "establishment"]}, "ChIJjeczE_kFdkgRfSVwyHuLj2c": {"geometry": {"location": {"lat": 51.52362239999999, "lng": -0.1932405}, "viewport": {"northeast": {"lat": 51.5249280302915, "lng": -0.191816669708498}, "southwest": {"lat": 51.5222300697085, "lng": -0.194514630291502}}}, "name": "Your Mortgage Experts", "place_id": "ChIJjeczE_kFdkgRfSVwyHuLj2c", "types": ["finance", "point_of_interest", "establishment"], "rating": 5, "user_ratings_total": 33}, "ChIJZerIjOERdkgRhtwzkZMWqJ8": {"geometry": {"location": {"lat": 51.5233504, "lng": -0.1939155}, "viewport": {"northeast": {"lat": 51.5246415302915, "lng": -0.192512769708498}, "southwest": {"lat": 51.5219435697085, "lng": -0.195210730291502}}}, "name": "Camilla Boniek Events", "place_id": "ChIJZerIjOERdkgRhtwzkZMWqJ8", "types": ["point_of_interest", "establishment"]}, "ChIJ8ZQLdwYQdkgRz7T8NFUyaOM": {"geometry": {"location": {"lat": 51.5235006, "lng": -0.193133}, "viewport": {"northeast": {"lat": 51.5248329802915, "lng": -0.191741019708498}, "southwest": {"lat": 51.5221350197085, "lng": -0.194438980291502}}}, "name": "Afflick Photos", "place_id": "ChIJ8ZQLdwYQdkgRz7T8NFUyaOM", "types": ["point_of_interest", "establishment"]}, "ChIJmcr-bgYQdkgRW5mpmaKL37A": {"geometry": {"location": {"lat": 51.5235907, "lng": -0.1930709}, "viewport": {"northeast": {"lat": 51.5249363302915, "lng": -0.191719269708498}, "southwest": {"lat": 51.5222383697085, "lng": -0.194417230291502}}}, "name": "ubitricity Charging Station", "place_id": "ChIJmcr-bgYQdkgRW5mpmaKL37A", "types": ["point_of_interest", "establishment"]}, "ChIJZawnmIARdkgRBlktUWOGsmU": {"geometry": {"location": {"lat": 51.5232995, "lng": -0.1941405}, "viewport": {"northeast": {"lat": 51.5245810302915, "lng": -0.192727469708498}, "southwest": {"lat": 51.5218830697085, "lng": -0.195425430291502}}}, "name": "Gents Grooming", "place_id": "ChIJZawnmIARdkgRBlktUWOGsmU", "types": ["hair_care", "health", "point_of_interest", "establishment"], "rating": 5, "user_ratings_total": 13}, "ChIJCajVegYQdkgRjk7WK-vm5KA": {"geometry": {"location": {"lat": 51.5232347, "lng": -0.1932686}, "viewport": {"northeast": {"lat": 51.5246563802915, "lng": -0.191987119708498}, "southwest": {"lat": 51.5219584197085, "lng": -0.194685080291502}}}, "name": "Nicolacorp", "place_id": "ChIJCajVegYQdkgRjk7WK-vm5KA", "types": ["point_of_interest", "establishment"]}, "ChIJq6pqbwYQdkgR9w6iGzSmO6M": {"geometry": {"location": {"lat": 51.5234738, "lng": -0.1929824}, "viewport": {"northeast": {"lat": 51.5248235802915, "lng": -0.191634219708498}, "southwest": {"lat": 51.5221256197085, "lng": -0.194332180291502}}}, "name": "HIWINE", "place_id": "ChIJq6pqbwYQdkgR9w6iGzSmO6M", "types": ["liquor_store", "food", "point_of_interest", "store", "establishment"]}, "ChIJWePp2wUQdkgRwb99pny0Q8Q": {"geometry": {"location": {"lat": 51.523637, "lng": -0.19443}, "viewport": {"northeast": {"lat": 51.52499993029149, "lng": -0.193099869708498}, "southwest": {"lat": 51.52230196970849, "lng": -0.195797830291502}}}, "name": "ubitricity Charging Station", "place_id": "ChIJWePp2wUQdkgRwb99pny0Q8Q", "types": ["point_of_interest", "establishment"]}, "ChIJO8sa1QUQdkgRvjdIi8KizVw": {"geometry": {"location": {"lat": 51.5230899, "lng": -0.1939239}, "viewport": {"northeast": {"lat": 51.5244799302915, "lng": -0.192607919708498}, "southwest": {"lat": 51.5217819697085, "lng": -0.195305880291502}}}, "name": "Rasheed Supermarket", "place_id": "ChIJO8sa1QUQdkgRvjdIi8KizVw", "types": ["supermarket", "grocery_or_supermarket", "food", "point_of_interest", "store", "establishment"], "rating": 4.5, "user_ratings_total": 15}, "ChIJO1lO2gUQdkgRGr0roWgyjOw": {"geometry": {"location": {"lat": 51.5235263, "lng": -0.1944908}, "viewport": {"northeast": {"lat": 51.5249041302915, "lng": -0.1931956697084979}, "southwest": {"lat": 51.5222061697085, "lng": -0.195893630291502}}}, "name": "Moreno Wines", "place_id": "ChIJO1lO2gUQdkgRGr0roWgyjOw", "types": ["point_of_interest", "establishment"]}, "ChIJWQABwBYRdkgRJ-QZREmS8EA": {"geometry": {"location": {"lat": 51.5235263, "lng": -0.1944908}, "viewport": {"northeast": {"lat": 51.5249041302915, "lng": -0.1931956697084979}, "southwest": {"lat": 51.5222061697085, "lng": -0.195893630291502}}}, "name": "Flora Fine Wines", "place_id": "ChIJWQABwBYRdkgRJ-QZREmS8EA", "types": ["bar", "food", "point_of_interest", "establishment"], "rating": 4.9, "user_ratings_total": 21}, "ChIJ5Z1Ut1ARdkgRXNfiP7wQuG4": {"geometry": {"location": {"lat": 51.52408440000001, "lng": -0.1939182}, "viewport": {"northeast": {"lat": 51.52543338029152, "lng": -0.192569219708498}, "southwest": {"lat": 51.52273541970852, "lng": -0.195267180291502}}}, "name": "Progether", "place_id": "ChIJ5Z1Ut1ARdkgRXNfiP7wQuG4", "types": ["general_contractor", "point_of_interest", "establishment"], "rating": 5, "user_ratings_total": 1}, "ChIJtffAgwYQdkgRJ1k7fmNIRmI": {"geometry": {"location": {"lat": 51.52233075696287, "lng": -0.1937197815458039}, "viewport": {"northeast": {"lat": 51.5236786802915, "lng": -0.192373719708498}, "southwest": {"lat": 51.5209807197085, "lng": -0.195071680291502}}}, "name": "332-302 Harrow Rd", "place_id": "ChIJtffAgwYQdkgRJ1k7fmNIRmI", "types": ["route"]}, "ChIJcyrIgAYQdkgRF7z9muZydWE": {"geometry": {"location": {"lat": 51.5226853, "lng": -0.1936334}, "viewport": {"northeast": {"lat": 51.5240191802915, "lng": -0.192271069708498}, "southwest": {"lat": 51.5213212197085, "lng": -0.194969030291502}}}, "name": "John Spary Associates (JSA)", "place_id": "ChIJcyrIgAYQdkgRF7z9muZydWE", "types": ["point_of_interest", "establishment"]}, "ChIJ8z6BgwYQdkgR3Fd3tYG7lVw": {"geometry": {"location": {"lat": 51.52229639999999, "lng": -0.193504}, "viewport": {"northeast": {"lat": 51.52362123029149, "lng": -0.192227069708498}, "southwest": {"lat": 51.52092326970849, "lng": -0.194925030291502}}}, "name": "My English Class Online", "place_id": "ChIJ8z6BgwYQdkgR3Fd3tYG7lVw", "types": ["point_of_interest", "establishment"]}, "ChIJwyKs9Xin2EcRfrxRqBtMgU4": {"geometry": {"location": {"lat": 51.5222476, "lng": -0.1935072}, "viewport": {"northeast": {"lat": 51.5235783302915, "lng": -0.192212669708498}, "southwest": {"lat": 51.5208803697085, "lng": -0.194910630291502}}}, "name": "City Pumps Ltd", "place_id": "ChIJwyKs9Xin2EcRfrxRqBtMgU4", "types": ["point_of_interest", "establishment"]}, "ChIJt56kfQYQdkgRSXSDfCuqeLA": {"geometry": {"location": {"lat": 51.5228843, "lng": -0.1934984}, "viewport": {"northeast": {"lat": 51.5242240802915, "lng": -0.192174519708498}, "southwest": {"lat": 51.5215261197085, "lng": -0.1948724802915021}}}, "name": "Re.Sustain Ltd", "place_id": "ChIJt56kfQYQdkgRSXSDfCuqeLA", "types": ["point_of_interest", "establishment"]}, "ChIJmx1EN7YcdkgRo-gMljuLoeo": {"geometry": {"location": {"lat": 51.5228843, "lng": -0.1934984}, "viewport": {"northeast": {"lat": 51.5242240802915, "lng": -0.192174519708498}, "southwest": {"lat": 51.5215261197085, "lng": -0.1948724802915021}}}, "name": "Oh Baby London", "place_id": "ChIJmx1EN7YcdkgRo-gMljuLoeo", "types": ["point_of_interest", "clothing_store", "store", "establishment"], "rating": 5, "user_ratings_total": 1}, "ChIJH-06fAYQdkgR3sqQd2WpmYA": {"geometry": {"location": {"lat": 51.5229757, "lng": -0.1935818}, "viewport": {"northeast": {"lat": 51.52431458029149, "lng": -0.192260319708498}, "southwest": {"lat": 51.52161661970849, "lng": -0.194958280291502}}}, "name": "Ocean to Ocean Property Management", "place_id": "ChIJH-06fAYQdkgR3sqQd2WpmYA", "types": ["real_estate_agency", "point_of_interest", "establishment"]}, "ChIJ8zWPgAYQdkgRqxhoZWpSwiU": {"geometry": {"location": {"lat": 51.52288439999999, "lng": -0.194147}, "viewport": {"northeast": {"lat": 51.52418783029149, "lng": -0.192861969708498}, "southwest": {"lat": 51.52148986970849, "lng": -0.195559930291502}}}, "name": "Betfred", "place_id": "ChIJ8zWPgAYQdkgRqxhoZWpSwiU", "types": ["point_of_interest", "establishment"], "rating": 3, "user_ratings_total": 1}, "ChIJ-zWPgAYQdkgRLXCBAKYEMU0": {"geometry": {"location": {"lat": 51.5226948, "lng": -0.1938649}, "viewport": {"northeast": {"lat": 51.52400988029151, "lng": -0.192588769708498}, "southwest": {"lat": 51.52131191970851, "lng": -0.195286730291502}}}, "name": "Bento by Gourmet Oriental", "place_id": "ChIJ-zWPgAYQdkgRLXCBAKYEMU0", "types": ["meal_takeaway", "restaurant", "food", "point_of_interest", "establishment"], "rating": 3.6, "user_ratings_total": 75}, "ChIJMSplRbEadkgRxKsQQblbnq8": {"geometry": {"location": {"lat": 51.5224242, "lng": -0.1935708}, "viewport": {"northeast": {"lat": 51.5237432802915, "lng": -0.192310919708498}, "southwest": {"lat": 51.52104531970851, "lng": -0.195008880291502}}}, "name": "Chicken Valley", "place_id": "ChIJMSplRbEadkgRxKsQQblbnq8", "types": ["meal_takeaway", "restaurant", "food", "point_of_interest", "establishment"], "rating": 3.6, "user_ratings_total": 69}, "ChIJcyrIgAYQdkgR76n9tRbMndg": {"geometry": {"location": {"lat": 51.52276010000001, "lng": -0.193648}, "viewport": {"northeast": {"lat": 51.5240570802915, "lng": -0.192253119708498}, "southwest": {"lat": 51.5213591197085, "lng": -0.194951080291502}}}, "name": "Mad Cow Films", "place_id": "ChIJcyrIgAYQdkgR76n9tRbMndg", "types": ["point_of_interest", "establishment"], "rating": 5, "user_ratings_total": 1}, "ChIJ-zWPgAYQdkgRKbK3PowmTpg": {"geometry": {"location": {"lat": 51.522381, "lng": -0.193596}, "viewport": {"northeast": {"lat": 51.5237082302915, "lng": -0.1923118197084979}, "southwest": {"lat": 51.5210102697085, "lng": -0.195009780291502}}}, "name": "Blue Ginger", "place_id": "ChIJ-zWPgAYQdkgRKbK3PowmTpg", "types": ["meal_takeaway", "restaurant", "food", "point_of_interest", "establishment"], "rating": 3.4, "user_ratings_total": 84}, "ChIJp2w6gQYQdkgRnU6uECQt_Oc": {"geometry": {"location": {"lat": 51.5225128, "lng": -0.1936703}, "viewport": {"northeast": {"lat": 51.5239018302915, "lng": -0.192356669708498}, "southwest": {"lat": 51.52120386970851, "lng": -0.195054630291502}}}, "name": "Sara Foods", "place_id": "ChIJp2w6gQYQdkgRnU6uECQt_Oc", "types": ["restaurant", "food", "point_of_interest", "establishment"]}, "ChIJ05lFgQYQdkgR4XUcEFaSHtA": {"geometry": {"location": {"lat": 51.5224857, "lng": -0.1936173}, "viewport": {"northeast": {"lat": 51.5237998802915, "lng": -0.192357569708498}, "southwest": {"lat": 51.5211019197085, "lng": -0.195055530291502}}}, "name": "Best Buy Supermarket", "place_id": "ChIJ05lFgQYQdkgR4XUcEFaSHtA", "types": ["meal_takeaway", "restaurant", "food", "point_of_interest", "establishment"], "rating": 3.3, "user_ratings_total": 3}, "ChIJXWlCzCQRdkgRA7shkRQBwMY": {"geometry": {"location": {"lat": 51.5224807, "lng": -0.193634}, "viewport": {"northeast": {"lat": 51.52379793029149, "lng": -0.192366469708498}, "southwest": {"lat": 51.5210999697085, "lng": -0.195064430291502}}}, "name": "UPS Access Point", "place_id": "ChIJXWlCzCQRdkgRA7shkRQBwMY", "types": ["point_of_interest", "establishment"]}, "ChIJoVGuHbIRdkgRsxehsUON4aw": {"geometry": {"location": {"lat": 51.5225167, "lng": -0.1936923}, "viewport": {"northeast": {"lat": 51.5238404802915, "lng": -0.1924195697084979}, "southwest": {"lat": 51.5211425197085, "lng": -0.195117530291502}}}, "name": "Tannourine Lebanese Restaurant", "place_id": "ChIJoVGuHbIRdkgRsxehsUON4aw", "types": ["restaurant", "food", "point_of_interest", "establishment"], "rating": 4.5, "user_ratings_total": 47}, "ChIJgak6C_URdkgRkTwnCeXCZQY": {"geometry": {"location": {"lat": 51.5225287, "lng": -0.1936908}, "viewport": {"northeast": {"lat": 51.5239089302915, "lng": -0.192369319708498}, "southwest": {"lat": 51.5212109697085, "lng": -0.195067280291502}}}, "name": "School", "place_id": "ChIJgak6C_URdkgRkTwnCeXCZQY", "types": ["school", "point_of_interest", "establishment"]}, "ChIJY0JBLxwRdkgRGVWVuUrtvEg": {"geometry": {"location": {"lat": 51.522544, "lng": -0.193648}, "viewport": {"northeast": {"lat": 51.52385908029151, "lng": -0.192401619708498}, "southwest": {"lat": 51.52116111970851, "lng": -0.195099580291502}}}, "name": "\u0645\u0637\u0639\u0645 \u062a\u0646\u0648\u0631\u064a\u0646", "place_id": "ChIJY0JBLxwRdkgRGVWVuUrtvEg", "types": ["restaurant", "food", "point_of_interest", "establishment"], "rating": 4.7, "user_ratings_total": 3}, "ChIJGRDmxLURdkgReIs_F5qpdB0": {"geometry": {"location": {"lat": 51.5224242, "lng": -0.1935708}, "viewport": {"northeast": {"lat": 51.5237432802915, "lng": -0.192310919708498}, "southwest": {"lat": 51.52104531970851, "lng": -0.195008880291502}}}, "name": "Chicken valley harrow road", "place_id": "ChIJGRDmxLURdkgReIs_F5qpdB0", "types": ["restaurant", "food", "point_of_interest", "establishment"], "rating": 3, "user_ratings_total": 2}, "ChIJV8F4M7sRdkgRE6MWjN_FeEg": {"geometry": {"location": {"lat": 51.52238319999999, "lng": -0.1935476}, "viewport": {"northeast": {"lat": 51.52370388029149, "lng": -0.192282919708498}, "southwest": {"lat": 51.5210059197085, "lng": -0.194980880291502}}}, "name": "Rapid Skip Hire Maida Hill", "place_id": "ChIJV8F4M7sRdkgRE6MWjN_FeEg", "types": ["point_of_interest", "establishment"]}, "ChIJPeoFhwYQdkgRYw6F6bKLZK8": {"geometry": {"location": {"lat": 51.5226058, "lng": -0.1934641}, "viewport": {"northeast": {"lat": 51.52398618029149, "lng": -0.192142819708498}, "southwest": {"lat": 51.5212882197085, "lng": -0.194840780291502}}}, "name": "Westway Lodge", "place_id": "ChIJPeoFhwYQdkgRYw6F6bKLZK8", "types": ["point_of_interest", "establishment"], "rating": 4, "user_ratings_total": 2}, "ChIJffTDdbkRdkgRk8qPJB-JRFM": {"geometry": {"location": {"lat": 51.5226613, "lng": -0.1937935}, "viewport": {"northeast": {"lat": 51.52397553029149, "lng": -0.192527369708498}, "southwest": {"lat": 51.5212775697085, "lng": -0.195225330291502}}}, "name": "Universal IT Services", "place_id": "ChIJffTDdbkRdkgRk8qPJB-JRFM", "types": ["point_of_interest", "establishment"]}, "ChIJvbY93toRdkgRa_AXKuCuSMc": {"geometry": {"location": {"lat": 51.5226613, "lng": -0.1937936}, "viewport": {"northeast": {"lat": 51.52397553029149, "lng": -0.192527419708498}, "southwest": {"lat": 51.5212775697085, "lng": -0.195225380291502}}}, "name": "Velvet Wax", "place_id": "ChIJvbY93toRdkgRa_AXKuCuSMc", "types": ["beauty_salon", "hair_care", "point_of_interest", "establishment"], "rating": 4.7, "user_ratings_total": 28}, "ChIJ5Q5rgAYQdkgRWN58Qjrl9-o": {"geometry": {"location": {"lat": 51.522657, "lng": -0.1938051}, "viewport": {"northeast": {"lat": 51.5239733802915, "lng": -0.192533169708498}, "southwest": {"lat": 51.5212754197085, "lng": -0.195231130291502}}}, "name": "Kranepeg Ltd", "place_id": "ChIJ5Q5rgAYQdkgRWN58Qjrl9-o", "types": ["finance", "point_of_interest", "establishment"]}, "ChIJ56ZYgAYQdkgRCM7XgjbhQG8": {"geometry": {"location": {"lat": 51.522657, "lng": -0.1938051}, "viewport": {"northeast": {"lat": 51.5239733802915, "lng": -0.192533169708498}, "southwest": {"lat": 51.5212754197085, "lng": -0.195231130291502}}}, "name": "Regal", "place_id": "ChIJ56ZYgAYQdkgRCM7XgjbhQG8", "types": ["point_of_interest", "establishment"]}, "ChIJO7tshAYQdkgRmuokeZMGFPQ": {"geometry": {"location": {"lat": 51.52231949999999, "lng": -0.1935527}, "viewport": {"northeast": {"lat": 51.5236480302915, "lng": -0.192264669708498}, "southwest": {"lat": 51.5209500697085, "lng": -0.194962630291502}}}, "name": "Cafe Limo", "place_id": "ChIJO7tshAYQdkgRmuokeZMGFPQ", "types": ["cafe", "food", "point_of_interest", "establishment"]}, "ChIJ__9ahAYQdkgRh8jl65YNGzk": {"geometry": {"location": {"lat": 51.5222717, "lng": -0.1934917}, "viewport": {"northeast": {"lat": 51.52362068029149, "lng": -0.192142719708498}, "southwest": {"lat": 51.52092271970849, "lng": -0.194840680291502}}}, "name": "JACK BENNETT", "place_id": "ChIJ__9ahAYQdkgRh8jl65YNGzk", "types": ["point_of_interest", "establishment"]}, "ChIJ__9ahAYQdkgRtLZdfP1ndec": {"geometry": {"location": {"lat": 51.5222717, "lng": -0.1934917}, "viewport": {"northeast": {"lat": 51.5235976802915, "lng": -0.192211269708498}, "southwest": {"lat": 51.5208997197085, "lng": -0.194909230291502}}}, "name": "TOM CROOKE", "place_id": "ChIJ__9ahAYQdkgRtLZdfP1ndec", "types": ["point_of_interest", "establishment"]}, "ChIJxcgOgAYQdkgRf1GZZzT2PLk": {"geometry": {"location": {"lat": 51.5227128, "lng": -0.1939441}, "viewport": {"northeast": {"lat": 51.5240519802915, "lng": -0.1926619197084979}, "southwest": {"lat": 51.5213540197085, "lng": -0.195359880291502}}}, "name": "Sumer Health Ltd", "place_id": "ChIJxcgOgAYQdkgRf1GZZzT2PLk", "types": ["pharmacy", "health", "point_of_interest", "store", "establishment"], "rating": 3.9, "user_ratings_total": 11}, "ChIJR6Jh1QUQdkgR5IG6SKO2B0g": {"geometry": {"location": {"lat": 51.522766, "lng": -0.194099}, "viewport": {"northeast": {"lat": 51.5241005802915, "lng": -0.192775369708498}, "southwest": {"lat": 51.5214026197085, "lng": -0.195473330291502}}}, "name": "Sutherland Avenue Westbourne Green (Stop RA)", "place_id": "ChIJR6Jh1QUQdkgR5IG6SKO2B0g", "types": ["transit_station", "point_of_interest", "establishment"], "rating": 5, "user_ratings_total": 1}, "ChIJjVw3-PERdkgRn7JzsXx2gJ8": {"geometry": {"location": {"lat": 51.52281359999999, "lng": -0.1940242}, "viewport": {"northeast": {"lat": 51.52410983029149, "lng": -0.1927265697084979}, "southwest": {"lat": 51.52141186970849, "lng": -0.195424530291502}}}, "name": "Vale cafe", "place_id": "ChIJjVw3-PERdkgRn7JzsXx2gJ8", "types": ["cafe", "food", "point_of_interest", "establishment"], "rating": 4.5, "user_ratings_total": 26}, "ChIJTc-QfgYQdkgRIhZoBSud5C0": {"geometry": {"location": {"lat": 51.52292449999999, "lng": -0.1935419}, "viewport": {"northeast": {"lat": 51.52424188029149, "lng": -0.192172169708498}, "southwest": {"lat": 51.52154391970849, "lng": -0.194870130291502}}}, "name": "Mantis World", "place_id": "ChIJTc-QfgYQdkgRIhZoBSud5C0", "types": ["point_of_interest", "establishment"], "rating": 4.7, "user_ratings_total": 3}, "ChIJAQAAAAUQdkgRXaseyP-IHbk": {"geometry": {"location": {"lat": 51.5228529, "lng": -0.1940913}, "viewport": {"northeast": {"lat": 51.5241479802915, "lng": -0.192787319708498}, "southwest": {"lat": 51.5214500197085, "lng": -0.195485280291502}}}, "name": "Smart Beauty Salon", "place_id": "ChIJAQAAAAUQdkgRXaseyP-IHbk", "types": ["hair_care", "point_of_interest", "establishment"], "rating": 4.4, "user_ratings_total": 52}, "ChIJc-_CRgQQdkgR0Vm4zNFNnJk": {"geometry": {"location": {"lat": 51.522583, "lng": -0.1943985}, "viewport": {"northeast": {"lat": 51.5237710302915, "lng": -0.1931592697084979}, "southwest": {"lat": 51.52107306970851, "lng": -0.195857230291502}}}, "name": "Carlton Gate Marketing Co Ltd", "place_id": "ChIJc-_CRgQQdkgR0Vm4zNFNnJk", "types": ["real_estate_agency", "point_of_interest", "establishment"], "rating": 4.1, "user_ratings_total": 28}, "ChIJ6_Dp1AUQdkgRAyeSsg7vb1M": {"geometry": {"location": {"lat": 51.5228175, "lng": -0.1942415}, "viewport": {"northeast": {"lat": 51.52416618029149, "lng": -0.192892919708498}, "southwest": {"lat": 51.5214682197085, "lng": -0.195590880291502}}}, "name": "Sutherland Avenue Harrow Rd", "place_id": "ChIJ6_Dp1AUQdkgRAyeSsg7vb1M", "types": ["transit_station", "point_of_interest", "establishment"]}, "ChIJl5b51AUQdkgRRz6u8tF1L-o": {"geometry": {"location": {"lat": 51.522885, "lng": -0.1942076}, "viewport": {"northeast": {"lat": 51.5242058302915, "lng": -0.192917819708498}, "southwest": {"lat": 51.5215078697085, "lng": -0.195615780291502}}}, "name": "Asian Muslim Cultural Centre", "place_id": "ChIJl5b51AUQdkgRRz6u8tF1L-o", "types": ["mosque", "place_of_worship", "point_of_interest", "establishment"], "rating": 4.8, "user_ratings_total": 49}, "ChIJZ-MBfwYQdkgRADfuxGiq5lw": {"geometry": {"location": {"lat": 51.5229064, "lng": -0.1942068}, "viewport": {"northeast": {"lat": 51.5242128302915, "lng": -0.192917569708498}, "southwest": {"lat": 51.5215148697085, "lng": -0.195615530291502}}}, "name": "A I B Fashion", "place_id": "ChIJZ-MBfwYQdkgRADfuxGiq5lw", "types": ["clothing_store", "point_of_interest", "store", "establishment"]}, "ChIJN2sulwYQdkgRCDe3lHFGc-s": {"geometry": {"location": {"lat": 51.52175249364704, "lng": -0.1931283370804187}, "viewport": {"northeast": {"lat": 51.5231021302915, "lng": -0.191778119708498}, "southwest": {"lat": 51.52040416970851, "lng": -0.194476080291502}}}, "name": "Harrow Road", "place_id": "ChIJN2sulwYQdkgRCDe3lHFGc-s", "types": ["route"]}, "ChIJQeiZHQQQdkgR6Oq0LTL7z2c": {"geometry": {"location": {"lat": 51.521124, "lng": -0.194064}, "viewport": {"northeast": {"lat": 51.5224837302915, "lng": -0.192624919708498}, "southwest": {"lat": 51.5197857697085, "lng": -0.195322880291502}}}, "name": "Harbour Club Notting Hill", "place_id": "ChIJQeiZHQQQdkgR6Oq0LTL7z2c", "types": ["gym", "spa", "school", "health", "point_of_interest", "establishment"], "rating": 4.1, "user_ratings_total": 72}, "ChIJtRvsuwYQdkgR6fls9r5wPLs": {"geometry": {"location": {"lat": 51.52137949999999, "lng": -0.192905}, "viewport": {"northeast": {"lat": 51.52277293029149, "lng": -0.191470919708498}, "southwest": {"lat": 51.52007496970849, "lng": -0.194168880291502}}}, "name": "Westminster Academy", "place_id": "ChIJtRvsuwYQdkgR6fls9r5wPLs", "types": ["school", "point_of_interest", "establishment"], "rating": 3.3, "user_ratings_total": 75}, "ChIJm9U5nwYQdkgRdvcl5lYPv9M": {"geometry": {"location": {"lat": 51.5215123, "lng": -0.1936593}, "viewport": {"northeast": {"lat": 51.5227802802915, "lng": -0.1923933697084979}, "southwest": {"lat": 51.5200823197085, "lng": -0.195091330291502}}}, "name": "MH CONTRACTORS LTD", "place_id": "ChIJm9U5nwYQdkgRdvcl5lYPv9M", "types": ["point_of_interest", "establishment"]}, "ChIJfyYfjEURdkgR6C3YBIP189Y": {"geometry": {"location": {"lat": 51.5215123, "lng": -0.1936593}, "viewport": {"northeast": {"lat": 51.5228619302915, "lng": -0.1921814697084979}, "southwest": {"lat": 51.5201639697085, "lng": -0.194879430291502}}}, "name": "Vakantiehuis Fijn appartement in Londen vlak bij het centrum", "place_id": "ChIJfyYfjEURdkgR6C3YBIP189Y", "types": ["real_estate_agency", "lodging", "travel_agency", "point_of_interest", "establishment"]}, "ChIJ0d5unZQRdkgRwNcQUEPVEko": {"geometry": {"location": {"lat": 51.5215123, "lng": -0.1936593}, "viewport": {"northeast": {"lat": 51.5227802802915, "lng": -0.1923933697084979}, "southwest": {"lat": 51.5200823197085, "lng": -0.195091330291502}}}, "name": "Stronics", "place_id": "ChIJ0d5unZQRdkgRwNcQUEPVEko", "types": ["electronics_store", "point_of_interest", "clothing_store", "store", "establishment"], "rating": 3.8, "user_ratings_total": 8}, "ChIJaQ84N5ERdkgRS5QaQ0ACGTY": {"geometry": {"location": {"lat": 51.5215123, "lng": -0.1936593}, "viewport": {"northeast": {"lat": 51.5227802802915, "lng": -0.1923933697084979}, "southwest": {"lat": 51.5200823197085, "lng": -0.195091330291502}}}, "name": "Fam Vegan", "place_id": "ChIJaQ84N5ERdkgRS5QaQ0ACGTY", "types": ["meal_delivery", "restaurant", "food", "point_of_interest", "establishment"], "rating": 5, "user_ratings_total": 1}, "ChIJSy3nwjQRdkgRtY3ARWMyCHg": {"geometry": {"location": {"lat": 51.5211182, "lng": -0.192935}, "viewport": {"northeast": {"lat": 51.5225687302915, "lng": -0.191818019708498}, "southwest": {"lat": 51.5198707697085, "lng": -0.194515980291502}}}, "name": "Leap Parkour Park", "place_id": "ChIJSy3nwjQRdkgRtY3ARWMyCHg", "types": ["gym", "health", "point_of_interest", "establishment"], "rating": 4, "user_ratings_total": 2}, "ChIJk5L-mAYQdkgRqWgYuKTJ-DY": {"geometry": {"location": {"lat": 51.5215428, "lng": -0.1933832}, "viewport": {"northeast": {"lat": 51.52291967810449, "lng": -0.1920981201469167}, "southwest": {"lat": 51.52022171752149, "lng": -0.1947960807299207}}}, "name": "Parking lot", "place_id": "ChIJk5L-mAYQdkgRqWgYuKTJ-DY", "types": ["parking", "premise", "point_of_interest", "establishment"]}, "ChIJSzq6HwQQdkgRL-Ob0VeHa-U": {"geometry": {"location": {"lat": 51.5212952, "lng": -0.1941177}, "viewport": {"northeast": {"lat": 51.52264970887307, "lng": -0.1928602084037132}, "southwest": {"lat": 51.51995174829007, "lng": -0.1955581689867172}}}, "name": "Parking lot", "place_id": "ChIJSzq6HwQQdkgRL-Ob0VeHa-U", "types": ["parking", "premise", "point_of_interest", "establishment"]}, "ChIJgQhBtgUQdkgRWr13uSa9l8c": {"geometry": {"location": {"lat": 51.52315044167744, "lng": -0.1955598512237988}, "viewport": {"northeast": {"lat": 51.5244998802915, "lng": -0.194210719708498}, "southwest": {"lat": 51.5218019197085, "lng": -0.196908680291502}}}, "name": "374-362 Harrow Rd", "place_id": "ChIJgQhBtgUQdkgRWr13uSa9l8c", "types": ["route"]}, "ChIJW0VfuwUQdkgR_Ew1YnF6-8Q": {"geometry": {"location": {"lat": 51.5237197, "lng": -0.196117}, "viewport": {"northeast": {"lat": 51.52503223029149, "lng": -0.1947812697084979}, "southwest": {"lat": 51.5223342697085, "lng": -0.197479230291502}}}, "name": "Shannon Traditional Upholstery", "place_id": "ChIJW0VfuwUQdkgR_Ew1YnF6-8Q", "types": ["furniture_store", "home_goods_store", "point_of_interest", "store", "establishment"]}, "ChIJG4R2pQUQdkgR4MGFypDd_XQ": {"geometry": {"location": {"lat": 51.52331100000001, "lng": -0.1957479999999999}, "viewport": {"northeast": {"lat": 51.52459243029151, "lng": -0.1944124697084979}, "southwest": {"lat": 51.52189446970851, "lng": -0.197110430291502}}}, "name": "Costa's hairdressing", "place_id": "ChIJG4R2pQUQdkgR4MGFypDd_XQ", "types": ["hair_care", "health", "point_of_interest", "establishment"], "rating": 3.8, "user_ratings_total": 90}, "ChIJG4R2pQUQdkgRttBf1px0_DU": {"geometry": {"location": {"lat": 51.5232803, "lng": -0.1958389}, "viewport": {"northeast": {"lat": 51.5245819302915, "lng": -0.1944938697084979}, "southwest": {"lat": 51.5218839697085, "lng": -0.197191830291502}}}, "name": "Foundation Estates", "place_id": "ChIJG4R2pQUQdkgRttBf1px0_DU", "types": ["real_estate_agency", "point_of_interest", "establishment"]}, "ChIJW0VfuwUQdkgRUsoL8x1g3oY": {"geometry": {"location": {"lat": 51.52367659999999, "lng": -0.1958191}, "viewport": {"northeast": {"lat": 51.5249895802915, "lng": -0.194484319708498}, "southwest": {"lat": 51.5222916197085, "lng": -0.197182280291502}}}, "name": "Olympics News", "place_id": "ChIJW0VfuwUQdkgRUsoL8x1g3oY", "types": ["point_of_interest", "store", "establishment"]}, "ChIJYT7G4OIRdkgRnkiU3F55Ihc": {"geometry": {"location": {"lat": 51.52343609999999, "lng": -0.1952685}, "viewport": {"northeast": {"lat": 51.52482283029149, "lng": -0.193904619708498}, "southwest": {"lat": 51.5221248697085, "lng": -0.196602580291502}}}, "name": "M C Stone Ltd", "place_id": "ChIJYT7G4OIRdkgRnkiU3F55Ihc", "types": ["furniture_store", "home_goods_store", "point_of_interest", "store", "establishment"], "rating": 3.7, "user_ratings_total": 7}, "ChIJOdhAuQUQdkgR-v3M5GQLWHQ": {"geometry": {"location": {"lat": 51.5236512, "lng": -0.1957557999999999}, "viewport": {"northeast": {"lat": 51.5249736802915, "lng": -0.194417319708498}, "southwest": {"lat": 51.5222757197085, "lng": -0.197115280291502}}}, "name": "Sulgrave Estates", "place_id": "ChIJOdhAuQUQdkgR-v3M5GQLWHQ", "types": ["point_of_interest", "establishment"]}, "ChIJSUSmxQUQdkgRfKMgteyB_Bk": {"geometry": {"location": {"lat": 51.52350980000001, "lng": -0.1949288}, "viewport": {"northeast": {"lat": 51.52482183029149, "lng": -0.193503019708498}, "southwest": {"lat": 51.5221238697085, "lng": -0.196200980291502}}}, "name": "Venice Gondola", "place_id": "ChIJSUSmxQUQdkgRfKMgteyB_Bk", "types": ["travel_agency", "point_of_interest", "establishment"]}, "ChIJl7j6TagadkgROTgku0fS5jw": {"geometry": {"location": {"lat": 51.5235211, "lng": -0.195809}, "viewport": {"northeast": {"lat": 51.5249066802915, "lng": -0.194445569708498}, "southwest": {"lat": 51.5222087197085, "lng": -0.197143530291502}}}, "name": "MADEINBRITALY", "place_id": "ChIJl7j6TagadkgROTgku0fS5jw", "types": ["art_gallery", "point_of_interest", "establishment"], "rating": 5, "user_ratings_total": 2}, "ChIJUZnFtwUQdkgRb18a6xKNRFg": {"geometry": {"location": {"lat": 51.52328079999999, "lng": -0.1954745}, "viewport": {"northeast": {"lat": 51.52456198029149, "lng": -0.194146269708498}, "southwest": {"lat": 51.5218640197085, "lng": -0.196844230291502}}}, "name": "Sams palace", "place_id": "ChIJUZnFtwUQdkgRb18a6xKNRFg", "types": ["cafe", "food", "point_of_interest", "store", "establishment"], "rating": 4.9, "user_ratings_total": 15}, "ChIJYdlRMgUQdkgRUNvgiQQi48c": {"geometry": {"location": {"lat": 51.52366669999999, "lng": -0.1958454}, "viewport": {"northeast": {"lat": 51.52498833029151, "lng": -0.194507069708498}, "southwest": {"lat": 51.52229036970851, "lng": -0.197205030291502}}}, "name": "Honor Riley", "place_id": "ChIJYdlRMgUQdkgRUNvgiQQi48c", "types": ["general_contractor", "point_of_interest", "establishment"]}, "ChIJP9nlrwUQdkgR1sx_OQh9cR4": {"geometry": {"location": {"lat": 51.5232386, "lng": -0.1955024}, "viewport": {"northeast": {"lat": 51.5245417802915, "lng": -0.194165719708498}, "southwest": {"lat": 51.5218438197085, "lng": -0.196863680291502}}}, "name": "Open Age", "place_id": "ChIJP9nlrwUQdkgR1sx_OQh9cR4", "types": ["point_of_interest", "establishment"], "rating": 4, "user_ratings_total": 2}, "ChIJd7r70QUQdkgRb2Q8jbskwEM": {"geometry": {"location": {"lat": 51.5231529, "lng": -0.1948728}, "viewport": {"northeast": {"lat": 51.5244422802915, "lng": -0.193526369708498}, "southwest": {"lat": 51.5217443197085, "lng": -0.196224330291502}}}, "name": "Papa John's Pizza", "place_id": "ChIJd7r70QUQdkgRb2Q8jbskwEM", "types": ["restaurant", "food", "point_of_interest", "establishment"], "rating": 3.8, "user_ratings_total": 147}, "ChIJtXqmVrAddkgRtw2du2oWVSA": {"geometry": {"location": {"lat": 51.5234642, "lng": -0.1945084}, "viewport": {"northeast": {"lat": 51.5248482302915, "lng": -0.193225819708498}, "southwest": {"lat": 51.5221502697085, "lng": -0.195923780291502}}}, "name": "High End Kitchen", "place_id": "ChIJtXqmVrAddkgRtw2du2oWVSA", "types": ["furniture_store", "home_goods_store", "general_contractor", "point_of_interest", "store", "establishment"], "rating": 5, "user_ratings_total": 3}, "ChIJv4HgPsoadkgR70t4VE2pOT0": {"geometry": {"location": {"lat": 51.52332209999999, "lng": -0.1961205}, "viewport": {"northeast": {"lat": 51.52461968029149, "lng": -0.194786019708498}, "southwest": {"lat": 51.52192171970849, "lng": -0.197483980291502}}}, "name": "Smart Specialists International", "place_id": "ChIJv4HgPsoadkgR70t4VE2pOT0", "types": ["point_of_interest", "establishment"]}, "ChIJ_XQBtwUQdkgRS8N2HTvXT4M": {"geometry": {"location": {"lat": 51.5232681, "lng": -0.1956895}, "viewport": {"northeast": {"lat": 51.5245656302915, "lng": -0.194325469708498}, "southwest": {"lat": 51.5218676697085, "lng": -0.197023430291502}}}, "name": "Pars Persian Cuisine", "place_id": "ChIJ_XQBtwUQdkgRS8N2HTvXT4M", "types": ["meal_delivery", "meal_takeaway", "restaurant", "food", "point_of_interest", "establishment"], "rating": 4.2, "user_ratings_total": 161}, "ChIJSUSmxQUQdkgR5d2ofnSvtTQ": {"geometry": {"location": {"lat": 51.52342520000001, "lng": -0.1951017}, "viewport": {"northeast": {"lat": 51.5247270302915, "lng": -0.193654719708498}, "southwest": {"lat": 51.52202906970851, "lng": -0.1963526802915021}}}, "name": "The Ravenous Pizza & Fish Bar", "place_id": "ChIJSUSmxQUQdkgR5d2ofnSvtTQ", "types": ["meal_takeaway", "restaurant", "food", "point_of_interest", "establishment"], "rating": 4.1, "user_ratings_total": 70}, "ChIJB2d9TNAZdkgR56ruvHkyzok": {"geometry": {"location": {"lat": 51.5236157, "lng": -0.1955194}, "viewport": {"northeast": {"lat": 51.52493758029149, "lng": -0.194181119708498}, "southwest": {"lat": 51.5222396197085, "lng": -0.196879080291502}}}, "name": "Deep Clean Carpet Cleaning", "place_id": "ChIJB2d9TNAZdkgR56ruvHkyzok", "types": ["laundry", "general_contractor", "point_of_interest", "establishment"], "rating": 4.8, "user_ratings_total": 128}, "ChIJofCvugUQdkgRgMhYN6Xgja0": {"geometry": {"location": {"lat": 51.5235184, "lng": -0.195631}, "viewport": {"northeast": {"lat": 51.5248673802915, "lng": -0.1942820197084979}, "southwest": {"lat": 51.5221694197085, "lng": -0.196979980291502}}}, "name": "Mews Garage", "place_id": "ChIJofCvugUQdkgRgMhYN6Xgja0", "types": ["car_repair", "point_of_interest", "establishment"], "rating": 4.9, "user_ratings_total": 18}, "ChIJi_R2dQYQdkgRrzGzFUDgrSE": {"geometry": {"location": {"lat": 51.523397, "lng": -0.194675}, "viewport": {"northeast": {"lat": 51.52476953029149, "lng": -0.193370669708498}, "southwest": {"lat": 51.52207156970849, "lng": -0.196068630291502}}}, "name": "Tsiakkos & Charcoal", "place_id": "ChIJi_R2dQYQdkgRrzGzFUDgrSE", "types": ["restaurant", "food", "point_of_interest", "establishment"], "rating": 4.6, "user_ratings_total": 269}, "ChIJ-7t4G98PdkgR2wmXhUS_Rks": {"geometry": {"location": {"lat": 51.5235821, "lng": -0.1950117}, "viewport": {"northeast": {"lat": 51.5248814302915, "lng": -0.1936823197084979}, "southwest": {"lat": 51.5221834697085, "lng": -0.196380280291502}}}, "name": "Ebony Steelband Trust", "place_id": "ChIJ-7t4G98PdkgR2wmXhUS_Rks", "types": ["point_of_interest", "establishment"], "rating": 5, "user_ratings_total": 3}, "ChIJedcIMMgRdkgRP4g_quCm18g": {"geometry": {"location": {"lat": 51.5235424, "lng": -0.1949962}, "viewport": {"northeast": {"lat": 51.52485943029149, "lng": -0.193660419708498}, "southwest": {"lat": 51.5221614697085, "lng": -0.196358380291502}}}, "name": "Perform Maida Vale", "place_id": "ChIJedcIMMgRdkgRP4g_quCm18g", "types": ["university", "point_of_interest", "establishment"]}, "ChIJjbZMxAUQdkgR_e68yifLJ3A": {"geometry": {"location": {"lat": 51.5235542, "lng": -0.1949799}, "viewport": {"northeast": {"lat": 51.5248645302915, "lng": -0.193646969708498}, "southwest": {"lat": 51.5221665697085, "lng": -0.196344930291502}}}, "name": "Rumshop Cultural Club", "place_id": "ChIJjbZMxAUQdkgR_e68yifLJ3A", "types": ["point_of_interest", "establishment"]}, "ChIJjbZMxAUQdkgRTtnybgZ2-wQ": {"geometry": {"location": {"lat": 51.5235542, "lng": -0.1949799}, "viewport": {"northeast": {"lat": 51.5248645302915, "lng": -0.193646969708498}, "southwest": {"lat": 51.5221665697085, "lng": -0.196344930291502}}}, "name": "THE IMPROV!SATION ACADEMY", "place_id": "ChIJjbZMxAUQdkgRTtnybgZ2-wQ", "types": ["point_of_interest", "establishment"]}, "ChIJn-b-eQUQdkgRJBJ3wiJgAY0": {"geometry": {"location": {"lat": 51.52340879999999, "lng": -0.1950758}, "viewport": {"northeast": {"lat": 51.52471758029149, "lng": -0.193643269708498}, "southwest": {"lat": 51.52201961970849, "lng": -0.196341230291502}}}, "name": "Shu Jun Healthcare", "place_id": "ChIJn-b-eQUQdkgRJBJ3wiJgAY0", "types": ["health", "point_of_interest", "establishment"], "rating": 4.2, "user_ratings_total": 20}, "ChIJAQA8uQUQdkgRlwhtJ36uDhk": {"geometry": {"location": {"lat": 51.52365409999999, "lng": -0.1957218}, "viewport": {"northeast": {"lat": 51.5249706802915, "lng": -0.194385519708498}, "southwest": {"lat": 51.5222727197085, "lng": -0.1970834802915021}}}, "name": "Wingrove Watts Block Management Ltd", "place_id": "ChIJAQA8uQUQdkgRlwhtJ36uDhk", "types": ["point_of_interest", "establishment"]}, "ChIJq6OOxQUQdkgRIjOZM04x-O8": {"geometry": {"location": {"lat": 51.5234134, "lng": -0.1949817}, "viewport": {"northeast": {"lat": 51.5247364802915, "lng": -0.193575669708498}, "southwest": {"lat": 51.5220385197085, "lng": -0.196273630291502}}}, "name": "Nicky Clarke", "place_id": "ChIJq6OOxQUQdkgRIjOZM04x-O8", "types": ["point_of_interest", "establishment"]}, "ChIJq6OOxQUQdkgRVSdgikAA71M": {"geometry": {"location": {"lat": 51.5234134, "lng": -0.1949817}, "viewport": {"northeast": {"lat": 51.5247364802915, "lng": -0.193575669708498}, "southwest": {"lat": 51.5220385197085, "lng": -0.196273630291502}}}, "name": "Andy's Barber", "place_id": "ChIJq6OOxQUQdkgRVSdgikAA71M", "types": ["hair_care", "health", "point_of_interest", "establishment"], "rating": 4.2, "user_ratings_total": 15}, "ChIJf7ajxQUQdkgRxl7dMOrbkLM": {"geometry": {"location": {"lat": 51.5237731, "lng": -0.1957111}, "viewport": {"northeast": {"lat": 51.52503283029149, "lng": -0.194397369708498}, "southwest": {"lat": 51.5223348697085, "lng": -0.197095330291502}}}, "name": "The Yaa Centre", "place_id": "ChIJf7ajxQUQdkgRxl7dMOrbkLM", "types": ["point_of_interest", "establishment"], "rating": 4.4, "user_ratings_total": 79}, "ChIJBwgMwQUQdkgRqJOkeCQ94us": {"geometry": {"location": {"lat": 51.52386019999999, "lng": -0.1952141}, "viewport": {"northeast": {"lat": 51.52525178029149, "lng": -0.193815519708498}, "southwest": {"lat": 51.52255381970849, "lng": -0.196513480291502}}}, "name": "Rexstone Ltd", "place_id": "ChIJBwgMwQUQdkgRqJOkeCQ94us", "types": ["point_of_interest", "establishment"]}, "ChIJSS0wtuARdkgRGNMvEyStFHY": {"geometry": {"location": {"lat": 51.523263, "lng": -0.1953957}, "viewport": {"northeast": {"lat": 51.5245482802915, "lng": -0.194066219708498}, "southwest": {"lat": 51.52185031970851, "lng": -0.196764180291502}}}, "name": "Westcolt Surveyors", "place_id": "ChIJSS0wtuARdkgRGNMvEyStFHY", "types": ["point_of_interest", "establishment"], "rating": 3.1, "user_ratings_total": 19}, "ChIJP1E3n-URdkgRIbHFyxhRWfM": {"geometry": {"location": {"lat": 51.523263, "lng": -0.1953957}, "viewport": {"northeast": {"lat": 51.5245482802915, "lng": -0.194066219708498}, "southwest": {"lat": 51.52185031970851, "lng": -0.196764180291502}}}, "name": "Ecorp International", "place_id": "ChIJP1E3n-URdkgRIbHFyxhRWfM", "types": ["real_estate_agency", "point_of_interest", "establishment"]}, "ChIJoY14ToIbdkgRBQlYTapxRmQ": {"geometry": {"location": {"lat": 51.5236847, "lng": -0.1958256}, "viewport": {"northeast": {"lat": 51.5249943302915, "lng": -0.194492169708498}, "southwest": {"lat": 51.5222963697085, "lng": -0.197190130291502}}}, "name": "Studio Faeger", "place_id": "ChIJoY14ToIbdkgRBQlYTapxRmQ", "types": ["home_goods_store", "general_contractor", "point_of_interest", "store", "establishment"]}, "ChIJG4R2pQUQdkgR1xaUwIX4Pko": {"geometry": {"location": {"lat": 51.5232768, "lng": -0.1955608}, "viewport": {"northeast": {"lat": 51.5245648802915, "lng": -0.194230469708498}, "southwest": {"lat": 51.5218669197085, "lng": -0.196928430291502}}}, "name": "Pizza kebab chicken Centre", "place_id": "ChIJG4R2pQUQdkgR1xaUwIX4Pko", "types": ["meal_delivery", "meal_takeaway", "restaurant", "food", "point_of_interest", "establishment"], "rating": 3.7, "user_ratings_total": 30}, "ChIJma0stgUQdkgRqoDnz_mYTRA": {"geometry": {"location": {"lat": 51.5232225, "lng": -0.1954912}, "viewport": {"northeast": {"lat": 51.52453278029149, "lng": -0.194154069708498}, "southwest": {"lat": 51.52183481970849, "lng": -0.196852030291502}}}, "name": "Joury Lounge", "place_id": "ChIJma0stgUQdkgRqoDnz_mYTRA", "types": ["point_of_interest", "establishment"]}, "ChIJw2XmjxoQdkgRarKUO8nzbPQ": {"geometry": {"location": {"lat": 51.52336420000001, "lng": -0.1948462}, "viewport": {"northeast": {"lat": 51.52470608029149, "lng": -0.1934814697084979}, "southwest": {"lat": 51.5220081197085, "lng": -0.196179430291502}}}, "name": "Katryan Property Services Ltd", "place_id": "ChIJw2XmjxoQdkgRarKUO8nzbPQ", "types": ["real_estate_agency", "point_of_interest", "establishment"], "rating": 3.3, "user_ratings_total": 4}, "ChIJRzyGzwUQdkgRl9HRaKo7OnY": {"geometry": {"location": {"lat": 51.5235777, "lng": -0.1959912}, "viewport": {"northeast": {"lat": 51.52494128029151, "lng": -0.1946369197084979}, "southwest": {"lat": 51.52224331970851, "lng": -0.197334880291502}}}, "name": "Rentalondon", "place_id": "ChIJRzyGzwUQdkgRl9HRaKo7OnY", "types": ["real_estate_agency", "point_of_interest", "establishment"], "rating": 4, "user_ratings_total": 1}, "ChIJx6j2DSARdkgR6b21b7TcsyE": {"geometry": {"location": {"lat": 51.5231933, "lng": -0.1949478}, "viewport": {"northeast": {"lat": 51.52447893029151, "lng": -0.193640919708498}, "southwest": {"lat": 51.52178096970851, "lng": -0.196338880291502}}}, "name": "Large Skip Hire", "place_id": "ChIJx6j2DSARdkgR6b21b7TcsyE", "types": ["point_of_interest", "establishment"]}, "ChIJ0Q3KoMURdkgRu5v8QIbkNYY": {"geometry": {"location": {"lat": 51.5233003, "lng": -0.1959624}, "viewport": {"northeast": {"lat": 51.5246000802915, "lng": -0.194560769708498}, "southwest": {"lat": 51.5219021197085, "lng": -0.197258730291502}}}, "name": "Creative Commerce", "place_id": "ChIJ0Q3KoMURdkgRu5v8QIbkNYY", "types": ["point_of_interest", "clothing_store", "store", "establishment"]}, "ChIJJXjlaqERdkgRTltWVnwg9fU": {"geometry": {"location": {"lat": 51.5234233, "lng": -0.196069}, "viewport": {"northeast": {"lat": 51.5246690802915, "lng": -0.194749219708498}, "southwest": {"lat": 51.5219711197085, "lng": -0.197447180291502}}}, "name": "The Enlighten Academy\u2122", "place_id": "ChIJJXjlaqERdkgRTltWVnwg9fU", "types": ["point_of_interest", "establishment"], "rating": 5, "user_ratings_total": 2}, "ChIJJ3jZSYoRdkgRjBzqJUNMs-c": {"geometry": {"location": {"lat": 51.5232982, "lng": -0.1959677}, "viewport": {"northeast": {"lat": 51.5245992802915, "lng": -0.194563019708498}, "southwest": {"lat": 51.5219013197085, "lng": -0.197260980291502}}}, "name": "Mashti", "place_id": "ChIJJ3jZSYoRdkgRjBzqJUNMs-c", "types": ["restaurant", "food", "point_of_interest", "establishment"], "rating": 5, "user_ratings_total": 3}, "ChIJy-LysAUQdkgRBbh1_xJ2CD4": {"geometry": {"location": {"lat": 51.52329690000001, "lng": -0.1959836}, "viewport": {"northeast": {"lat": 51.5245994302915, "lng": -0.194647719708498}, "southwest": {"lat": 51.5219014697085, "lng": -0.197345680291502}}}, "name": "Sufi Lounge", "place_id": "ChIJy-LysAUQdkgRBbh1_xJ2CD4", "types": ["point_of_interest", "establishment"]}, "ChIJezZBt8ARdkgRzMVWT0KBdv4": {"geometry": {"location": {"lat": 51.52346319999999, "lng": -0.1945898}, "viewport": {"northeast": {"lat": 51.52483498029149, "lng": -0.193284569708498}, "southwest": {"lat": 51.5221370197085, "lng": -0.195982530291502}}}, "name": "Dream Home", "place_id": "ChIJezZBt8ARdkgRzMVWT0KBdv4", "types": ["general_contractor", "point_of_interest", "establishment"]}, "ChIJayLQqWIRdkgRfx-dG74Q_m8": {"geometry": {"location": {"lat": 51.52339929999999, "lng": -0.1946041}, "viewport": {"northeast": {"lat": 51.52478668029149, "lng": -0.193326869708498}, "southwest": {"lat": 51.5220887197085, "lng": -0.196024830291502}}}, "name": "Paddington Glass", "place_id": "ChIJayLQqWIRdkgRfx-dG74Q_m8", "types": ["point_of_interest", "establishment"]}, "ChIJq0ob6gUQdkgRrrb3CqYEtig": {"geometry": {"location": {"lat": 51.52408639999999, "lng": -0.1951323}, "viewport": {"northeast": {"lat": 51.5253894302915, "lng": -0.193828919708498}, "southwest": {"lat": 51.5226914697085, "lng": -0.196526880291502}}}, "name": "Elmfield House", "place_id": "ChIJq0ob6gUQdkgRrrb3CqYEtig", "types": ["lodging", "point_of_interest", "establishment"], "rating": 4, "user_ratings_total": 2}, "ChIJS67dsgUQdkgR0mK7A2rhKAI": {"geometry": {"location": {"lat": 51.52273179754015, "lng": -0.1960667}, "viewport": {"northeast": {"lat": 51.5240807802915, "lng": -0.194718319708498}, "southwest": {"lat": 51.5213828197085, "lng": -0.197416280291502}}}, "name": "Elmfield Way", "place_id": "ChIJS67dsgUQdkgR0mK7A2rhKAI", "types": ["route"]}, "ChIJv5GLTAQQdkgRVl0-6cCARPI": {"geometry": {"location": {"lat": 51.5225806, "lng": -0.1959188}, "viewport": {"northeast": {"lat": 51.52391143029149, "lng": -0.194590319708498}, "southwest": {"lat": 51.5212134697085, "lng": -0.197288280291502}}}, "name": "VocalWorks London", "place_id": "ChIJv5GLTAQQdkgRVl0-6cCARPI", "types": ["electronics_store", "home_goods_store", "point_of_interest", "store", "establishment"]}, "ChIJD1LQLwQQdkgR2azx2Qx6bg4": {"geometry": {"location": {"lat": 51.522207, "lng": -0.194685}, "viewport": {"northeast": {"lat": 51.52354933029149, "lng": -0.193331519708498}, "southwest": {"lat": 51.5208513697085, "lng": -0.196029480291502}}}, "name": "Weddings By Bespoke", "place_id": "ChIJD1LQLwQQdkgR2azx2Qx6bg4", "types": ["point_of_interest", "establishment"], "rating": 5, "user_ratings_total": 12}, "ChIJS-gcLQQQdkgRA4vObb4O1AE": {"geometry": {"location": {"lat": 51.5226142, "lng": -0.1945561}, "viewport": {"northeast": {"lat": 51.5237866302915, "lng": -0.1932380697084979}, "southwest": {"lat": 51.5210886697085, "lng": -0.195936030291502}}}, "name": "Home of Dissertations - Trusted Dissertation Help & Essay Help Assignment Writing Service, PhD Proposal & Thesis Proofreading", "place_id": "ChIJS-gcLQQQdkgRA4vObb4O1AE", "types": ["point_of_interest", "establishment"], "rating": 4.8, "user_ratings_total": 30}, "ChIJTZZEtQUQdkgRXkfzLvAEB4Q": {"geometry": {"location": {"lat": 51.522792, "lng": -0.1954857}, "viewport": {"northeast": {"lat": 51.52414195437373, "lng": -0.1941659701892461}, "southwest": {"lat": 51.52144399379073, "lng": -0.1968639307722501}}}, "name": "Parking lot", "place_id": "ChIJTZZEtQUQdkgRXkfzLvAEB4Q", "types": ["parking", "premise", "point_of_interest", "establishment"]}, "ChIJWSxSEgQQdkgRmdYd1wpsd7U": {"geometry": {"location": {"lat": 51.52094150018569, "lng": -0.1951134001734747}, "viewport": {"northeast": {"lat": 51.5222904802915, "lng": -0.193764419708498}, "southwest": {"lat": 51.5195925197085, "lng": -0.196462380291502}}}, "name": "Alfred Road", "place_id": "ChIJWSxSEgQQdkgRmdYd1wpsd7U", "types": ["route"]}, "ChIJn0dmmBsQdkgRm6CGcMJgiwc": {"geometry": {"location": {"lat": 51.5210759, "lng": -0.1956546}, "viewport": {"northeast": {"lat": 51.5223918302915, "lng": -0.194301019708498}, "southwest": {"lat": 51.5196938697085, "lng": -0.1969989802915021}}}, "name": "Jimmy Turrell", "place_id": "ChIJn0dmmBsQdkgRm6CGcMJgiwc", "types": ["point_of_interest", "establishment"]}, "ChIJmXZsbQQQdkgRgQ96G9F8gA4": {"geometry": {"location": {"lat": 51.52117920000001, "lng": -0.1960644}, "viewport": {"northeast": {"lat": 51.52257018029151, "lng": -0.194628869708498}, "southwest": {"lat": 51.51987221970851, "lng": -0.197326830291502}}}, "name": "Youmeus Design Ltd", "place_id": "ChIJmXZsbQQQdkgRgQ96G9F8gA4", "types": ["point_of_interest", "establishment"]}, "ChIJZ0wt3ycQdkgRlURQs4qGFOM": {"geometry": {"location": {"lat": 51.5211802, "lng": -0.1960622}, "viewport": {"northeast": {"lat": 51.5225705302915, "lng": -0.194628469708498}, "southwest": {"lat": 51.5198725697085, "lng": -0.197326430291502}}}, "name": "Thomas Croft Architects", "place_id": "ChIJZ0wt3ycQdkgRlURQs4qGFOM", "types": ["point_of_interest", "establishment"]}, "ChIJ1e2lHgQQdkgRut0O8WMOynY": {"geometry": {"location": {"lat": 51.52118220000001, "lng": -0.1960624}, "viewport": {"northeast": {"lat": 51.5225716802915, "lng": -0.194627869708498}, "southwest": {"lat": 51.51987371970851, "lng": -0.197325830291502}}}, "name": "Craster Ltd.", "place_id": "ChIJ1e2lHgQQdkgRut0O8WMOynY", "types": ["point_of_interest", "establishment"], "rating": 1, "user_ratings_total": 1}, "ChIJpe9qbQQQdkgRZ75jm-UryQQ": {"geometry": {"location": {"lat": 51.5211832, "lng": -0.1960623}, "viewport": {"northeast": {"lat": 51.52257203029149, "lng": -0.194628519708498}, "southwest": {"lat": 51.51987406970849, "lng": -0.197326480291502}}}, "name": "Haine & Co", "place_id": "ChIJpe9qbQQQdkgRZ75jm-UryQQ", "types": ["point_of_interest", "establishment"], "rating": 5, "user_ratings_total": 1}, "ChIJ4cpM6tYadkgRRPtuiaS1AUE": {"geometry": {"location": {"lat": 51.5211784, "lng": -0.1960609}, "viewport": {"northeast": {"lat": 51.52256963029149, "lng": -0.194627819708498}, "southwest": {"lat": 51.5198716697085, "lng": -0.197325780291502}}}, "name": "MATA Architects", "place_id": "ChIJ4cpM6tYadkgRRPtuiaS1AUE", "types": ["point_of_interest", "establishment"], "rating": 5, "user_ratings_total": 7}, "ChIJjb7FZgQQdkgRdc6vzY6k5L4": {"geometry": {"location": {"lat": 51.5211794, "lng": -0.1960622}, "viewport": {"northeast": {"lat": 51.5225702802915, "lng": -0.194627769708498}, "southwest": {"lat": 51.51987231970851, "lng": -0.197325730291502}}}, "name": "BlueShift Education", "place_id": "ChIJjb7FZgQQdkgRdc6vzY6k5L4", "types": ["point_of_interest", "establishment"], "rating": 4.8, "user_ratings_total": 5}, "ChIJjb7FZgQQdkgRrAtKfPfS0eg": {"geometry": {"location": {"lat": 51.52118229999999, "lng": -0.1960656}, "viewport": {"northeast": {"lat": 51.5225717302915, "lng": -0.194629469708498}, "southwest": {"lat": 51.5198737697085, "lng": -0.197327430291502}}}, "name": "Hugo Rittson Thomas Photography", "place_id": "ChIJjb7FZgQQdkgRrAtKfPfS0eg", "types": ["point_of_interest", "establishment"]}, "ChIJy-DiZgQQdkgRES0dNuL99O0": {"geometry": {"location": {"lat": 51.5211728, "lng": -0.1960583}, "viewport": {"northeast": {"lat": 51.52256683029149, "lng": -0.194626519708498}, "southwest": {"lat": 51.5198688697085, "lng": -0.197324480291502}}}, "name": "Orlebar Brown", "place_id": "ChIJy-DiZgQQdkgRES0dNuL99O0", "types": ["clothing_store", "point_of_interest", "store", "establishment"], "rating": 5, "user_ratings_total": 1}, "ChIJoRtbZgQQdkgR8EcTQsMkobQ": {"geometry": {"location": {"lat": 51.5211771, "lng": -0.1960624}, "viewport": {"northeast": {"lat": 51.52256913029151, "lng": -0.194627869708498}, "southwest": {"lat": 51.51987116970851, "lng": -0.197325830291502}}}, "name": "Bethan Gray Design", "place_id": "ChIJoRtbZgQQdkgR8EcTQsMkobQ", "types": ["furniture_store", "home_goods_store", "point_of_interest", "store", "establishment"], "rating": 3, "user_ratings_total": 11}, "ChIJcQHL3EoFdkgR9VKQFvZKDvI": {"geometry": {"location": {"lat": 51.5211769, "lng": -0.1960643}, "viewport": {"northeast": {"lat": 51.5225688802915, "lng": -0.194629519708498}, "southwest": {"lat": 51.5198709197085, "lng": -0.197327480291502}}}, "name": "OPUMO", "place_id": "ChIJcQHL3EoFdkgR9VKQFvZKDvI", "types": ["point_of_interest", "establishment"], "rating": 4.5, "user_ratings_total": 26}, "ChIJH28J5F0RdkgRUipiiK3WJGs": {"geometry": {"location": {"lat": 51.5212083, "lng": -0.1948657}, "viewport": {"northeast": {"lat": 51.5225029802915, "lng": -0.193575369708498}, "southwest": {"lat": 51.51980501970851, "lng": -0.196273330291502}}}, "name": "REDCOS", "place_id": "ChIJH28J5F0RdkgRUipiiK3WJGs", "types": ["point_of_interest", "store", "establishment"], "rating": 5, "user_ratings_total": 6}, "ChIJI6ddo2ARdkgRhzJw0FD5t88": {"geometry": {"location": {"lat": 51.52112059999999, "lng": -0.1959279}, "viewport": {"northeast": {"lat": 51.52243128029149, "lng": -0.1945202697084979}, "southwest": {"lat": 51.51973331970849, "lng": -0.197218230291502}}}, "name": "West Port Architects", "place_id": "ChIJI6ddo2ARdkgRhzJw0FD5t88", "types": ["point_of_interest", "establishment"]}, "ChIJm6jeEwQQdkgRYNma1v28J5c": {"geometry": {"location": {"lat": 51.520988, "lng": -0.195104}, "viewport": {"northeast": {"lat": 51.5223259302915, "lng": -0.193749869708498}, "southwest": {"lat": 51.5196279697085, "lng": -0.196447830291502}}}, "name": "ubitricity Charging Station", "place_id": "ChIJm6jeEwQQdkgRYNma1v28J5c", "types": ["point_of_interest", "establishment"]}, "ChIJzU2-T7gRdkgRNEUaZGCVXxQ": {"geometry": {"location": {"lat": 51.5209546, "lng": -0.1954819}, "viewport": {"northeast": {"lat": 51.5222842802915, "lng": -0.194115369708498}, "southwest": {"lat": 51.5195863197085, "lng": -0.196813330291502}}}, "name": "Marble Private - Wedding & Party Planners", "place_id": "ChIJzU2-T7gRdkgRNEUaZGCVXxQ", "types": ["point_of_interest", "establishment"], "rating": 5, "user_ratings_total": 3}, "ChIJq7sfvQMQdkgRVv4W9FeRbV8": {"geometry": {"location": {"lat": 51.5211812, "lng": -0.196066}, "viewport": {"northeast": {"lat": 51.52257103029149, "lng": -0.194630369708498}, "southwest": {"lat": 51.5198730697085, "lng": -0.197328330291502}}}, "name": "Moxon Architects", "place_id": "ChIJq7sfvQMQdkgRVv4W9FeRbV8", "types": ["point_of_interest", "establishment"]}, "ChIJb5sYThwQdkgRd2wJT3KmAE4": {"geometry": {"location": {"lat": 51.5211838, "lng": -0.1960625}, "viewport": {"northeast": {"lat": 51.5225724802915, "lng": -0.1946279197084979}, "southwest": {"lat": 51.51987451970851, "lng": -0.197325880291502}}}, "name": "Totality UK Ltd", "place_id": "ChIJb5sYThwQdkgRd2wJT3KmAE4", "types": ["point_of_interest", "establishment"]}, "ChIJH7zFZgQQdkgRFLiMInZybgM": {"geometry": {"location": {"lat": 51.5211834, "lng": -0.1960644}, "viewport": {"northeast": {"lat": 51.52257213029149, "lng": -0.194629569708498}, "southwest": {"lat": 51.51987416970849, "lng": -0.197327530291502}}}, "name": "KPPR", "place_id": "ChIJH7zFZgQQdkgRFLiMInZybgM", "types": ["point_of_interest", "establishment"]}, "ChIJpe9qbQQQdkgRjIsCcPrex2A": {"geometry": {"location": {"lat": 51.5209068, "lng": -0.1955871}, "viewport": {"northeast": {"lat": 51.52225468029151, "lng": -0.194211069708498}, "southwest": {"lat": 51.51955671970851, "lng": -0.196909030291502}}}, "name": "BroadBean Events", "place_id": "ChIJpe9qbQQQdkgRjIsCcPrex2A", "types": ["point_of_interest", "establishment"]}, "ChIJkwTrEAQQdkgRU_Pa_klKG5o": {"geometry": {"location": {"lat": 51.52110289999999, "lng": -0.1960769}, "viewport": {"northeast": {"lat": 51.5224234302915, "lng": -0.194594069708498}, "southwest": {"lat": 51.5197254697085, "lng": -0.197292030291502}}}, "name": "Marble LDN Live Experience Communications Agency", "place_id": "ChIJkwTrEAQQdkgRU_Pa_klKG5o", "types": ["point_of_interest", "establishment"], "rating": 5, "user_ratings_total": 9}, "ChIJS_y2jSobdkgR1XVtwq_tOi4": {"geometry": {"location": {"lat": 51.5211043, "lng": -0.1960802}, "viewport": {"northeast": {"lat": 51.5224232302915, "lng": -0.1945964197084979}, "southwest": {"lat": 51.5197252697085, "lng": -0.197294380291502}}}, "name": "MGC London", "place_id": "ChIJS_y2jSobdkgR1XVtwq_tOi4", "types": ["point_of_interest", "establishment"]}, "ChIJpe9qbQQQdkgRaB-XtCaxsv0": {"geometry": {"location": {"lat": 51.520896, "lng": -0.195634}, "viewport": {"northeast": {"lat": 51.52225468029151, "lng": -0.194224119708498}, "southwest": {"lat": 51.51955671970851, "lng": -0.196922080291502}}}, "name": "Afroditi Krassa", "place_id": "ChIJpe9qbQQQdkgRaB-XtCaxsv0", "types": ["general_contractor", "point_of_interest", "establishment"], "rating": 5, "user_ratings_total": 4}, "ChIJpcNmFAQQdkgRHA_zSZUHTvw": {"geometry": {"location": {"lat": 51.5211288, "lng": -0.195405}, "viewport": {"northeast": {"lat": 51.52250545867778, "lng": -0.1938903087556431}, "southwest": {"lat": 51.51980749809478, "lng": -0.1965882693386471}}}, "name": "Parking lot", "place_id": "ChIJpcNmFAQQdkgRHA_zSZUHTvw", "types": ["parking", "premise", "point_of_interest", "establishment"]}, "ChIJge4ObAQQdkgRd4fWrt303bw": {"geometry": {"location": {"lat": 51.521046, "lng": -0.1957726}, "viewport": {"northeast": {"lat": 51.5224085129172, "lng": -0.1944078538905347}, "southwest": {"lat": 51.5197105523342, "lng": -0.1971058144735387}}}, "name": "Parking lot", "place_id": "ChIJge4ObAQQdkgRd4fWrt303bw", "types": ["parking", "premise", "point_of_interest", "establishment"]}, "ChIJG4R2pQUQdkgRMdzpbyxh7yo": {"geometry": {"location": {"lat": 51.52346699999999, "lng": -0.196473}, "viewport": {"northeast": {"lat": 51.52471943029149, "lng": -0.195159219708498}, "southwest": {"lat": 51.52202146970849, "lng": -0.197857180291502}}}, "name": "Glaze & Frame", "place_id": "ChIJG4R2pQUQdkgRMdzpbyxh7yo", "types": ["home_goods_store", "point_of_interest", "store", "establishment"], "rating": 4.6, "user_ratings_total": 64}, "ChIJiTFXrwUQdkgRRfGwteKvLFo": {"geometry": {"location": {"lat": 51.5233784, "lng": -0.1965144}, "viewport": {"northeast": {"lat": 51.5246757802915, "lng": -0.195184219708498}, "southwest": {"lat": 51.5219778197085, "lng": -0.197882180291502}}}, "name": "G & F", "place_id": "ChIJiTFXrwUQdkgRRfGwteKvLFo", "types": ["general_contractor", "point_of_interest", "establishment"]}, "ChIJlyuQo5QRdkgRXax4BNvupMY": {"geometry": {"location": {"lat": 51.52338719999999, "lng": -0.196504}, "viewport": {"northeast": {"lat": 51.52467968029149, "lng": -0.195175619708498}, "southwest": {"lat": 51.52198171970849, "lng": -0.197873580291502}}}, "name": "Leyland SDM Maida Vale | Decorating & DIY", "place_id": "ChIJlyuQo5QRdkgRXax4BNvupMY", "types": ["hardware_store", "home_goods_store", "point_of_interest", "store", "establishment"], "rating": 4.3, "user_ratings_total": 50}, "ChIJsStI3o8RdkgRB4m-e4TkpHU": {"geometry": {"location": {"lat": 51.52374549999999, "lng": -0.1963092}, "viewport": {"northeast": {"lat": 51.52505863029149, "lng": -0.194973219708498}, "southwest": {"lat": 51.52236066970849, "lng": -0.197671180291502}}}, "name": "Floodmaker", "place_id": "ChIJsStI3o8RdkgRB4m-e4TkpHU", "types": ["point_of_interest", "establishment"], "rating": 5, "user_ratings_total": 1}, "ChIJnV1PDKwadkgRNoTkXKdFp1k": {"geometry": {"location": {"lat": 51.5211947, "lng": -0.1965033}, "viewport": {"northeast": {"lat": 51.52247518029149, "lng": -0.195207969708498}, "southwest": {"lat": 51.51977721970849, "lng": -0.197905930291502}}}, "name": "Recipe Design", "place_id": "ChIJnV1PDKwadkgRNoTkXKdFp1k", "types": ["point_of_interest", "establishment"], "rating": 5, "user_ratings_total": 1}, "ChIJCQO1A0IFdkgRDItSs9uumkI": {"geometry": {"location": {"lat": 51.521195, "lng": -0.196503}, "viewport": {"northeast": {"lat": 51.5224753302915, "lng": -0.195207769708498}, "southwest": {"lat": 51.5197773697085, "lng": -0.197905730291502}}}, "name": "Kasimira", "place_id": "ChIJCQO1A0IFdkgRDItSs9uumkI", "types": ["point_of_interest", "establishment"], "rating": 4.6, "user_ratings_total": 16}, "ChIJjb7FZgQQdkgRjFgkWFqhlQo": {"geometry": {"location": {"lat": 51.5211947, "lng": -0.1965033}, "viewport": {"northeast": {"lat": 51.52247518029149, "lng": -0.195207969708498}, "southwest": {"lat": 51.51977721970849, "lng": -0.197905930291502}}}, "name": "DreamArts", "place_id": "ChIJjb7FZgQQdkgRjFgkWFqhlQo", "types": ["point_of_interest", "establishment"], "rating": 4, "user_ratings_total": 1}, "ChIJjb7FZgQQdkgRiY3s6me-j5M": {"geometry": {"location": {"lat": 51.5211947, "lng": -0.1965033}, "viewport": {"northeast": {"lat": 51.52247518029149, "lng": -0.195207969708498}, "southwest": {"lat": 51.51977721970849, "lng": -0.197905930291502}}}, "name": "Elena Tsoka", "place_id": "ChIJjb7FZgQQdkgRiY3s6me-j5M", "types": ["point_of_interest", "establishment"]}, "ChIJjb7FZgQQdkgR8tks1xB9eWg": {"geometry": {"location": {"lat": 51.5211947, "lng": -0.1965033}, "viewport": {"northeast": {"lat": 51.52247518029149, "lng": -0.195207969708498}, "southwest": {"lat": 51.51977721970849, "lng": -0.197905930291502}}}, "name": "Innovation Imperative", "place_id": "ChIJjb7FZgQQdkgR8tks1xB9eWg", "types": ["point_of_interest", "establishment"]}, "ChIJjb7FZgQQdkgRXeagSPn2Y-c": {"geometry": {"location": {"lat": 51.5211947, "lng": -0.1965033}, "viewport": {"northeast": {"lat": 51.52247518029149, "lng": -0.195207969708498}, "southwest": {"lat": 51.51977721970849, "lng": -0.197905930291502}}}, "name": "E-Innovate", "place_id": "ChIJjb7FZgQQdkgRXeagSPn2Y-c", "types": ["point_of_interest", "establishment"], "rating": 5, "user_ratings_total": 1}, "ChIJMfRxzTwOdkgR2Dky_IpJCv4": {"geometry": {"location": {"lat": 51.5211947, "lng": -0.1965033}, "viewport": {"northeast": {"lat": 51.52247518029149, "lng": -0.195207969708498}, "southwest": {"lat": 51.51977721970849, "lng": -0.197905930291502}}}, "name": "Notable Designs", "place_id": "ChIJMfRxzTwOdkgR2Dky_IpJCv4", "types": ["point_of_interest", "establishment"]}, "ChIJQfG_qoAPdkgRSnWxcFiCKAk": {"geometry": {"location": {"lat": 51.5211947, "lng": -0.1965033}, "viewport": {"northeast": {"lat": 51.52247518029149, "lng": -0.195207969708498}, "southwest": {"lat": 51.51977721970849, "lng": -0.197905930291502}}}, "name": "Rita Konig", "place_id": "ChIJQfG_qoAPdkgRSnWxcFiCKAk", "types": ["point_of_interest", "establishment"]}, "ChIJbQxrbQQQdkgReDkSJK3Njfc": {"geometry": {"location": {"lat": 51.5211947, "lng": -0.1965033}, "viewport": {"northeast": {"lat": 51.52247518029149, "lng": -0.195207969708498}, "southwest": {"lat": 51.51977721970849, "lng": -0.197905930291502}}}, "name": "Westbourne Forum", "place_id": "ChIJbQxrbQQQdkgReDkSJK3Njfc", "types": ["point_of_interest", "establishment"]}, "ChIJjb7FZgQQdkgRoNuZJDvmRKI": {"geometry": {"location": {"lat": 51.5211947, "lng": -0.1965033}, "viewport": {"northeast": {"lat": 51.52247518029149, "lng": -0.195207969708498}, "southwest": {"lat": 51.51977721970849, "lng": -0.197905930291502}}}, "name": "Oliver's island", "place_id": "ChIJjb7FZgQQdkgRoNuZJDvmRKI", "types": ["point_of_interest", "establishment"]}, "ChIJxx42cSYQdkgRwzde9_Rmk64": {"geometry": {"location": {"lat": 51.52124130000001, "lng": -0.1964243}, "viewport": {"northeast": {"lat": 51.52259028029151, "lng": -0.195075319708498}, "southwest": {"lat": 51.51989231970851, "lng": -0.197773280291502}}}, "name": "Sophie Nguyen Architects Ltd", "place_id": "ChIJxx42cSYQdkgRwzde9_Rmk64", "types": ["point_of_interest", "establishment"], "rating": 5, "user_ratings_total": 5}, "ChIJ17aX4qgEdkgRPzw7To01TIo": {"geometry": {"location": {"lat": 51.5211681, "lng": -0.1964637}, "viewport": {"northeast": {"lat": 51.5224544802915, "lng": -0.195163769708498}, "southwest": {"lat": 51.5197565197085, "lng": -0.197861730291502}}}, "name": "Maxx Marketing Europe Ltd", "place_id": "ChIJ17aX4qgEdkgRPzw7To01TIo", "types": ["point_of_interest", "establishment"], "rating": 1, "user_ratings_total": 1}, "ChIJU8IpbQQQdkgRdVIQigGUizM": {"geometry": {"location": {"lat": 51.52120919999999, "lng": -0.196418}, "viewport": {"northeast": {"lat": 51.52247338029149, "lng": -0.195135419708498}, "southwest": {"lat": 51.51977541970849, "lng": -0.197833380291502}}}, "name": "Float", "place_id": "ChIJU8IpbQQQdkgRdVIQigGUizM", "types": ["point_of_interest", "establishment"]}, "ChIJNVpnDEkbdkgRYumqGSE5VHo": {"geometry": {"location": {"lat": 51.52120919999999, "lng": -0.196418}, "viewport": {"northeast": {"lat": 51.52247338029149, "lng": -0.195135419708498}, "southwest": {"lat": 51.51977541970849, "lng": -0.197833380291502}}}, "name": "Nico Warr Architects", "place_id": "ChIJNVpnDEkbdkgRYumqGSE5VHo", "types": ["point_of_interest", "establishment"]}, "ChIJ8cGcJJQcdkgRKRMB07OtUsk": {"geometry": {"location": {"lat": 51.52121289999999, "lng": -0.1964151}, "viewport": {"northeast": {"lat": 51.5225618802915, "lng": -0.195066119708498}, "southwest": {"lat": 51.5198639197085, "lng": -0.1977640802915021}}}, "name": "Snow Films", "place_id": "ChIJ8cGcJJQcdkgRKRMB07OtUsk", "types": ["point_of_interest", "establishment"]}, "ChIJqe9qbQQQdkgR0upT3U0ldKU": {"geometry": {"location": {"lat": 51.52121289999999, "lng": -0.1964151}, "viewport": {"northeast": {"lat": 51.5225618802915, "lng": -0.195066119708498}, "southwest": {"lat": 51.5198639197085, "lng": -0.1977640802915021}}}, "name": "Run For The Hills", "place_id": "ChIJqe9qbQQQdkgR0upT3U0ldKU", "types": ["general_contractor", "point_of_interest", "establishment"], "rating": 5, "user_ratings_total": 2}, "ChIJ6wmV3hAOdkgRbU64D0AqKig": {"geometry": {"location": {"lat": 51.52121289999999, "lng": -0.1964151}, "viewport": {"northeast": {"lat": 51.5225618802915, "lng": -0.195066119708498}, "southwest": {"lat": 51.5198639197085, "lng": -0.1977640802915021}}}, "name": "Tej Chauhan Ltd", "place_id": "ChIJ6wmV3hAOdkgRbU64D0AqKig", "types": ["point_of_interest", "establishment"], "rating": 5, "user_ratings_total": 1}, "ChIJTVz-ZgQQdkgRPHsRKQThlS0": {"geometry": {"location": {"lat": 51.5212418, "lng": -0.1963887}, "viewport": {"northeast": {"lat": 51.5225907802915, "lng": -0.195039719708498}, "southwest": {"lat": 51.5198928197085, "lng": -0.197737680291502}}}, "name": "Squarepeg", "place_id": "ChIJTVz-ZgQQdkgRPHsRKQThlS0", "types": ["point_of_interest", "establishment"]}, "ChIJoRtbZgQQdkgRsi5ns_Ucv7o": {"geometry": {"location": {"lat": 51.52119750000001, "lng": -0.1963337}, "viewport": {"northeast": {"lat": 51.5224560802915, "lng": -0.195055519708498}, "southwest": {"lat": 51.5197581197085, "lng": -0.197753480291502}}}, "name": "CLEO B", "place_id": "ChIJoRtbZgQQdkgRsi5ns_Ucv7o", "types": ["shoe_store", "point_of_interest", "store", "establishment"]}, "ChIJCT27cwQQdkgRCW1ifsj8jgU": {"geometry": {"location": {"lat": 51.5211796, "lng": -0.1965499}, "viewport": {"northeast": {"lat": 51.5225285802915, "lng": -0.195200919708498}, "southwest": {"lat": 51.5198306197085, "lng": -0.197898880291502}}}, "name": "Great Western Studios", "place_id": "ChIJCT27cwQQdkgRCW1ifsj8jgU", "types": ["point_of_interest", "establishment"], "rating": 4.3, "user_ratings_total": 89}, "ChIJ_awOudoRdkgR_UvXjlKuBJs": {"geometry": {"location": {"lat": 51.5211947, "lng": -0.1965033}, "viewport": {"northeast": {"lat": 51.52247518029149, "lng": -0.195207969708498}, "southwest": {"lat": 51.51977721970849, "lng": -0.197905930291502}}}, "name": "what3words", "place_id": "ChIJ_awOudoRdkgR_UvXjlKuBJs", "types": ["point_of_interest", "establishment"], "rating": 4.2, "user_ratings_total": 5}, "ChIJnzNYIKAPdkgRHKOxbPvxD0U": {"geometry": {"location": {"lat": 51.5211947, "lng": -0.1965033}, "viewport": {"northeast": {"lat": 51.52247518029149, "lng": -0.195207969708498}, "southwest": {"lat": 51.51977721970849, "lng": -0.197905930291502}}}, "name": "The Journal Shop", "place_id": "ChIJnzNYIKAPdkgRHKOxbPvxD0U", "types": ["point_of_interest", "establishment"], "rating": 4.9, "user_ratings_total": 48}, "ChIJjb7FZgQQdkgRQPPEL8gtA_s": {"geometry": {"location": {"lat": 51.5211947, "lng": -0.1965033}, "viewport": {"northeast": {"lat": 51.52247518029149, "lng": -0.195207969708498}, "southwest": {"lat": 51.51977721970849, "lng": -0.197905930291502}}}, "name": "MARC DUVIVIER CONSULTANCY", "place_id": "ChIJjb7FZgQQdkgRQPPEL8gtA_s", "types": ["point_of_interest", "establishment"]}, "ChIJjb7FZgQQdkgRFpEAfzmAxDQ": {"geometry": {"location": {"lat": 51.5211947, "lng": -0.1965033}, "viewport": {"northeast": {"lat": 51.52247518029149, "lng": -0.195207969708498}, "southwest": {"lat": 51.51977721970849, "lng": -0.197905930291502}}}, "name": "crasaterendo", "place_id": "ChIJjb7FZgQQdkgRFpEAfzmAxDQ", "types": ["point_of_interest", "store", "establishment"]}, "ChIJjb7FZgQQdkgR11TV9p2X6Wc": {"geometry": {"location": {"lat": 51.5211947, "lng": -0.1965033}, "viewport": {"northeast": {"lat": 51.52247518029149, "lng": -0.195207969708498}, "southwest": {"lat": 51.51977721970849, "lng": -0.197905930291502}}}, "name": "ACR Consultants", "place_id": "ChIJjb7FZgQQdkgR11TV9p2X6Wc", "types": ["accounting", "finance", "point_of_interest", "establishment"]}, "ChIJjb7FZgQQdkgRyV9HaxxaQQE": {"geometry": {"location": {"lat": 51.5211947, "lng": -0.1965033}, "viewport": {"northeast": {"lat": 51.52247518029149, "lng": -0.195207969708498}, "southwest": {"lat": 51.51977721970849, "lng": -0.197905930291502}}}, "name": "The Floating Classroom - Office", "place_id": "ChIJjb7FZgQQdkgRyV9HaxxaQQE", "types": ["point_of_interest", "establishment"]}, "ChIJjb7FZgQQdkgRv4SpmHyMr8k": {"geometry": {"location": {"lat": 51.5211947, "lng": -0.1965033}, "viewport": {"northeast": {"lat": 51.52247518029149, "lng": -0.195207969708498}, "southwest": {"lat": 51.51977721970849, "lng": -0.197905930291502}}}, "name": "Carousel Parties", "place_id": "ChIJjb7FZgQQdkgRv4SpmHyMr8k", "types": ["point_of_interest", "establishment"]}, "ChIJRzK6MdYRdkgR3fWNZS4nmho": {"geometry": {"location": {"lat": 51.5212105, "lng": -0.1964314}, "viewport": {"northeast": {"lat": 51.52247673029151, "lng": -0.195148819708498}, "southwest": {"lat": 51.51977876970851, "lng": -0.197846780291502}}}, "name": "NishuraEast", "place_id": "ChIJRzK6MdYRdkgR3fWNZS4nmho", "types": ["store", "point_of_interest", "establishment"], "rating": 5, "user_ratings_total": 4}, "ChIJS28D4Z8RdkgRjVM_R26v5b8": {"geometry": {"location": {"lat": 51.52120919999999, "lng": -0.196418}, "viewport": {"northeast": {"lat": 51.52247338029149, "lng": -0.195135419708498}, "southwest": {"lat": 51.51977541970849, "lng": -0.197833380291502}}}, "name": "Spekk", "place_id": "ChIJS28D4Z8RdkgRjVM_R26v5b8", "types": ["point_of_interest", "establishment"]}, "ChIJD3WON9IRdkgRpNv8pvLDLs4": {"geometry": {"location": {"lat": 51.52120919999999, "lng": -0.196418}, "viewport": {"northeast": {"lat": 51.52247338029149, "lng": -0.195135419708498}, "southwest": {"lat": 51.51977541970849, "lng": -0.197833380291502}}}, "name": "TO Interior Design", "place_id": "ChIJD3WON9IRdkgRpNv8pvLDLs4", "types": ["general_contractor", "point_of_interest", "establishment"]}, "ChIJCxmKiCgRdkgRmpZvaSlk2NU": {"geometry": {"location": {"lat": 51.52120919999999, "lng": -0.196418}, "viewport": {"northeast": {"lat": 51.52247338029149, "lng": -0.195135419708498}, "southwest": {"lat": 51.51977541970849, "lng": -0.197833380291502}}}, "name": "Thurstan", "place_id": "ChIJCxmKiCgRdkgRmpZvaSlk2NU", "types": ["general_contractor", "point_of_interest", "establishment"], "rating": 5, "user_ratings_total": 1}, "ChIJ___vZgQQdkgRlndXNc1XUns": {"geometry": {"location": {"lat": 51.52120919999999, "lng": -0.196418}, "viewport": {"northeast": {"lat": 51.52247338029149, "lng": -0.195135419708498}, "southwest": {"lat": 51.51977541970849, "lng": -0.197833380291502}}}, "name": "emma stevenson", "place_id": "ChIJ___vZgQQdkgRlndXNc1XUns", "types": ["general_contractor", "point_of_interest", "establishment"]}, "ChIJoWBoNRYRdkgRnVkzobMcp38": {"geometry": {"location": {"lat": 51.52120919999999, "lng": -0.196418}, "viewport": {"northeast": {"lat": 51.5224742802915, "lng": -0.195136319708498}, "southwest": {"lat": 51.5197763197085, "lng": -0.197834280291502}}}, "name": "OMNES", "place_id": "ChIJoWBoNRYRdkgRnVkzobMcp38", "types": ["clothing_store", "point_of_interest", "store", "establishment"]}, "ChIJ6wydVMcRdkgRMmA4DgdHU1U": {"geometry": {"location": {"lat": 51.52120919999999, "lng": -0.196418}, "viewport": {"northeast": {"lat": 51.52247338029149, "lng": -0.195135419708498}, "southwest": {"lat": 51.51977541970849, "lng": -0.197833380291502}}}, "name": "Octavia Jewellery", "place_id": "ChIJ6wydVMcRdkgRMmA4DgdHU1U", "types": ["jewelry_store", "point_of_interest", "store", "establishment"], "rating": 5, "user_ratings_total": 6}, "ChIJnT9jHeoRdkgRBJ8Ad-YqI-Y": {"geometry": {"location": {"lat": 51.52120919999999, "lng": -0.196418}, "viewport": {"northeast": {"lat": 51.52247338029149, "lng": -0.195135419708498}, "southwest": {"lat": 51.51977541970849, "lng": -0.197833380291502}}}, "name": "Officina Coppola Ltd", "place_id": "ChIJnT9jHeoRdkgRBJ8Ad-YqI-Y", "types": ["general_contractor", "point_of_interest", "establishment"], "rating": 5, "user_ratings_total": 2}, "ChIJFbwjZCMQdkgRic2bWkM8GcE": {"geometry": {"location": {"lat": 51.52120919999999, "lng": -0.196418}, "viewport": {"northeast": {"lat": 51.52247338029149, "lng": -0.195135419708498}, "southwest": {"lat": 51.51977541970849, "lng": -0.197833380291502}}}, "name": "Doodle London", "place_id": "ChIJFbwjZCMQdkgRic2bWkM8GcE", "types": ["point_of_interest", "establishment"], "rating": 5, "user_ratings_total": 1}, "ChIJAQDwZgQQdkgRgsi_xiwLpqg": {"geometry": {"location": {"lat": 51.52120919999999, "lng": -0.1964179}, "viewport": {"northeast": {"lat": 51.52247338029149, "lng": -0.195135369708498}, "southwest": {"lat": 51.51977541970849, "lng": -0.197833330291502}}}, "name": "Studio 60", "place_id": "ChIJAQDwZgQQdkgRgsi_xiwLpqg", "types": ["point_of_interest", "establishment"]}, "ChIJAQDwZgQQdkgR-XJM4-BtDgo": {"geometry": {"location": {"lat": 51.52120919999999, "lng": -0.1964179}, "viewport": {"northeast": {"lat": 51.52247338029149, "lng": -0.195135369708498}, "southwest": {"lat": 51.51977541970849, "lng": -0.197833330291502}}}, "name": "The Creative Project Foundation", "place_id": "ChIJAQDwZgQQdkgR-XJM4-BtDgo", "types": ["point_of_interest", "establishment"]}, "ChIJCbr6ZgQQdkgRyBbiZPnI5w8": {"geometry": {"location": {"lat": 51.52121289999999, "lng": -0.1964151}, "viewport": {"northeast": {"lat": 51.5225618802915, "lng": -0.195066119708498}, "southwest": {"lat": 51.5198639197085, "lng": -0.1977640802915021}}}, "name": "The Duppy Share", "place_id": "ChIJCbr6ZgQQdkgRyBbiZPnI5w8", "types": ["point_of_interest", "establishment"]}, "ChIJCbr6ZgQQdkgR4J9UPnE60ME": {"geometry": {"location": {"lat": 51.52121289999999, "lng": -0.1964151}, "viewport": {"northeast": {"lat": 51.5225618802915, "lng": -0.195066119708498}, "southwest": {"lat": 51.5198639197085, "lng": -0.1977640802915021}}}, "name": "Nishura Pro", "place_id": "ChIJCbr6ZgQQdkgR4J9UPnE60ME", "types": ["point_of_interest", "establishment"]}, "ChIJCbr6ZgQQdkgRZ45i1-nV9vs": {"geometry": {"location": {"lat": 51.52121289999999, "lng": -0.1964151}, "viewport": {"northeast": {"lat": 51.5225618802915, "lng": -0.195066119708498}, "southwest": {"lat": 51.5198639197085, "lng": -0.1977640802915021}}}, "name": "12:24 SHOWROOM", "place_id": "ChIJCbr6ZgQQdkgRZ45i1-nV9vs", "types": ["point_of_interest", "store", "establishment"]}, "ChIJZan-hJMRdkgRPMgvZELKjvM": {"geometry": {"location": {"lat": 51.52121289999999, "lng": -0.1964151}, "viewport": {"northeast": {"lat": 51.5225618802915, "lng": -0.195066119708498}, "southwest": {"lat": 51.5198639197085, "lng": -0.1977640802915021}}}, "name": "Artefacteria", "place_id": "ChIJZan-hJMRdkgRPMgvZELKjvM", "types": ["art_gallery", "home_goods_store", "point_of_interest", "store", "establishment"]}, "ChIJKQnx50wRdkgRnN2pMxxfFYM": {"geometry": {"location": {"lat": 51.52121289999999, "lng": -0.1964151}, "viewport": {"northeast": {"lat": 51.5225618802915, "lng": -0.195066119708498}, "southwest": {"lat": 51.5198639197085, "lng": -0.1977640802915021}}}, "name": "London Events Atelier", "place_id": "ChIJKQnx50wRdkgRnN2pMxxfFYM", "types": ["point_of_interest", "establishment"], "rating": 5, "user_ratings_total": 10}, "ChIJ0ZRrI6MRdkgR1tK3qyGZmZA": {"geometry": {"location": {"lat": 51.52121289999999, "lng": -0.1964151}, "viewport": {"northeast": {"lat": 51.5225618802915, "lng": -0.195066119708498}, "southwest": {"lat": 51.5198639197085, "lng": -0.1977640802915021}}}, "name": "London Art Prints", "place_id": "ChIJ0ZRrI6MRdkgR1tK3qyGZmZA", "types": ["art_gallery", "point_of_interest", "establishment"], "rating": 5, "user_ratings_total": 23}, "ChIJE8tbSR4RdkgRzyFCvnu2HxY": {"geometry": {"location": {"lat": 51.52121289999999, "lng": -0.1964151}, "viewport": {"northeast": {"lat": 51.5225618802915, "lng": -0.195066119708498}, "southwest": {"lat": 51.5198639197085, "lng": -0.1977640802915021}}}, "name": "Haley McLane Ltd", "place_id": "ChIJE8tbSR4RdkgRzyFCvnu2HxY", "types": ["general_contractor", "point_of_interest", "establishment"], "rating": 5, "user_ratings_total": 9}, "ChIJtW7eoFQFdkgR7jRoLHn71sg": {"geometry": {"location": {"lat": 51.52121289999999, "lng": -0.1964151}, "viewport": {"northeast": {"lat": 51.5225618802915, "lng": -0.195066119708498}, "southwest": {"lat": 51.5198639197085, "lng": -0.1977640802915021}}}, "name": "Vovi", "place_id": "ChIJtW7eoFQFdkgR7jRoLHn71sg", "types": ["point_of_interest", "establishment"], "rating": 5, "user_ratings_total": 3}, "ChIJjeFGHscRdkgRZh6zEfqMBKY": {"geometry": {"location": {"lat": 51.52121289999999, "lng": -0.1964151}, "viewport": {"northeast": {"lat": 51.5225618802915, "lng": -0.195066119708498}, "southwest": {"lat": 51.5198639197085, "lng": -0.1977640802915021}}}, "name": "Port West Stationers", "place_id": "ChIJjeFGHscRdkgRZh6zEfqMBKY", "types": ["point_of_interest", "store", "establishment"], "rating": 5, "user_ratings_total": 2}, "ChIJoRtbZgQQdkgRabGWte8-wBA": {"geometry": {"location": {"lat": 51.52121289999999, "lng": -0.1964151}, "viewport": {"northeast": {"lat": 51.5225618802915, "lng": -0.195066119708498}, "southwest": {"lat": 51.5198639197085, "lng": -0.1977640802915021}}}, "name": "Style By Definition", "place_id": "ChIJoRtbZgQQdkgRabGWte8-wBA", "types": ["store", "point_of_interest", "establishment"]}, "ChIJja-ClxsQdkgRwqRZUCu4mE4": {"geometry": {"location": {"lat": 51.52121289999999, "lng": -0.1964151}, "viewport": {"northeast": {"lat": 51.5225618802915, "lng": -0.195066119708498}, "southwest": {"lat": 51.5198639197085, "lng": -0.1977640802915021}}}, "name": "Patrick Lewis Architects", "place_id": "ChIJja-ClxsQdkgRwqRZUCu4mE4", "types": ["point_of_interest", "establishment"], "rating": 4.5, "user_ratings_total": 2}, "ChIJ___vZgQQdkgRT-t-LlRz_IY": {"geometry": {"location": {"lat": 51.5211905, "lng": -0.196287}, "viewport": {"northeast": {"lat": 51.52253948029149, "lng": -0.1949380197084979}, "southwest": {"lat": 51.51984151970849, "lng": -0.197635980291502}}}, "name": "Great Western Studios", "place_id": "ChIJ___vZgQQdkgRT-t-LlRz_IY", "types": ["point_of_interest", "establishment"]}, "ChIJWVUYXgYQdkgRAdICP-o58S8": {"geometry": {"location": {"lat": 51.5230228678722, "lng": -0.1924576674127585}, "viewport": {"northeast": {"lat": 51.52435883029149, "lng": -0.19051355}, "southwest": {"lat": 51.52166086970849, "lng": -0.19438055}}}, "name": "82-78 Amberley Rd", "place_id": "ChIJWVUYXgYQdkgRAdICP-o58S8", "types": ["route"]}, "ChIJ_2mV4AYQdkgRyuspERR8_9o": {"geometry": {"location": {"lat": 51.5218814, "lng": -0.1911236}, "viewport": {"northeast": {"lat": 51.5231048802915, "lng": -0.189807769708498}, "southwest": {"lat": 51.5204069197085, "lng": -0.192505730291502}}}, "name": "Forrester Court - Care UK", "place_id": "ChIJ_2mV4AYQdkgRyuspERR8_9o", "types": ["health", "point_of_interest", "establishment"], "rating": 4.5, "user_ratings_total": 12}, "ChIJiZUB2wYQdkgR108Lk3GaTZI": {"geometry": {"location": {"lat": 51.52086019999999, "lng": -0.1914591}, "viewport": {"northeast": {"lat": 51.5222474802915, "lng": -0.190061069708498}, "southwest": {"lat": 51.5195495197085, "lng": -0.192759030291502}}}, "name": "Blue Nile Bakery", "place_id": "ChIJiZUB2wYQdkgR108Lk3GaTZI", "types": ["bakery", "food", "point_of_interest", "store", "establishment"], "rating": 4.2, "user_ratings_total": 62}, "ChIJN1is0AYQdkgR57K9vpPC7zM": {"geometry": {"location": {"lat": 51.52078700000001, "lng": -0.191423}, "viewport": {"northeast": {"lat": 51.5222057802915, "lng": -0.190030069708498}, "southwest": {"lat": 51.51950781970851, "lng": -0.192728030291502}}}, "name": "Little Venice Fish Bar", "place_id": "ChIJN1is0AYQdkgR57K9vpPC7zM", "types": ["meal_delivery", "meal_takeaway", "restaurant", "food", "point_of_interest", "establishment"], "rating": 4, "user_ratings_total": 98}, "ChIJsTjrJwcQdkgRFNIfFJgQYDU": {"geometry": {"location": {"lat": 51.5208333, "lng": -0.1911111}, "viewport": {"northeast": {"lat": 51.5222356802915, "lng": -0.189791519708498}, "southwest": {"lat": 51.5195377197085, "lng": -0.192489480291502}}}, "name": "Ariana", "place_id": "ChIJsTjrJwcQdkgRFNIfFJgQYDU", "types": ["restaurant", "food", "point_of_interest", "establishment"], "rating": 3.6, "user_ratings_total": 47}, "ChIJEyFLxQYQdkgR49fVoMiIUNk": {"geometry": {"location": {"lat": 51.5208771, "lng": -0.1915577}, "viewport": {"northeast": {"lat": 51.5222715802915, "lng": -0.190135569708498}, "southwest": {"lat": 51.5195736197085, "lng": -0.192833530291502}}}, "name": "Habaybna Supermarket - \u062d\u0628\u0627\u064a\u0628\u0646\u0627 \u0633\u0648\u0628\u0631\u0645\u0627\u0631\u0643\u062a", "place_id": "ChIJEyFLxQYQdkgR49fVoMiIUNk", "types": ["supermarket", "grocery_or_supermarket", "food", "point_of_interest", "store", "establishment"], "rating": 4.3, "user_ratings_total": 4}, "ChIJ9a11aQYQdkgROmDzKpg2sBY": {"geometry": {"location": {"lat": 51.52363304207664, "lng": -0.1928358679463774}, "viewport": {"northeast": {"lat": 51.5249662302915, "lng": -0.191463369708498}, "southwest": {"lat": 51.5222682697085, "lng": -0.194161330291502}}}, "name": "Sutherland Avenue", "place_id": "ChIJ9a11aQYQdkgROmDzKpg2sBY", "types": ["route"]}, "ChIJPf-PagYQdkgRfkvbamcmGsw": {"geometry": {"location": {"lat": 51.52392529999999, "lng": -0.1925718}, "viewport": {"northeast": {"lat": 51.5252005302915, "lng": -0.191154119708498}, "southwest": {"lat": 51.5225025697085, "lng": -0.193852080291502}}}, "name": "SCL Consultancy", "place_id": "ChIJPf-PagYQdkgRfkvbamcmGsw", "types": ["point_of_interest", "establishment"]}, "ChIJSc6kHRcQdkgR0OaVEcc7rBo": {"geometry": {"location": {"lat": 51.52303190000001, "lng": -0.1920013}, "viewport": {"northeast": {"lat": 51.5244328302915, "lng": -0.190692419708498}, "southwest": {"lat": 51.5217348697085, "lng": -0.193390380291502}}}, "name": "ARK Atwood Primary Academy", "place_id": "ChIJSc6kHRcQdkgR0OaVEcc7rBo", "types": ["school", "point_of_interest", "establishment"], "rating": 4.5, "user_ratings_total": 18},