{"E00024097": {"ChIJI5d8FKgadkgR_C2vsqlyjCc": {"geometry": {"location": {"lat": 51.52435195891108, "lng": -0.1868190844267024}, "viewport": {"northeast": {"lat": 51.5257002302915, "lng": -0.18539225}, "southwest": {"lat": 51.5230022697085, "lng": -0.18824765}}}, "name": "84-44 Warwick Ave", "place_id": "ChIJI5d8FKgadkgR_C2vsqlyjCc", "types": ["route"]}, "ChIJ6zN5DagadkgRJPzUDXACi3s": {"geometry": {"location": {"lat": 51.52478180000001, "lng": -0.1868002}, "viewport": {"northeast": {"lat": 51.5261551802915, "lng": -0.185403919708498}, "southwest": {"lat": 51.5234572197085, "lng": -0.188101880291502}}}, "name": "Wavevend Communications Ltd", "place_id": "ChIJ6zN5DagadkgRJPzUDXACi3s", "types": ["point_of_interest", "establishment"], "rating": 4, "user_ratings_total": 3}, "ChIJ6zN5DagadkgRaZrTe7fzTO4": {"geometry": {"location": {"lat": 51.5247648, "lng": -0.1867558}, "viewport": {"northeast": {"lat": 51.52613488029149, "lng": -0.1853659697084979}, "southwest": {"lat": 51.52343691970849, "lng": -0.188063930291502}}}, "name": "Arendt Associates Architects", "place_id": "ChIJ6zN5DagadkgRaZrTe7fzTO4", "types": ["point_of_interest", "establishment"]}, "ChIJdX1Es7cadkgR8qgwAhJ0ptE": {"geometry": {"location": {"lat": 51.52476370000001, "lng": -0.18643}, "viewport": {"northeast": {"lat": 51.5260837302915, "lng": -0.185133719708498}, "southwest": {"lat": 51.5233857697085, "lng": -0.187831680291502}}}, "name": "DLBP Ltd Town planning and development consultants", "place_id": "ChIJdX1Es7cadkgR8qgwAhJ0ptE", "types": ["local_government_office", "point_of_interest", "establishment"]}, "ChIJ6zN5DagadkgRGMnBNamgRvA": {"geometry": {"location": {"lat": 51.5247201, "lng": -0.1867112}, "viewport": {"northeast": {"lat": 51.5260930802915, "lng": -0.185317369708498}, "southwest": {"lat": 51.5233951197085, "lng": -0.1880153302915021}}}, "name": "Wavend Ltd", "place_id": "ChIJ6zN5DagadkgRGMnBNamgRvA", "types": ["point_of_interest", "establishment"]}, "ChIJIa65DKgadkgRJE_nz8nmDS0": {"geometry": {"location": {"lat": 51.5249745, "lng": -0.186697}, "viewport": {"northeast": {"lat": 51.5262923302915, "lng": -0.185406719708498}, "southwest": {"lat": 51.5235943697085, "lng": -0.188104680291502}}}, "name": "Sicily \u00e0 la carte", "place_id": "ChIJIa65DKgadkgRJE_nz8nmDS0", "types": ["health", "point_of_interest", "establishment"], "rating": 5, "user_ratings_total": 1}, "ChIJ6zN5DagadkgRrt14oNRzu_Q": {"geometry": {"location": {"lat": 51.5247201, "lng": -0.1867112}, "viewport": {"northeast": {"lat": 51.5260930802915, "lng": -0.185317369708498}, "southwest": {"lat": 51.5233951197085, "lng": -0.1880153302915021}}}, "name": "App Slicker", "place_id": "ChIJ6zN5DagadkgRrt14oNRzu_Q", "types": ["point_of_interest", "establishment"]}, "ChIJT5OQdagadkgRmN0lI-DsIfQ": {"geometry": {"location": {"lat": 51.52491819999999, "lng": -0.1862465}, "viewport": {"northeast": {"lat": 51.5263286302915, "lng": -0.184784469708498}, "southwest": {"lat": 51.5236306697085, "lng": -0.1874824302915021}}}, "name": "Maida Vale Reiki", "place_id": "ChIJT5OQdagadkgRmN0lI-DsIfQ", "types": ["health", "point_of_interest", "establishment"], "rating": 5, "user_ratings_total": 2}, "ChIJ6zN5DagadkgRYw_hCz7A-VU": {"geometry": {"location": {"lat": 51.52506760000001, "lng": -0.186846}, "viewport": {"northeast": {"lat": 51.5263815302915, "lng": -0.185539069708498}, "southwest": {"lat": 51.5236835697085, "lng": -0.188237030291502}}}, "name": "Pindock Productions Ltd", "place_id": "ChIJ6zN5DagadkgRYw_hCz7A-VU", "types": ["point_of_interest", "establishment"]}, "ChIJ__9vl9QadkgR39hAtRDEmFc": {"geometry": {"location": {"lat": 51.5247714, "lng": -0.1860159}, "viewport": {"northeast": {"lat": 51.5261780302915, "lng": -0.184560819708498}, "southwest": {"lat": 51.5234800697085, "lng": -0.187258780291502}}}, "name": "Bird&Co Group", "place_id": "ChIJ__9vl9QadkgR39hAtRDEmFc", "types": ["point_of_interest", "establishment"], "rating": 5, "user_ratings_total": 1}, "ChIJn0i8eqgadkgRcPDC_IOrH2w": {"geometry": {"location": {"lat": 51.52478680000002, "lng": -0.1858426}, "viewport": {"northeast": {"lat": 51.5261638302915, "lng": -0.184443069708498}, "southwest": {"lat": 51.5234658697085, "lng": -0.187141030291502}}}, "name": "Nova Star Capital Ltd", "place_id": "ChIJn0i8eqgadkgRcPDC_IOrH2w", "types": ["finance", "point_of_interest", "establishment"]}, "ChIJ6zN5DagadkgRdypUKWTAMN4": {"geometry": {"location": {"lat": 51.5248139, "lng": -0.1868233}, "viewport": {"northeast": {"lat": 51.5261842802915, "lng": -0.185432869708498}, "southwest": {"lat": 51.5234863197085, "lng": -0.188130830291502}}}, "name": "Minder Music", "place_id": "ChIJ6zN5DagadkgRdypUKWTAMN4", "types": ["electronics_store", "home_goods_store", "point_of_interest", "store", "establishment"]}, "ChIJWSDycqgadkgRzdld7pr1Ho0": {"geometry": {"location": {"lat": 51.5248187, "lng": -0.1864968}, "viewport": {"northeast": {"lat": 51.5261377802915, "lng": -0.185203769708498}, "southwest": {"lat": 51.5234398197085, "lng": -0.187901730291502}}}, "name": "Christopher Ridley Photographer", "place_id": "ChIJWSDycqgadkgRzdld7pr1Ho0", "types": ["point_of_interest", "establishment"]}, "ChIJRaP-9tUEdkgR7OlhDGMngV8": {"geometry": {"location": {"lat": 51.5248114, "lng": -0.186879}, "viewport": {"northeast": {"lat": 51.5261908302915, "lng": -0.185471069708498}, "southwest": {"lat": 51.5234928697085, "lng": -0.188169030291502}}}, "name": "Karmel Foods Limited", "place_id": "ChIJRaP-9tUEdkgR7OlhDGMngV8", "types": ["food", "point_of_interest", "establishment"], "rating": 5, "user_ratings_total": 1}, "ChIJh7UfdKgadkgRDKLWSPU3yIc": {"geometry": {"location": {"lat": 51.52511799999999, "lng": -0.186281}, "viewport": {"northeast": {"lat": 51.5264904302915, "lng": -0.184888569708498}, "southwest": {"lat": 51.5237924697085, "lng": -0.187586530291502}}}, "name": "ubitricity Charging Station", "place_id": "ChIJh7UfdKgadkgRDKLWSPU3yIc", "types": ["point_of_interest", "establishment"]}, "ChIJsyM1d6gadkgRKXdkJz0Yak0": {"geometry": {"location": {"lat": 51.5250502, "lng": -0.1860082}, "viewport": {"northeast": {"lat": 51.52641218029149, "lng": -0.184635269708498}, "southwest": {"lat": 51.5237142197085, "lng": -0.187333230291502}}}, "name": "Get Chauffeured London", "place_id": "ChIJsyM1d6gadkgRKXdkJz0Yak0", "types": ["point_of_interest", "establishment"], "rating": 4, "user_ratings_total": 1}, "ChIJg8-qPNAddkgRAkwsDYyHWLg": {"geometry": {"location": {"lat": 51.52456220000001, "lng": -0.1861457}, "viewport": {"northeast": {"lat": 51.52588178029151, "lng": -0.184852619708498}, "southwest": {"lat": 51.52318381970851, "lng": -0.187550580291502}}}, "name": "Wer Bakery", "place_id": "ChIJg8-qPNAddkgRAkwsDYyHWLg", "types": ["bakery", "food", "point_of_interest", "store", "establishment"]}, "ChIJ23lu2Z4bdkgRay1rO3x9kIk": {"geometry": {"location": {"lat": 51.524522, "lng": -0.1860986}, "viewport": {"northeast": {"lat": 51.5258421802915, "lng": -0.184802419708498}, "southwest": {"lat": 51.52314421970851, "lng": -0.187500380291502}}}, "name": "Teardrop Gallery", "place_id": "ChIJ23lu2Z4bdkgRay1rO3x9kIk", "types": ["art_gallery", "point_of_interest", "establishment"]}, "ChIJjz8zO5QbdkgRlS6gukrBTFk": {"geometry": {"location": {"lat": 51.524522, "lng": -0.1860986}, "viewport": {"northeast": {"lat": 51.5258421802915, "lng": -0.184802419708498}, "southwest": {"lat": 51.52314421970851, "lng": -0.187500380291502}}}, "name": "Cane & Davis", "place_id": "ChIJjz8zO5QbdkgRlS6gukrBTFk", "types": ["art_gallery", "general_contractor", "point_of_interest", "store", "establishment"]}, "ChIJaSbTc6gadkgRxBuqIWRUqLA": {"geometry": {"location": {"lat": 51.52478680000002, "lng": -0.1858426}, "viewport": {"northeast": {"lat": 51.5261638302915, "lng": -0.184443069708498}, "southwest": {"lat": 51.5234658697085, "lng": -0.187141030291502}}}, "name": "Thomas Massengale - Classical Homeopath", "place_id": "ChIJaSbTc6gadkgRxBuqIWRUqLA", "types": ["health", "point_of_interest", "establishment"]}, "ChIJb0oKdqgadkgRIPXMS-GMECg": {"geometry": {"location": {"lat": 51.5253095, "lng": -0.1862798}, "viewport": {"northeast": {"lat": 51.5266434302915, "lng": -0.1849586697084979}, "southwest": {"lat": 51.5239454697085, "lng": -0.187656630291502}}}, "name": "ubitricity Charging Station", "place_id": "ChIJb0oKdqgadkgRIPXMS-GMECg", "types": ["point_of_interest", "establishment"]}, "ChIJnQrWZKgadkgRVkAEC4lIspQ": {"geometry": {"location": {"lat": 51.5246971, "lng": -0.1857149}, "viewport": {"northeast": {"lat": 51.52607423029149, "lng": -0.184315119708498}, "southwest": {"lat": 51.5233762697085, "lng": -0.187013080291502}}}, "name": "Nicolas Kent", "place_id": "ChIJnQrWZKgadkgRVkAEC4lIspQ", "types": ["point_of_interest", "establishment"]}, "ChIJZxkre6gadkgRloFmtxXBY_4": {"geometry": {"location": {"lat": 51.5247264, "lng": -0.1857009}, "viewport": {"northeast": {"lat": 51.5260961802915, "lng": -0.184318569708498}, "southwest": {"lat": 51.5233982197085, "lng": -0.187016530291502}}}, "name": "ubitricity Charging Station", "place_id": "ChIJZxkre6gadkgRloFmtxXBY_4", "types": ["point_of_interest", "establishment"]}, "ChIJwdNh4KcadkgRBWLfHFuOE90": {"geometry": {"location": {"lat": 51.5253611, "lng": -0.1862407}, "viewport": {"northeast": {"lat": 51.5266751302915, "lng": -0.184956469708498}, "southwest": {"lat": 51.5239771697085, "lng": -0.187654430291502}}}, "name": "Kythira Investments Ltd", "place_id": "ChIJwdNh4KcadkgRBWLfHFuOE90", "types": ["general_contractor", "point_of_interest", "establishment"], "rating": 5, "user_ratings_total": 1}, "ChIJ6z-jRqgadkgRDTuitlqAIbo": {"geometry": {"location": {"lat": 51.52364129999999, "lng": -0.1862512}, "viewport": {"northeast": {"lat": 51.5250263802915, "lng": -0.184985619708498}, "southwest": {"lat": 51.5223284197085, "lng": -0.187683580291502}}}, "name": "London Hypnotherapy Centre", "place_id": "ChIJ6z-jRqgadkgRDTuitlqAIbo", "types": ["health", "point_of_interest", "establishment"]}, "ChIJu0BBRKgadkgR9ve89lKSOqo": {"geometry": {"location": {"lat": 51.5236404, "lng": -0.1862524}, "viewport": {"northeast": {"lat": 51.5250253802915, "lng": -0.184986769708498}, "southwest": {"lat": 51.5223274197085, "lng": -0.1876847302915021}}}, "name": "O'Shea Decorating", "place_id": "ChIJu0BBRKgadkgR9ve89lKSOqo", "types": ["painter", "point_of_interest", "establishment"]}, "ChIJu0x9OagadkgRjUrexxdx9Co": {"geometry": {"location": {"lat": 51.5236065, "lng": -0.1869972}, "viewport": {"northeast": {"lat": 51.52487728029149, "lng": -0.185707819708498}, "southwest": {"lat": 51.5221793197085, "lng": -0.188405780291502}}}, "name": "Imaginarium", "place_id": "ChIJu0x9OagadkgRjUrexxdx9Co", "types": ["clothing_store", "point_of_interest", "store", "establishment"]}, "ChIJTVAX9QcQdkgR0_M8041WTmc": {"geometry": {"location": {"lat": 51.5236066, "lng": -0.1870473}, "viewport": {"northeast": {"lat": 51.52488493029149, "lng": -0.185723369708498}, "southwest": {"lat": 51.5221869697085, "lng": -0.188421330291502}}}, "name": "Happy Healthy Hoops", "place_id": "ChIJTVAX9QcQdkgR0_M8041WTmc", "types": ["gym", "health", "point_of_interest", "establishment"], "rating": 5, "user_ratings_total": 1}, "ChIJQcTXO6gadkgRWBdhsExU8-g": {"geometry": {"location": {"lat": 51.52359089999999, "lng": -0.187034}, "viewport": {"northeast": {"lat": 51.5248293302915, "lng": -0.1856167697084979}, "southwest": {"lat": 51.5221313697085, "lng": -0.188314730291502}}}, "name": "St Saviour's C of E Primary School", "place_id": "ChIJQcTXO6gadkgRWBdhsExU8-g", "types": ["primary_school", "school", "point_of_interest", "establishment"], "rating": 4.2, "user_ratings_total": 10}, "ChIJKQWcQKgadkgRd7gNWwfTvoQ": {"geometry": {"location": {"lat": 51.52368790000001, "lng": -0.1867124}, "viewport": {"northeast": {"lat": 51.52503688029151, "lng": -0.185363419708498}, "southwest": {"lat": 51.52233891970852, "lng": -0.188061380291502}}}, "name": "Braithwait", "place_id": "ChIJKQWcQKgadkgRd7gNWwfTvoQ", "types": ["real_estate_agency", "point_of_interest", "establishment"], "rating": 4.4, "user_ratings_total": 13}, "ChIJseY9QagadkgRUfErVrMxDIQ": {"geometry": {"location": {"lat": 51.523809, "lng": -0.186383}, "viewport": {"northeast": {"lat": 51.5251466802915, "lng": -0.185009019708498}, "southwest": {"lat": 51.5224487197085, "lng": -0.187706980291502}}}, "name": "ubitricity Charging Station", "place_id": "ChIJseY9QagadkgRUfErVrMxDIQ", "types": ["point_of_interest", "establishment"]}, "ChIJN9G5OKgadkgRpoquuEfJmmE": {"geometry": {"location": {"lat": 51.52368790000001, "lng": -0.1867124}, "viewport": {"northeast": {"lat": 51.5249977802915, "lng": -0.185275619708498}, "southwest": {"lat": 51.5222998197085, "lng": -0.187973580291502}}}, "name": "Debussy Developments", "place_id": "ChIJN9G5OKgadkgRpoquuEfJmmE", "types": ["general_contractor", "point_of_interest", "establishment"]}, "ChIJH4kCE6gadkgRz3pC_tfE9-0": {"geometry": {"location": {"lat": 51.5239775, "lng": -0.1863349}, "viewport": {"northeast": {"lat": 51.5252920802915, "lng": -0.184914069708498}, "southwest": {"lat": 51.5225941197085, "lng": -0.187612030291502}}}, "name": "48 Warwick Avenue", "place_id": "ChIJH4kCE6gadkgRz3pC_tfE9-0", "types": ["point_of_interest", "establishment"], "rating": 3, "user_ratings_total": 1}, "ChIJzybCIbYbdkgRqq9oXeJVnqY": {"geometry": {"location": {"lat": 51.524039, "lng": -0.1864494}, "viewport": {"northeast": {"lat": 51.5254312302915, "lng": -0.185047019708498}, "southwest": {"lat": 51.5227332697085, "lng": -0.1877449802915021}}}, "name": "Cosber Properties", "place_id": "ChIJzybCIbYbdkgRqq9oXeJVnqY", "types": ["point_of_interest", "establishment"], "rating": 5, "user_ratings_total": 2}, "ChIJMxO9WagadkgRWiKcr5s3MM0": {"geometry": {"location": {"lat": 51.52372150000001, "lng": -0.1859902}, "viewport": {"northeast": {"lat": 51.52516348029151, "lng": -0.184552469708498}, "southwest": {"lat": 51.52246551970851, "lng": -0.187250430291502}}}, "name": "The Mosaic Community Trust", "place_id": "ChIJMxO9WagadkgRWiKcr5s3MM0", "types": ["point_of_interest", "establishment"], "rating": 5, "user_ratings_total": 1}, "ChIJMxO9WagadkgRylzVkqqYR6c": {"geometry": {"location": {"lat": 51.52372099999999, "lng": -0.1859753}, "viewport": {"northeast": {"lat": 51.5251611302915, "lng": -0.184539319708498}, "southwest": {"lat": 51.5224631697085, "lng": -0.187237280291502}}}, "name": "Shannons Mobile Discos", "place_id": "ChIJMxO9WagadkgRylzVkqqYR6c", "types": ["point_of_interest", "establishment"]}, "ChIJY4OrFagadkgRQdrdNCc2ebg": {"geometry": {"location": {"lat": 51.52420960000001, "lng": -0.1868442}, "viewport": {"northeast": {"lat": 51.5256075302915, "lng": -0.185434819708498}, "southwest": {"lat": 51.5229095697085, "lng": -0.1881327802915021}}}, "name": "Nas Construction", "place_id": "ChIJY4OrFagadkgRQdrdNCc2ebg", "types": ["general_contractor", "point_of_interest", "establishment"]}, "ChIJtc64SKgadkgRMin3jjgYK7w": {"geometry": {"location": {"lat": 51.5232584, "lng": -0.1864698}, "viewport": {"northeast": {"lat": 51.5245624302915, "lng": -0.185164819708498}, "southwest": {"lat": 51.5218644697085, "lng": -0.187862780291502}}}, "name": "21st Century Art", "place_id": "ChIJtc64SKgadkgRMin3jjgYK7w", "types": ["art_gallery", "point_of_interest", "store", "establishment"], "rating": 4.4, "user_ratings_total": 7}, "ChIJCSBGtqkadkgR7-7DOQwojaI": {"geometry": {"location": {"lat": 51.52229224996203, "lng": -0.1865112639204208}, "viewport": {"northeast": {"lat": 51.5236422302915, "lng": -0.18474525}, "southwest": {"lat": 51.5209442697085, "lng": -0.18827545}}}, "name": "Blomfield Road", "place_id": "ChIJCSBGtqkadkgR7-7DOQwojaI", "types": ["route"]}, "ChIJJ2CxTqgadkgRI4_oW97ZU40": {"geometry": {"location": {"lat": 51.5231462, "lng": -0.1862397}, "viewport": {"northeast": {"lat": 51.5244592802915, "lng": -0.1849246697084979}, "southwest": {"lat": 51.5217613197085, "lng": -0.187622630291502}}}, "name": "Little Venice Pilates & Physiotherapy @ Ten Health & Fitness", "place_id": "ChIJJ2CxTqgadkgRI4_oW97ZU40", "types": ["physiotherapist", "gym", "health", "point_of_interest", "establishment"], "rating": 5, "user_ratings_total": 21}, "ChIJ3yXLUakadkgRF025XFQxe5s": {"geometry": {"location": {"lat": 51.5231664, "lng": -0.1862276}, "viewport": {"northeast": {"lat": 51.5244703302915, "lng": -0.184921219708498}, "southwest": {"lat": 51.5217723697085, "lng": -0.187619180291502}}}, "name": "IAM Click", "place_id": "ChIJ3yXLUakadkgRF025XFQxe5s", "types": ["point_of_interest", "establishment"], "rating": 5, "user_ratings_total": 1}, "ChIJpUs5SagadkgRqnoM_-cw5Ao": {"geometry": {"location": {"lat": 51.52317780000001, "lng": -0.1862775}, "viewport": {"northeast": {"lat": 51.5244842802915, "lng": -0.184968669708498}, "southwest": {"lat": 51.5217863197085, "lng": -0.187666630291502}}}, "name": "Men's Furnishings", "place_id": "ChIJpUs5SagadkgRqnoM_-cw5Ao", "types": ["point_of_interest", "establishment"]}, "ChIJpUs5SagadkgRLkE732wMPOg": {"geometry": {"location": {"lat": 51.52317780000001, "lng": -0.1862775}, "viewport": {"northeast": {"lat": 51.5244842802915, "lng": -0.184968669708498}, "southwest": {"lat": 51.5217863197085, "lng": -0.187666630291502}}}, "name": "Instinct Studios", "place_id": "ChIJpUs5SagadkgRLkE732wMPOg", "types": ["finance", "point_of_interest", "establishment"]}, "ChIJpUs5SagadkgRhs770KQLEAs": {"geometry": {"location": {"lat": 51.523202, "lng": -0.1863639}, "viewport": {"northeast": {"lat": 51.52451198029149, "lng": -0.185053119708498}, "southwest": {"lat": 51.52181401970849, "lng": -0.187751080291502}}}, "name": "Tailor Made Management Ltd", "place_id": "ChIJpUs5SagadkgRhs770KQLEAs", "types": ["real_estate_agency", "point_of_interest", "establishment"], "rating": 1, "user_ratings_total": 2}, "ChIJ4x2jTqgadkgRBY7XEvfr_54": {"geometry": {"location": {"lat": 51.52307120000001, "lng": -0.1859534}, "viewport": {"northeast": {"lat": 51.52437323029151, "lng": -0.184648819708498}, "southwest": {"lat": 51.52167526970851, "lng": -0.187346780291502}}}, "name": "Thomas and Paul Contemporary Art", "place_id": "ChIJ4x2jTqgadkgRBY7XEvfr_54", "types": ["art_gallery", "point_of_interest", "establishment"]}, "ChIJZQWcTqgadkgRTAcpwlg4Eaw": {"geometry": {"location": {"lat": 51.5231276, "lng": -0.1860609}, "viewport": {"northeast": {"lat": 51.52442328029149, "lng": -0.184762269708498}, "southwest": {"lat": 51.52172531970849, "lng": -0.187460230291502}}}, "name": "Ferrari Hire", "place_id": "ChIJZQWcTqgadkgRTAcpwlg4Eaw", "types": ["car_rental", "point_of_interest", "establishment"], "rating": 4, "user_ratings_total": 4}, "ChIJ5xfBaQAQdkgRE1psxX7w8ko": {"geometry": {"location": {"lat": 51.52322710000001, "lng": -0.1864561}, "viewport": {"northeast": {"lat": 51.52453918029151, "lng": -0.185141619708498}, "southwest": {"lat": 51.52184121970851, "lng": -0.187839580291502}}}, "name": "Ark Properties", "place_id": "ChIJ5xfBaQAQdkgRE1psxX7w8ko", "types": ["point_of_interest", "establishment"]}, "ChIJnRhk7nQQdkgRWoGGJeM4_yg": {"geometry": {"location": {"lat": 51.5231554, "lng": -0.1860792}, "viewport": {"northeast": {"lat": 51.5244432302915, "lng": -0.184788019708498}, "southwest": {"lat": 51.5217452697085, "lng": -0.187485980291502}}}, "name": "Roselind Wilson Design", "place_id": "ChIJnRhk7nQQdkgRWoGGJeM4_yg", "types": ["general_contractor", "point_of_interest", "establishment"], "rating": 5, "user_ratings_total": 1}, "ChIJua71KKMadkgReBdvI29TMnQ": {"geometry": {"location": {"lat": 51.5224064, "lng": -0.1863376}, "viewport": {"northeast": {"lat": 51.52368748029151, "lng": -0.1850435697084979}, "southwest": {"lat": 51.52098951970851, "lng": -0.187741530291502}}}, "name": "HR Photography", "place_id": "ChIJua71KKMadkgReBdvI29TMnQ", "types": ["point_of_interest", "establishment"], "rating": 5, "user_ratings_total": 1}, "ChIJIRrrw0kbdkgR_eI5mh2xC0o": {"geometry": {"location": {"lat": 51.52239190000001, "lng": -0.1863266}, "viewport": {"northeast": {"lat": 51.52367743029151, "lng": -0.185029019708498}, "southwest": {"lat": 51.52097946970851, "lng": -0.187726980291502}}}, "name": "Purple W", "place_id": "ChIJIRrrw0kbdkgR_eI5mh2xC0o", "types": ["point_of_interest", "establishment"]}, "ChIJpQidSagadkgR_-iOrhQ3U_s": {"geometry": {"location": {"lat": 51.5231239, "lng": -0.1864544}, "viewport": {"northeast": {"lat": 51.52444988029151, "lng": -0.185127869708498}, "southwest": {"lat": 51.52175191970851, "lng": -0.187825830291502}}}, "name": "Gaveds Limited", "place_id": "ChIJpQidSagadkgR_-iOrhQ3U_s", "types": ["point_of_interest", "establishment"]}, "ChIJg91nzIIbdkgR0CrxaLkVGLo": {"geometry": {"location": {"lat": 51.5230075, "lng": -0.1870545}, "viewport": {"northeast": {"lat": 51.5243793302915, "lng": -0.185757219708498}, "southwest": {"lat": 51.5216813697085, "lng": -0.188455180291502}}}, "name": "The Therapy Garden", "place_id": "ChIJg91nzIIbdkgR0CrxaLkVGLo", "types": ["health", "point_of_interest", "establishment"]}, "ChIJVVuk9UYbdkgRcSRd0Z-vHPk": {"geometry": {"location": {"lat": 51.5230075, "lng": -0.1870545}, "viewport": {"northeast": {"lat": 51.5243793302915, "lng": -0.185757219708498}, "southwest": {"lat": 51.5216813697085, "lng": -0.188455180291502}}}, "name": "T", "place_id": "ChIJVVuk9UYbdkgRcSRd0Z-vHPk", "types": ["restaurant", "food", "point_of_interest", "establishment"]}, "ChIJJ2CxTqgadkgRjN0DWLcsPcc": {"geometry": {"location": {"lat": 51.5231664, "lng": -0.1862276}, "viewport": {"northeast": {"lat": 51.5244703302915, "lng": -0.184921219708498}, "southwest": {"lat": 51.5217723697085, "lng": -0.187619180291502}}}, "name": "London Insomnia Clinic", "place_id": "ChIJJ2CxTqgadkgRjN0DWLcsPcc", "types": ["hospital", "health", "point_of_interest", "establishment"]}, "ChIJ3dvITqgadkgRIFxRR04ILdA": {"geometry": {"location": {"lat": 51.5231732, "lng": -0.1862261}, "viewport": {"northeast": {"lat": 51.5244743802915, "lng": -0.184922269708498}, "southwest": {"lat": 51.5217764197085, "lng": -0.187620230291502}}}, "name": "The Chancery Group", "place_id": "ChIJ3dvITqgadkgRIFxRR04ILdA", "types": ["point_of_interest", "establishment"]}, "ChIJbdeWmXMbdkgRavnZNJqlP0M": {"geometry": {"location": {"lat": 51.5231276, "lng": -0.1860609}, "viewport": {"northeast": {"lat": 51.52442328029149, "lng": -0.184762269708498}, "southwest": {"lat": 51.52172531970849, "lng": -0.187460230291502}}}, "name": "3XP Solutions", "place_id": "ChIJbdeWmXMbdkgRavnZNJqlP0M", "types": ["point_of_interest", "establishment"]}, "ChIJhcgHUqgadkgRF356KErScj0": {"geometry": {"location": {"lat": 51.5230378, "lng": -0.1858844}, "viewport": {"northeast": {"lat": 51.52434283029149, "lng": -0.184576919708498}, "southwest": {"lat": 51.5216448697085, "lng": -0.187274880291502}}}, "name": "Pidge-Monk Palace", "place_id": "ChIJhcgHUqgadkgRF356KErScj0", "types": ["point_of_interest", "establishment"]}, "ChIJPXgcfIEbdkgRXi4yxYjs5Ko": {"geometry": {"location": {"lat": 51.5230437, "lng": -0.1858817}, "viewport": {"northeast": {"lat": 51.5243461802915, "lng": -0.184576669708498}, "southwest": {"lat": 51.5216482197085, "lng": -0.187274630291502}}}, "name": "FR-Group", "place_id": "ChIJPXgcfIEbdkgRXi4yxYjs5Ko", "types": ["restaurant", "food", "point_of_interest", "establishment"]}, "ChIJ-fLwTagadkgRdPmmq2VRAHQ": {"geometry": {"location": {"lat": 51.5230437, "lng": -0.1858817}, "viewport": {"northeast": {"lat": 51.5243461802915, "lng": -0.184576669708498}, "southwest": {"lat": 51.5216482197085, "lng": -0.187274630291502}}}, "name": "Buddys Flower Deliveries", "place_id": "ChIJ-fLwTagadkgRdPmmq2VRAHQ", "types": ["florist", "point_of_interest", "store", "establishment"], "rating": 5, "user_ratings_total": 3}, "ChIJN_wTSagadkgRBxYjRIwkLwc": {"geometry": {"location": {"lat": 51.5232255, "lng": -0.1863658}, "viewport": {"northeast": {"lat": 51.52457448029149, "lng": -0.185016819708498}, "southwest": {"lat": 51.52187651970849, "lng": -0.187714780291502}}}, "name": "Dandi", "place_id": "ChIJN_wTSagadkgRBxYjRIwkLwc", "types": ["point_of_interest", "establishment"]}, "ChIJAQAUUqgadkgR51olfvV3-GM": {"geometry": {"location": {"lat": 51.523013, "lng": -0.185824}, "viewport": {"northeast": {"lat": 51.5243190802915, "lng": -0.1845155697084979}, "southwest": {"lat": 51.5216211197085, "lng": -0.187213530291502}}}, "name": "Fluid Ice Family Office Ltd", "place_id": "ChIJAQAUUqgadkgR51olfvV3-GM", "types": ["point_of_interest", "establishment"]}, "ChIJEevxuKkadkgR-H2_hAbXwBY": {"geometry": {"location": {"lat": 51.52189097602894, "lng": -0.1864876845190486}, "viewport": {"northeast": {"lat": 51.5232398802915, "lng": -0.185138769708498}, "southwest": {"lat": 51.5205419197085, "lng": -0.187836730291502}}}, "name": "Delamere Terrace", "place_id": "ChIJEevxuKkadkgR-H2_hAbXwBY", "types": ["route"]}, "ChIJk0KgnKkadkgRuD_AdIlOsTs": {"geometry": {"location": {"lat": 51.52132870000001, "lng": -0.1860888}, "viewport": {"northeast": {"lat": 51.52271418029151, "lng": -0.184835869708498}, "southwest": {"lat": 51.52001621970851, "lng": -0.187533830291502}}}, "name": "Southside Partnership", "place_id": "ChIJk0KgnKkadkgRuD_AdIlOsTs", "types": ["health", "point_of_interest", "establishment"]}, "ChIJ61CSHMMbdkgRtFOVg7zIHhE": {"geometry": {"location": {"lat": 51.52180459999999, "lng": -0.1859797}, "viewport": {"northeast": {"lat": 51.52315358029149, "lng": -0.184630719708498}, "southwest": {"lat": 51.52045561970849, "lng": -0.187328680291502}}}, "name": "Little Venice mooring", "place_id": "ChIJ61CSHMMbdkgRtFOVg7zIHhE", "types": ["point_of_interest", "establishment"]}, "ChIJS5wnypobdkgR8kNXD1he7Fs": {"geometry": {"location": {"lat": 51.52169509999999, "lng": -0.1859054}, "viewport": {"northeast": {"lat": 51.52301643029149, "lng": -0.1845807197084979}, "southwest": {"lat": 51.52031846970849, "lng": -0.187278680291502}}}, "name": "Aria", "place_id": "ChIJS5wnypobdkgR8kNXD1he7Fs", "types": ["health", "point_of_interest", "establishment"]}, "ChIJ6wtPlqkadkgRKXXy46-oUB4": {"geometry": {"location": {"lat": 51.52131939999999, "lng": -0.1861049}, "viewport": {"northeast": {"lat": 51.52270388029149, "lng": -0.184849419708498}, "southwest": {"lat": 51.5200059197085, "lng": -0.187547380291502}}}, "name": "Floor Refurbish Westminster", "place_id": "ChIJ6wtPlqkadkgRKXXy46-oUB4", "types": ["general_contractor", "point_of_interest", "establishment"]}, "ChIJkfWmotobdkgRHMms5BrzOSE": {"geometry": {"location": {"lat": 51.5208632, "lng": -0.1865807}, "viewport": {"northeast": {"lat": 51.5221743302915, "lng": -0.185302969708498}, "southwest": {"lat": 51.5194763697085, "lng": -0.188000930291502}}}, "name": "SS Foods & Wine", "place_id": "ChIJkfWmotobdkgRHMms5BrzOSE", "types": ["convenience_store", "food", "point_of_interest", "store", "establishment"], "rating": 5, "user_ratings_total": 3}, "ChIJTQN65akadkgRFItOo3Uqs4s": {"geometry": {"location": {"lat": 51.5208954, "lng": -0.1873972}, "viewport": {"northeast": {"lat": 51.52226380205071, "lng": -0.1860455202911998}, "southwest": {"lat": 51.51956584146771, "lng": -0.1887434808742038}}}, "name": "Parking lot", "place_id": "ChIJTQN65akadkgRFItOo3Uqs4s", "types": ["parking", "premise", "point_of_interest", "establishment"]}, "ChIJHyVO5AcQdkgRVwXfXFMagWk": {"geometry": {"location": {"lat": 51.52507870008967, "lng": -0.1885767501652374}, "viewport": {"northeast": {"lat": 51.5264276802915, "lng": -0.187227769708498}, "southwest": {"lat": 51.5237297197085, "lng": -0.189925730291502}}}, "name": "Sutherland Avenue", "place_id": "ChIJHyVO5AcQdkgRVwXfXFMagWk", "types": ["route"]}, "ChIJZy3iB6gadkgR_uhRB20CZRo": {"geometry": {"location": {"lat": 51.52517499999999, "lng": -0.1879654}, "viewport": {"northeast": {"lat": 51.52657168029149, "lng": -0.186659019708498}, "southwest": {"lat": 51.52387371970849, "lng": -0.189356980291502}}}, "name": "Wytham Hall", "place_id": "ChIJZy3iB6gadkgR_uhRB20CZRo", "types": ["point_of_interest", "establishment"], "rating": 4.4, "user_ratings_total": 5}, "ChIJt30lHagadkgRobUt4rshJqQ": {"geometry": {"location": {"lat": 51.5246725, "lng": -0.1879651}, "viewport": {"northeast": {"lat": 51.5260916802915, "lng": -0.186530419708498}, "southwest": {"lat": 51.5233937197085, "lng": -0.189228380291502}}}, "name": "DR GAWDAT MAGD", "place_id": "ChIJt30lHagadkgRobUt4rshJqQ", "types": ["health", "point_of_interest", "establishment"]}, "ChIJVVXhAagadkgRlLzNBvAFYyM": {"geometry": {"location": {"lat": 51.5251041, "lng": -0.1880927}, "viewport": {"northeast": {"lat": 51.5265090302915, "lng": -0.186796819708498}, "southwest": {"lat": 51.5238110697085, "lng": -0.189494780291502}}}, "name": "neosmile", "place_id": "ChIJVVXhAagadkgRlLzNBvAFYyM", "types": ["dentist", "health", "point_of_interest", "establishment"]}, "ChIJgUq8_wcQdkgR5lm6IN97vW0": {"geometry": {"location": {"lat": 51.525263, "lng": -0.188221}, "viewport": {"northeast": {"lat": 51.52660948029149, "lng": -0.186816169708498}, "southwest": {"lat": 51.5239115197085, "lng": -0.189514130291502}}}, "name": "ubitricity Charging Station", "place_id": "ChIJgUq8_wcQdkgR5lm6IN97vW0", "types": ["point_of_interest", "establishment"]}, "ChIJJ0HOaQ4RdkgRV1d1qHDHl64": {"geometry": {"location": {"lat": 51.5253466, "lng": -0.1881292}, "viewport": {"northeast": {"lat": 51.5266955802915, "lng": -0.186780219708498}, "southwest": {"lat": 51.5239976197085, "lng": -0.1894781802915021}}}, "name": "GT Rooters & Heating", "place_id": "ChIJJ0HOaQ4RdkgRV1d1qHDHl64", "types": ["plumber", "general_contractor", "point_of_interest", "establishment"]}, "ChIJYSEjMb4RdkgRqmaWZxB7hQ8": {"geometry": {"location": {"lat": 51.5253466, "lng": -0.1881292}, "viewport": {"northeast": {"lat": 51.5266955802915, "lng": -0.186780219708498}, "southwest": {"lat": 51.5239976197085, "lng": -0.1894781802915021}}}, "name": "NRG CCTV & Intercom Systems", "place_id": "ChIJYSEjMb4RdkgRqmaWZxB7hQ8", "types": ["point_of_interest", "establishment"]}, "ChIJaZbHRgYQdkgRSZDRaB6xU0Y": {"geometry": {"location": {"lat": 51.5253466, "lng": -0.1881292}, "viewport": {"northeast": {"lat": 51.5266955802915, "lng": -0.186780219708498}, "southwest": {"lat": 51.5239976197085, "lng": -0.1894781802915021}}}, "name": "Endy Engel Photography", "place_id": "ChIJaZbHRgYQdkgRSZDRaB6xU0Y", "types": ["point_of_interest", "establishment"], "rating": 5, "user_ratings_total": 2}, "ChIJHXil5QcQdkgRCxvxcTB8ENQ": {"geometry": {"location": {"lat": 51.524833, "lng": -0.1890689}, "viewport": {"northeast": {"lat": 51.5262104802915, "lng": -0.187745269708498}, "southwest": {"lat": 51.52351251970851, "lng": -0.190443230291502}}}, "name": "ubitricity Charging Station", "place_id": "ChIJHXil5QcQdkgRCxvxcTB8ENQ", "types": ["point_of_interest", "establishment"]}, "ChIJV3DnIKgadkgRKBilKC7rJj4": {"geometry": {"location": {"lat": 51.52382254137436, "lng": -0.1879585555959858}, "viewport": {"northeast": {"lat": 51.52517153029149, "lng": -0.1859756500000001}, "southwest": {"lat": 51.5224735697085, "lng": -0.18994145}}}, "name": "55-3 B413", "place_id": "ChIJV3DnIKgadkgRKBilKC7rJj4", "types": ["route"]}, "ChIJ1S0xiAcQdkgRxyPP-LxvRsg": {"geometry": {"location": {"lat": 51.52353489999999, "lng": -0.1881727}, "viewport": {"northeast": {"lat": 51.5248873802915, "lng": -0.186819319708498}, "southwest": {"lat": 51.52218941970851, "lng": -0.189517280291502}}}, "name": "Maha rugs", "place_id": "ChIJ1S0xiAcQdkgRxyPP-LxvRsg", "types": ["laundry", "home_goods_store", "point_of_interest", "store", "establishment"], "rating": 5, "user_ratings_total": 1}, "ChIJTVAX9QcQdkgRBxz9dqOgPUI": {"geometry": {"location": {"lat": 51.5241694, "lng": -0.1882819}, "viewport": {"northeast": {"lat": 51.5254596802915, "lng": -0.1870067697084979}, "southwest": {"lat": 51.52276171970851, "lng": -0.189704730291502}}}, "name": "La Jolie Ronde Languages for Children", "place_id": "ChIJTVAX9QcQdkgRBxz9dqOgPUI", "types": ["point_of_interest", "establishment"]}, "ChIJQ1AX9QcQdkgRe4vcO7jGICg": {"geometry": {"location": {"lat": 51.523801, "lng": -0.1874742}, "viewport": {"northeast": {"lat": 51.5250835302915, "lng": -0.186208869708498}, "southwest": {"lat": 51.5223855697085, "lng": -0.188906830291502}}}, "name": "KSA Executive Research", "place_id": "ChIJQ1AX9QcQdkgRe4vcO7jGICg", "types": ["point_of_interest", "establishment"]}, "ChIJ-dwsiwcQdkgRbwIrfzRvMe0": {"geometry": {"location": {"lat": 51.52399399999999, "lng": -0.18814}, "viewport": {"northeast": {"lat": 51.52531723029149, "lng": -0.1868234197084979}, "southwest": {"lat": 51.52261926970849, "lng": -0.189521380291502}}}, "name": "Charfield Court (Stop MH)", "place_id": "ChIJ-dwsiwcQdkgRbwIrfzRvMe0", "types": ["transit_station", "point_of_interest", "establishment"]}, "ChIJLadGTSoRdkgRmnF8zyuUQwg": {"geometry": {"location": {"lat": 51.52353489999999, "lng": -0.1881727}, "viewport": {"northeast": {"lat": 51.5248873802915, "lng": -0.186819319708498}, "southwest": {"lat": 51.52218941970851, "lng": -0.189517280291502}}}, "name": "Kun office", "place_id": "ChIJLadGTSoRdkgRmnF8zyuUQwg", "types": ["point_of_interest", "establishment"]}, "ChIJ5-YfJKgadkgR1PsYDws4Frk": {"geometry": {"location": {"lat": 51.523651, "lng": -0.1877359}, "viewport": {"northeast": {"lat": 51.5250142802915, "lng": -0.186368919708498}, "southwest": {"lat": 51.5223163197085, "lng": -0.189066880291502}}}, "name": "ubitricity Charging Station", "place_id": "ChIJ5-YfJKgadkgR1PsYDws4Frk", "types": ["point_of_interest", "establishment"]}, "ChIJ723GKKgadkgRiczr9oVX74A": {"geometry": {"location": {"lat": 51.523452, "lng": -0.1878203}, "viewport": {"northeast": {"lat": 51.52489498029149, "lng": -0.186353069708498}, "southwest": {"lat": 51.5221970197085, "lng": -0.189051030291502}}}, "name": "Charfield Court", "place_id": "ChIJ723GKKgadkgRiczr9oVX74A", "types": ["point_of_interest", "establishment"], "rating": 3.7, "user_ratings_total": 3}, "ChIJEUCV9AcQdkgRPV5LxumqT5k": {"geometry": {"location": {"lat": 51.524186, "lng": -0.188451}, "viewport": {"northeast": {"lat": 51.5254948802915, "lng": -0.187146519708498}, "southwest": {"lat": 51.5227969197085, "lng": -0.189844480291502}}}, "name": "Sun Dry Cleaners", "place_id": "ChIJEUCV9AcQdkgRPV5LxumqT5k", "types": ["laundry", "point_of_interest", "establishment"], "rating": 4.5, "user_ratings_total": 4}, "ChIJI5IkJqgadkgRnaNXv7r9uGk": {"geometry": {"location": {"lat": 51.52343370000001, "lng": -0.1878558}, "viewport": {"northeast": {"lat": 51.52475543029151, "lng": -0.186541569708498}, "southwest": {"lat": 51.52205746970851, "lng": -0.189239530291502}}}, "name": "Beatsahead", "place_id": "ChIJI5IkJqgadkgRnaNXv7r9uGk", "types": ["point_of_interest", "establishment"]}, "ChIJTVAX9QcQdkgRmghFECElvJ8": {"geometry": {"location": {"lat": 51.5242456, "lng": -0.1885137}, "viewport": {"northeast": {"lat": 51.5255392802915, "lng": -0.187207419708498}, "southwest": {"lat": 51.5228413197085, "lng": -0.189905380291502}}}, "name": "Da Daniela", "place_id": "ChIJTVAX9QcQdkgRmghFECElvJ8", "types": ["cafe", "restaurant", "food", "point_of_interest", "store", "establishment"], "rating": 4.3, "user_ratings_total": 468}, "ChIJ16UHJqgadkgRU4oVKI3_9f8": {"geometry": {"location": {"lat": 51.5234323, "lng": -0.1877444}, "viewport": {"northeast": {"lat": 51.5248699302915, "lng": -0.186283869708498}, "southwest": {"lat": 51.5221719697085, "lng": -0.188981830291502}}}, "name": "Monopolize Ltd", "place_id": "ChIJ16UHJqgadkgRU4oVKI3_9f8", "types": ["finance", "point_of_interest", "establishment"]}, "ChIJAcQaPBsbdkgRxIawWUvnsIA": {"geometry": {"location": {"lat": 51.5234323, "lng": -0.1877444}, "viewport": {"northeast": {"lat": 51.5248699302915, "lng": -0.186283869708498}, "southwest": {"lat": 51.5221719697085, "lng": -0.188981830291502}}}, "name": "digitalstarsagency", "place_id": "ChIJAcQaPBsbdkgRxIawWUvnsIA", "types": ["point_of_interest", "establishment"]}, "ChIJEQ1oI6gadkgRFs8dpVv9_rk": {"geometry": {"location": {"lat": 51.52377240000001, "lng": -0.1874678}, "viewport": {"northeast": {"lat": 51.5250628302915, "lng": -0.186192519708498}, "southwest": {"lat": 51.5223648697085, "lng": -0.188890480291502}}}, "name": "Junk & Disorderly", "place_id": "ChIJEQ1oI6gadkgRFs8dpVv9_rk", "types": ["point_of_interest", "establishment"]}, "ChIJD7VpKKgadkgRwt7Dp_q3yNk": {"geometry": {"location": {"lat": 51.52332320000001, "lng": -0.1879777000000001}, "viewport": {"northeast": {"lat": 51.52469728029151, "lng": -0.186596669708498}, "southwest": {"lat": 51.52199931970851, "lng": -0.189294630291502}}}, "name": "Working-With-Men", "place_id": "ChIJD7VpKKgadkgRwt7Dp_q3yNk", "types": ["point_of_interest", "establishment"]}, "ChIJ22SCg9ARdkgR8kE3HAN_OH4": {"geometry": {"location": {"lat": 51.5232593, "lng": -0.1882171}, "viewport": {"northeast": {"lat": 51.52468923029149, "lng": -0.186764719708498}, "southwest": {"lat": 51.5219912697085, "lng": -0.189462680291502}}}, "name": "Nearby park", "place_id": "ChIJ22SCg9ARdkgR8kE3HAN_OH4", "types": ["park", "point_of_interest", "establishment"], "rating": 4, "user_ratings_total": 1}, "ChIJTVAX9QcQdkgRGhgi0QCFxkM": {"geometry": {"location": {"lat": 51.5242808, "lng": -0.1885671}, "viewport": {"northeast": {"lat": 51.52557228029151, "lng": -0.187266169708498}, "southwest": {"lat": 51.52287431970851, "lng": -0.189964130291502}}}, "name": "Londonwide Estates Ltd", "place_id": "ChIJTVAX9QcQdkgRGhgi0QCFxkM", "types": ["real_estate_agency", "point_of_interest", "establishment"], "rating": 5, "user_ratings_total": 1}, "ChIJ6__R0qkadkgRsclbWvEwjBI": {"geometry": {"location": {"lat": 51.52275015000459, "lng": -0.1875095500202346}, "viewport": {"northeast": {"lat": 51.5240991302915, "lng": -0.186160569708498}, "southwest": {"lat": 51.5214011697085, "lng": -0.188858530291502}}}, "name": "Formosa Street", "place_id": "ChIJ6__R0qkadkgRsclbWvEwjBI", "types": ["route"]}, "ChIJs_mu1KkadkgRfbIeYOAvXbc": {"geometry": {"location": {"lat": 51.522764, "lng": -0.1877486}, "viewport": {"northeast": {"lat": 51.52408418029149, "lng": -0.186298519708498}, "southwest": {"lat": 51.52138621970849, "lng": -0.188996480291502}}}, "name": "The Waterway", "place_id": "ChIJs_mu1KkadkgRfbIeYOAvXbc", "types": ["restaurant", "bar", "food", "point_of_interest", "establishment"], "rating": 4.1, "user_ratings_total": 1458}, "ChIJmT3qIO4RdkgR6VGcZ_sndXY": {"geometry": {"location": {"lat": 51.5228999, "lng": -0.1883526}, "viewport": {"northeast": {"lat": 51.5243128302915, "lng": -0.186951969708498}, "southwest": {"lat": 51.5216148697085, "lng": -0.189649930291502}}}, "name": "Excellent breathwork practitioner- Power of the Breath", "place_id": "ChIJmT3qIO4RdkgR6VGcZ_sndXY", "types": ["health", "point_of_interest", "establishment"], "rating": 5, "user_ratings_total": 5}, "ChIJy08B2FQRdkgRRxlOqJQ1v7k": {"geometry": {"location": {"lat": 51.5228999, "lng": -0.1883526}, "viewport": {"northeast": {"lat": 51.5243128302915, "lng": -0.186951969708498}, "southwest": {"lat": 51.5216148697085, "lng": -0.189649930291502}}}, "name": "Maida Vale SINGING and PIANO Teacher", "place_id": "ChIJy08B2FQRdkgRRxlOqJQ1v7k", "types": ["electronics_store", "home_goods_store", "point_of_interest", "store", "establishment"], "rating": 5, "user_ratings_total": 4}, "ChIJu59WK6gadkgRa5bdhBc6vTA": {"geometry": {"location": {"lat": 51.522764, "lng": -0.1877486}, "viewport": {"northeast": {"lat": 51.5241533302915, "lng": -0.186378119708498}, "southwest": {"lat": 51.52145536970851, "lng": -0.189076080291502}}}, "name": "The Igloo At The Waterway", "place_id": "ChIJu59WK6gadkgRa5bdhBc6vTA", "types": ["point_of_interest", "establishment"], "rating": 3.5, "user_ratings_total": 2}, "ChIJ1cShegcQdkgRdYzvtwEblmg": {"geometry": {"location": {"lat": 51.52236109999999, "lng": -0.188729}, "viewport": {"northeast": {"lat": 51.5236963302915, "lng": -0.1876359197084979}, "southwest": {"lat": 51.5209983697085, "lng": -0.190333880291502}}}, "name": "Saint Mary Magdalene Church", "place_id": "ChIJ1cShegcQdkgRdYzvtwEblmg", "types": ["church", "place_of_worship", "point_of_interest", "establishment"], "rating": 4.6, "user_ratings_total": 47}, "ChIJ_78SxH0RdkgRu084NhLQS74": {"geometry": {"location": {"lat": 51.5223392, "lng": -0.188803}, "viewport": {"northeast": {"lat": 51.5236963302915, "lng": -0.187672919708498}, "southwest": {"lat": 51.5209983697085, "lng": -0.190370880291502}}}, "name": "Canalside Cafe", "place_id": "ChIJ_78SxH0RdkgRu084NhLQS74", "types": ["restaurant", "food", "point_of_interest", "establishment"]}, "ChIJ30YphwcQdkgRW44mhIxZvhk": {"geometry": {"location": {"lat": 51.5230913, "lng": -0.1882632}, "viewport": {"northeast": {"lat": 51.52444469019188, "lng": -0.1869182363771457}, "southwest": {"lat": 51.52174672960888, "lng": -0.1896161969601498}}}, "name": "Parking lot", "place_id": "ChIJ30YphwcQdkgRW44mhIxZvhk", "types": ["parking", "premise", "point_of_interest", "establishment"]}, "ChIJ-fKNYwcQdkgRjTGXoQJq0yE": {"geometry": {"location": {"lat": 51.52190662369182, "lng": -0.1884265602757086}, "viewport": {"northeast": {"lat": 51.52325433029149, "lng": -0.187077069708498}, "southwest": {"lat": 51.52055636970849, "lng": -0.189775030291502}}}, "name": "Senior Street", "place_id": "ChIJ-fKNYwcQdkgRjTGXoQJq0yE", "types": ["route"]}, "ChIJ-XDa2akadkgRFLfq6AD00-k": {"geometry": {"location": {"lat": 51.52205799999999, "lng": -0.187863}, "viewport": {"northeast": {"lat": 51.5235178302915, "lng": -0.186417519708498}, "southwest": {"lat": 51.5208198697085, "lng": -0.189115480291502}}}, "name": "Developer's Community", "place_id": "ChIJ-XDa2akadkgRFLfq6AD00-k", "types": ["point_of_interest", "establishment"]}, "ChIJARgUH8sbdkgRidQO1XtJ0Os": {"geometry": {"location": {"lat": 51.5216748, "lng": -0.1880006}, "viewport": {"northeast": {"lat": 51.52301543029151, "lng": -0.186655669708498}, "southwest": {"lat": 51.52031746970851, "lng": -0.189353630291502}}}, "name": "GLM PHOTOSTUDIO", "place_id": "ChIJARgUH8sbdkgRidQO1XtJ0Os", "types": ["point_of_interest", "establishment"]}, "ChIJAQBT36kadkgR2YqVP8kB1Cw": {"geometry": {"location": {"lat": 51.5217466, "lng": -0.1880586}, "viewport": {"northeast": {"lat": 51.5230483802915, "lng": -0.186732419708498}, "southwest": {"lat": 51.5203504197085, "lng": -0.189430380291502}}}, "name": "ITC", "place_id": "ChIJAQBT36kadkgR2YqVP8kB1Cw", "types": ["point_of_interest", "establishment"]}, "ChIJ1fT3YQcQdkgRhj-FRgpYKRQ": {"geometry": {"location": {"lat": 51.5217511, "lng": -0.1880618}, "viewport": {"northeast": {"lat": 51.52305108029149, "lng": -0.186736469708498}, "southwest": {"lat": 51.5203531197085, "lng": -0.189434430291502}}}, "name": "OnlineHealthTutor", "place_id": "ChIJ1fT3YQcQdkgRhj-FRgpYKRQ", "types": ["point_of_interest", "establishment"], "rating": 5, "user_ratings_total": 1}, "ChIJ1fT3YQcQdkgRcli8taOZmZg": {"geometry": {"location": {"lat": 51.5217511, "lng": -0.1880618}, "viewport": {"northeast": {"lat": 51.52305108029149, "lng": -0.186736469708498}, "southwest": {"lat": 51.5203531197085, "lng": -0.189434430291502}}}, "name": "INIFD London", "place_id": "ChIJ1fT3YQcQdkgRcli8taOZmZg", "types": ["point_of_interest", "establishment"], "rating": 5, "user_ratings_total": 3}, "ChIJq6QuZgcQdkgRHG6dFJkkWuA": {"geometry": {"location": {"lat": 51.5216144, "lng": -0.188801}, "viewport": {"northeast": {"lat": 51.5230725302915, "lng": -0.187499319708498}, "southwest": {"lat": 51.5203745697085, "lng": -0.190197280291502}}}, "name": "Senior Street Children's Playground", "place_id": "ChIJq6QuZgcQdkgRHG6dFJkkWuA", "types": ["park", "point_of_interest", "establishment"], "rating": 3.9, "user_ratings_total": 18}, "ChIJW1ObYgcQdkgRciqK5wmF4k8": {"geometry": {"location": {"lat": 51.52193370000001, "lng": -0.1880238}, "viewport": {"northeast": {"lat": 51.5232969802915, "lng": -0.186722519708498}, "southwest": {"lat": 51.5205990197085, "lng": -0.189420480291502}}}, "name": "Contempolearning", "place_id": "ChIJW1ObYgcQdkgRciqK5wmF4k8", "types": ["point_of_interest", "establishment"], "rating": 1, "user_ratings_total": 1}, "ChIJv4rAZQcQdkgRjd4ACH598G4": {"geometry": {"location": {"lat": 51.521833, "lng": -0.188726}, "viewport": {"northeast": {"lat": 51.52319423029149, "lng": -0.187383969708498}, "southwest": {"lat": 51.5204962697085, "lng": -0.190081930291502}}}, "name": "ubitricity Charging Station", "place_id": "ChIJv4rAZQcQdkgRjd4ACH598G4", "types": ["point_of_interest", "establishment"]}, "ChIJkcGV4AYQdkgRfPoYo1RzDyE": {"geometry": {"location": {"lat": 51.52125219999999, "lng": -0.1888213}, "viewport": {"northeast": {"lat": 51.52252833029149, "lng": -0.187465069708498}, "southwest": {"lat": 51.51983036970849, "lng": -0.190163030291502}}}, "name": "Harrow Road Nursery & Pre-School", "place_id": "ChIJkcGV4AYQdkgRfPoYo1RzDyE", "types": ["school", "point_of_interest", "establishment"], "rating": 3.7, "user_ratings_total": 6}, "ChIJL9kOXAcQdkgR4-8VujiOxQI": {"geometry": {"location": {"lat": 51.5211232, "lng": -0.1885153}, "viewport": {"northeast": {"lat": 51.52243803029149, "lng": -0.187162919708498}, "southwest": {"lat": 51.5197400697085, "lng": -0.189860880291502}}}, "name": "Haotaiji", "place_id": "ChIJL9kOXAcQdkgR4-8VujiOxQI", "types": ["point_of_interest", "establishment"]}, "ChIJ-RGM76kadkgRiYNtXyvivdI": {"geometry": {"location": {"lat": 51.52081955194868, "lng": -0.1874612108417809}, "viewport": {"northeast": {"lat": 51.5222769802915, "lng": -0.185986069708498}, "southwest": {"lat": 51.5195790197085, "lng": -0.188684030291502}}}, "name": "Bourne Terrace", "place_id": "ChIJ-RGM76kadkgRiYNtXyvivdI", "types": ["route"]}, "ChIJtVxGkwwbdkgRdkGWeVFSYVI": {"geometry": {"location": {"lat": 51.5208585, "lng": -0.1879502}, "viewport": {"northeast": {"lat": 51.52223743029151, "lng": -0.186541769708498}, "southwest": {"lat": 51.51953946970851, "lng": -0.189239730291502}}}, "name": "R & S Pest control", "place_id": "ChIJtVxGkwwbdkgRdkGWeVFSYVI", "types": ["home_goods_store", "point_of_interest", "store", "establishment"], "rating": 5, "user_ratings_total": 5}, "ChIJL9DAzgcQdkgRFBnzDcvexE8": {"geometry": {"location": {"lat": 51.52448063594285, "lng": -0.1905032757479291}, "viewport": {"northeast": {"lat": 51.5258270802915, "lng": -0.18912815}, "southwest": {"lat": 51.5231291197085, "lng": -0.19187355}}}, "name": "68-84 Sutherland Ave", "place_id": "ChIJL9DAzgcQdkgRFBnzDcvexE8", "types": ["route"]}, "ChIJSc-Ctg8QdkgRi-qyBkEFw8E": {"geometry": {"location": {"lat": 51.52465830000001, "lng": -0.1904119}, "viewport": {"northeast": {"lat": 51.5261383802915, "lng": -0.189044169708498}, "southwest": {"lat": 51.5234404197085, "lng": -0.191742130291502}}}, "name": "Body Back Up Osteopath Healthcare", "place_id": "ChIJSc-Ctg8QdkgRi-qyBkEFw8E", "types": ["health", "point_of_interest", "establishment"], "rating": 4.8, "user_ratings_total": 6}, "ChIJeWak1g8QdkgR5Z7dxcnnweM": {"geometry": {"location": {"lat": 51.52465830000001, "lng": -0.1904119}, "viewport": {"northeast": {"lat": 51.5261383802915, "lng": -0.189044169708498}, "southwest": {"lat": 51.5234404197085, "lng": -0.191742130291502}}}, "name": "Bodybackup", "place_id": "ChIJeWak1g8QdkgR5Z7dxcnnweM", "types": ["health", "point_of_interest", "store", "establishment"], "rating": 5, "user_ratings_total": 4}, "ChIJRU9lodUEdkgREBrj-elY6Bw": {"geometry": {"location": {"lat": 51.5251443, "lng": -0.1902155}, "viewport": {"northeast": {"lat": 51.5264256302915, "lng": -0.188951519708498}, "southwest": {"lat": 51.5237276697085, "lng": -0.191649480291502}}}, "name": "Andreas Lind", "place_id": "ChIJRU9lodUEdkgREBrj-elY6Bw", "types": ["health", "point_of_interest", "establishment"]}, "ChIJnWfMzAcQdkgRzzN7-fKyJXs": {"geometry": {"location": {"lat": 51.52457440000001, "lng": -0.1906411}, "viewport": {"northeast": {"lat": 51.5258686802915, "lng": -0.189240619708498}, "southwest": {"lat": 51.5231707197085, "lng": -0.191938580291502}}}, "name": "captured by Juliana", "place_id": "ChIJnWfMzAcQdkgRzzN7-fKyJXs", "types": ["point_of_interest", "establishment"], "rating": 5, "user_ratings_total": 3}, "ChIJBaxu_qcadkgRqk8lGm1L0BA": {"geometry": {"location": {"lat": 51.52465830000001, "lng": -0.1904119}, "viewport": {"northeast": {"lat": 51.52613788029149, "lng": -0.189048569708498}, "southwest": {"lat": 51.52343991970849, "lng": -0.191746530291502}}}, "name": "Maida Vale Library", "place_id": "ChIJBaxu_qcadkgRqk8lGm1L0BA", "types": ["library", "point_of_interest", "establishment"], "rating": 4.4, "user_ratings_total": 34}, "ChIJHRhm0wcQdkgRUwQlbiv2t6o": {"geometry": {"location": {"lat": 51.524721, "lng": -0.1899966}, "viewport": {"northeast": {"lat": 51.5261000802915, "lng": -0.188608469708498}, "southwest": {"lat": 51.5234021197085, "lng": -0.191306430291502}}}, "name": "Windmill Montessori Nursery School", "place_id": "ChIJHRhm0wcQdkgRUwQlbiv2t6o", "types": ["school", "point_of_interest", "establishment"], "rating": 4, "user_ratings_total": 2}, "ChIJW7g82gcQdkgRlehmT5wwTfU": {"geometry": {"location": {"lat": 51.5249949, "lng": -0.190214}, "viewport": {"northeast": {"lat": 51.5263220802915, "lng": -0.188891169708498}, "southwest": {"lat": 51.5236241197085, "lng": -0.191589130291502}}}, "name": "ubitricity Charging Station", "place_id": "ChIJW7g82gcQdkgRlehmT5wwTfU", "types": ["point_of_interest", "establishment"]}, "ChIJwcUO4QcQdkgRATMGVr4pPV4": {"geometry": {"location": {"lat": 51.5249564, "lng": -0.1896833}, "viewport": {"northeast": {"lat": 51.5262421302915, "lng": -0.188272019708498}, "southwest": {"lat": 51.5235441697085, "lng": -0.190969980291502}}}, "name": "Vonziechmann", "place_id": "ChIJwcUO4QcQdkgRATMGVr4pPV4", "types": ["health", "point_of_interest", "establishment"]}, "ChIJZe0CgAgQdkgRxY5WLFv-WDs": {"geometry": {"location": {"lat": 51.5251151, "lng": -0.1902767}, "viewport": {"northeast": {"lat": 51.5264147302915, "lng": -0.188989669708498}, "southwest": {"lat": 51.5237167697085, "lng": -0.191687630291502}}}, "name": "North London Counselling", "place_id": "ChIJZe0CgAgQdkgRxY5WLFv-WDs", "types": ["health", "point_of_interest", "establishment"]}, "ChIJSVgvNEIRdkgRZvPu50i7JbI": {"geometry": {"location": {"lat": 51.52491, "lng": -0.1906588}, "viewport": {"northeast": {"lat": 51.5263309802915, "lng": -0.189219369708498}, "southwest": {"lat": 51.5236330197085, "lng": -0.191917330291502}}}, "name": "Super International Removals London", "place_id": "ChIJSVgvNEIRdkgRZvPu50i7JbI", "types": ["moving_company", "point_of_interest", "establishment"]}, "ChIJ_aRtkwcQdkgRBf1nuk6a3js": {"geometry": {"location": {"lat": 51.52395870220739, "lng": -0.1891217906676546}, "viewport": {"northeast": {"lat": 51.52529158029176, "lng": -0.187779569708498}, "southwest": {"lat": 51.52259361970876, "lng": -0.190477530291502}}}, "name": "40-35 Clearwell Dr", "place_id": "ChIJ_aRtkwcQdkgRBf1nuk6a3js", "types": ["route"]}, "ChIJpQkjwgcQdkgR2LF1pXl5Gb4": {"geometry": {"location": {"lat": 51.5239475, "lng": -0.1894053}, "viewport": {"northeast": {"lat": 51.52534273029151, "lng": -0.187998419708498}, "southwest": {"lat": 51.52264476970851, "lng": -0.190696380291502}}}, "name": "Kumon Maths & English", "place_id": "ChIJpQkjwgcQdkgR2LF1pXl5Gb4", "types": ["secondary_school", "university", "school", "point_of_interest", "establishment"], "rating": 5, "user_ratings_total": 4}, "ChIJY8AovgcQdkgRd_luzCsgxss": {"geometry": {"location": {"lat": 51.52397499999999, "lng": -0.1894329}, "viewport": {"northeast": {"lat": 51.52532398029149, "lng": -0.1880839197084979}, "southwest": {"lat": 51.52262601970849, "lng": -0.190781880291502}}}, "name": "Amberley Youth Project", "place_id": "ChIJY8AovgcQdkgRd_luzCsgxss", "types": ["point_of_interest", "establishment"], "rating": 4.8, "user_ratings_total": 5}, "ChIJpWLFpAcQdkgRMAmKs0KQ9G4": {"geometry": {"location": {"lat": 51.5233552, "lng": -0.1900741}, "viewport": {"northeast": {"lat": 51.5247360302915, "lng": -0.188732669708498}, "southwest": {"lat": 51.5220380697085, "lng": -0.191430630291502}}}, "name": "Maia Management Consulting Ltd", "place_id": "ChIJpWLFpAcQdkgRMAmKs0KQ9G4", "types": ["point_of_interest", "establishment"]}, "ChIJIZIwi2URdkgRgi4kY9Ql_Nk": {"geometry": {"location": {"lat": 51.5233793, "lng": -0.1902631}, "viewport": {"northeast": {"lat": 51.5247212302915, "lng": -0.188912569708498}, "southwest": {"lat": 51.52202326970851, "lng": -0.191610530291502}}}, "name": "Downtime Studios", "place_id": "ChIJIZIwi2URdkgRgi4kY9Ql_Nk", "types": ["point_of_interest", "establishment"], "rating": 5, "user_ratings_total": 3}, "ChIJs6otrgcQdkgRH1KOmcjs2rQ": {"geometry": {"location": {"lat": 51.5233752, "lng": -0.1904738}, "viewport": {"northeast": {"lat": 51.52471386760202, "lng": -0.1891595109559283}, "southwest": {"lat": 51.52201590701902, "lng": -0.1918574715389323}}}, "name": "Parking lot", "place_id": "ChIJs6otrgcQdkgRH1KOmcjs2rQ", "types": ["parking", "premise", "point_of_interest", "establishment"]}, "ChIJEecNcQcQdkgRjArL7PTmm80": {"geometry": {"location": {"lat": 51.52237058362277, "lng": -0.1892252449715197}, "viewport": {"northeast": {"lat": 51.5237020302915, "lng": -0.187891319708498}, "southwest": {"lat": 51.5210040697085, "lng": -0.190589280291502}}}, "name": "7 Rowington Cl", "place_id": "ChIJEecNcQcQdkgRjArL7PTmm80", "types": ["route"]}, "ChIJb0SgDAcQdkgRNfi5PqPUSxc": {"geometry": {"location": {"lat": 51.5222881, "lng": -0.1897071}, "viewport": {"northeast": {"lat": 51.5233612802915, "lng": -0.188238319708498}, "southwest": {"lat": 51.5206633197085, "lng": -0.190936280291502}}}, "name": "St Mary Magdalene's Church of England Primary School, Paddington", "place_id": "ChIJb0SgDAcQdkgRNfi5PqPUSxc", "types": ["primary_school", "school", "point_of_interest", "establishment"], "rating": 5, "user_ratings_total": 1}, "ChIJQYR1hC4RdkgRgNxA7d4R0aM": {"geometry": {"location": {"lat": 51.5224941, "lng": -0.1894004}, "viewport": {"northeast": {"lat": 51.5238079802915, "lng": -0.188054519708498}, "southwest": {"lat": 51.52111001970851, "lng": -0.190752480291502}}}, "name": "Grand Junction", "place_id": "ChIJQYR1hC4RdkgRgNxA7d4R0aM", "types": ["point_of_interest", "establishment"], "rating": 4.8, "user_ratings_total": 54}, "ChIJ2WxrJMYRdkgRBbtEH5kt4KY": {"geometry": {"location": {"lat": 51.5224213, "lng": -0.1906266}, "viewport": {"northeast": {"lat": 51.52377603029149, "lng": -0.189374769708498}, "southwest": {"lat": 51.5210780697085, "lng": -0.192072730291502}}}, "name": "Max Effect Builders", "place_id": "ChIJ2WxrJMYRdkgRBbtEH5kt4KY", "types": ["point_of_interest", "establishment"]}, "ChIJm05SAQcQdkgRL_jTZL-68Ks": {"geometry": {"location": {"lat": 51.5224506, "lng": -0.1908126}, "viewport": {"northeast": {"lat": 51.5237908565549, "lng": -0.1893408289381164}, "southwest": {"lat": 51.5210928959719, "lng": -0.1920387895211204}}}, "name": "Parking lot", "place_id": "ChIJm05SAQcQdkgRL_jTZL-68Ks", "types": ["parking", "premise", "point_of_interest", "establishment"]}, "ChIJKVSwFAcQdkgR6zGBkkCCjFo": {"geometry": {"location": {"lat": 51.52171316536639, "lng": -0.1896062680137244}, "viewport": {"northeast": {"lat": 51.5230527802915, "lng": -0.188252019708498}, "southwest": {"lat": 51.5203548197085, "lng": -0.190949980291502}}}, "name": "Senior Street", "place_id": "ChIJKVSwFAcQdkgR6zGBkkCCjFo", "types": ["route"]}, "ChIJX7Q4EwcQdkgRDw2Kkf_0aQY": {"geometry": {"location": {"lat": 51.5217981, "lng": -0.189617}, "viewport": {"northeast": {"lat": 51.52310668029149, "lng": -0.188250469708498}, "southwest": {"lat": 51.52040871970849, "lng": -0.190948430291502}}}, "name": "Westminster Society for People With Learning Disabilities", "place_id": "ChIJX7Q4EwcQdkgRDw2Kkf_0aQY", "types": ["point_of_interest", "establishment"], "rating": 3, "user_ratings_total": 2}, "ChIJufIEQAcQdkgR9vNxBqD2vdg": {"geometry": {"location": {"lat": 51.52146399999999, "lng": -0.1895061}, "viewport": {"northeast": {"lat": 51.5227311302915, "lng": -0.1881719697084979}, "southwest": {"lat": 51.5200331697085, "lng": -0.190869930291502}}}, "name": "Edward Wilson Primary School", "place_id": "ChIJufIEQAcQdkgR9vNxBqD2vdg", "types": ["primary_school", "school", "point_of_interest", "establishment"], "rating": 3.8, "user_ratings_total": 11}, "ChIJ5z5VFwcQdkgRda_4KPSqFqI": {"geometry": {"location": {"lat": 51.52174900000001, "lng": -0.190295}, "viewport": {"northeast": {"lat": 51.52309298029149, "lng": -0.188965969708498}, "southwest": {"lat": 51.52039501970849, "lng": -0.191663930291502}}}, "name": "ubitricity Charging Station", "place_id": "ChIJ5z5VFwcQdkgRda_4KPSqFqI", "types": ["point_of_interest", "establishment"]}, "ChIJX7Q4EwcQdkgRXB9iqi4wPQM": {"geometry": {"location": {"lat": 51.5218406, "lng": -0.1896343}, "viewport": {"northeast": {"lat": 51.52312798029151, "lng": -0.188258569708498}, "southwest": {"lat": 51.52043001970851, "lng": -0.190956530291502}}}, "name": "SVA", "place_id": "ChIJX7Q4EwcQdkgRXB9iqi4wPQM", "types": ["jewelry_store", "point_of_interest", "store", "establishment"]}, "ChIJAXjNHgcQdkgR1UvlDanFRBM": {"geometry": {"location": {"lat": 51.52169960000001, "lng": -0.1891606}, "viewport": {"northeast": {"lat": 51.5230898302915, "lng": -0.187829519708498}, "southwest": {"lat": 51.5203918697085, "lng": -0.190527480291502}}}, "name": "Parkview Lodge Pre-School", "place_id": "ChIJAXjNHgcQdkgR1UvlDanFRBM", "types": ["school", "point_of_interest", "establishment"], "rating": 1, "user_ratings_total": 1}, "ChIJIe8HPQcQdkgRA3N_Asw8ZjA": {"geometry": {"location": {"lat": 51.5213017, "lng": -0.1901606}, "viewport": {"northeast": {"lat": 51.52264757669293, "lng": -0.1887784333235202}, "southwest": {"lat": 51.51994961610993, "lng": -0.1914763939065242}}}, "name": "Parking lot", "place_id": "ChIJIe8HPQcQdkgRA3N_Asw8ZjA", "types": ["parking", "premise", "point_of_interest", "establishment"]}, "ChIJeSlsEXsRdkgRunVZVQI024Q": {"geometry": {"location": {"lat": 51.5208719, "lng": -0.1893505}, "viewport": {"northeast": {"lat": 51.5222262802915, "lng": -0.188077769708498}, "southwest": {"lat": 51.5195283197085, "lng": -0.1907757302915021}}}, "name": "CLASS BUILDERS", "place_id": "ChIJeSlsEXsRdkgRunVZVQI024Q", "types": ["point_of_interest", "establishment"]}, "ChIJMyHo6s8RdkgR_Mg58uoJsz0": {"geometry": {"location": {"lat": 51.520809, "lng": -0.189237}, "viewport": {"northeast": {"lat": 51.5221885302915, "lng": -0.188025819708498}, "southwest": {"lat": 51.5194905697085, "lng": -0.190723780291502}}}, "name": "A.S Sacred Beauty", "place_id": "ChIJMyHo6s8RdkgR_Mg58uoJsz0", "types": ["point_of_interest", "establishment"]}, "ChIJUecXOgcQdkgRLNrcofFR2r4": {"geometry": {"location": {"lat": 51.5208916, "lng": -0.1897897}, "viewport": {"northeast": {"lat": 51.52219773553636, "lng": -0.1886300327797935}, "southwest": {"lat": 51.51949977495336, "lng": -0.1913279933627975}}}, "name": "Parking lot", "place_id": "ChIJUecXOgcQdkgRLNrcofFR2r4", "types": ["parking", "premise", "point_of_interest", "establishment"]}, "ChIJsdbbJwYQdkgReLSlfWTLjKU": {"geometry": {"location": {"lat": 51.52527625020822, "lng": -0.1918114514001563}, "viewport": {"northeast": {"lat": 51.5266258802915, "lng": -0.190463319708498}, "southwest": {"lat": 51.5239279197085, "lng": -0.193161280291502}}}, "name": "97-77 Marylands Rd", "place_id": "ChIJsdbbJwYQdkgReLSlfWTLjKU", "types": ["route"]}, "ChIJjaTwLwYQdkgRsvLlgcTJWeI": {"geometry": {"location": {"lat": 51.5247532, "lng": -0.1918704}, "viewport": {"northeast": {"lat": 51.52607143029149, "lng": -0.190587119708498}, "southwest": {"lat": 51.5233734697085, "lng": -0.193285080291502}}}, "name": "CaseCheck Employment Lawyers London", "place_id": "ChIJjaTwLwYQdkgRsvLlgcTJWeI", "types": ["lawyer", "point_of_interest", "establishment"]}, "ChIJa40SLgYQdkgRaZCQy-CRxEQ": {"geometry": {"location": {"lat": 51.5247826, "lng": -0.1914781}, "viewport": {"northeast": {"lat": 51.52616958029149, "lng": -0.190052569708498}, "southwest": {"lat": 51.52347161970849, "lng": -0.192750530291502}}}, "name": "Hurrah Pictures Limited", "place_id": "ChIJa40SLgYQdkgRaZCQy-CRxEQ", "types": ["point_of_interest", "establishment"]}, "ChIJa40SLgYQdkgRHql7OyoL6LM": {"geometry": {"location": {"lat": 51.5247826, "lng": -0.1914781}, "viewport": {"northeast": {"lat": 51.52616958029149, "lng": -0.190052569708498}, "southwest": {"lat": 51.52347161970849, "lng": -0.192750530291502}}}, "name": "Rhapsody Opera", "place_id": "ChIJa40SLgYQdkgRHql7OyoL6LM", "types": ["point_of_interest", "establishment"]}, "ChIJDXgCKAYQdkgR09mS5moO8l4": {"geometry": {"location": {"lat": 51.525365, "lng": -0.191767}, "viewport": {"northeast": {"lat": 51.5266935302915, "lng": -0.190389569708498}, "southwest": {"lat": 51.5239955697085, "lng": -0.193087530291502}}}, "name": "ubitricity Charging Station", "place_id": "ChIJDXgCKAYQdkgR09mS5moO8l4", "types": ["point_of_interest", "establishment"]}, "ChIJ2Xd0SAYQdkgRyWcyEbWgQWU": {"geometry": {"location": {"lat": 51.52392225052817, "lng": -0.1918644009726711}, "viewport": {"northeast": {"lat": 51.5252712302915, "lng": -0.190515419708498}, "southwest": {"lat": 51.5225732697085, "lng": -0.193213380291502}}}, "name": "65-49 Sutherland Ave", "place_id": "ChIJ2Xd0SAYQdkgRyWcyEbWgQWU", "types": ["route"]}, "ChIJd9xZNgYQdkgRlpc8DSm2uvk": {"geometry": {"location": {"lat": 51.5241847, "lng": -0.1916858}, "viewport": {"northeast": {"lat": 51.5254823302915, "lng": -0.190289019708498}, "southwest": {"lat": 51.52278436970851, "lng": -0.192986980291502}}}, "name": "The Marriage Development Company Ltd.", "place_id": "ChIJd9xZNgYQdkgRlpc8DSm2uvk", "types": ["point_of_interest", "establishment"]}, "ChIJxamlvm0RdkgRtVjgQGCNcX8": {"geometry": {"location": {"lat": 51.5238837, "lng": -0.1915979}, "viewport": {"northeast": {"lat": 51.52528293029149, "lng": -0.190295219708498}, "southwest": {"lat": 51.52258496970849, "lng": -0.192993180291502}}}, "name": "Private Yoga London", "place_id": "ChIJxamlvm0RdkgRtVjgQGCNcX8", "types": ["school", "point_of_interest", "establishment"], "rating": 5, "user_ratings_total": 1}, "ChIJeVr_OAYQdkgRRrRvcCU9xWU": {"geometry": {"location": {"lat": 51.5241603, "lng": -0.1917672}, "viewport": {"northeast": {"lat": 51.5254560802915, "lng": -0.1903687197084979}, "southwest": {"lat": 51.5227581197085, "lng": -0.193066680291502}}}, "name": "Mint Kitchens", "place_id": "ChIJeVr_OAYQdkgRRrRvcCU9xWU", "types": ["home_goods_store", "general_contractor", "point_of_interest", "store", "establishment"], "rating": 5, "user_ratings_total": 2}, "ChIJrYY6WgYQdkgRZqbAS7FuFP4": {"geometry": {"location": {"lat": 51.52304029999999, "lng": -0.1918499999999999}, "viewport": {"northeast": {"lat": 51.52445618029149, "lng": -0.1905526197084979}, "southwest": {"lat": 51.5217582197085, "lng": -0.193250580291502}}}, "name": "Westminster Adult Education Service", "place_id": "ChIJrYY6WgYQdkgRZqbAS7FuFP4", "types": ["university", "point_of_interest", "establishment"], "rating": 4.8, "user_ratings_total": 4}, "ChIJf9xzWc8RdkgRErBLIvKkB2U": {"geometry": {"location": {"lat": 51.52279590000001, "lng": -0.1918397000000001}, "viewport": {"northeast": {"lat": 51.5243123802915, "lng": -0.190619869708498}, "southwest": {"lat": 51.5216144197085, "lng": -0.193317830291502}}}, "name": "Waterfront Apartments", "place_id": "ChIJf9xzWc8RdkgRErBLIvKkB2U", "types": ["lodging", "point_of_interest", "establishment"], "rating": 5, "user_ratings_total": 1}, "ChIJjyUR7gYQdkgRw1b5wlLFbag": {"geometry": {"location": {"lat": 51.5221204, "lng": -0.1918226}, "viewport": {"northeast": {"lat": 51.52337478328703, "lng": -0.1906797659896768}, "southwest": {"lat": 51.52067682270403, "lng": -0.1933777265726808}}}, "name": "Parking lot", "place_id": "ChIJjyUR7gYQdkgRw1b5wlLFbag", "types": ["parking", "premise", "point_of_interest", "establishment"]}, "ChIJkcGV4AYQdkgRdb50OjFx1Xs": {"geometry": {"location": {"lat": 51.5212828, "lng": -0.1914681}, "viewport": {"northeast": {"lat": 51.5226670802915, "lng": -0.190210069708498}, "southwest": {"lat": 51.5199691197085, "lng": -0.1929080302915021}}}, "name": "Our Lady of Dolours R C School", "place_id": "ChIJkcGV4AYQdkgRdb50OjFx1Xs", "types": ["school", "point_of_interest", "establishment"], "rating": 4.4, "user_ratings_total": 11}, "ChIJ1QwjmpAadkgR2luVD7Ts2Xs": {"geometry": {"location": {"lat": 51.521417, "lng": -0.1915909}, "viewport": {"northeast": {"lat": 51.52274353029151, "lng": -0.190296619708498}, "southwest": {"lat": 51.52004556970851, "lng": -0.192994580291502}}}, "name": "Lebanese Maronite Catholic Church", "place_id": "ChIJ1QwjmpAadkgR2luVD7Ts2Xs", "types": ["church", "place_of_worship", "point_of_interest", "establishment"], "rating": 4.7, "user_ratings_total": 19}, "ChIJkcGV4AYQdkgRRzokG3lNZYI": {"geometry": {"location": {"lat": 51.5215127, "lng": -0.1913036}, "viewport": {"northeast": {"lat": 51.52289658029149, "lng": -0.189979119708498}, "southwest": {"lat": 51.5201986197085, "lng": -0.192677080291502}}}, "name": "Care UK Community Partnership Plc", "place_id": "ChIJkcGV4AYQdkgRRzokG3lNZYI", "types": ["health", "point_of_interest", "establishment"]}, "ChIJ6xuJ5wYQdkgRZC9mrM8X5_A": {"geometry": {"location": {"lat": 51.5213583, "lng": -0.1915388}, "viewport": {"northeast": {"lat": 51.52268928029149, "lng": -0.190245769708498}, "southwest": {"lat": 51.5199913197085, "lng": -0.192943730291502}}}, "name": "Our Lady of Sorrows", "place_id": "ChIJ6xuJ5wYQdkgRZC9mrM8X5_A", "types": ["church", "place_of_worship", "point_of_interest", "establishment"], "rating": 4.9, "user_ratings_total": 14}, "ChIJ_2mV4AYQdkgRyuspERR8_9o": {"geometry": {"location": {"lat": 51.5218814, "lng": -0.1911236}, "viewport": {"northeast": {"lat": 51.5231048802915, "lng": -0.189807769708498}, "southwest": {"lat": 51.5204069197085, "lng": -0.192505730291502}}}, "name": "Forrester Court - Care UK", "place_id": "ChIJ_2mV4AYQdkgRyuspERR8_9o", "types": ["health", "point_of_interest", "establishment"], "rating": 4.5, "user_ratings_total": 12}, "ChIJ75prwwYQdkgRyqoIgZu5dlg": {"geometry": {"location": {"lat": 51.5211632, "lng": -0.1918818}, "viewport": {"northeast": {"lat": 51.5225402802915, "lng": -0.1904810197084979}, "southwest": {"lat": 51.5198423197085, "lng": -0.193178980291502}}}, "name": "Landmark Legal LLP", "place_id": "ChIJ75prwwYQdkgRyqoIgZu5dlg", "types": ["lawyer", "point_of_interest", "establishment"], "rating": 3.7, "user_ratings_total": 3}, "ChIJRSwl5QYQdkgRg-oV8x0tukM": {"geometry": {"location": {"lat": 51.52203, "lng": -0.191637}, "viewport": {"northeast": {"lat": 51.5233733302915, "lng": -0.190272469708498}, "southwest": {"lat": 51.5206753697085, "lng": -0.192970430291502}}}, "name": "ubitricity Charging Station", "place_id": "ChIJRSwl5QYQdkgRg-oV8x0tukM", "types": ["point_of_interest", "establishment"]}, "ChIJJxycxAYQdkgR_EyVEYlhTxY": {"geometry": {"location": {"lat": 51.5211176, "lng": -0.1918565}, "viewport": {"northeast": {"lat": 51.5225006802915, "lng": -0.190444769708498}, "southwest": {"lat": 51.5198027197085, "lng": -0.193142730291502}}}, "name": "MBG Design & Print", "place_id": "ChIJJxycxAYQdkgR_EyVEYlhTxY", "types": ["point_of_interest", "store", "establishment"], "rating": 4.4, "user_ratings_total": 11}, "ChIJUdPWwgkRdkgRIvrmKsE5Fv8": {"geometry": {"location": {"lat": 51.52106819999999, "lng": -0.1917305}, "viewport": {"northeast": {"lat": 51.52235218029149, "lng": -0.190495619708498}, "southwest": {"lat": 51.51965421970849, "lng": -0.193193580291502}}}, "name": "ATM (Costcutter)", "place_id": "ChIJUdPWwgkRdkgRIvrmKsE5Fv8", "types": ["atm", "finance", "point_of_interest", "establishment"], "rating": 3, "user_ratings_total": 1}, "ChIJrXGy3gYQdkgRx3qf_ERB_PM": {"geometry": {"location": {"lat": 51.52097149999999, "lng": -0.1911706}, "viewport": {"northeast": {"lat": 51.52245687040852, "lng": -0.1900042645909869}, "southwest": {"lat": 51.51975890982552, "lng": -0.1927022251739909}}}, "name": "Parking lot", "place_id": "ChIJrXGy3gYQdkgRx3qf_ERB_PM", "types": ["parking", "premise", "point_of_interest", "establishment"]}, "ChIJN1is0AYQdkgR57K9vpPC7zM": {"geometry": {"location": {"lat": 51.52078700000001, "lng": -0.191423}, "viewport": {"northeast": {"lat": 51.5222057802915, "lng": -0.190030069708498}, "southwest": {"lat": 51.51950781970851, "lng": -0.192728030291502}}}, "name": "Little Venice Fish Bar", "place_id": "ChIJN1is0AYQdkgR57K9vpPC7zM", "types": ["meal_delivery", "meal_takeaway", "restaurant", "food", "point_of_interest", "establishment"], "rating": 4, "user_ratings_total": 98}, "ChIJiZUB2wYQdkgR108Lk3GaTZI": {"geometry": {"location": {"lat": 51.52086019999999, "lng": -0.1914591}, "viewport": {"northeast": {"lat": 51.5222474802915, "lng": -0.190061069708498}, "southwest": {"lat": 51.5195495197085, "lng": -0.192759030291502}}}, "name": "Blue Nile Bakery", "place_id": "ChIJiZUB2wYQdkgR108Lk3GaTZI", "types": ["bakery", "food", "point_of_interest", "store", "establishment"], "rating": 4.2, "user_ratings_total": 62}, "ChIJsYA72wYQdkgRO3oTb3s27rc": {"geometry": {"location": {"lat": 51.5209809, "lng": -0.1916653}, "viewport": {"northeast": {"lat": 51.5223658302915, "lng": -0.190253719708498}, "southwest": {"lat": 51.5196678697085, "lng": -0.192951680291502}}}, "name": "Bleglot Amusement Industry t/a Barefoot Marathon Running Series", "place_id": "ChIJsYA72wYQdkgRO3oTb3s27rc", "types": ["point_of_interest", "establishment"]}, "ChIJsTjrJwcQdkgRFNIfFJgQYDU": {"geometry": {"location": {"lat": 51.5208333, "lng": -0.1911111}, "viewport": {"northeast": {"lat": 51.5222356802915, "lng": -0.189791519708498}, "southwest": {"lat": 51.5195377197085, "lng": -0.192489480291502}}}, "name": "Ariana", "place_id": "ChIJsTjrJwcQdkgRFNIfFJgQYDU", "types": ["restaurant", "food", "point_of_interest", "establishment"], "rating": 3.6, "user_ratings_total": 47}, "ChIJEyFLxQYQdkgR49fVoMiIUNk": {"geometry": {"location": {"lat": 51.5208771, "lng": -0.1915577}, "viewport": {"northeast": {"lat": 51.5222715802915, "lng": -0.190135569708498}, "southwest": {"lat": 51.5195736197085, "lng": -0.192833530291502}}}, "name": "Habaybna Supermarket - \u062d\u0628\u0627\u064a\u0628\u0646\u0627 \u0633\u0648\u0628\u0631\u0645\u0627\u0631\u0643\u062a", "place_id": "ChIJEyFLxQYQdkgR49fVoMiIUNk", "types": ["supermarket", "grocery_or_supermarket", "food", "point_of_interest", "store", "establishment"], "rating": 4.3, "user_ratings_total": 4}, "ChIJSYxhxAYQdkgR2JBEglmxQnY": {"geometry": {"location": {"lat": 51.5209065, "lng": -0.191746}, "viewport": {"northeast": {"lat": 51.5222297802915, "lng": -0.1904421697084979}, "southwest": {"lat": 51.5195318197085, "lng": -0.193140130291502}}}, "name": "Westminster Academy / Cirencester Street (Stop RB)", "place_id": "ChIJSYxhxAYQdkgR2JBEglmxQnY", "types": ["transit_station", "point_of_interest", "establishment"]}, "ChIJ9wTT0ToRdkgRtZg8-rMaIh8": {"geometry": {"location": {"lat": 51.5209187, "lng": -0.1916246}, "viewport": {"northeast": {"lat": 51.5223116302915, "lng": -0.190199069708498}, "southwest": {"lat": 51.51961366970851, "lng": -0.192897030291502}}}, "name": "English Tea House", "place_id": "ChIJ9wTT0ToRdkgRtZg8-rMaIh8", "types": ["cafe", "food", "point_of_interest", "establishment"], "rating": 2, "user_ratings_total": 1}, "ChIJT6biwAYQdkgRBp2DdMLwl44": {"geometry": {"location": {"lat": 51.5210338, "lng": -0.1918001}, "viewport": {"northeast": {"lat": 51.52234608029149, "lng": -0.190541069708498}, "southwest": {"lat": 51.51964811970849, "lng": -0.193239030291502}}}, "name": "Costcutter", "place_id": "ChIJT6biwAYQdkgRBp2DdMLwl44", "types": ["supermarket", "grocery_or_supermarket", "food", "point_of_interest", "store", "establishment"], "rating": 3.5, "user_ratings_total": 86}, "ChIJUUY4GF4RdkgRs2I8J3j2M9Q": {"geometry": {"location": {"lat": 51.5209577, "lng": -0.1916702}, "viewport": {"northeast": {"lat": 51.5223487302915, "lng": -0.190247969708498}, "southwest": {"lat": 51.5196507697085, "lng": -0.192945930291502}}}, "name": "Maceam Alwadi London", "place_id": "ChIJUUY4GF4RdkgRs2I8J3j2M9Q", "types": ["point_of_interest", "establishment"]}, "ChIJsYA72wYQdkgR1c808a0qprg": {"geometry": {"location": {"lat": 51.5209809, "lng": -0.1916653}, "viewport": {"northeast": {"lat": 51.5223658302915, "lng": -0.190253719708498}, "southwest": {"lat": 51.5196678697085, "lng": -0.192951680291502}}}, "name": "Westminster Council Estates' Residents (WCER) Group", "place_id": "ChIJsYA72wYQdkgR1c808a0qprg", "types": ["point_of_interest", "establishment"]}, "ChIJrSgv3QYQdkgR0kPCuIECPDg": {"geometry": {"location": {"lat": 51.52102199999999, "lng": -0.1916886}, "viewport": {"northeast": {"lat": 51.52240108029149, "lng": -0.190287169708498}, "southwest": {"lat": 51.5197031197085, "lng": -0.192985130291502}}}, "name": "Leaflet distribution london", "place_id": "ChIJrSgv3QYQdkgR0kPCuIECPDg", "types": ["point_of_interest", "establishment"]}, "ChIJYVIu2wYQdkgRVAcUIMf2ARE": {"geometry": {"location": {"lat": 51.5210286, "lng": -0.1916939}, "viewport": {"northeast": {"lat": 51.5224069802915, "lng": -0.190293669708498}, "southwest": {"lat": 51.5197090197085, "lng": -0.192991630291502}}}, "name": "Benson Pharmacy", "place_id": "ChIJYVIu2wYQdkgRVAcUIMf2ARE", "types": ["pharmacy", "health", "point_of_interest", "store", "establishment"], "rating": 4.9, "user_ratings_total": 16}, "ChIJN783MHoRdkgRZvj5X95nYXY": {"geometry": {"location": {"lat": 51.5210338, "lng": -0.1918001}, "viewport": {"northeast": {"lat": 51.5223402302915, "lng": -0.190532519708498}, "southwest": {"lat": 51.51964226970851, "lng": -0.193230480291502}}}, "name": "Hermes ParcelShop", "place_id": "ChIJN783MHoRdkgRZvj5X95nYXY", "types": ["point_of_interest", "establishment"], "rating": 5, "user_ratings_total": 1}, "ChIJlZ6zxAYQdkgRSl98amG6-M8": {"geometry": {"location": {"lat": 51.5210362, "lng": -0.1917817}, "viewport": {"northeast": {"lat": 51.5223380302915, "lng": -0.190520069708498}, "southwest": {"lat": 51.5196400697085, "lng": -0.193218030291502}}}, "name": "KeyNest - Smart Key Exchange", "place_id": "ChIJlZ6zxAYQdkgRSl98amG6-M8", "types": ["point_of_interest", "store", "establishment"]}, "ChIJaejKcKgadkgRWdSS72RrZgI": {"geometry": {"location": {"lat": 51.52503739976586, "lng": -0.1860152168368218}, "viewport": {"northeast": {"lat": 51.5263877302915, "lng": -0.184663769708498}, "southwest": {"lat": 51.5236897697085, "lng": -0.187361730291502}}}, "name": "32-2 Castellain Rd", "place_id": "ChIJaejKcKgadkgRWdSS72RrZgI", "types": ["route"]}, "ChIJ_biIUqgadkgRPWA-bk5glcM": {"geometry": {"location": {"lat": 51.5229828, "lng": -0.1856529}, "viewport": {"northeast": {"lat": 51.5242768302915, "lng": -0.184355869708498}, "southwest": {"lat": 51.5215788697085, "lng": -0.187053830291502}}}, "name": "Executive First", "place_id": "ChIJ_biIUqgadkgRPWA-bk5glcM", "types": ["point_of_interest", "establishment"]}, "ChIJu6qJUqgadkgR0zSrvaalOP8": {"geometry": {"location": {"lat": 51.5229828, "lng": -0.1856529}, "viewport": {"northeast": {"lat": 51.5242768302915, "lng": -0.184355869708498}, "southwest": {"lat": 51.5215788697085, "lng": -0.187053830291502}}}, "name": "S Kape Design & Marketing", "place_id": "ChIJu6qJUqgadkgR0zSrvaalOP8", "types": ["point_of_interest", "establishment"], "rating": 3, "user_ratings_total": 2}, "ChIJ402iU6gadkgRKb2Idx4RBW8": {"geometry": {"location": {"lat": 51.52300289999999, "lng": -0.1857434}, "viewport": {"northeast": {"lat": 51.5243017302915, "lng": -0.184441769708498}, "southwest": {"lat": 51.5216037697085, "lng": -0.187139730291502}}}, "name": "Hospitality & Leisure Recruitment", "place_id": "ChIJ402iU6gadkgRKb2Idx4RBW8", "types": ["point_of_interest", "establishment"]}, "ChIJcVKiU6gadkgREnr9eMeB8fA": {"geometry": {"location": {"lat": 51.5229828, "lng": -0.1856529}, "viewport": {"northeast": {"lat": 51.5242768302915, "lng": -0.184355869708498}, "southwest": {"lat": 51.5215788697085, "lng": -0.187053830291502}}}, "name": "Retail Human Resources plc", "place_id": "ChIJcVKiU6gadkgREnr9eMeB8fA", "types": ["point_of_interest", "establishment"], "rating": 3.1, "user_ratings_total": 22}, "ChIJu6qJUqgadkgRlfblaIy9GZI": {"geometry": {"location": {"lat": 51.5229828, "lng": -0.1856529}, "viewport": {"northeast": {"lat": 51.5242768302915, "lng": -0.184355869708498}, "southwest": {"lat": 51.5215788697085, "lng": -0.187053830291502}}}, "name": "Together Communications Ltd", "place_id": "ChIJu6qJUqgadkgRlfblaIy9GZI", "types": ["point_of_interest", "establishment"]}, "ChIJYVcttKkadkgR6Mjx91YLlV8": {"geometry": {"location": {"lat": 51.5221531, "lng": -0.1862219}, "viewport": {"northeast": {"lat": 51.52352403029149, "lng": -0.184897369708498}, "southwest": {"lat": 51.5208260697085, "lng": -0.187595330291502}}}, "name": "The Summerhouse", "place_id": "ChIJYVcttKkadkgR6Mjx91YLlV8", "types": ["restaurant", "food", "point_of_interest", "establishment"], "rating": 4.4, "user_ratings_total": 782}, "ChIJsfWjtqkadkgRfASy-iPqLjo": {"geometry": {"location": {"lat": 51.5222147, "lng": -0.1856828}, "viewport": {"northeast": {"lat": 51.5234914802915, "lng": -0.1843919697084979}, "southwest": {"lat": 51.5207935197085, "lng": -0.187089930291502}}}, "name": "Work Place", "place_id": "ChIJsfWjtqkadkgRfASy-iPqLjo", "types": ["point_of_interest", "establishment"]}, "ChIJSdjMqqkadkgR3pSRWPPPCVA": {"geometry": {"location": {"lat": 51.522164, "lng": -0.1859279}, "viewport": {"northeast": {"lat": 51.52349278029151, "lng": -0.184600119708498}, "southwest": {"lat": 51.52079481970851, "lng": -0.1872980802915021}}}, "name": "ubitricity Charging Station", "place_id": "ChIJSdjMqqkadkgR3pSRWPPPCVA", "types": ["point_of_interest", "establishment"]}, "ChIJ_5qHJNEEdkgR14lnsTeZCzE": {"geometry": {"location": {"lat": 51.5252977, "lng": -0.1876564000000001}, "viewport": {"northeast": {"lat": 51.5266902302915, "lng": -0.186348769708498}, "southwest": {"lat": 51.5239922697085, "lng": -0.189046730291502}}}, "name": "Daria Tiesler Wellness", "place_id": "ChIJ_5qHJNEEdkgR14lnsTeZCzE", "types": ["health", "point_of_interest", "establishment"], "rating": 5, "user_ratings_total": 63}, "ChIJiU72ANcbdkgRdaRq6SKYOts": {"geometry": {"location": {"lat": 51.52439189999999, "lng": -0.1872570999999999}, "viewport": {"northeast": {"lat": 51.52579318029149, "lng": -0.1858436697084979}, "southwest": {"lat": 51.52309521970849, "lng": -0.188541630291502}}}, "name": "Positive Mind Personal Training", "place_id": "ChIJiU72ANcbdkgRdaRq6SKYOts", "types": ["health", "point_of_interest", "establishment"]}, "ChIJY6A4mZQbdkgRtWwx2ibThEs": {"geometry": {"location": {"lat": 51.5221882, "lng": -0.187721}, "viewport": {"northeast": {"lat": 51.5235790802915, "lng": -0.1863350197084979}, "southwest": {"lat": 51.5208811197085, "lng": -0.189032980291502}}}, "name": "Anne Henley", "place_id": "ChIJY6A4mZQbdkgRtWwx2ibThEs", "types": ["point_of_interest", "establishment"]}, "ChIJ3WF476kadkgRYgupM2GymDg": {"geometry": {"location": {"lat": 51.5210256422995, "lng": -0.187305082903035}, "viewport": {"northeast": {"lat": 51.5223316302915, "lng": -0.185985319708498}, "southwest": {"lat": 51.5196336697085, "lng": -0.1886832802915021}}}, "name": "90 Bourne Terrace", "place_id": "ChIJ3WF476kadkgRYgupM2GymDg", "types": ["route"]}, "ChIJq6pW5qkadkgR98Ql5kWK8KE": {"geometry": {"location": {"lat": 51.52124430000001, "lng": -0.1875146}, "viewport": {"northeast": {"lat": 51.5226334802915, "lng": -0.186153619708498}, "southwest": {"lat": 51.5199355197085, "lng": -0.188851580291502}}}, "name": "NWBC Groups Ltd", "place_id": "ChIJq6pW5qkadkgR98Ql5kWK8KE", "types": ["general_contractor", "point_of_interest", "establishment"]}, "ChIJPSyKYqUbdkgR3AoQHSwABEw": {"geometry": {"location": {"lat": 51.52124430000001, "lng": -0.1875146}, "viewport": {"northeast": {"lat": 51.5226334802915, "lng": -0.186153619708498}, "southwest": {"lat": 51.5199355197085, "lng": -0.188851580291502}}}, "name": "DS Plastering London", "place_id": "ChIJPSyKYqUbdkgR3AoQHSwABEw", "types": ["point_of_interest", "establishment"], "rating": 5, "user_ratings_total": 1}, "ChIJgZDIcdYbdkgRb6wOGNPHljM": {"geometry": {"location": {"lat": 51.5209262, "lng": -0.1876282}, "viewport": {"northeast": {"lat": 51.5222444302915, "lng": -0.186296919708498}, "southwest": {"lat": 51.5195464697085, "lng": -0.188994880291502}}}, "name": "NW Building & Refurbishment", "place_id": "ChIJgZDIcdYbdkgRb6wOGNPHljM", "types": ["point_of_interest", "establishment"]}, "ChIJK5Fx5AcQdkgRKl7rpFeuSTM": {"geometry": {"location": {"lat": 51.52495160057033, "lng": -0.1892302010795676}, "viewport": {"northeast": {"lat": 51.5263005802915, "lng": -0.187881219708498}, "southwest": {"lat": 51.52360261970851, "lng": -0.190579180291502}}}, "name": "Sutherland Avenue", "place_id": "ChIJK5Fx5AcQdkgRKl7rpFeuSTM", "types": ["route"]}, "ChIJ66194gcQdkgRO0qGq5ctngA": {"geometry": {"location": {"lat": 51.525341, "lng": -0.189048}, "viewport": {"northeast": {"lat": 51.5267335302915, "lng": -0.187647719708498}, "southwest": {"lat": 51.5240355697085, "lng": -0.1903456802915021}}}, "name": "ubitricity Charging Station", "place_id": "ChIJ66194gcQdkgRO0qGq5ctngA", "types": ["point_of_interest", "establishment"]}, "ChIJA8yc4gcQdkgRlVG-WOBE7Io": {"geometry": {"location": {"lat": 51.52536079999999, "lng": -0.1889993}, "viewport": {"northeast": {"lat": 51.5267398302915, "lng": -0.187615519708498}, "southwest": {"lat": 51.5240418697085, "lng": -0.190313480291502}}}, "name": "Source London Charging Station", "place_id": "ChIJA8yc4gcQdkgRlVG-WOBE7Io", "types": ["point_of_interest", "establishment"]}, "ChIJp8xO6QcQdkgRfLmc1UfP3b4": {"geometry": {"location": {"lat": 51.5244449002847, "lng": -0.1892458993020647}, "viewport": {"northeast": {"lat": 51.5257938802915, "lng": -0.187896919708498}, "southwest": {"lat": 51.5230959197085, "lng": -0.190594880291502}}}, "name": "34-56 B413", "place_id": "ChIJp8xO6QcQdkgRfLmc1UfP3b4", "types": ["route"]}, "ChIJu6w_6gcQdkgRJPV1rJgFSc4": {"geometry": {"location": {"lat": 51.524332, "lng": -0.189431}, "viewport": {"northeast": {"lat": 51.5257444302915, "lng": -0.188004219708498}, "southwest": {"lat": 51.5230464697085, "lng": -0.190702180291502}}}, "name": "The Amadeus", "place_id": "ChIJu6w_6gcQdkgRJPV1rJgFSc4", "types": ["point_of_interest", "establishment"], "rating": 4.4, "user_ratings_total": 70}, "ChIJA_U_7gcQdkgRFcXuQ23hMVc": {"geometry": {"location": {"lat": 51.52445239999999, "lng": -0.1890103}, "viewport": {"northeast": {"lat": 51.5257636802915, "lng": -0.187707569708498}, "southwest": {"lat": 51.5230657197085, "lng": -0.190405530291502}}}, "name": "Ludmilla Salon", "place_id": "ChIJA_U_7gcQdkgRFcXuQ23hMVc", "types": ["beauty_salon", "hair_care", "point_of_interest", "establishment"], "rating": 4.6, "user_ratings_total": 36}, "ChIJOcJM8gcQdkgRw7niTi5dWtc": {"geometry": {"location": {"lat": 51.52431259999999, "lng": -0.188628}, "viewport": {"northeast": {"lat": 51.52561078029151, "lng": -0.187342969708498}, "southwest": {"lat": 51.52291281970851, "lng": -0.190040930291502}}}, "name": "Moda Studios", "place_id": "ChIJOcJM8gcQdkgRw7niTi5dWtc", "types": ["point_of_interest", "establishment"], "rating": 4.7, "user_ratings_total": 44}, "ChIJq_6X8gcQdkgRV1JKjE1cOeo": {"geometry": {"location": {"lat": 51.52423100000001, "lng": -0.188881}, "viewport": {"northeast": {"lat": 51.5255805802915, "lng": -0.187531319708498}, "southwest": {"lat": 51.5228826197085, "lng": -0.190229280291502}}}, "name": "Sutherland Avenue (Stop MJ)", "place_id": "ChIJq_6X8gcQdkgRV1JKjE1cOeo", "types": ["transit_station", "point_of_interest", "establishment"]}, "ChIJTVAX9QcQdkgR7Huwpjpo0qA": {"geometry": {"location": {"lat": 51.5244864, "lng": -0.1890788}, "viewport": {"northeast": {"lat": 51.5257971802915, "lng": -0.187776619708498}, "southwest": {"lat": 51.5230992197085, "lng": -0.190474580291502}}}, "name": "Buy Well Food", "place_id": "ChIJTVAX9QcQdkgR7Huwpjpo0qA", "types": ["grocery_or_supermarket", "food", "point_of_interest", "store", "establishment"], "rating": 4, "user_ratings_total": 11}, "ChIJPW52z64RdkgRgC4xzn-Brvs": {"geometry": {"location": {"lat": 51.5243192, "lng": -0.1887497}, "viewport": {"northeast": {"lat": 51.5256435802915, "lng": -0.187456769708498}, "southwest": {"lat": 51.5229456197085, "lng": -0.190154730291502}}}, "name": "The Hero of Maida", "place_id": "ChIJPW52z64RdkgRgC4xzn-Brvs", "types": ["lodging", "bar", "restaurant", "food", "point_of_interest", "establishment"], "rating": 4.2, "user_ratings_total": 405}, "ChIJh_UkwgcQdkgRCDJV7nU9mxk": {"geometry": {"location": {"lat": 51.5243225, "lng": -0.1894556}, "viewport": {"northeast": {"lat": 51.52574163029149, "lng": -0.188020619708498}, "southwest": {"lat": 51.52304366970849, "lng": -0.190718580291502}}}, "name": "Topham Supper", "place_id": "ChIJh_UkwgcQdkgRCDJV7nU9mxk", "types": ["restaurant", "food", "point_of_interest", "establishment"]}, "ChIJEwIxMv8RdkgR2vbmxfs4bRI": {"geometry": {"location": {"lat": 51.5245493, "lng": -0.1891093}, "viewport": {"northeast": {"lat": 51.52584478029149, "lng": -0.187825869708498}, "southwest": {"lat": 51.5231468197085, "lng": -0.190523830291502}}}, "name": "Pristine Lash Professional Studio", "place_id": "ChIJEwIxMv8RdkgR2vbmxfs4bRI", "types": ["point_of_interest", "establishment"], "rating": 5, "user_ratings_total": 11}, "ChIJawdfUrQRdkgRRUHmAeL2WDk": {"geometry": {"location": {"lat": 51.5245493, "lng": -0.1891093}, "viewport": {"northeast": {"lat": 51.52584478029149, "lng": -0.187825869708498}, "southwest": {"lat": 51.5231468197085, "lng": -0.190523830291502}}}, "name": "Kynd Clinic", "place_id": "ChIJawdfUrQRdkgRRUHmAeL2WDk", "types": ["beauty_salon", "hair_care", "health", "point_of_interest", "establishment"], "rating": 4.1, "user_ratings_total": 42}, "ChIJC19OgQcQdkgR5y_cSGhQKzw": {"geometry": {"location": {"lat": 51.52307092950018, "lng": -0.188387236872704}, "viewport": {"northeast": {"lat": 51.52439608029149, "lng": -0.18654905}, "southwest": {"lat": 51.5216981197085, "lng": -0.19025965}}}, "name": "2-41 Barnwood Cl", "place_id": "ChIJC19OgQcQdkgR5y_cSGhQKzw", "types": ["route"]}, "ChIJN15dbwcQdkgRXycHy-BeX0Q": {"geometry": {"location": {"lat": 51.5218369000505, "lng": -0.1888704000438016}, "viewport": {"northeast": {"lat": 51.52318588029149, "lng": -0.187521419708498}, "southwest": {"lat": 51.5204879197085, "lng": -0.190219380291502}}}, "name": "Senior Street", "place_id": "ChIJN15dbwcQdkgRXycHy-BeX0Q", "types": ["route"]}, "ChIJx7ZYcAcQdkgRKVDXOH-nmlc": {"geometry": {"location": {"lat": 51.5223325, "lng": -0.1888437}, "viewport": {"northeast": {"lat": 51.52373598029151, "lng": -0.187710069708498}, "southwest": {"lat": 51.52103801970851, "lng": -0.190408030291502}}}, "name": "St Mary Magdalene CE Primary School", "place_id": "ChIJx7ZYcAcQdkgRKVDXOH-nmlc", "types": ["primary_school", "school", "point_of_interest", "establishment"], "rating": 4, "user_ratings_total": 4}, "ChIJBROrRgcQdkgRPTOeyJFUWa0": {"geometry": {"location": {"lat": 51.52109095028108, "lng": -0.1892095500561836}, "viewport": {"northeast": {"lat": 51.5224399302915, "lng": -0.187860569708498}, "southwest": {"lat": 51.5197419697085, "lng": -0.190558530291502}}}, "name": "90 Bourne Terrace", "place_id": "ChIJBROrRgcQdkgRPTOeyJFUWa0", "types": ["route"]}, "ChIJybGs1QcQdkgROq5hksjHwD4": {"geometry": {"location": {"lat": 51.52523223122817, "lng": -0.1908438210193178}, "viewport": {"northeast": {"lat": 51.5265810302915, "lng": -0.189495069708498}, "southwest": {"lat": 51.5238830697085, "lng": -0.192193030291502}}}, "name": "64-78 B413", "place_id": "ChIJybGs1QcQdkgROq5hksjHwD4", "types": ["route"]}, "ChIJWyH-kysFdkgRj2oLfi5dWwE": {"geometry": {"location": {"lat": 51.525388, "lng": -0.190908}, "viewport": {"northeast": {"lat": 51.5266983302915, "lng": -0.189607469708498}, "southwest": {"lat": 51.5240003697085, "lng": -0.192305430291502}}}, "name": "Shirland Ventures Limited", "place_id": "ChIJWyH-kysFdkgRj2oLfi5dWwE", "types": ["point_of_interest", "establishment"]}, "ChIJ5SCEfwgQdkgRLofPZzW7IKI": {"geometry": {"location": {"lat": 51.52538759999999, "lng": -0.1909084}, "viewport": {"northeast": {"lat": 51.5266981302915, "lng": -0.189607619708498}, "southwest": {"lat": 51.5240001697085, "lng": -0.192305580291502}}}, "name": "Soleil Relocation", "place_id": "ChIJ5SCEfwgQdkgRLofPZzW7IKI", "types": ["moving_company", "storage", "point_of_interest", "establishment"]}, "ChIJx0CW1QcQdkgR_Mp3AdPYcb0": {"geometry": {"location": {"lat": 51.52529, "lng": -0.190816}, "viewport": {"northeast": {"lat": 51.5266195802915, "lng": -0.189491519708498}, "southwest": {"lat": 51.52392161970851, "lng": -0.192189480291502}}}, "name": "ubitricity Charging Station", "place_id": "ChIJx0CW1QcQdkgR_Mp3AdPYcb0", "types": ["point_of_interest", "establishment"]}, "ChIJjdCEKgYQdkgRndP3qiodlHY": {"geometry": {"location": {"lat": 51.52533700000001, "lng": -0.191203}, "viewport": {"northeast": {"lat": 51.52670753029151, "lng": -0.1898265197084979}, "southwest": {"lat": 51.52400956970851, "lng": -0.192524480291502}}}, "name": "ubitricity Charging Station", "place_id": "ChIJjdCEKgYQdkgRndP3qiodlHY", "types": ["point_of_interest", "establishment"]}, "ChIJgXPUzgcQdkgR3nwSmINLWyY": {"geometry": {"location": {"lat": 51.52442603153056, "lng": -0.1904471796958388}, "viewport": {"northeast": {"lat": 51.5257760802915, "lng": -0.18902165}, "southwest": {"lat": 51.52307811970851, "lng": -0.19187465}}}, "name": "101-75 Sutherland Ave", "place_id": "ChIJgXPUzgcQdkgR3nwSmINLWyY", "types": ["route"]}, "ChIJpwCPywcQdkgRDQsozFx6bxI": {"geometry": {"location": {"lat": 51.5244644, "lng": -0.1906853}, "viewport": {"northeast": {"lat": 51.5257814302915, "lng": -0.189312369708498}, "southwest": {"lat": 51.5230834697085, "lng": -0.192010330291502}}}, "name": "ubitricity Charging Station", "place_id": "ChIJpwCPywcQdkgRDQsozFx6bxI", "types": ["point_of_interest", "establishment"]}, "ChIJx1wP6FURdkgRtI9j8keC7DY": {"geometry": {"location": {"lat": 51.5243867, "lng": -0.1911871}, "viewport": {"northeast": {"lat": 51.5256780802915, "lng": -0.189780769708498}, "southwest": {"lat": 51.5229801197085, "lng": -0.192478730291502}}}, "name": "All Out Service", "place_id": "ChIJx1wP6FURdkgRtI9j8keC7DY", "types": ["finance", "point_of_interest", "establishment"]}, "ChIJx4clN48RdkgRoQf3hcNVH4A": {"geometry": {"location": {"lat": 51.5243867, "lng": -0.1911871}, "viewport": {"northeast": {"lat": 51.5256767302915, "lng": -0.1897825697084979}, "southwest": {"lat": 51.5229787697085, "lng": -0.192480530291502}}}, "name": "Rasa Medic", "place_id": "ChIJx4clN48RdkgRoQf3hcNVH4A", "types": ["point_of_interest", "establishment"]}, "ChIJiYNhrgcQdkgRA8F4njJdHRo": {"geometry": {"location": {"lat": 51.52330443626915, "lng": -0.1905943057141544}, "viewport": {"northeast": {"lat": 51.52459338029149, "lng": -0.1890694}, "southwest": {"lat": 51.5218954197085, "lng": -0.1920709999999999}}}, "name": "31 Aldsworth Cl", "place_id": "ChIJiYNhrgcQdkgRA8F4njJdHRo", "types": ["route"]}, "ChIJ54ejGwcQdkgR-nBZXjlBLLo": {"geometry": {"location": {"lat": 51.52213673848239, "lng": -0.1908011204280679}, "viewport": {"northeast": {"lat": 51.52348323029149, "lng": -0.189455519708498}, "southwest": {"lat": 51.52078526970849, "lng": -0.192153480291502}}}, "name": "Woodchester Square", "place_id": "ChIJ54ejGwcQdkgR-nBZXjlBLLo", "types": ["route"]}, "ChIJf0MEJgcQdkgRHBJjd1xgeA8": {"geometry": {"location": {"lat": 51.52080570013219, "lng": -0.1906634502118159}, "viewport": {"northeast": {"lat": 51.52215468029149, "lng": -0.189314469708498}, "southwest": {"lat": 51.51945671970849, "lng": -0.192012430291502}}}, "name": "161-203 Bourne Terrace", "place_id": "ChIJf0MEJgcQdkgRHBJjd1xgeA8", "types": ["route"]}, "ChIJsTjrJwcQdkgR07p2WFPhpzs": {"geometry": {"location": {"lat": 51.52088209999999, "lng": -0.190865}, "viewport": {"northeast": {"lat": 51.5222830302915, "lng": -0.189532219708498}, "southwest": {"lat": 51.5195850697085, "lng": -0.192230180291502}}}, "name": "Uk & European Disabled Hajj Mission", "place_id": "ChIJsTjrJwcQdkgR07p2WFPhpzs", "types": ["point_of_interest", "establishment"]}, "ChIJidWwfFAxcEERcsAewbqOyxY": {"geometry": {"location": {"lat": 51.520882, "lng": -0.190864}, "viewport": {"northeast": {"lat": 51.5222829802915, "lng": -0.1895317197084979}, "southwest": {"lat": 51.5195850197085, "lng": -0.192229680291502}}}, "name": "Easyhajj", "place_id": "ChIJidWwfFAxcEERcsAewbqOyxY", "types": ["travel_agency", "point_of_interest", "establishment"], "rating": 3.3, "user_ratings_total": 30}, "ChIJB0iyJwcQdkgRu7oYzEptROw": {"geometry": {"location": {"lat": 51.52088209999999, "lng": -0.190865}, "viewport": {"northeast": {"lat": 51.5222830302915, "lng": -0.189532219708498}, "southwest": {"lat": 51.5195850697085, "lng": -0.192230180291502}}}, "name": "Easy Umrah", "place_id": "ChIJB0iyJwcQdkgRu7oYzEptROw", "types": ["travel_agency", "point_of_interest", "establishment"], "rating": 5, "user_ratings_total": 1}, "ChIJCcDeJwcQdkgRN-Twpq1uPmI": {"geometry": {"location": {"lat": 51.5208549, "lng": -0.1908168}, "viewport": {"northeast": {"lat": 51.5221651302915, "lng": -0.189436769708498}, "southwest": {"lat": 51.5194671697085, "lng": -0.192134730291502}}}, "name": "Westbourne Rehearsal Studios", "place_id": "ChIJCcDeJwcQdkgRN-Twpq1uPmI", "types": ["electronics_store", "home_goods_store", "point_of_interest", "store", "establishment"], "rating": 4.6, "user_ratings_total": 87}, "ChIJsTjrJwcQdkgRf0lX28Cusz4": {"geometry": {"location": {"lat": 51.5209015, "lng": -0.1907285}, "viewport": {"northeast": {"lat": 51.52230103029149, "lng": -0.189395269708498}, "southwest": {"lat": 51.5196030697085, "lng": -0.192093230291502}}}, "name": "Kunduz Supermarket", "place_id": "ChIJsTjrJwcQdkgRf0lX28Cusz4", "types": ["supermarket", "convenience_store", "grocery_or_supermarket", "food", "point_of_interest", "store", "establishment"], "rating": 5, "user_ratings_total": 1}, "ChIJHyTtof4PdkgRvTi1Ae-n1gs": {"geometry": {"location": {"lat": 51.5208911, "lng": -0.1907937}, "viewport": {"northeast": {"lat": 51.5222918802915, "lng": -0.189460819708498}, "southwest": {"lat": 51.5195939197085, "lng": -0.192158780291502}}}, "name": "Supreme W 2 Carpets", "place_id": "ChIJHyTtof4PdkgRvTi1Ae-n1gs", "types": ["furniture_store", "home_goods_store", "point_of_interest", "store", "establishment"], "rating": 5, "user_ratings_total": 2}, "ChIJf4roJwcQdkgRueLKWjosn9A": {"geometry": {"location": {"lat": 51.5208988, "lng": -0.1907145}, "viewport": {"northeast": {"lat": 51.5222045302915, "lng": -0.189329419708498}, "southwest": {"lat": 51.5195065697085, "lng": -0.1920273802915021}}}, "name": "Drummercise drumming tuition, held at", "place_id": "ChIJf4roJwcQdkgRueLKWjosn9A", "types": ["point_of_interest", "establishment"]}, "ChIJB0iyJwcQdkgRBpSR8k1vGqk": {"geometry": {"location": {"lat": 51.52088209999999, "lng": -0.190865}, "viewport": {"northeast": {"lat": 51.5222830302915, "lng": -0.189532219708498}, "southwest": {"lat": 51.5195850697085, "lng": -0.192230180291502}}}, "name": "Stone Home Services Ltd", "place_id": "ChIJB0iyJwcQdkgRBpSR8k1vGqk", "types": ["lodging", "point_of_interest", "establishment"]}, "ChIJwfaaIQcQdkgRrE482XpH8bc": {"geometry": {"location": {"lat": 51.521294, "lng": -0.190723}, "viewport": {"northeast": {"lat": 51.5226461802915, "lng": -0.189344419708498}, "southwest": {"lat": 51.5199482197085, "lng": -0.192042380291502}}}, "name": "ubitricity Charging Station", "place_id": "ChIJwfaaIQcQdkgRrE482XpH8bc", "types": ["point_of_interest", "establishment"]}, "ChIJjd6_JwcQdkgRBuogBZdX6wI": {"geometry": {"location": {"lat": 51.52085450000001, "lng": -0.1909386}, "viewport": {"northeast": {"lat": 51.5222628802915, "lng": -0.189615419708498}, "southwest": {"lat": 51.5195649197085, "lng": -0.192313380291502}}}, "name": "W2 Caribbean Cafe and Roti Shop", "place_id": "ChIJjd6_JwcQdkgRBuogBZdX6wI", "types": ["restaurant", "food", "point_of_interest", "establishment"], "rating": 4.1, "user_ratings_total": 24}, "ChIJD5u9RwYQdkgRXdl11rPIMoQ": {"geometry": {"location": {"lat": 51.52399775029346, "lng": -0.1918239505461462}, "viewport": {"northeast": {"lat": 51.52534673029151, "lng": -0.190474969708498}, "southwest": {"lat": 51.52264876970851, "lng": -0.193172930291502}}}, "name": "Sutherland Avenue", "place_id": "ChIJD5u9RwYQdkgRXdl11rPIMoQ", "types": ["route"]}}}