{"E00023416": {"ChIJ09K_Fr0adkgR8AzTHlxJu0U": {"geometry": {"location": {"lat": 51.53409095012443, "lng": -0.174886800273079}, "viewport": {"northeast": {"lat": 51.5354399302915, "lng": -0.173537819708498}, "southwest": {"lat": 51.5327419697085, "lng": -0.176235780291502}}}, "name": "Grove End Road", "place_id": "ChIJ09K_Fr0adkgR8AzTHlxJu0U", "types": ["route"]}, "ChIJL3ZjKL0adkgRTeYNCLMqrZ4": {"geometry": {"location": {"lat": 51.53352229999999, "lng": -0.1755653}, "viewport": {"northeast": {"lat": 51.53491023029149, "lng": -0.174308969708498}, "southwest": {"lat": 51.5322122697085, "lng": -0.177006930291502}}}, "name": "St John's Hospice", "place_id": "ChIJL3ZjKL0adkgRTeYNCLMqrZ4", "types": ["health", "point_of_interest", "establishment"], "rating": 4.5, "user_ratings_total": 8}, "ChIJ3Vn4Jr0adkgRUvvvP9Qrs48": {"geometry": {"location": {"lat": 51.5335016, "lng": -0.1756101}, "viewport": {"northeast": {"lat": 51.5348976302915, "lng": -0.1743497697084979}, "southwest": {"lat": 51.5321996697085, "lng": -0.177047730291502}}}, "name": "Stephen Hamilton MD, FRCS", "place_id": "ChIJ3Vn4Jr0adkgRUvvvP9Qrs48", "types": ["doctor", "health", "point_of_interest", "establishment"]}, "ChIJ51n4Jr0adkgRu5Lo_LB8kRI": {"geometry": {"location": {"lat": 51.53347309999999, "lng": -0.175461}, "viewport": {"northeast": {"lat": 51.53490173029149, "lng": -0.174252919708498}, "southwest": {"lat": 51.53220376970849, "lng": -0.176950880291502}}}, "name": "LDC Training", "place_id": "ChIJ51n4Jr0adkgRu5Lo_LB8kRI", "types": ["point_of_interest", "establishment"]}, "ChIJL3ZjKL0adkgRthxQsnx60RA": {"geometry": {"location": {"lat": 51.5334856, "lng": -0.1755961}, "viewport": {"northeast": {"lat": 51.53489048029149, "lng": -0.1743460197084979}, "southwest": {"lat": 51.5321925197085, "lng": -0.177043980291502}}}, "name": "Casualty First", "place_id": "ChIJL3ZjKL0adkgRthxQsnx60RA", "types": ["health", "point_of_interest", "establishment"], "rating": 4.3, "user_ratings_total": 16}, "ChIJsa8o4LwadkgR1-LVygvUv-Q": {"geometry": {"location": {"lat": 51.53343609999999, "lng": -0.1753181}, "viewport": {"northeast": {"lat": 51.53489443029151, "lng": -0.174165269708498}, "southwest": {"lat": 51.53219646970851, "lng": -0.176863230291502}}}, "name": "Mr. Rajarshi Bhattacharya", "place_id": "ChIJsa8o4LwadkgR1-LVygvUv-Q", "types": ["doctor", "health", "point_of_interest", "establishment"]}, "ChIJL3ZjKL0adkgRQ6_aPgB4kW8": {"geometry": {"location": {"lat": 51.53351290000001, "lng": -0.1755459}, "viewport": {"northeast": {"lat": 51.5349106302915, "lng": -0.174298669708498}, "southwest": {"lat": 51.53221266970851, "lng": -0.176996630291502}}}, "name": "St. John\u2019s Wood Medical Practice", "place_id": "ChIJL3ZjKL0adkgRQ6_aPgB4kW8", "types": ["health", "point_of_interest", "establishment"], "rating": 3.3, "user_ratings_total": 39}, "ChIJsa8o4LwadkgR20xA_dxVhAw": {"geometry": {"location": {"lat": 51.5334457, "lng": -0.1755486}, "viewport": {"northeast": {"lat": 51.5348669802915, "lng": -0.174327519708498}, "southwest": {"lat": 51.5321690197085, "lng": -0.177025480291502}}}, "name": "Orthopaedic Unit", "place_id": "ChIJsa8o4LwadkgR20xA_dxVhAw", "types": ["doctor", "health", "point_of_interest", "establishment"], "rating": 1.7, "user_ratings_total": 6}, "ChIJ80rVMwYRdkgRmRpaJAbNqNc": {"geometry": {"location": {"lat": 51.5337134, "lng": -0.1751409}, "viewport": {"northeast": {"lat": 51.53514673029149, "lng": -0.173902119708498}, "southwest": {"lat": 51.5324487697085, "lng": -0.176600080291502}}}, "name": "Top Division Lofts", "place_id": "ChIJ80rVMwYRdkgRmRpaJAbNqNc", "types": ["home_goods_store", "general_contractor", "point_of_interest", "store", "establishment"], "rating": 5, "user_ratings_total": 4}, "ChIJL3ZjKL0adkgRQUsj3g7QSME": {"geometry": {"location": {"lat": 51.5335016, "lng": -0.1756101}, "viewport": {"northeast": {"lat": 51.5348976302915, "lng": -0.1743497697084979}, "southwest": {"lat": 51.5321996697085, "lng": -0.177047730291502}}}, "name": "Dr Jennifer Jones", "place_id": "ChIJL3ZjKL0adkgRQUsj3g7QSME", "types": ["doctor", "health", "point_of_interest", "establishment"], "rating": 5, "user_ratings_total": 2}, "ChIJ_QQuEr0adkgRIUpfRTnBM1I": {"geometry": {"location": {"lat": 51.5339745, "lng": -0.1745939}, "viewport": {"northeast": {"lat": 51.5354056302915, "lng": -0.173335069708498}, "southwest": {"lat": 51.5327076697085, "lng": -0.176033030291502}}}, "name": "Caffe Beatles B 507", "place_id": "ChIJ_QQuEr0adkgRIUpfRTnBM1I", "types": ["shopping_mall", "point_of_interest", "establishment"], "rating": 4, "user_ratings_total": 1}, "ChIJORaIFr0adkgRNK4aw2UuWQ0": {"geometry": {"location": {"lat": 51.534218, "lng": -0.174734}, "viewport": {"northeast": {"lat": 51.5355453802915, "lng": -0.173360319708498}, "southwest": {"lat": 51.5328474197085, "lng": -0.176058280291502}}}, "name": "Chargemaster Charging Station", "place_id": "ChIJORaIFr0adkgRNK4aw2UuWQ0", "types": ["point_of_interest", "establishment"]}, "ChIJdTNdIPIbdkgRBTOAhRuU5RQ": {"geometry": {"location": {"lat": 51.5336465, "lng": -0.1757585}, "viewport": {"northeast": {"lat": 51.5350054802915, "lng": -0.174427069708498}, "southwest": {"lat": 51.53230751970851, "lng": -0.177125030291502}}}, "name": "CCTV Installers St John's Wood", "place_id": "ChIJdTNdIPIbdkgRBTOAhRuU5RQ", "types": ["point_of_interest", "establishment"], "rating": 4.3, "user_ratings_total": 4}, "ChIJW2HMKL0adkgRCq8GzqZj9Eg": {"geometry": {"location": {"lat": 51.53353240000001, "lng": -0.1754385}, "viewport": {"northeast": {"lat": 51.5349321802915, "lng": -0.174213819708498}, "southwest": {"lat": 51.5322342197085, "lng": -0.176911780291502}}}, "name": "Allergy & Immunology Clinic", "place_id": "ChIJW2HMKL0adkgRCq8GzqZj9Eg", "types": ["health", "point_of_interest", "establishment"]}, "ChIJj7GSCkYbdkgR3T5lcu8VY2Y": {"geometry": {"location": {"lat": 51.5340448, "lng": -0.174551}, "viewport": {"northeast": {"lat": 51.53545813029149, "lng": -0.173272669708498}, "southwest": {"lat": 51.5327601697085, "lng": -0.175970630291502}}}, "name": "St Johns Wood Roofing", "place_id": "ChIJj7GSCkYbdkgR3T5lcu8VY2Y", "types": ["roofing_contractor", "point_of_interest", "establishment"], "rating": 5, "user_ratings_total": 3}, "ChIJeYf5Jr0adkgR0us1nKYhgpw": {"geometry": {"location": {"lat": 51.533474, "lng": -0.1754466}, "viewport": {"northeast": {"lat": 51.5349041302915, "lng": -0.174242869708498}, "southwest": {"lat": 51.5322061697085, "lng": -0.176940830291502}}}, "name": "Dr D Abadi - St Johns Wood Medical Practice", "place_id": "ChIJeYf5Jr0adkgR0us1nKYhgpw", "types": ["doctor", "health", "point_of_interest", "establishment"], "rating": 4.5, "user_ratings_total": 2}, "ChIJq1aKHLwadkgRUgGPxp5AVQo": {"geometry": {"location": {"lat": 51.533473, "lng": -0.175461}, "viewport": {"northeast": {"lat": 51.53490168029149, "lng": -0.174252969708498}, "southwest": {"lat": 51.53220371970849, "lng": -0.176950930291502}}}, "name": "Cosmetic Surgeons London", "place_id": "ChIJq1aKHLwadkgRUgGPxp5AVQo", "types": ["doctor", "health", "point_of_interest", "establishment"]}, "ChIJC_jBMW0bdkgRB18H_3ovMsY": {"geometry": {"location": {"lat": 51.5335016, "lng": -0.1756101}, "viewport": {"northeast": {"lat": 51.5348976302915, "lng": -0.1743497697084979}, "southwest": {"lat": 51.5321996697085, "lng": -0.177047730291502}}}, "name": "Mr Ravinder S Natt, Consultant ENT / Head & Neck Surgeon", "place_id": "ChIJC_jBMW0bdkgRB18H_3ovMsY", "types": ["doctor", "health", "point_of_interest", "establishment"], "rating": 5, "user_ratings_total": 1}, "ChIJL3ZjKL0adkgRFPYEZhkP8KU": {"geometry": {"location": {"lat": 51.5335016, "lng": -0.1756101}, "viewport": {"northeast": {"lat": 51.5348976302915, "lng": -0.1743497697084979}, "southwest": {"lat": 51.5321996697085, "lng": -0.177047730291502}}}, "name": "Ms Rita Ohri FRCS FRCOphth", "place_id": "ChIJL3ZjKL0adkgRFPYEZhkP8KU", "types": ["doctor", "health", "point_of_interest", "establishment"], "rating": 5, "user_ratings_total": 1}, "ChIJQU7PKL0adkgRurg7TR7_z8Y": {"geometry": {"location": {"lat": 51.53350150000001, "lng": -0.1756105}, "viewport": {"northeast": {"lat": 51.5348975302915, "lng": -0.174350119708498}, "southwest": {"lat": 51.5321995697085, "lng": -0.177048080291502}}}, "name": "London Foot and Ankle Centre", "place_id": "ChIJQU7PKL0adkgRurg7TR7_z8Y", "types": ["doctor", "health", "point_of_interest", "establishment"], "rating": 5, "user_ratings_total": 1}, "ChIJf82sISkbdkgR3XRjFDZN2z0": {"geometry": {"location": {"lat": 51.53348810000001, "lng": -0.1755698}, "viewport": {"northeast": {"lat": 51.5348964802915, "lng": -0.174325919708498}, "southwest": {"lat": 51.5321985197085, "lng": -0.177023880291502}}}, "name": "Mr Sean Molloy", "place_id": "ChIJf82sISkbdkgR3XRjFDZN2z0", "types": ["doctor", "health", "point_of_interest", "establishment"]}, "ChIJ55aUD-0bdkgRt6R7MoBH7cY": {"geometry": {"location": {"lat": 51.5334868, "lng": -0.1755806}, "viewport": {"northeast": {"lat": 51.5348938302915, "lng": -0.174334269708498}, "southwest": {"lat": 51.5321958697085, "lng": -0.177032230291502}}}, "name": "Dr Nathan Anthony Private Psychiatrist London", "place_id": "ChIJ55aUD-0bdkgRt6R7MoBH7cY", "types": ["doctor", "health", "point_of_interest", "establishment"]}, "ChIJn7X_QhUbdkgRSe2IOKpfGG8": {"geometry": {"location": {"lat": 51.5334868, "lng": -0.1755806}, "viewport": {"northeast": {"lat": 51.5348938302915, "lng": -0.174334269708498}, "southwest": {"lat": 51.5321958697085, "lng": -0.177032230291502}}}, "name": "London Knee Clinic", "place_id": "ChIJn7X_QhUbdkgRSe2IOKpfGG8", "types": ["health", "point_of_interest", "establishment"]}, "ChIJ0ytjKL0adkgRWpk7ZTtrix4": {"geometry": {"location": {"lat": 51.5334743, "lng": -0.1755412}, "viewport": {"northeast": {"lat": 51.5348902302915, "lng": -0.174310669708498}, "southwest": {"lat": 51.5321922697085, "lng": -0.177008630291502}}}, "name": "London Knee Specialists", "place_id": "ChIJ0ytjKL0adkgRWpk7ZTtrix4", "types": ["hospital", "doctor", "health", "point_of_interest", "establishment"], "rating": 3.3, "user_ratings_total": 6}, "ChIJq6qaIL0adkgRyQE_WkzkIq0": {"geometry": {"location": {"lat": 51.5334744, "lng": -0.1755724}, "viewport": {"northeast": {"lat": 51.5349516802915, "lng": -0.174234319708498}, "southwest": {"lat": 51.5322537197085, "lng": -0.176932280291502}}}, "name": "Varicose Vein Clinic", "place_id": "ChIJq6qaIL0adkgRyQE_WkzkIq0", "types": ["health", "point_of_interest", "establishment"]}, "ChIJVVVVJr0adkgRi6QhzFJeOXk": {"geometry": {"location": {"lat": 51.53344130000001, "lng": -0.1754693000000001}, "viewport": {"northeast": {"lat": 51.5348758302915, "lng": -0.174271669708498}, "southwest": {"lat": 51.5321778697085, "lng": -0.176969630291502}}}, "name": "Dr. Patrick Kennedy", "place_id": "ChIJVVVVJr0adkgRi6QhzFJeOXk", "types": ["doctor", "health", "point_of_interest", "establishment"], "rating": 1, "user_ratings_total": 1}, "ChIJJbp4Ir0adkgRaoDoSItBPrY": {"geometry": {"location": {"lat": 51.5337501, "lng": -0.174942}, "viewport": {"northeast": {"lat": 51.53512672772882, "lng": -0.1736050944880183}, "southwest": {"lat": 51.53242876714582, "lng": -0.1763030550710223}}}, "name": "Parking lot", "place_id": "ChIJJbp4Ir0adkgRaoDoSItBPrY", "types": ["parking", "premise", "point_of_interest", "establishment"]}, "ChIJc0fdKr0adkgRveidmF-nwgw": {"geometry": {"location": {"lat": 51.5333167, "lng": -0.1763428}, "viewport": {"northeast": {"lat": 51.53486078671463, "lng": -0.1749352113137829}, "southwest": {"lat": 51.53216282613163, "lng": -0.1776331718967869}}}, "name": "Parking lot", "place_id": "ChIJc0fdKr0adkgRveidmF-nwgw", "types": ["parking", "premise", "point_of_interest", "establishment"]}, "ChIJQxt_5LwadkgRazLKITCXv0Y": {"geometry": {"location": {"lat": 51.53294887147419, "lng": -0.1744510400271514}, "viewport": {"northeast": {"lat": 51.5342735302915, "lng": -0.172951419708498}, "southwest": {"lat": 51.5315755697085, "lng": -0.175649380291502}}}, "name": "Cavendish Avenue", "place_id": "ChIJQxt_5LwadkgRazLKITCXv0Y", "types": ["route"]}, "ChIJ3Vn4Jr0adkgRVqPOl5mRTD0": {"geometry": {"location": {"lat": 51.5328274, "lng": -0.1747759}, "viewport": {"northeast": {"lat": 51.53426123029149, "lng": -0.173309519708498}, "southwest": {"lat": 51.5315632697085, "lng": -0.176007480291502}}}, "name": "Cardiac Unit", "place_id": "ChIJ3Vn4Jr0adkgRVqPOl5mRTD0", "types": ["hospital", "doctor", "health", "point_of_interest", "establishment"]}, "ChIJL3ZjKL0adkgRETCk8vaWVJQ": {"geometry": {"location": {"lat": 51.5328274, "lng": -0.1747759}, "viewport": {"northeast": {"lat": 51.53426123029149, "lng": -0.173309519708498}, "southwest": {"lat": 51.5315632697085, "lng": -0.176007480291502}}}, "name": "The British Varicose Vein Centre", "place_id": "ChIJL3ZjKL0adkgRETCk8vaWVJQ", "types": ["doctor", "health", "point_of_interest", "establishment"]}, "ChIJCeL23fQPdkgRB2uKa5EXjWc": {"geometry": {"location": {"lat": 51.5328274, "lng": -0.1747759}, "viewport": {"northeast": {"lat": 51.53426123029149, "lng": -0.173309519708498}, "southwest": {"lat": 51.5315632697085, "lng": -0.176007480291502}}}, "name": "Richard Scawn", "place_id": "ChIJCeL23fQPdkgRB2uKa5EXjWc", "types": ["doctor", "health", "point_of_interest", "establishment"]}, "ChIJsa8o4LwadkgRGcqKK0ACGrA": {"geometry": {"location": {"lat": 51.5328274, "lng": -0.1747759}, "viewport": {"northeast": {"lat": 51.53426123029149, "lng": -0.173309519708498}, "southwest": {"lat": 51.5315632697085, "lng": -0.176007480291502}}}, "name": "Mr Neil S Tolley", "place_id": "ChIJsa8o4LwadkgRGcqKK0ACGrA", "types": ["hospital", "doctor", "health", "point_of_interest", "establishment"], "rating": 3, "user_ratings_total": 2}, "ChIJOz8pKr0adkgR89gpi5tVATM": {"geometry": {"location": {"lat": 51.5328274, "lng": -0.1747759}, "viewport": {"northeast": {"lat": 51.53426123029149, "lng": -0.173309519708498}, "southwest": {"lat": 51.5315632697085, "lng": -0.176007480291502}}}, "name": "London Hernia", "place_id": "ChIJOz8pKr0adkgR89gpi5tVATM", "types": ["hospital", "health", "point_of_interest", "establishment"], "rating": 4, "user_ratings_total": 3}, "ChIJIdvf5rwadkgRLacnU4chI9U": {"geometry": {"location": {"lat": 51.5328696, "lng": -0.1747215}, "viewport": {"northeast": {"lat": 51.5342829302915, "lng": -0.173283469708498}, "southwest": {"lat": 51.5315849697085, "lng": -0.175981430291502}}}, "name": "London's Specialist Allergy Centre", "place_id": "ChIJIdvf5rwadkgRLacnU4chI9U", "types": ["hospital", "health", "point_of_interest", "establishment"]}, "ChIJIdvf5rwadkgRaRUIrgeajGQ": {"geometry": {"location": {"lat": 51.5328696, "lng": -0.1747215}, "viewport": {"northeast": {"lat": 51.5342829302915, "lng": -0.173283469708498}, "southwest": {"lat": 51.5315849697085, "lng": -0.175981430291502}}}, "name": "Orthopaedic Unit", "place_id": "ChIJIdvf5rwadkgRaRUIrgeajGQ", "types": ["health", "point_of_interest", "establishment"]}, "ChIJUQ1K4LwadkgRci1tPmwDbTI": {"geometry": {"location": {"lat": 51.5332039, "lng": -0.1750152}, "viewport": {"northeast": {"lat": 51.53476243029151, "lng": -0.174036869708498}, "southwest": {"lat": 51.53206446970851, "lng": -0.1767348302915021}}}, "name": "Nippon Club North Clinic", "place_id": "ChIJUQ1K4LwadkgRci1tPmwDbTI", "types": ["hospital", "health", "point_of_interest", "establishment"], "rating": 2.7, "user_ratings_total": 9}, "ChIJsa8o4LwadkgRFO0bzCfxCGs": {"geometry": {"location": {"lat": 51.5332039, "lng": -0.1750152}, "viewport": {"northeast": {"lat": 51.53476243029151, "lng": -0.174036869708498}, "southwest": {"lat": 51.53206446970851, "lng": -0.1767348302915021}}}, "name": "South West Foot & Ankle Centre", "place_id": "ChIJsa8o4LwadkgRFO0bzCfxCGs", "types": ["health", "point_of_interest", "establishment"]}, "ChIJsa8o4LwadkgRDTlQUNV5qLA": {"geometry": {"location": {"lat": 51.5332039, "lng": -0.1750152}, "viewport": {"northeast": {"lat": 51.53476243029151, "lng": -0.174036869708498}, "southwest": {"lat": 51.53206446970851, "lng": -0.1767348302915021}}}, "name": "Abouthernias", "place_id": "ChIJsa8o4LwadkgRDTlQUNV5qLA", "types": ["point_of_interest", "establishment"]}, "ChIJr68o4LwadkgRc6cshEwcErI": {"geometry": {"location": {"lat": 51.5332039, "lng": -0.1750152}, "viewport": {"northeast": {"lat": 51.53476243029151, "lng": -0.174036869708498}, "southwest": {"lat": 51.53206446970851, "lng": -0.1767348302915021}}}, "name": "David Harris Dermatology LLP", "place_id": "ChIJr68o4LwadkgRc6cshEwcErI", "types": ["doctor", "health", "point_of_interest", "establishment"]}, "ChIJsa8o4LwadkgRV1R-GM40mAE": {"geometry": {"location": {"lat": 51.5332039, "lng": -0.1750152}, "viewport": {"northeast": {"lat": 51.53476243029151, "lng": -0.174036869708498}, "southwest": {"lat": 51.53206446970851, "lng": -0.1767348302915021}}}, "name": "London Sports Medicine Unit", "place_id": "ChIJsa8o4LwadkgRV1R-GM40mAE", "types": ["health", "point_of_interest", "establishment"]}, "ChIJs4__DNzg2UcRh3vve9Ajh_g": {"geometry": {"location": {"lat": 51.5333185, "lng": -0.1751464}, "viewport": {"northeast": {"lat": 51.5348295802915, "lng": -0.174088169708498}, "southwest": {"lat": 51.5321316197085, "lng": -0.176786130291502}}}, "name": "London Norwich Spine Clinic", "place_id": "ChIJs4__DNzg2UcRh3vve9Ajh_g", "types": ["hospital", "health", "point_of_interest", "establishment"]}, "ChIJ3Vn4Jr0adkgR9pSEfFrEwno": {"geometry": {"location": {"lat": 51.5328274, "lng": -0.1747759}, "viewport": {"northeast": {"lat": 51.53426123029149, "lng": -0.173309519708498}, "southwest": {"lat": 51.5315632697085, "lng": -0.176007480291502}}}, "name": "Private GP Practice", "place_id": "ChIJ3Vn4Jr0adkgR9pSEfFrEwno", "types": ["hospital", "health", "point_of_interest", "establishment"], "rating": 5, "user_ratings_total": 1}, "ChIJL3ZjKL0adkgRBVz823zNy88": {"geometry": {"location": {"lat": 51.5328274, "lng": -0.1747759}, "viewport": {"northeast": {"lat": 51.53426123029149, "lng": -0.173309519708498}, "southwest": {"lat": 51.5315632697085, "lng": -0.176007480291502}}}, "name": "Shoulder Unit", "place_id": "ChIJL3ZjKL0adkgRBVz823zNy88", "types": ["hospital", "doctor", "health", "point_of_interest", "establishment"], "rating": 5, "user_ratings_total": 1}, "ChIJPwkyS88bdkgR6iMdJIM8FXM": {"geometry": {"location": {"lat": 51.5328274, "lng": -0.1747759}, "viewport": {"northeast": {"lat": 51.53426123029149, "lng": -0.173309519708498}, "southwest": {"lat": 51.5315632697085, "lng": -0.176007480291502}}}, "name": "Mr Simon Choong", "place_id": "ChIJPwkyS88bdkgR6iMdJIM8FXM", "types": ["doctor", "health", "point_of_interest", "establishment"]}, "ChIJOwu-DzUbdkgRXvtElmZ5fdw": {"geometry": {"location": {"lat": 51.5328274, "lng": -0.1747759}, "viewport": {"northeast": {"lat": 51.53426123029149, "lng": -0.173309519708498}, "southwest": {"lat": 51.5315632697085, "lng": -0.176007480291502}}}, "name": "Dr Nick Koutroumanos", "place_id": "ChIJOwu-DzUbdkgRXvtElmZ5fdw", "types": ["doctor", "health", "point_of_interest", "establishment"], "rating": 5, "user_ratings_total": 2}, "ChIJTehLOiEbdkgRH3BvIhcQZdE": {"geometry": {"location": {"lat": 51.5328274, "lng": -0.1747759}, "viewport": {"northeast": {"lat": 51.53426123029149, "lng": -0.173309519708498}, "southwest": {"lat": 51.5315632697085, "lng": -0.176007480291502}}}, "name": "Dr Lee Noimark", "place_id": "ChIJTehLOiEbdkgRH3BvIhcQZdE", "types": ["hospital", "health", "point_of_interest", "establishment"]}, "ChIJrY_8c0gbdkgRhVKv-T5YzRk": {"geometry": {"location": {"lat": 51.5328274, "lng": -0.1747759}, "viewport": {"northeast": {"lat": 51.53426123029149, "lng": -0.173309519708498}, "southwest": {"lat": 51.5315632697085, "lng": -0.176007480291502}}}, "name": "Mr Colin Nnadi", "place_id": "ChIJrY_8c0gbdkgRhVKv-T5YzRk", "types": ["doctor", "health", "point_of_interest", "establishment"]}, "ChIJadI-QhYbdkgR3jLDUSm2Spk": {"geometry": {"location": {"lat": 51.5328274, "lng": -0.1747759}, "viewport": {"northeast": {"lat": 51.53426123029149, "lng": -0.173309519708498}, "southwest": {"lat": 51.5315632697085, "lng": -0.176007480291502}}}, "name": "Mr Naoum - Consultant Gynaecologist", "place_id": "ChIJadI-QhYbdkgR3jLDUSm2Spk", "types": ["doctor", "health", "point_of_interest", "establishment"]}, "ChIJKwEQ57wadkgRQgTXdfE-wAE": {"geometry": {"location": {"lat": 51.5328274, "lng": -0.1747759}, "viewport": {"northeast": {"lat": 51.53426123029149, "lng": -0.173309519708498}, "southwest": {"lat": 51.5315632697085, "lng": -0.176007480291502}}}, "name": "Dr Amali Lokugamage", "place_id": "ChIJKwEQ57wadkgRQgTXdfE-wAE", "types": ["doctor", "health", "point_of_interest", "establishment"]}, "ChIJG5lAssIbdkgRdqmozWI14o0": {"geometry": {"location": {"lat": 51.5328274, "lng": -0.1747759}, "viewport": {"northeast": {"lat": 51.53426123029149, "lng": -0.173309519708498}, "southwest": {"lat": 51.5315632697085, "lng": -0.176007480291502}}}, "name": "Mr Matthew Solan", "place_id": "ChIJG5lAssIbdkgRdqmozWI14o0", "types": ["doctor", "health", "point_of_interest", "establishment"]}, "ChIJpSZ59uQbdkgRMrWEbYQv8tc": {"geometry": {"location": {"lat": 51.5328274, "lng": -0.1747759}, "viewport": {"northeast": {"lat": 51.53426123029149, "lng": -0.173309519708498}, "southwest": {"lat": 51.5315632697085, "lng": -0.176007480291502}}}, "name": "Professor Margaret Johnson", "place_id": "ChIJpSZ59uQbdkgRMrWEbYQv8tc", "types": ["hospital", "health", "point_of_interest", "establishment"]}, "ChIJEZEe6c4bdkgRw1FBTZb0xeA": {"geometry": {"location": {"lat": 51.5328274, "lng": -0.1747759}, "viewport": {"northeast": {"lat": 51.53426123029149, "lng": -0.173309519708498}, "southwest": {"lat": 51.5315632697085, "lng": -0.176007480291502}}}, "name": "Dr Paramjit Jeetley", "place_id": "ChIJEZEe6c4bdkgRw1FBTZb0xeA", "types": ["hospital", "health", "point_of_interest", "establishment"]}, "ChIJKVeTlzMbdkgRQFjmZvO1nZ4": {"geometry": {"location": {"lat": 51.5328274, "lng": -0.1747759}, "viewport": {"northeast": {"lat": 51.53426123029149, "lng": -0.173309519708498}, "southwest": {"lat": 51.5315632697085, "lng": -0.176007480291502}}}, "name": "Mr Abhijeet Parikh", "place_id": "ChIJKVeTlzMbdkgRQFjmZvO1nZ4", "types": ["hospital", "health", "point_of_interest", "establishment"]}, "ChIJv70DeFEbdkgR_vDxQJBVxKU": {"geometry": {"location": {"lat": 51.5328274, "lng": -0.1747759}, "viewport": {"northeast": {"lat": 51.53426123029149, "lng": -0.173309519708498}, "southwest": {"lat": 51.5315632697085, "lng": -0.176007480291502}}}, "name": "Mr Majid Hashemi", "place_id": "ChIJv70DeFEbdkgR_vDxQJBVxKU", "types": ["hospital", "health", "point_of_interest", "establishment"], "rating": 5, "user_ratings_total": 1}, "ChIJHUyFSe0bdkgRmmcr80d0qqw": {"geometry": {"location": {"lat": 51.5328274, "lng": -0.1747759}, "viewport": {"northeast": {"lat": 51.53426123029149, "lng": -0.173309519708498}, "southwest": {"lat": 51.5315632697085, "lng": -0.176007480291502}}}, "name": "Mr Andrew Ballaro", "place_id": "ChIJHUyFSe0bdkgRmmcr80d0qqw", "types": ["doctor", "health", "point_of_interest", "establishment"]}, "ChIJSST2z00bdkgR5k-2suToUeQ": {"geometry": {"location": {"lat": 51.5328274, "lng": -0.1747759}, "viewport": {"northeast": {"lat": 51.53426123029149, "lng": -0.173309519708498}, "southwest": {"lat": 51.5315632697085, "lng": -0.176007480291502}}}, "name": "Mr Romi Navaratnam", "place_id": "ChIJSST2z00bdkgR5k-2suToUeQ", "types": ["doctor", "health", "point_of_interest", "establishment"]}, "ChIJz92z7eEbdkgR9NEzEgDaF8M": {"geometry": {"location": {"lat": 51.5328274, "lng": -0.1747759}, "viewport": {"northeast": {"lat": 51.53426123029149, "lng": -0.173309519708498}, "southwest": {"lat": 51.5315632697085, "lng": -0.176007480291502}}}, "name": "Mr Ameet Shah - Consultant Ophthalmologist", "place_id": "ChIJz92z7eEbdkgR9NEzEgDaF8M", "types": ["doctor", "health", "point_of_interest", "establishment"]}, "ChIJU53vEHMbdkgRk0TN4t9V-zw": {"geometry": {"location": {"lat": 51.5328274, "lng": -0.1747759}, "viewport": {"northeast": {"lat": 51.53426123029149, "lng": -0.173309519708498}, "southwest": {"lat": 51.5315632697085, "lng": -0.176007480291502}}}, "name": "Dr Shane Roche", "place_id": "ChIJU53vEHMbdkgRk0TN4t9V-zw", "types": ["hospital", "health", "point_of_interest", "establishment"]}, "ChIJB8Zz45kbdkgRSDPSPlcUGVc": {"geometry": {"location": {"lat": 51.5328274, "lng": -0.1747759}, "viewport": {"northeast": {"lat": 51.53426123029149, "lng": -0.173309519708498}, "southwest": {"lat": 51.5315632697085, "lng": -0.176007480291502}}}, "name": "Mr Syed Tahir Hussain", "place_id": "ChIJB8Zz45kbdkgRSDPSPlcUGVc", "types": ["hospital", "health", "point_of_interest", "establishment"]}, "ChIJWfAljFAbdkgRVPY44HWcX7M": {"geometry": {"location": {"lat": 51.5328274, "lng": -0.1747759}, "viewport": {"northeast": {"lat": 51.53426123029149, "lng": -0.173309519708498}, "southwest": {"lat": 51.5315632697085, "lng": -0.176007480291502}}}, "name": "Ms Charlotte Chaliha", "place_id": "ChIJWfAljFAbdkgRVPY44HWcX7M", "types": ["hospital", "health", "point_of_interest", "establishment"]}, "ChIJFXuklTsbdkgRUOxCIysHyvg": {"geometry": {"location": {"lat": 51.5328274, "lng": -0.1747759}, "viewport": {"northeast": {"lat": 51.53426123029149, "lng": -0.173309519708498}, "southwest": {"lat": 51.5315632697085, "lng": -0.176007480291502}}}, "name": "WEIGHT LOSS LONDON", "place_id": "ChIJFXuklTsbdkgRUOxCIysHyvg", "types": ["health", "point_of_interest", "establishment"], "rating": 5, "user_ratings_total": 2}, "ChIJDQ-7GM4bdkgRX-A9nG3pVAc": {"geometry": {"location": {"lat": 51.5328274, "lng": -0.1747759}, "viewport": {"northeast": {"lat": 51.53426123029149, "lng": -0.173309519708498}, "southwest": {"lat": 51.5315632697085, "lng": -0.176007480291502}}}, "name": "Mr Zaid Shalchi", "place_id": "ChIJDQ-7GM4bdkgRX-A9nG3pVAc", "types": ["doctor", "health", "point_of_interest", "establishment"]}, "ChIJu5WBC9YbdkgR4-1IV-PMPBA": {"geometry": {"location": {"lat": 51.5328274, "lng": -0.1747759}, "viewport": {"northeast": {"lat": 51.53426123029149, "lng": -0.173309519708498}, "southwest": {"lat": 51.5315632697085, "lng": -0.176007480291502}}}, "name": "Parag K. Jaiswal - London Hip & Knee Consultant", "place_id": "ChIJu5WBC9YbdkgR4-1IV-PMPBA", "types": ["doctor", "health", "point_of_interest", "establishment"], "rating": 5, "user_ratings_total": 5}, "ChIJKwEQ57wadkgRUTPB7H-ovKw": {"geometry": {"location": {"lat": 51.5328274, "lng": -0.1747759}, "viewport": {"northeast": {"lat": 51.53426123029149, "lng": -0.173309519708498}, "southwest": {"lat": 51.5315632697085, "lng": -0.176007480291502}}}, "name": "Vimal Sivasanker", "place_id": "ChIJKwEQ57wadkgRUTPB7H-ovKw", "types": ["hospital", "doctor", "health", "point_of_interest", "establishment"]}, "ChIJjeDmtEcbdkgRjMMvg9MIW4o": {"geometry": {"location": {"lat": 51.5328274, "lng": -0.1747759}, "viewport": {"northeast": {"lat": 51.53426123029149, "lng": -0.173309519708498}, "southwest": {"lat": 51.5315632697085, "lng": -0.176007480291502}}}, "name": "Professor Vicky Jolliffe Consultant Dermatologist", "place_id": "ChIJjeDmtEcbdkgRjMMvg9MIW4o", "types": ["doctor", "health", "point_of_interest", "establishment"], "rating": 5, "user_ratings_total": 2}, "ChIJZdIj_r8bdkgREKxbrpUq6hA": {"geometry": {"location": {"lat": 51.5328274, "lng": -0.1747759}, "viewport": {"northeast": {"lat": 51.53426123029149, "lng": -0.173309519708498}, "southwest": {"lat": 51.5315632697085, "lng": -0.176007480291502}}}, "name": "Dr Anupam Bhattacharjee", "place_id": "ChIJZdIj_r8bdkgREKxbrpUq6hA", "types": ["doctor", "health", "point_of_interest", "establishment"]}, "ChIJ6Xs2bI4bdkgRMaddZJy2VTA": {"geometry": {"location": {"lat": 51.5328274, "lng": -0.1747759}, "viewport": {"northeast": {"lat": 51.53426123029149, "lng": -0.173309519708498}, "southwest": {"lat": 51.5315632697085, "lng": -0.176007480291502}}}, "name": "Total Orthopaedics", "place_id": "ChIJ6Xs2bI4bdkgRMaddZJy2VTA", "types": ["health", "point_of_interest", "establishment"]}, "ChIJjafLyWAbdkgRsLFl4Panue8": {"geometry": {"location": {"lat": 51.5328274, "lng": -0.1747759}, "viewport": {"northeast": {"lat": 51.53426123029149, "lng": -0.173309519708498}, "southwest": {"lat": 51.5315632697085, "lng": -0.176007480291502}}}, "name": "Private Gynaecology in St Johns Wood", "place_id": "ChIJjafLyWAbdkgRsLFl4Panue8", "types": ["health", "point_of_interest", "establishment"]}, "ChIJG3yTviQbdkgRZj3HCBjEfcY": {"geometry": {"location": {"lat": 51.5328274, "lng": -0.1747759}, "viewport": {"northeast": {"lat": 51.53426123029149, "lng": -0.173309519708498}, "southwest": {"lat": 51.5315632697085, "lng": -0.176007480291502}}}, "name": "Dr. Nilesh Agarwal - Private Gynaecologist London", "place_id": "ChIJG3yTviQbdkgRZj3HCBjEfcY", "types": ["doctor", "health", "point_of_interest", "establishment"], "rating": 4.4, "user_ratings_total": 12}, "ChIJ403Yz5cbdkgRf0h7ODQw9UQ": {"geometry": {"location": {"lat": 51.5328274, "lng": -0.1747759}, "viewport": {"northeast": {"lat": 51.53426123029149, "lng": -0.173309519708498}, "southwest": {"lat": 51.5315632697085, "lng": -0.176007480291502}}}, "name": "Mr Ravinder S Natt, Consultant ENT / Head & Neck Surgeon", "place_id": "ChIJ403Yz5cbdkgRf0h7ODQw9UQ", "types": ["doctor", "health", "point_of_interest", "establishment"], "rating": 4, "user_ratings_total": 4}, "ChIJx5gjJr0adkgRTaWMjtjQHLA": {"geometry": {"location": {"lat": 51.5328274, "lng": -0.1747759}, "viewport": {"northeast": {"lat": 51.53426123029149, "lng": -0.173309519708498}, "southwest": {"lat": 51.5315632697085, "lng": -0.176007480291502}}}, "name": "London Spine Specialists", "place_id": "ChIJx5gjJr0adkgRTaWMjtjQHLA", "types": ["health", "point_of_interest", "establishment"], "rating": 1, "user_ratings_total": 1}, "ChIJsdpvFTkMdkgRZmk90_U8gIU": {"geometry": {"location": {"lat": 51.5328274, "lng": -0.1747759}, "viewport": {"northeast": {"lat": 51.53426123029149, "lng": -0.173309519708498}, "southwest": {"lat": 51.5315632697085, "lng": -0.176007480291502}}}, "name": "The London Interventional Clinic - Spinal Specialists", "place_id": "ChIJsdpvFTkMdkgRZmk90_U8gIU", "types": ["doctor", "health", "point_of_interest", "establishment"], "rating": 5, "user_ratings_total": 6}, "ChIJy3p0P20bdkgRC70JBfxO98Q": {"geometry": {"location": {"lat": 51.5328274, "lng": -0.1747759}, "viewport": {"northeast": {"lat": 51.53426123029149, "lng": -0.173309519708498}, "southwest": {"lat": 51.5315632697085, "lng": -0.176007480291502}}}, "name": "Blushing and Sweating Medical Clinic", "place_id": "ChIJy3p0P20bdkgRC70JBfxO98Q", "types": ["health", "point_of_interest", "establishment"]}, "ChIJPSawcaAbdkgRy-83TH2pM5M": {"geometry": {"location": {"lat": 51.5328274, "lng": -0.1747759}, "viewport": {"northeast": {"lat": 51.53426123029149, "lng": -0.173309519708498}, "southwest": {"lat": 51.5315632697085, "lng": -0.176007480291502}}}, "name": "Nilesh Agarwal - Private Gynecologist in London", "place_id": "ChIJPSawcaAbdkgRy-83TH2pM5M", "types": ["doctor", "health", "point_of_interest", "establishment"], "rating": 5, "user_ratings_total": 7}, "ChIJJcsg7sAbdkgRoI__OLBeTSk": {"geometry": {"location": {"lat": 51.5328274, "lng": -0.1747759}, "viewport": {"northeast": {"lat": 51.53426123029149, "lng": -0.173309519708498}, "southwest": {"lat": 51.5315632697085, "lng": -0.176007480291502}}}, "name": "The Physiotherapy Unit", "place_id": "ChIJJcsg7sAbdkgRoI__OLBeTSk", "types": ["hospital", "health", "point_of_interest", "establishment"]}, "ChIJq6qaIL0adkgRSzQ5Nq8i4Hg": {"geometry": {"location": {"lat": 51.5328274, "lng": -0.1747759}, "viewport": {"northeast": {"lat": 51.53426123029149, "lng": -0.173309519708498}, "southwest": {"lat": 51.5315632697085, "lng": -0.176007480291502}}}, "name": "London Wellwoman Clinic", "place_id": "ChIJq6qaIL0adkgRSzQ5Nq8i4Hg", "types": ["hospital", "doctor", "health", "point_of_interest", "establishment"], "rating": 4.3, "user_ratings_total": 6}, "ChIJ0ytjKL0adkgRgoN7kgbF7JI": {"geometry": {"location": {"lat": 51.5328274, "lng": -0.1747759}, "viewport": {"northeast": {"lat": 51.53426123029149, "lng": -0.173309519708498}, "southwest": {"lat": 51.5315632697085, "lng": -0.176007480291502}}}, "name": "London Urology", "place_id": "ChIJ0ytjKL0adkgRgoN7kgbF7JI", "types": ["health", "point_of_interest", "establishment"], "rating": 3, "user_ratings_total": 4}, "ChIJ3Vn4Jr0adkgRB57MVlv_Tno": {"geometry": {"location": {"lat": 51.5328274, "lng": -0.1747759}, "viewport": {"northeast": {"lat": 51.53426123029149, "lng": -0.173309519708498}, "southwest": {"lat": 51.5315632697085, "lng": -0.176007480291502}}}, "name": "The Stroke Unit", "place_id": "ChIJ3Vn4Jr0adkgRB57MVlv_Tno", "types": ["health", "point_of_interest", "establishment"]}, "ChIJV-b6A14EdkgRDTJz-Viywz0": {"geometry": {"location": {"lat": 51.5328274, "lng": -0.1747759}, "viewport": {"northeast": {"lat": 51.53426123029149, "lng": -0.173309519708498}, "southwest": {"lat": 51.5315632697085, "lng": -0.176007480291502}}}, "name": "Dr Delphine Sekri", "place_id": "ChIJV-b6A14EdkgRDTJz-Viywz0", "types": ["doctor", "health", "point_of_interest", "establishment"]}, "ChIJ1QAQ57wadkgR8msM9otkmWE": {"geometry": {"location": {"lat": 51.53282739999999, "lng": -0.1747758}, "viewport": {"northeast": {"lat": 51.53426123029149, "lng": -0.1733094697084979}, "southwest": {"lat": 51.53156326970849, "lng": -0.176007430291502}}}, "name": "Philip Ahrens", "place_id": "ChIJ1QAQ57wadkgR8msM9otkmWE", "types": ["doctor", "health", "point_of_interest", "establishment"]}, "ChIJ1QAQ57wadkgRUwv3EYs_r9I": {"geometry": {"location": {"lat": 51.53282739999999, "lng": -0.1747758}, "viewport": {"northeast": {"lat": 51.53426123029149, "lng": -0.1733094697084979}, "southwest": {"lat": 51.53156326970849, "lng": -0.176007430291502}}}, "name": "Joseph Surgical", "place_id": "ChIJ1QAQ57wadkgRUwv3EYs_r9I", "types": ["doctor", "health", "point_of_interest", "establishment"]}, "ChIJ1QAQ57wadkgRNDvoXbE0unQ": {"geometry": {"location": {"lat": 51.53282739999999, "lng": -0.1747758}, "viewport": {"northeast": {"lat": 51.53426123029149, "lng": -0.1733094697084979}, "southwest": {"lat": 51.53156326970849, "lng": -0.176007430291502}}}, "name": "Dr Stephen Humble", "place_id": "ChIJ1QAQ57wadkgRNDvoXbE0unQ", "types": ["doctor", "health", "point_of_interest", "establishment"]}, "ChIJ1QAQ57wadkgRC1tWLUdmEH4": {"geometry": {"location": {"lat": 51.53282739999999, "lng": -0.1747758}, "viewport": {"northeast": {"lat": 51.53426123029149, "lng": -0.1733094697084979}, "southwest": {"lat": 51.53156326970849, "lng": -0.176007430291502}}}, "name": "The Standing CT Company", "place_id": "ChIJ1QAQ57wadkgRC1tWLUdmEH4", "types": ["health", "point_of_interest", "establishment"]}, "ChIJW2HMKL0adkgR2ZuWEkVNWaw": {"geometry": {"location": {"lat": 51.5332039, "lng": -0.1750152}, "viewport": {"northeast": {"lat": 51.53476243029151, "lng": -0.174036869708498}, "southwest": {"lat": 51.53206446970851, "lng": -0.1767348302915021}}}, "name": "Gina Harris Specialist Orthoptist, Hospital of St John and St Elizabeth", "place_id": "ChIJW2HMKL0adkgR2ZuWEkVNWaw", "types": ["physiotherapist", "health", "point_of_interest", "establishment"]}, "ChIJr68o4LwadkgRrzQqGRncsrM": {"geometry": {"location": {"lat": 51.5332039, "lng": -0.1750152}, "viewport": {"northeast": {"lat": 51.53476243029151, "lng": -0.174036869708498}, "southwest": {"lat": 51.53206446970851, "lng": -0.1767348302915021}}}, "name": "The Breast Unit", "place_id": "ChIJr68o4LwadkgRrzQqGRncsrM", "types": ["health", "point_of_interest", "establishment"]}, "ChIJr68o4LwadkgRhlUVsFt1Pgs": {"geometry": {"location": {"lat": 51.5332039, "lng": -0.1750152}, "viewport": {"northeast": {"lat": 51.53476243029151, "lng": -0.174036869708498}, "southwest": {"lat": 51.53206446970851, "lng": -0.1767348302915021}}}, "name": "Ghosh Brest Clinic", "place_id": "ChIJr68o4LwadkgRhlUVsFt1Pgs", "types": ["health", "point_of_interest", "establishment"]}, "ChIJNYYqzaIadkgR17HpG4TEAgg": {"geometry": {"location": {"lat": 51.53409943061599, "lng": -0.1763997170072175}, "viewport": {"northeast": {"lat": 51.5354477802915, "lng": -0.175051869708498}, "southwest": {"lat": 51.5327498197085, "lng": -0.177749830291502}}}, "name": "8 Loudoun Rd", "place_id": "ChIJNYYqzaIadkgR17HpG4TEAgg", "types": ["route"]}, "ChIJCeg_z6IadkgRh-CGxOeAen0": {"geometry": {"location": {"lat": 51.53389130000001, "lng": -0.1767146}, "viewport": {"northeast": {"lat": 51.5353350802915, "lng": -0.175194869708498}, "southwest": {"lat": 51.5326371197085, "lng": -0.177892830291502}}}, "name": "Arnold House School", "place_id": "ChIJCeg_z6IadkgRh-CGxOeAen0", "types": ["school", "point_of_interest", "establishment"], "rating": 4, "user_ratings_total": 7}, "ChIJr1aXzKIadkgRaHG1cLxLku4": {"geometry": {"location": {"lat": 51.53421900000001, "lng": -0.176508}, "viewport": {"northeast": {"lat": 51.53556933029151, "lng": -0.175156419708498}, "southwest": {"lat": 51.53287136970851, "lng": -0.177854380291502}}}, "name": "ubitricity Charging Station", "place_id": "ChIJr1aXzKIadkgRaHG1cLxLku4", "types": ["point_of_interest", "establishment"]}, "ChIJ2bXd3KIadkgRfxgieUHly20": {"geometry": {"location": {"lat": 51.53386940000001, "lng": -0.1776119}, "viewport": {"northeast": {"lat": 51.53496303029151, "lng": -0.176818119708498}, "southwest": {"lat": 51.53226506970851, "lng": -0.179516080291502}}}, "name": "Breathing Space", "place_id": "ChIJ2bXd3KIadkgRfxgieUHly20", "types": ["health", "point_of_interest", "establishment"]}, "ChIJlzNT06IadkgRE1mYHugc0ko": {"geometry": {"location": {"lat": 51.5336314, "lng": -0.1763918}, "viewport": {"northeast": {"lat": 51.53488833029149, "lng": -0.174836919708498}, "southwest": {"lat": 51.5321903697085, "lng": -0.177534880291502}}}, "name": "Anshei Shalom", "place_id": "ChIJlzNT06IadkgRE1mYHugc0ko", "types": ["point_of_interest", "establishment"]}, "ChIJlzNT06IadkgRGWFU6tF4xjA": {"geometry": {"location": {"lat": 51.5336314, "lng": -0.1763918}, "viewport": {"northeast": {"lat": 51.53488833029149, "lng": -0.174836919708498}, "southwest": {"lat": 51.5321903697085, "lng": -0.177534880291502}}}, "name": "Kindergarten In The Wood", "place_id": "ChIJlzNT06IadkgRGWFU6tF4xjA", "types": ["school", "point_of_interest", "establishment"], "rating": 5, "user_ratings_total": 1}, "ChIJbWc_LaMadkgRwDrsdaVnAcw": {"geometry": {"location": {"lat": 51.53282700786946, "lng": -0.1764012497484398}, "viewport": {"northeast": {"lat": 51.5341760302915, "lng": -0.175052519708498}, "southwest": {"lat": 51.53147806970851, "lng": -0.177750480291502}}}, "name": "46 Grove End Rd", "place_id": "ChIJbWc_LaMadkgRwDrsdaVnAcw", "types": ["route"]}, "ChIJwYmS-aEadkgRBa-03COiVbs": {"geometry": {"location": {"lat": 51.53258590000002, "lng": -0.1769362}, "viewport": {"northeast": {"lat": 51.53388978029151, "lng": -0.175396869708498}, "southwest": {"lat": 51.53119181970851, "lng": -0.178094830291502}}}, "name": "London Wedding Photographer", "place_id": "ChIJwYmS-aEadkgRBa-03COiVbs", "types": ["point_of_interest", "establishment"], "rating": 4.5, "user_ratings_total": 2}, "ChIJ1TZrddMadkgR9viy78ErGFg": {"geometry": {"location": {"lat": 51.5333151, "lng": -0.1774473}, "viewport": {"northeast": {"lat": 51.53463173029149, "lng": -0.176685519708498}, "southwest": {"lat": 51.5319337697085, "lng": -0.179383480291502}}}, "name": "Ahead4babies Clinic", "place_id": "ChIJ1TZrddMadkgR9viy78ErGFg", "types": ["health", "point_of_interest", "establishment"], "rating": 4.4, "user_ratings_total": 7}, "ChIJua71KKMadkgRt3WZqFFSXS0": {"geometry": {"location": {"lat": 51.5330322, "lng": -0.1766523}, "viewport": {"northeast": {"lat": 51.5343744802915, "lng": -0.175267869708498}, "southwest": {"lat": 51.5316765197085, "lng": -0.177965830291502}}}, "name": "Grove End Gardens", "place_id": "ChIJua71KKMadkgRt3WZqFFSXS0", "types": ["transit_station", "point_of_interest", "establishment"], "rating": 4.5, "user_ratings_total": 2}, "ChIJU_elkfsbdkgRUrr7kvmJdzM": {"geometry": {"location": {"lat": 51.53301760000001, "lng": -0.1767679}, "viewport": {"northeast": {"lat": 51.5343493802915, "lng": -0.175327219708498}, "southwest": {"lat": 51.5316514197085, "lng": -0.1780251802915021}}}, "name": "Hebrew Books", "place_id": "ChIJU_elkfsbdkgRUrr7kvmJdzM", "types": ["book_store", "point_of_interest", "store", "establishment"]}, "ChIJ--w7yywbdkgRZlpKV_yk7LI": {"geometry": {"location": {"lat": 51.5327133, "lng": -0.1766089}, "viewport": {"northeast": {"lat": 51.53404963029149, "lng": -0.175186519708498}, "southwest": {"lat": 51.5313516697085, "lng": -0.177884480291502}}}, "name": "Sir Thomas Beecham blue plaque", "place_id": "ChIJ--w7yywbdkgRZlpKV_yk7LI", "types": ["point_of_interest", "establishment"], "rating": 5, "user_ratings_total": 1}, "ChIJSzAxLqMadkgRmLdY6w5b2U4": {"geometry": {"location": {"lat": 51.5327133, "lng": -0.1766089}, "viewport": {"northeast": {"lat": 51.53404963029149, "lng": -0.175186519708498}, "southwest": {"lat": 51.5313516697085, "lng": -0.177884480291502}}}, "name": "Stewart-Smith G", "place_id": "ChIJSzAxLqMadkgRmLdY6w5b2U4", "types": ["health", "point_of_interest", "establishment"]}, "ChIJ6fZ4LaMadkgRTPn-0-PgE3s": {"geometry": {"location": {"lat": 51.53264799999999, "lng": -0.176561}, "viewport": {"northeast": {"lat": 51.53399233029149, "lng": -0.1751868197084979}, "southwest": {"lat": 51.53129436970849, "lng": -0.177884780291502}}}, "name": "ubitricity Charging Station", "place_id": "ChIJ6fZ4LaMadkgRTPn-0-PgE3s", "types": ["point_of_interest", "establishment"]}, "ChIJZwTS1LwadkgRTcJhuwQBwyc": {"geometry": {"location": {"lat": 51.533072, "lng": -0.176366}, "viewport": {"northeast": {"lat": 51.53441608029149, "lng": -0.174992469708498}, "southwest": {"lat": 51.53171811970849, "lng": -0.177690430291502}}}, "name": "ubitricity Charging Station", "place_id": "ChIJZwTS1LwadkgRTcJhuwQBwyc", "types": ["point_of_interest", "establishment"]}, "ChIJR8M0I6MadkgR4Ih7Q__8aXM": {"geometry": {"location": {"lat": 51.5326206, "lng": -0.1775955}, "viewport": {"northeast": {"lat": 51.5339271302915, "lng": -0.176354069708498}, "southwest": {"lat": 51.5312291697085, "lng": -0.179052030291502}}}, "name": "Neville Court", "place_id": "ChIJR8M0I6MadkgR4Ih7Q__8aXM", "types": ["point_of_interest", "establishment"]}, "ChIJjzCdsVkbdkgRw2FgdkwyUHE": {"geometry": {"location": {"lat": 51.5325352, "lng": -0.1763471}, "viewport": {"northeast": {"lat": 51.5339002302915, "lng": -0.175084319708498}, "southwest": {"lat": 51.5312022697085, "lng": -0.177782280291502}}}, "name": "Sir Lawrence Alma-Tadema Blue Plaque", "place_id": "ChIJjzCdsVkbdkgRw2FgdkwyUHE", "types": ["point_of_interest", "establishment"], "rating": 4, "user_ratings_total": 1}, "ChIJdTuYiywbdkgRZcj57r4_wp8": {"geometry": {"location": {"lat": 51.5333151, "lng": -0.1774473}, "viewport": {"northeast": {"lat": 51.53463173029149, "lng": -0.176685519708498}, "southwest": {"lat": 51.5319337697085, "lng": -0.179383480291502}}}, "name": "soulfeeder fitness", "place_id": "ChIJdTuYiywbdkgRZcj57r4_wp8", "types": ["health", "point_of_interest", "establishment"]}, "ChIJnRpemKkbdkgRFl29D2xYNT4": {"geometry": {"location": {"lat": 51.5333151, "lng": -0.1774473}, "viewport": {"northeast": {"lat": 51.53463173029149, "lng": -0.176685519708498}, "southwest": {"lat": 51.5319337697085, "lng": -0.179383480291502}}}, "name": "soulfeeder fitness", "place_id": "ChIJnRpemKkbdkgRFl29D2xYNT4", "types": ["health", "point_of_interest", "establishment"]}, "ChIJ-4D3mGAbdkgRn5eemCvJ24U": {"geometry": {"location": {"lat": 51.5333151, "lng": -0.1774473}, "viewport": {"northeast": {"lat": 51.53463173029149, "lng": -0.176685519708498}, "southwest": {"lat": 51.5319337697085, "lng": -0.179383480291502}}}, "name": "Nick Cowan Osteopath Injury Rehab", "place_id": "ChIJ-4D3mGAbdkgRn5eemCvJ24U", "types": ["health", "point_of_interest", "establishment"]}, "ChIJM00kHXYbdkgRzxqcIpeg0ck": {"geometry": {"location": {"lat": 51.5333151, "lng": -0.1774473}, "viewport": {"northeast": {"lat": 51.53463173029149, "lng": -0.176685519708498}, "southwest": {"lat": 51.5319337697085, "lng": -0.179383480291502}}}, "name": "The Arcade", "place_id": "ChIJM00kHXYbdkgRzxqcIpeg0ck", "types": ["store", "point_of_interest", "establishment"]}, "ChIJA-LcR6MadkgRAh40Hgqs7hs": {"geometry": {"location": {"lat": 51.53185560003184, "lng": -0.1771152497965683}, "viewport": {"northeast": {"lat": 51.5332045802915, "lng": -0.175766269708498}, "southwest": {"lat": 51.5305066197085, "lng": -0.178464230291502}}}, "name": "Abbey Road", "place_id": "ChIJA-LcR6MadkgRAh40Hgqs7hs", "types": ["route"]}, "ChIJM7fcK9YbdkgRsXeTmkmOvHg": {"geometry": {"location": {"lat": 51.53189039999999, "lng": -0.177055}, "viewport": {"northeast": {"lat": 51.53323143029149, "lng": -0.175731269708498}, "southwest": {"lat": 51.53053346970849, "lng": -0.178429230291502}}}, "name": "Edward Onslow Ford Memorial", "place_id": "ChIJM7fcK9YbdkgRsXeTmkmOvHg", "types": ["point_of_interest", "establishment"], "rating": 3.5, "user_ratings_total": 2}, "ChIJ6S8gTT0bdkgR_W_SNVmq1mU": {"geometry": {"location": {"lat": 51.53195830000001, "lng": -0.1771998}, "viewport": {"northeast": {"lat": 51.5333216302915, "lng": -0.175804969708498}, "southwest": {"lat": 51.5306236697085, "lng": -0.178502930291502}}}, "name": "TTE Crew", "place_id": "ChIJ6S8gTT0bdkgR_W_SNVmq1mU", "types": ["gym", "health", "point_of_interest", "establishment"], "rating": 5, "user_ratings_total": 1}, "ChIJ9V-9JOgbdkgRcodxnryc7gY": {"geometry": {"location": {"lat": 51.5317884, "lng": -0.1775003}, "viewport": {"northeast": {"lat": 51.5330537802915, "lng": -0.176045569708498}, "southwest": {"lat": 51.5303558197085, "lng": -0.178743530291502}}}, "name": "Albany Court", "place_id": "ChIJ9V-9JOgbdkgRcodxnryc7gY", "types": ["point_of_interest", "establishment"]}, "ChIJZXfOF54adkgRZgcj_fyJf2I": {"geometry": {"location": {"lat": 51.53205750000001, "lng": -0.1772518}, "viewport": {"northeast": {"lat": 51.53340368029149, "lng": -0.175908269708498}, "southwest": {"lat": 51.5307057197085, "lng": -0.178606230291502}}}, "name": "\uc5d0\ube44 \ub85c\ub4dc", "place_id": "ChIJZXfOF54adkgRZgcj_fyJf2I", "types": ["transit_station", "point_of_interest", "establishment"], "rating": 3.7, "user_ratings_total": 12}, "ChIJ1_kq6mAbdkgRwTPygwvBmdI": {"geometry": {"location": {"lat": 51.5320512, "lng": -0.1773325}, "viewport": {"northeast": {"lat": 51.53342228029149, "lng": -0.175939919708498}, "southwest": {"lat": 51.53072431970849, "lng": -0.178637880291502}}}, "name": "Abbey Road crossing", "place_id": "ChIJ1_kq6mAbdkgRwTPygwvBmdI", "types": ["tourist_attraction", "point_of_interest", "establishment"], "rating": 4, "user_ratings_total": 11}, "ChIJpYO-NqMadkgRA99ARc1Cen0": {"geometry": {"location": {"lat": 51.53221899999999, "lng": -0.17682}, "viewport": {"northeast": {"lat": 51.53355653029149, "lng": -0.175432319708498}, "southwest": {"lat": 51.53085856970849, "lng": -0.178130280291502}}}, "name": "ubitricity Charging Station", "place_id": "ChIJpYO-NqMadkgRA99ARc1Cen0", "types": ["point_of_interest", "establishment"]}, "ChIJhwZi8nQbdkgRF1AzJkJF1B0": {"geometry": {"location": {"lat": 51.5322605, "lng": -0.1772391}, "viewport": {"northeast": {"lat": 51.53356893029149, "lng": -0.175994519708498}, "southwest": {"lat": 51.5308709697085, "lng": -0.178692480291502}}}, "name": "Bluecompanion Ltd", "place_id": "ChIJhwZi8nQbdkgRF1AzJkJF1B0", "types": ["point_of_interest", "establishment"]}, "ChIJP1s--aIadkgRzd7VdQYcOrw": {"geometry": {"location": {"lat": 51.53366322246327, "lng": -0.1790834647012075}, "viewport": {"northeast": {"lat": 51.53501198029151, "lng": -0.1777349697084979}, "southwest": {"lat": 51.53231401970851, "lng": -0.180432930291502}}}, "name": "22-20 Abbey Rd", "place_id": "ChIJP1s--aIadkgRzd7VdQYcOrw", "types": ["route"]}, "ChIJ7Yzt_KIadkgRg8acoHPOhgA": {"geometry": {"location": {"lat": 51.5335626, "lng": -0.1786162}, "viewport": {"northeast": {"lat": 51.5348584802915, "lng": -0.177378219708498}, "southwest": {"lat": 51.5321605197085, "lng": -0.180076180291502}}}, "name": "Dalcor", "place_id": "ChIJ7Yzt_KIadkgRg8acoHPOhgA", "types": ["point_of_interest", "establishment"]}, "ChIJXcdk8KIadkgRuuGrwyA4n0w": {"geometry": {"location": {"lat": 51.5338773, "lng": -0.1782068}, "viewport": {"northeast": {"lat": 51.5354103302915, "lng": -0.177075469708498}, "southwest": {"lat": 51.53271236970851, "lng": -0.179773430291502}}}, "name": "St.Johns Wood Auto's", "place_id": "ChIJXcdk8KIadkgRuuGrwyA4n0w", "types": ["car_repair", "point_of_interest", "establishment"], "rating": 4, "user_ratings_total": 26}, "ChIJF-hs8KIadkgRcobD-MmbwZM": {"geometry": {"location": {"lat": 51.5339835, "lng": -0.1787001}, "viewport": {"northeast": {"lat": 51.53540883029149, "lng": -0.177441419708498}, "southwest": {"lat": 51.5327108697085, "lng": -0.180139380291502}}}, "name": "Coffee Machine Direct", "place_id": "ChIJF-hs8KIadkgRcobD-MmbwZM", "types": ["point_of_interest", "establishment"]}, "ChIJF-hs8KIadkgR8zv7av6FYVA": {"geometry": {"location": {"lat": 51.5339835, "lng": -0.1787001}, "viewport": {"northeast": {"lat": 51.53540883029149, "lng": -0.177441419708498}, "southwest": {"lat": 51.5327108697085, "lng": -0.180139380291502}}}, "name": "Removal Van Merton", "place_id": "ChIJF-hs8KIadkgR8zv7av6FYVA", "types": ["moving_company", "point_of_interest", "establishment"]}, "ChIJF-hs8KIadkgRoukxQpLkXUU": {"geometry": {"location": {"lat": 51.5339835, "lng": -0.1787001}, "viewport": {"northeast": {"lat": 51.53540883029149, "lng": -0.177441419708498}, "southwest": {"lat": 51.5327108697085, "lng": -0.180139380291502}}}, "name": "Ginvino Ltd", "place_id": "ChIJF-hs8KIadkgRoukxQpLkXUU", "types": ["food", "point_of_interest", "store", "establishment"]}, "ChIJUYDo-aIadkgRhyFHpXBh8Y0": {"geometry": {"location": {"lat": 51.53390419999999, "lng": -0.179028}, "viewport": {"northeast": {"lat": 51.5352960302915, "lng": -0.177748169708498}, "southwest": {"lat": 51.53259806970851, "lng": -0.180446130291502}}}, "name": "Langford Court", "place_id": "ChIJUYDo-aIadkgRhyFHpXBh8Y0", "types": ["point_of_interest", "establishment"], "rating": 3, "user_ratings_total": 1}, "ChIJL0ieTbcbdkgRejgxY5-brfM": {"geometry": {"location": {"lat": 51.53423009999999, "lng": -0.1787929}, "viewport": {"northeast": {"lat": 51.5355696302915, "lng": -0.1774327197084979}, "southwest": {"lat": 51.5328716697085, "lng": -0.180130680291502}}}, "name": "Harold Knight and Laura Knight Blue Plaque", "place_id": "ChIJL0ieTbcbdkgRejgxY5-brfM", "types": ["point_of_interest", "establishment"], "rating": 5, "user_ratings_total": 1}, "ChIJW_5CHKMadkgRtZqA5tPgzAE": {"geometry": {"location": {"lat": 51.53310125015734, "lng": -0.1784283992728115}, "viewport": {"northeast": {"lat": 51.5344502302915, "lng": -0.177079419708498}, "southwest": {"lat": 51.53175226970851, "lng": -0.179777380291502}}}, "name": "9 Abbey Rd", "place_id": "ChIJW_5CHKMadkgRtZqA5tPgzAE", "types": ["route"]}, "ChIJmQXaGqMadkgRFi4BwWyoz9c": {"geometry": {"location": {"lat": 51.5329701, "lng": -0.1779676}, "viewport": {"northeast": {"lat": 51.5343168802915, "lng": -0.176622919708498}, "southwest": {"lat": 51.53161891970851, "lng": -0.179320880291502}}}, "name": "Abbey Road Baptist Church", "place_id": "ChIJmQXaGqMadkgRFi4BwWyoz9c", "types": ["church", "place_of_worship", "point_of_interest", "establishment"], "rating": 4.8, "user_ratings_total": 21}, "ChIJHTaKSp4adkgRjmsQSjsBVyk": {"geometry": {"location": {"lat": 51.533338, "lng": -0.1783567}, "viewport": {"northeast": {"lat": 51.5346379302915, "lng": -0.177090269708498}, "southwest": {"lat": 51.5319399697085, "lng": -0.179788230291502}}}, "name": "Billy's Hair Studio", "place_id": "ChIJHTaKSp4adkgRjmsQSjsBVyk", "types": ["hair_care", "point_of_interest", "establishment"], "rating": 5, "user_ratings_total": 22}, "ChIJ5SLs6fIbdkgR5Pv5OYRaIfU": {"geometry": {"location": {"lat": 51.5331491, "lng": -0.1789301}, "viewport": {"northeast": {"lat": 51.53456113029149, "lng": -0.177660619708498}, "southwest": {"lat": 51.53186316970849, "lng": -0.180358580291502}}}, "name": "Impact Bus-stop", "place_id": "ChIJ5SLs6fIbdkgR5Pv5OYRaIfU", "types": ["school", "point_of_interest", "establishment"]}, "ChIJt2mxDqMadkgRZ_kdgYmx4vY": {"geometry": {"location": {"lat": 51.5325761, "lng": -0.178644}, "viewport": {"northeast": {"lat": 51.5339088302915, "lng": -0.1772821197084979}, "southwest": {"lat": 51.5312108697085, "lng": -0.179980080291502}}}, "name": "ubitricity Charging Station", "place_id": "ChIJt2mxDqMadkgRZ_kdgYmx4vY", "types": ["point_of_interest", "establishment"]}, "ChIJB2L8HaMadkgRzN-2roapryA": {"geometry": {"location": {"lat": 51.53324199999999, "lng": -0.178248}, "viewport": {"northeast": {"lat": 51.53454593029149, "lng": -0.177012819708498}, "southwest": {"lat": 51.5318479697085, "lng": -0.179710780291502}}}, "name": "Daniel Rollins Osteopath", "place_id": "ChIJB2L8HaMadkgRzN-2roapryA", "types": ["gym", "health", "point_of_interest", "establishment"]}, "ChIJlWgcQRMQdkgRAt5bR8f-wDQ": {"geometry": {"location": {"lat": 51.53247160000001, "lng": -0.1783394}, "viewport": {"northeast": {"lat": 51.53390633029149, "lng": -0.176782719708498}, "southwest": {"lat": 51.53120836970849, "lng": -0.179480680291502}}}, "name": "Divine Property London", "place_id": "ChIJlWgcQRMQdkgRAt5bR8f-wDQ", "types": ["lodging", "point_of_interest", "establishment"]}, "ChIJZWx9btsbdkgRs2f4ha30tJg": {"geometry": {"location": {"lat": 51.5333811, "lng": -0.1787436}, "viewport": {"northeast": {"lat": 51.5347472302915, "lng": -0.177357319708498}, "southwest": {"lat": 51.5320492697085, "lng": -0.180055280291502}}}, "name": "Paso de Cebra The Beatles", "place_id": "ChIJZWx9btsbdkgRs2f4ha30tJg", "types": ["point_of_interest", "establishment"], "rating": 4, "user_ratings_total": 3}, "ChIJm3q4PqMadkgRW1WvLkm7BuQ": {"geometry": {"location": {"lat": 51.5320754, "lng": -0.1780759}, "viewport": {"northeast": {"lat": 51.5335298802915, "lng": -0.176467069708498}, "southwest": {"lat": 51.5308319197085, "lng": -0.179165030291502}}}, "name": "Abbey Road Studios", "place_id": "ChIJm3q4PqMadkgRW1WvLkm7BuQ", "types": ["electronics_store", "home_goods_store", "point_of_interest", "store", "establishment"], "rating": 4.6, "user_ratings_total": 4285}, "ChIJB0acAOEadkgRCjomJKOQQlI": {"geometry": {"location": {"lat": 51.5319994, "lng": -0.1782672}, "viewport": {"northeast": {"lat": 51.5334895302915, "lng": -0.1765603697084979}, "southwest": {"lat": 51.5307915697085, "lng": -0.179258330291502}}}, "name": "Hothouse Music", "place_id": "ChIJB0acAOEadkgRCjomJKOQQlI", "types": ["point_of_interest", "establishment"], "rating": 5, "user_ratings_total": 1}, "ChIJxVN7a08bdkgR3Hd1FXQC2Tw": {"geometry": {"location": {"lat": 51.53201799999999, "lng": -0.1781976}, "viewport": {"northeast": {"lat": 51.53349568029149, "lng": -0.176522369708498}, "southwest": {"lat": 51.5307977197085, "lng": -0.179220330291502}}}, "name": "Dom Kelly oboe", "place_id": "ChIJxVN7a08bdkgR3Hd1FXQC2Tw", "types": ["electronics_store", "home_goods_store", "point_of_interest", "store", "establishment"]}, "ChIJ_wKkFKMadkgR52JrQhyArnc": {"geometry": {"location": {"lat": 51.53201799999999, "lng": -0.1781976}, "viewport": {"northeast": {"lat": 51.53349568029149, "lng": -0.176522369708498}, "southwest": {"lat": 51.5307977197085, "lng": -0.179220330291502}}}, "name": "AjaxIT Networking Pvt limited", "place_id": "ChIJ_wKkFKMadkgR52JrQhyArnc", "types": ["point_of_interest", "establishment"]}, "ChIJu0hxY6UadkgRDx9qb5Hceao": {"geometry": {"location": {"lat": 51.534436, "lng": -0.1746437}, "viewport": {"northeast": {"lat": 51.5358337802915, "lng": -0.173189119708498}, "southwest": {"lat": 51.5331358197085, "lng": -0.175887080291502}}}, "name": "Estate Office Property Consultants", "place_id": "ChIJu0hxY6UadkgRDx9qb5Hceao", "types": ["real_estate_agency", "finance", "point_of_interest", "establishment"], "rating": 3.3, "user_ratings_total": 3}, "ChIJ79iBWvAbdkgR4xRBNru9O2U": {"geometry": {"location": {"lat": 51.5344692, "lng": -0.1747854}, "viewport": {"northeast": {"lat": 51.53588268029149, "lng": -0.173299219708498}, "southwest": {"lat": 51.53318471970849, "lng": -0.175997180291502}}}, "name": "Oskar Kokoschka Blue Plaque", "place_id": "ChIJ79iBWvAbdkgR4xRBNru9O2U", "types": ["point_of_interest", "establishment"]}, "ChIJFbnP8vobdkgR9Zs1W7ddlm0": {"geometry": {"location": {"lat": 51.5344692, "lng": -0.1747854}, "viewport": {"northeast": {"lat": 51.53588268029149, "lng": -0.173299219708498}, "southwest": {"lat": 51.53318471970849, "lng": -0.175997180291502}}}, "name": "Estate Office Investments Ltd", "place_id": "ChIJFbnP8vobdkgR9Zs1W7ddlm0", "types": ["finance", "point_of_interest", "establishment"]}, "ChIJ0ytjKL0adkgRvx0StWwk3Ac": {"geometry": {"location": {"lat": 51.5333334, "lng": -0.1751428}, "viewport": {"northeast": {"lat": 51.53484168029149, "lng": -0.174079619708498}, "southwest": {"lat": 51.53214371970849, "lng": -0.176777580291502}}}, "name": "Pathology Lab", "place_id": "ChIJ0ytjKL0adkgRvx0StWwk3Ac", "types": ["doctor", "health", "point_of_interest", "establishment"]}, "ChIJRVy64bwadkgRlKcSTA4GFhY": {"geometry": {"location": {"lat": 51.5332169, "lng": -0.1744325}, "viewport": {"northeast": {"lat": 51.53453945888251, "lng": -0.1731895364829591}, "southwest": {"lat": 51.53184149829951, "lng": -0.1758874970659632}}}, "name": "Parking lot", "place_id": "ChIJRVy64bwadkgRlKcSTA4GFhY", "types": ["parking", "premise", "point_of_interest", "establishment"]}, "ChIJTzBE7LwadkgR07hNZA5WeNM": {"geometry": {"location": {"lat": 51.53223477570654, "lng": -0.1744885530459432}, "viewport": {"northeast": {"lat": 51.53355363029151, "lng": -0.173066019708498}, "southwest": {"lat": 51.53085566970851, "lng": -0.175763980291502}}}, "name": "31-39 Circus Rd", "place_id": "ChIJTzBE7LwadkgR07hNZA5WeNM", "types": ["route"]}, "ChIJiWKcKb0adkgR8NCjapar-zE": {"geometry": {"location": {"lat": 51.53343543899751, "lng": -0.1759932440845379}, "viewport": {"northeast": {"lat": 51.5347721302915, "lng": -0.1746146697084979}, "southwest": {"lat": 51.5320741697085, "lng": -0.177312630291502}}}, "name": "60 Grove End Rd", "place_id": "ChIJiWKcKb0adkgR8NCjapar-zE", "types": ["route"]}, "ChIJGQJ64bwadkgRQUHJ8H8eQGY": {"geometry": {"location": {"lat": 51.5334443, "lng": -0.1755479}, "viewport": {"northeast": {"lat": 51.5344940802915, "lng": -0.1730566}, "southwest": {"lat": 51.5317961197085, "lng": -0.1767214}}}, "name": "St John & St Elizabeth Hospital", "place_id": "ChIJGQJ64bwadkgRQUHJ8H8eQGY", "types": ["hospital", "health", "point_of_interest", "establishment"], "rating": 3.3, "user_ratings_total": 132}, "ChIJL3ZjKL0adkgRnXH2aCy2Iy4": {"geometry": {"location": {"lat": 51.53340170000001, "lng": -0.1756453}, "viewport": {"northeast": {"lat": 51.5348077802915, "lng": -0.174411669708498}, "southwest": {"lat": 51.5321098197085, "lng": -0.177109630291502}}}, "name": "Elliot Sorene Consultant Hand & Orthopaedic Surgeon", "place_id": "ChIJL3ZjKL0adkgRnXH2aCy2Iy4", "types": ["doctor", "health", "point_of_interest", "establishment"], "rating": 4.7, "user_ratings_total": 12}, "ChIJ0ytjKL0adkgRB387gnGx8K0": {"geometry": {"location": {"lat": 51.53342999999999, "lng": -0.175701}, "viewport": {"northeast": {"lat": 51.53482303029149, "lng": -0.174410369708498}, "southwest": {"lat": 51.53212506970849, "lng": -0.177108330291502}}}, "name": "London Plastic Surgery Associates", "place_id": "ChIJ0ytjKL0adkgRB387gnGx8K0", "types": ["doctor", "health", "point_of_interest", "establishment"], "rating": 3, "user_ratings_total": 2}, "ChIJsQpZ_tMadkgRjwgeEp9OF0s": {"geometry": {"location": {"lat": 51.5334443, "lng": -0.1755479}, "viewport": {"northeast": {"lat": 51.53486598029151, "lng": -0.174327569708498}, "southwest": {"lat": 51.53216801970851, "lng": -0.177025530291502}}}, "name": "Dr Brull", "place_id": "ChIJsQpZ_tMadkgRjwgeEp9OF0s", "types": ["doctor", "health", "point_of_interest", "establishment"]}, "ChIJWe1UK70adkgRnBlXOurA1vg": {"geometry": {"location": {"lat": 51.5336037, "lng": -0.1761995}, "viewport": {"northeast": {"lat": 51.5348936802915, "lng": -0.1747185697084979}, "southwest": {"lat": 51.5321957197085, "lng": -0.177416530291502}}}, "name": "St Johns Wood United Synagogue", "place_id": "ChIJWe1UK70adkgRnBlXOurA1vg", "types": ["synagogue", "place_of_worship", "point_of_interest", "establishment"], "rating": 4.7, "user_ratings_total": 47}, "ChIJ3Vn4Jr0adkgRWG9d7wthsVc": {"geometry": {"location": {"lat": 51.5334085, "lng": -0.1753366}, "viewport": {"northeast": {"lat": 51.5348709802915, "lng": -0.174188419708498}, "southwest": {"lat": 51.5321730197085, "lng": -0.176886380291502}}}, "name": "Karidis Cosmetic Surgery Clinic London", "place_id": "ChIJ3Vn4Jr0adkgRWG9d7wthsVc", "types": ["hospital", "spa", "doctor", "health", "point_of_interest", "establishment"], "rating": 4.7, "user_ratings_total": 31}, "ChIJURk8Kc4adkgRaMf8JqkcWiM": {"geometry": {"location": {"lat": 51.5334443, "lng": -0.1755479}, "viewport": {"northeast": {"lat": 51.53486598029151, "lng": -0.174327569708498}, "southwest": {"lat": 51.53216801970851, "lng": -0.177025530291502}}}, "name": "Frank Lee, Consultant Urological Surgeon and expert witness in Urology, London Spinal Cord Injury Centre, The Royal National Orthopaedic Hospital", "place_id": "ChIJURk8Kc4adkgRaMf8JqkcWiM", "types": ["doctor", "health", "point_of_interest", "establishment"]}, "ChIJW9awaM4bdkgR58Ny90ysB_4": {"geometry": {"location": {"lat": 51.5329887, "lng": -0.1759726}, "viewport": {"northeast": {"lat": 51.5343697802915, "lng": -0.174785119708498}, "southwest": {"lat": 51.5316718197085, "lng": -0.177483080291502}}}, "name": "Cozy Art St John's Wood", "place_id": "ChIJW9awaM4bdkgR58Ny90ysB_4", "types": ["cafe", "food", "point_of_interest", "establishment"]}, "ChIJBQPuGkIbdkgR-9PtkbxwLFk": {"geometry": {"location": {"lat": 51.5329851, "lng": -0.1759457}, "viewport": {"northeast": {"lat": 51.53436878029151, "lng": -0.174771269708498}, "southwest": {"lat": 51.53167081970851, "lng": -0.177469230291502}}}, "name": "London Security Systems", "place_id": "ChIJBQPuGkIbdkgR-9PtkbxwLFk", "types": ["point_of_interest", "establishment"]}, "ChIJsSAINKMadkgRKGQS6HuVkmg": {"geometry": {"location": {"lat": 51.53226152818672, "lng": -0.1766989226985393}, "viewport": {"northeast": {"lat": 51.53361203029149, "lng": -0.175356069708498}, "southwest": {"lat": 51.5309140697085, "lng": -0.178054030291502}}}, "name": "42-38 Grove End Rd", "place_id": "ChIJsSAINKMadkgRKGQS6HuVkmg", "types": ["route"]}, "ChIJ24YPM6MadkgRxO8fRBJrsiE": {"geometry": {"location": {"lat": 51.532412, "lng": -0.176531}, "viewport": {"northeast": {"lat": 51.5337654802915, "lng": -0.1752009197084979}, "southwest": {"lat": 51.5310675197085, "lng": -0.177898880291502}}}, "name": "ubitricity Charging Station", "place_id": "ChIJ24YPM6MadkgRxO8fRBJrsiE", "types": ["point_of_interest", "establishment"]}, "ChIJd9pll3MQdkgRoqS9IIuc6e4": {"geometry": {"location": {"lat": 51.5330805, "lng": -0.1778389}, "viewport": {"northeast": {"lat": 51.5343771302915, "lng": -0.176594069708498}, "southwest": {"lat": 51.5316791697085, "lng": -0.179292030291502}}}, "name": "Le Jardin Flowers", "place_id": "ChIJd9pll3MQdkgRoqS9IIuc6e4", "types": ["florist", "point_of_interest", "store", "establishment"], "rating": 4.8, "user_ratings_total": 11}, "ChIJU7DFIaMadkgRUY73s6XaBMQ": {"geometry": {"location": {"lat": 51.5330598, "lng": -0.1777988}, "viewport": {"northeast": {"lat": 51.5343546302915, "lng": -0.176558219708498}, "southwest": {"lat": 51.5316566697085, "lng": -0.179256180291502}}}, "name": "Crescendo Foundation", "place_id": "ChIJU7DFIaMadkgRUY73s6XaBMQ", "types": ["point_of_interest", "establishment"]}, "ChIJpbrmIaMadkgRhDAWAsG3hhM": {"geometry": {"location": {"lat": 51.5330092, "lng": -0.1778335}, "viewport": {"northeast": {"lat": 51.5343192302915, "lng": -0.176562519708498}, "southwest": {"lat": 51.5316212697085, "lng": -0.179260480291502}}}, "name": "Anglo-Russian Pre-school", "place_id": "ChIJpbrmIaMadkgRhDAWAsG3hhM", "types": ["school", "point_of_interest", "establishment"]}, "ChIJHTaKSp4adkgRsBG_IHRIWKQ": {"geometry": {"location": {"lat": 51.5334622, "lng": -0.1779803}, "viewport": {"northeast": {"lat": 51.5346615302915, "lng": -0.176889819708498}, "southwest": {"lat": 51.5319635697085, "lng": -0.179587780291502}}}, "name": "Grove End Food Store", "place_id": "ChIJHTaKSp4adkgRsBG_IHRIWKQ", "types": ["grocery_or_supermarket", "supermarket", "food", "point_of_interest", "store", "establishment"], "rating": 4.6, "user_ratings_total": 9}, "ChIJQaZnT58adkgRlV2hAAOpwJA": {"geometry": {"location": {"lat": 51.5335646, "lng": -0.1777074}, "viewport": {"northeast": {"lat": 51.53473288029149, "lng": -0.176775969708498}, "southwest": {"lat": 51.53203491970849, "lng": -0.179473930291502}}}, "name": "Pilates Place", "place_id": "ChIJQaZnT58adkgRlV2hAAOpwJA", "types": ["gym", "health", "point_of_interest", "establishment"]}, "ChIJ70xJPKMadkgRpVNTQm2dtls": {"geometry": {"location": {"lat": 51.53237834337973, "lng": -0.1776500868908431}, "viewport": {"northeast": {"lat": 51.5337295302915, "lng": -0.176296819708498}, "southwest": {"lat": 51.5310315697085, "lng": -0.178994780291502}}}, "name": "1-7 Abbey Rd", "place_id": "ChIJ70xJPKMadkgRpVNTQm2dtls", "types": ["route"]}, "ChIJwcyjFaMadkgRgnEIuD-L2HU": {"geometry": {"location": {"lat": 51.5321471, "lng": -0.1779579}, "viewport": {"northeast": {"lat": 51.53357253029149, "lng": -0.176415069708498}, "southwest": {"lat": 51.53087456970849, "lng": -0.179113030291502}}}, "name": "Abbey Road Institute | Music Production School", "place_id": "ChIJwcyjFaMadkgRgnEIuD-L2HU", "types": ["point_of_interest", "establishment"], "rating": 5, "user_ratings_total": 13}, "ChIJE3VLOqMadkgRRKQBcicePFQ": {"geometry": {"location": {"lat": 51.53233290000001, "lng": -0.1774325}, "viewport": {"northeast": {"lat": 51.53365778029151, "lng": -0.176144569708498}, "southwest": {"lat": 51.53095981970851, "lng": -0.178842530291502}}}, "name": "Burkeman & Clarke Ltd.", "place_id": "ChIJE3VLOqMadkgRRKQBcicePFQ", "types": ["point_of_interest", "establishment"]}, "ChIJbQlV6VkbdkgRF8K2Y59BHjU": {"geometry": {"location": {"lat": 51.5323267, "lng": -0.1778698}, "viewport": {"northeast": {"lat": 51.53371458029149, "lng": -0.176424319708498}, "southwest": {"lat": 51.5310166197085, "lng": -0.179122280291502}}}, "name": "Dooley Records", "place_id": "ChIJbQlV6VkbdkgRF8K2Y59BHjU", "types": ["point_of_interest", "establishment"], "rating": 5, "user_ratings_total": 7}, "ChIJGfyIFqMadkgRheyuK00-d4I": {"geometry": {"location": {"lat": 51.5323003, "lng": -0.1779481}, "viewport": {"northeast": {"lat": 51.5337024302915, "lng": -0.176464519708498}, "southwest": {"lat": 51.5310044697085, "lng": -0.1791624802915021}}}, "name": "The Abbey Road Shop", "place_id": "ChIJGfyIFqMadkgRheyuK00-d4I", "types": ["point_of_interest", "store", "establishment"], "rating": 4.3, "user_ratings_total": 160}, "ChIJ5Z94PaMadkgRXP1MjHbcQJE": {"geometry": {"location": {"lat": 51.53248500000001, "lng": -0.1778557}, "viewport": {"northeast": {"lat": 51.5338455802915, "lng": -0.176470119708498}, "southwest": {"lat": 51.53114761970851, "lng": -0.179168080291502}}}, "name": "Abbey Road Studios Grove End Road (Stop R)", "place_id": "ChIJ5Z94PaMadkgRXP1MjHbcQJE", "types": ["bus_station", "transit_station", "point_of_interest", "establishment"], "rating": 5, "user_ratings_total": 14}, "ChIJYfbDlFIbdkgRmmbHUD462QA": {"geometry": {"location": {"lat": 51.5322621, "lng": -0.1776093}, "viewport": {"northeast": {"lat": 51.5336161302915, "lng": -0.176247669708498}, "southwest": {"lat": 51.5309181697085, "lng": -0.178945630291502}}}, "name": "Abbey Road Cam", "place_id": "ChIJYfbDlFIbdkgRmmbHUD462QA", "types": ["point_of_interest", "establishment"]}, "ChIJv8yjFaMadkgRZfWmVNKmv2A": {"geometry": {"location": {"lat": 51.5321472, "lng": -0.1779579}, "viewport": {"northeast": {"lat": 51.5335726302915, "lng": -0.176415119708498}, "southwest": {"lat": 51.5308746697085, "lng": -0.179113080291502}}}, "name": "Emmanuele Bassi", "place_id": "ChIJv8yjFaMadkgRZfWmVNKmv2A", "types": ["health", "point_of_interest", "establishment"]}, "ChIJCXVLOqMadkgRjg4gYDS19Bo": {"geometry": {"location": {"lat": 51.5323296, "lng": -0.1771649}, "viewport": {"northeast": {"lat": 51.5336179802915, "lng": -0.175971969708498}, "southwest": {"lat": 51.5309200197085, "lng": -0.178669930291502}}}, "name": "HolscotEmkoConsumer Products Ltd", "place_id": "ChIJCXVLOqMadkgRjg4gYDS19Bo", "types": ["point_of_interest", "establishment"]}, "ChIJAfnSe_0bdkgRBGIrKjjDbiI": {"geometry": {"location": {"lat": 51.5323436, "lng": -0.1790255}, "viewport": {"northeast": {"lat": 51.5336696802915, "lng": -0.177647969708498}, "southwest": {"lat": 51.5309717197085, "lng": -0.180345930291502}}}, "name": "Hot Escort London Agency | Cheap London Escorts \u00a3100", "place_id": "ChIJAfnSe_0bdkgRBGIrKjjDbiI", "types": ["point_of_interest", "establishment"], "rating": 5, "user_ratings_total": 5}}}