{"E00023723": {"ChIJuU4kCgAQdkgRiE10pd6UD0s": {"geometry": {"location": {"lat": 51.51587269664572, "lng": -0.1881647199968618}, "viewport": {"northeast": {"lat": 51.5172226302915, "lng": -0.186816869708498}, "southwest": {"lat": 51.5145246697085, "lng": -0.189514830291502}}}, "name": "96 A4206", "place_id": "ChIJuU4kCgAQdkgRiE10pd6UD0s", "types": ["route"]}, "ChIJ8driDQAQdkgRe4LyejMhU3c": {"geometry": {"location": {"lat": 51.5158501, "lng": -0.18874}, "viewport": {"northeast": {"lat": 51.5171478302915, "lng": -0.187372619708498}, "southwest": {"lat": 51.51444986970851, "lng": -0.190070580291502}}}, "name": "Transformed Windows", "place_id": "ChIJ8driDQAQdkgRe4LyejMhU3c", "types": ["point_of_interest", "establishment"]}, "ChIJYdPAo6oadkgRxILcbI23jjQ": {"geometry": {"location": {"lat": 51.5158879, "lng": -0.187603}, "viewport": {"northeast": {"lat": 51.5171752802915, "lng": -0.186516369708498}, "southwest": {"lat": 51.5144773197085, "lng": -0.189214330291502}}}, "name": "Masala Zone Bayswater", "place_id": "ChIJYdPAo6oadkgRxILcbI23jjQ", "types": ["restaurant", "food", "point_of_interest", "establishment"], "rating": 4.2, "user_ratings_total": 980}, "ChIJKccnIwAQdkgRC6gdNvxaIZE": {"geometry": {"location": {"lat": 51.51562099999999, "lng": -0.189074}, "viewport": {"northeast": {"lat": 51.51700818029149, "lng": -0.1877463197084979}, "southwest": {"lat": 51.5143102197085, "lng": -0.190444280291502}}}, "name": "Khan's", "place_id": "ChIJKccnIwAQdkgRC6gdNvxaIZE", "types": ["restaurant", "food", "point_of_interest", "establishment"], "rating": 3.9, "user_ratings_total": 1328}, "ChIJcTr6p6oadkgR6SFmusIb7co": {"geometry": {"location": {"lat": 51.51555560000001, "lng": -0.1880556}, "viewport": {"northeast": {"lat": 51.51689168029151, "lng": -0.186790369708498}, "southwest": {"lat": 51.51419371970852, "lng": -0.1894883302915021}}}, "name": "Patisserie Valerie", "place_id": "ChIJcTr6p6oadkgR6SFmusIb7co", "types": ["bakery", "cafe", "restaurant", "food", "point_of_interest", "store", "establishment"], "rating": 4.1, "user_ratings_total": 300}, "ChIJBWeEBQAQdkgRDaSB6KdSEcA": {"geometry": {"location": {"lat": 51.51544610000001, "lng": -0.1884199}, "viewport": {"northeast": {"lat": 51.5168076802915, "lng": -0.187013769708498}, "southwest": {"lat": 51.5141097197085, "lng": -0.189711730291502}}}, "name": "Bayswater College", "place_id": "ChIJBWeEBQAQdkgRDaSB6KdSEcA", "types": ["university", "point_of_interest", "establishment"], "rating": 4.6, "user_ratings_total": 70}, "ChIJe7fioKoadkgROnJjVHAGhGE": {"geometry": {"location": {"lat": 51.5160889, "lng": -0.1879611}, "viewport": {"northeast": {"lat": 51.5173812802915, "lng": -0.1865656697084979}, "southwest": {"lat": 51.5146833197085, "lng": -0.189263630291502}}}, "name": "MangiaTutto Restaurant - Westminster - Bayswater", "place_id": "ChIJe7fioKoadkgROnJjVHAGhGE", "types": ["restaurant", "food", "point_of_interest", "establishment"], "rating": 4.5, "user_ratings_total": 357}, "ChIJeRm1aFQFdkgRTSRvf_2N1W8": {"geometry": {"location": {"lat": 51.5158253, "lng": -0.1879095}, "viewport": {"northeast": {"lat": 51.5171047802915, "lng": -0.186748369708498}, "southwest": {"lat": 51.5144068197085, "lng": -0.189446330291502}}}, "name": "Kinleigh Folkard & Hayward Bayswater Estate Agents", "place_id": "ChIJeRm1aFQFdkgRTSRvf_2N1W8", "types": ["point_of_interest", "establishment"], "rating": 4.8, "user_ratings_total": 349}, "ChIJM8cnIwAQdkgRyT0xoY6YSlA": {"geometry": {"location": {"lat": 51.515622, "lng": -0.188932}, "viewport": {"northeast": {"lat": 51.5170174302915, "lng": -0.187597019708498}, "southwest": {"lat": 51.5143194697085, "lng": -0.190294980291502}}}, "name": "The London Nanny Agency", "place_id": "ChIJM8cnIwAQdkgRyT0xoY6YSlA", "types": ["point_of_interest", "establishment"], "rating": 3.6, "user_ratings_total": 7}, "ChIJjXswoKoadkgRybkxA9Ltrhk": {"geometry": {"location": {"lat": 51.5161425, "lng": -0.1877597}, "viewport": {"northeast": {"lat": 51.51746368029151, "lng": -0.1862907697084979}, "southwest": {"lat": 51.51476571970851, "lng": -0.188988730291502}}}, "name": "The Porchester Pub", "place_id": "ChIJjXswoKoadkgRybkxA9Ltrhk", "types": ["bar", "point_of_interest", "establishment"], "rating": 4.2, "user_ratings_total": 570}, "ChIJcTr6p6oadkgRBkN1gGYt2TA": {"geometry": {"location": {"lat": 51.515775, "lng": -0.187987}, "viewport": {"northeast": {"lat": 51.51718488029151, "lng": -0.1866912697084979}, "southwest": {"lat": 51.51448691970851, "lng": -0.189389230291502}}}, "name": "Optichic Opticians", "place_id": "ChIJcTr6p6oadkgRBkN1gGYt2TA", "types": ["health", "point_of_interest", "store", "establishment"], "rating": 5, "user_ratings_total": 131}, "ChIJl_nkRgAQdkgRMxQM16mXqSM": {"geometry": {"location": {"lat": 51.5156526, "lng": -0.1886261}, "viewport": {"northeast": {"lat": 51.51705193029149, "lng": -0.187295219708498}, "southwest": {"lat": 51.51435396970849, "lng": -0.189993180291502}}}, "name": "My Beauty Matches", "place_id": "ChIJl_nkRgAQdkgRMxQM16mXqSM", "types": ["point_of_interest", "store", "establishment"], "rating": 3.4, "user_ratings_total": 5}, "ChIJiUdhBgAQdkgRKFmFw3sTrGs": {"geometry": {"location": {"lat": 51.51557, "lng": -0.1880176}, "viewport": {"northeast": {"lat": 51.5168038802915, "lng": -0.1867376697084979}, "southwest": {"lat": 51.51410591970851, "lng": -0.189435630291502}}}, "name": "One Pound Shop", "place_id": "ChIJiUdhBgAQdkgRKFmFw3sTrGs", "types": ["store", "point_of_interest", "establishment"], "rating": 3.6, "user_ratings_total": 120}, "ChIJKy7EGgAQdkgR66XNsXxBRrI": {"geometry": {"location": {"lat": 51.51565720000001, "lng": -0.1887285}, "viewport": {"northeast": {"lat": 51.5170489802915, "lng": -0.187377769708498}, "southwest": {"lat": 51.51435101970851, "lng": -0.190075730291502}}}, "name": "Flying Tiger Copenhagen", "place_id": "ChIJKy7EGgAQdkgR66XNsXxBRrI", "types": ["home_goods_store", "point_of_interest", "store", "establishment"], "rating": 4.5, "user_ratings_total": 249}, "ChIJk1OqCAAQdkgRYnbsqgq-SyQ": {"geometry": {"location": {"lat": 51.5154896, "lng": -0.1885127}, "viewport": {"northeast": {"lat": 51.51686248029149, "lng": -0.187020419708498}, "southwest": {"lat": 51.51416451970849, "lng": -0.189718380291502}}}, "name": "Sainsbury's Local", "place_id": "ChIJk1OqCAAQdkgRYnbsqgq-SyQ", "types": ["supermarket", "convenience_store", "grocery_or_supermarket", "food", "point_of_interest", "store", "establishment"], "rating": 3.2, "user_ratings_total": 17}, "ChIJ9yvOpqoadkgRKotJw0rBYYI": {"geometry": {"location": {"lat": 51.5158136, "lng": -0.1878217}, "viewport": {"northeast": {"lat": 51.5172327302915, "lng": -0.186530319708498}, "southwest": {"lat": 51.5145347697085, "lng": -0.189228280291502}}}, "name": "Affame London", "place_id": "ChIJ9yvOpqoadkgRKotJw0rBYYI", "types": ["restaurant", "food", "point_of_interest", "establishment"], "rating": 4.8, "user_ratings_total": 4}, "ChIJCVMsbQAQdkgRzl4W1FB3nYw": {"geometry": {"location": {"lat": 51.51585680000001, "lng": -0.1877972}, "viewport": {"northeast": {"lat": 51.5171745302915, "lng": -0.186613469708498}, "southwest": {"lat": 51.5144765697085, "lng": -0.189311430291502}}}, "name": "Updrive Limited", "place_id": "ChIJCVMsbQAQdkgRzl4W1FB3nYw", "types": ["point_of_interest", "establishment"], "rating": 1, "user_ratings_total": 1}, "ChIJAUsjEAAQdkgRNQFnMd1vg_Y": {"geometry": {"location": {"lat": 51.5156113, "lng": -0.1888331}, "viewport": {"northeast": {"lat": 51.51701748029151, "lng": -0.187501369708498}, "southwest": {"lat": 51.51431951970851, "lng": -0.190199330291502}}}, "name": "Rednum Ltd", "place_id": "ChIJAUsjEAAQdkgRNQFnMd1vg_Y", "types": ["general_contractor", "point_of_interest", "establishment"]}, "ChIJwRVbEAAQdkgRMkLXaNDjmoE": {"geometry": {"location": {"lat": 51.5156113, "lng": -0.1888331}, "viewport": {"northeast": {"lat": 51.51701748029151, "lng": -0.187501369708498}, "southwest": {"lat": 51.51431951970851, "lng": -0.190199330291502}}}, "name": "Triumph Accountants", "place_id": "ChIJwRVbEAAQdkgRMkLXaNDjmoE", "types": ["accounting", "finance", "point_of_interest", "establishment"], "rating": 5, "user_ratings_total": 6}, "ChIJ9yvOpqoadkgRX2HM_WDdHO4": {"geometry": {"location": {"lat": 51.51586409999999, "lng": -0.187764}, "viewport": {"northeast": {"lat": 51.5171745302915, "lng": -0.186596869708498}, "southwest": {"lat": 51.5144765697085, "lng": -0.189294830291502}}}, "name": "Arro Coffee - The Temple of Coffee", "place_id": "ChIJ9yvOpqoadkgRX2HM_WDdHO4", "types": ["cafe", "food", "point_of_interest", "store", "establishment"], "rating": 4.6, "user_ratings_total": 742}, "ChIJKccnIwAQdkgR6EJuYNG7UUQ": {"geometry": {"location": {"lat": 51.5155543, "lng": -0.1888333}, "viewport": {"northeast": {"lat": 51.5169880302915, "lng": -0.187509869708498}, "southwest": {"lat": 51.5142900697085, "lng": -0.190207830291502}}}, "name": "tripledub", "place_id": "ChIJKccnIwAQdkgR6EJuYNG7UUQ", "types": ["point_of_interest", "establishment"]}, "ChIJh17QFgAQdkgR0ObYpmPKabs": {"geometry": {"location": {"lat": 51.51562180000001, "lng": -0.188932}, "viewport": {"northeast": {"lat": 51.5170173302915, "lng": -0.187597069708498}, "southwest": {"lat": 51.5143193697085, "lng": -0.190295030291502}}}, "name": "Sokoni Group", "place_id": "ChIJh17QFgAQdkgR0ObYpmPKabs", "types": ["finance", "point_of_interest", "establishment"], "rating": 5, "user_ratings_total": 1}, "ChIJyWg2DgAQdkgR4Zx47rZ0jVo": {"geometry": {"location": {"lat": 51.51562180000001, "lng": -0.188932}, "viewport": {"northeast": {"lat": 51.5170173302915, "lng": -0.187597069708498}, "southwest": {"lat": 51.5143193697085, "lng": -0.190295030291502}}}, "name": "Bestway", "place_id": "ChIJyWg2DgAQdkgR4Zx47rZ0jVo", "types": ["point_of_interest", "establishment"], "rating": 5, "user_ratings_total": 1}, "ChIJ4f-P_PkPdkgR6ZGzohanU8s": {"geometry": {"location": {"lat": 51.5156377, "lng": -0.1889403}, "viewport": {"northeast": {"lat": 51.5170250802915, "lng": -0.187602869708498}, "southwest": {"lat": 51.5143271197085, "lng": -0.190300830291502}}}, "name": "Westbourne estates", "place_id": "ChIJ4f-P_PkPdkgR6ZGzohanU8s", "types": ["point_of_interest", "establishment"], "rating": 1, "user_ratings_total": 7}, "ChIJS4wtEAAQdkgRVrdU5dMFTmw": {"geometry": {"location": {"lat": 51.51554300000001, "lng": -0.1889827}, "viewport": {"northeast": {"lat": 51.51689198029151, "lng": -0.187633719708498}, "southwest": {"lat": 51.51419401970851, "lng": -0.190331680291502}}}, "name": "AnyVisa", "place_id": "ChIJS4wtEAAQdkgRVrdU5dMFTmw", "types": ["local_government_office", "point_of_interest", "establishment"], "rating": 4.5, "user_ratings_total": 89}, "ChIJIXllDQAQdkgRPWtwfSnjZ1A": {"geometry": {"location": {"lat": 51.5160267, "lng": -0.1888483}, "viewport": {"northeast": {"lat": 51.5174139302915, "lng": -0.187351019708498}, "southwest": {"lat": 51.5147159697085, "lng": -0.190048980291502}}}, "name": "Alan Martin Estate Agents", "place_id": "ChIJIXllDQAQdkgRPWtwfSnjZ1A", "types": ["real_estate_agency", "point_of_interest", "establishment"], "rating": 2.8, "user_ratings_total": 6}, "ChIJI4qJqswEdkgRInuh5F5IE5g": {"geometry": {"location": {"lat": 51.51554300000001, "lng": -0.1889827}, "viewport": {"northeast": {"lat": 51.51697403029151, "lng": -0.187657919708498}, "southwest": {"lat": 51.51427606970851, "lng": -0.190355880291502}}}, "name": "Sewport", "place_id": "ChIJI4qJqswEdkgRInuh5F5IE5g", "types": ["point_of_interest", "establishment"], "rating": 4.1, "user_ratings_total": 130}, "ChIJsc53AR8FdkgRDQWPv6afZ2E": {"geometry": {"location": {"lat": 51.51544610000001, "lng": -0.1884199}, "viewport": {"northeast": {"lat": 51.5168076802915, "lng": -0.187013769708498}, "southwest": {"lat": 51.5141097197085, "lng": -0.189711730291502}}}, "name": "Eurocentres London", "place_id": "ChIJsc53AR8FdkgRDQWPv6afZ2E", "types": ["point_of_interest", "establishment"], "rating": 4.1, "user_ratings_total": 35}, "ChIJcTr6p6oadkgRA9hIqFa1ybc": {"geometry": {"location": {"lat": 51.51579709999999, "lng": -0.1879013}, "viewport": {"northeast": {"lat": 51.5172096302915, "lng": -0.186607869708498}, "southwest": {"lat": 51.5145116697085, "lng": -0.189305830291502}}}, "name": "Prontaprint", "place_id": "ChIJcTr6p6oadkgRA9hIqFa1ybc", "types": ["point_of_interest", "establishment"], "rating": 4.5, "user_ratings_total": 8}, "ChIJUSc7EAAQdkgR46RcGJ6eDtE": {"geometry": {"location": {"lat": 51.51562180000001, "lng": -0.188932}, "viewport": {"northeast": {"lat": 51.5170173302915, "lng": -0.187597069708498}, "southwest": {"lat": 51.5143193697085, "lng": -0.190295030291502}}}, "name": "Vitaxo", "place_id": "ChIJUSc7EAAQdkgR46RcGJ6eDtE", "types": ["real_estate_agency", "point_of_interest", "establishment"], "rating": 2.3, "user_ratings_total": 3}, "ChIJuXrWEgAQdkgRTQxOdPLbj10": {"geometry": {"location": {"lat": 51.515906, "lng": -0.188761}, "viewport": {"northeast": {"lat": 51.5172975302915, "lng": -0.187269969708498}, "southwest": {"lat": 51.51459956970851, "lng": -0.189967930291502}}}, "name": "London Base Barbershop- Queensway", "place_id": "ChIJuXrWEgAQdkgRTQxOdPLbj10", "types": ["hair_care", "health", "point_of_interest", "establishment"], "rating": 4.2, "user_ratings_total": 198}, "ChIJuXrWEgAQdkgRO0Q7Vs792_k": {"geometry": {"location": {"lat": 51.5160485, "lng": -0.1887885}, "viewport": {"northeast": {"lat": 51.5174275802915, "lng": -0.187322919708498}, "southwest": {"lat": 51.5147296197085, "lng": -0.190020880291502}}}, "name": "Deep Clean", "place_id": "ChIJuXrWEgAQdkgRO0Q7Vs792_k", "types": ["laundry", "point_of_interest", "establishment"], "rating": 4.3, "user_ratings_total": 33}, "ChIJD1WHEQAQdkgRiqxdkIneuJE": {"geometry": {"location": {"lat": 51.51584109999999, "lng": -0.1889498}, "viewport": {"northeast": {"lat": 51.5171300302915, "lng": -0.187579869708498}, "southwest": {"lat": 51.5144320697085, "lng": -0.190277830291502}}}, "name": "Archangel Clinic", "place_id": "ChIJD1WHEQAQdkgRiqxdkIneuJE", "types": ["dentist", "health", "point_of_interest", "establishment"], "rating": 4, "user_ratings_total": 29}, "ChIJ7ewtH9cRdkgRuZwV29djuNg": {"geometry": {"location": {"lat": 51.5158061, "lng": -0.188355}, "viewport": {"northeast": {"lat": 51.5171550802915, "lng": -0.187006019708498}, "southwest": {"lat": 51.5144571197085, "lng": -0.189703980291502}}}, "name": "Phone Box", "place_id": "ChIJ7ewtH9cRdkgRuZwV29djuNg", "types": ["point_of_interest", "establishment"]}, "ChIJsbcWCQAQdkgREvwnp8sQ6yk": {"geometry": {"location": {"lat": 51.5157087, "lng": -0.1880594}, "viewport": {"northeast": {"lat": 51.5170406802915, "lng": -0.186821019708498}, "southwest": {"lat": 51.5143427197085, "lng": -0.189518980291502}}}, "name": "Central Wash launderette", "place_id": "ChIJsbcWCQAQdkgREvwnp8sQ6yk", "types": ["laundry", "point_of_interest", "establishment"], "rating": 3.3, "user_ratings_total": 85}, "ChIJkUypDwAQdkgRbDlPDDSi2ps": {"geometry": {"location": {"lat": 51.5156536, "lng": -0.1886265}, "viewport": {"northeast": {"lat": 51.5170524302915, "lng": -0.1872954197084979}, "southwest": {"lat": 51.5143544697085, "lng": -0.189993380291502}}}, "name": "Maida Vale Cleaners Ltd", "place_id": "ChIJkUypDwAQdkgRbDlPDDSi2ps", "types": ["point_of_interest", "establishment"]}, "ChIJiSSnoKoadkgR07FQ3OHQ1Gw": {"geometry": {"location": {"lat": 51.5158224, "lng": -0.1879343}, "viewport": {"northeast": {"lat": 51.5172208802915, "lng": -0.186628569708498}, "southwest": {"lat": 51.5145229197085, "lng": -0.189326530291502}}}, "name": "Bishop Cut Price", "place_id": "ChIJiSSnoKoadkgR07FQ3OHQ1Gw", "types": ["convenience_store", "food", "point_of_interest", "store", "establishment"], "rating": 4.5, "user_ratings_total": 2}, "ChIJ-dHVCwEbdkgRTGMYrtuqZQs": {"geometry": {"location": {"lat": 51.51557, "lng": -0.1880176}, "viewport": {"northeast": {"lat": 51.5169029302915, "lng": -0.1867729697084979}, "southwest": {"lat": 51.5142049697085, "lng": -0.189470930291502}}}, "name": "Good", "place_id": "ChIJ-dHVCwEbdkgRTGMYrtuqZQs", "types": ["clothing_store", "point_of_interest", "store", "establishment"], "rating": 5, "user_ratings_total": 3}, "ChIJk1McDAAQdkgRc5lz9lyH7f8": {"geometry": {"location": {"lat": 51.5158569, "lng": -0.1886629}, "viewport": {"northeast": {"lat": 51.5172395302915, "lng": -0.187196219708498}, "southwest": {"lat": 51.5145415697085, "lng": -0.189894180291502}}}, "name": "Caprese - Traditional Italian", "place_id": "ChIJk1McDAAQdkgRc5lz9lyH7f8", "types": ["cafe", "food", "point_of_interest", "establishment"], "rating": 4.5, "user_ratings_total": 35}, "ChIJHXeRTYwRdkgRcjwUX2aj0xo": {"geometry": {"location": {"lat": 51.5159724, "lng": -0.1885187}, "viewport": {"northeast": {"lat": 51.51732133029149, "lng": -0.187169819708498}, "southwest": {"lat": 51.51462336970849, "lng": -0.1898677802915021}}}, "name": "Public Toilets (M&F)", "place_id": "ChIJHXeRTYwRdkgRcjwUX2aj0xo", "types": ["point_of_interest", "establishment"], "rating": 3.5, "user_ratings_total": 2}, "ChIJuT30p1QFdkgRFbV357SQYLk": {"geometry": {"location": {"lat": 51.51554950000001, "lng": -0.188}, "viewport": {"northeast": {"lat": 51.5168817302915, "lng": -0.186759819708498}, "southwest": {"lat": 51.5141837697085, "lng": -0.189457780291502}}}, "name": "Glad To Clear", "place_id": "ChIJuT30p1QFdkgRFbV357SQYLk", "types": ["point_of_interest", "establishment"]}, "ChIJfy_kDQAQdkgRipofCIqt_2c": {"geometry": {"location": {"lat": 51.51585, "lng": -0.18874}, "viewport": {"northeast": {"lat": 51.5171477802915, "lng": -0.187372619708498}, "southwest": {"lat": 51.5144498197085, "lng": -0.190070580291502}}}, "name": "Caprese Deli", "place_id": "ChIJfy_kDQAQdkgRipofCIqt_2c", "types": ["restaurant", "food", "point_of_interest", "establishment"], "rating": 4.1, "user_ratings_total": 107}, "ChIJ__8vCwAQdkgReoyHNpV9OP8": {"geometry": {"location": {"lat": 51.516012, "lng": -0.1880972}, "viewport": {"northeast": {"lat": 51.5173208802915, "lng": -0.186697569708498}, "southwest": {"lat": 51.5146229197085, "lng": -0.189395530291502}}}, "name": "Queens", "place_id": "ChIJ__8vCwAQdkgReoyHNpV9OP8", "types": ["point_of_interest", "establishment"]}, "ChIJVUO2oKoadkgRJuGkDW-R5u4": {"geometry": {"location": {"lat": 51.5158855, "lng": -0.1878807}, "viewport": {"northeast": {"lat": 51.5172694802915, "lng": -0.186557269708498}, "southwest": {"lat": 51.5145715197085, "lng": -0.189255230291502}}}, "name": "Queensway (Stop H)", "place_id": "ChIJVUO2oKoadkgRJuGkDW-R5u4", "types": ["transit_station", "point_of_interest", "establishment"], "rating": 5, "user_ratings_total": 1}, "ChIJo97hBQAQdkgRAIIWZFt1eOo": {"geometry": {"location": {"lat": 51.51544610000001, "lng": -0.1884199}, "viewport": {"northeast": {"lat": 51.5168076802915, "lng": -0.187013769708498}, "southwest": {"lat": 51.5141097197085, "lng": -0.189711730291502}}}, "name": "Ensino Limited", "place_id": "ChIJo97hBQAQdkgRAIIWZFt1eOo", "types": ["point_of_interest", "establishment"]}, "ChIJV-37DQAQdkgRVU-9Ewe1CBw": {"geometry": {"location": {"lat": 51.51586500000001, "lng": -0.1887608}, "viewport": {"northeast": {"lat": 51.5171542802915, "lng": -0.187390369708498}, "southwest": {"lat": 51.51445631970851, "lng": -0.190088330291502}}}, "name": "Azure Formations Limited", "place_id": "ChIJV-37DQAQdkgRVU-9Ewe1CBw", "types": ["accounting", "finance", "point_of_interest", "establishment"]}, "ChIJAejzDQAQdkgR0WJKj9_-GYw": {"geometry": {"location": {"lat": 51.515906, "lng": -0.188761}, "viewport": {"northeast": {"lat": 51.5172959302915, "lng": -0.187268819708498}, "southwest": {"lat": 51.5145979697085, "lng": -0.189966780291502}}}, "name": "Money Exchange Shop", "place_id": "ChIJAejzDQAQdkgR0WJKj9_-GYw", "types": ["finance", "point_of_interest", "establishment"], "rating": 5, "user_ratings_total": 1}, "ChIJM_G9DQAQdkgRLJT2XCncmog": {"geometry": {"location": {"lat": 51.5159015, "lng": -0.1887667}, "viewport": {"northeast": {"lat": 51.51729248029149, "lng": -0.187270769708498}, "southwest": {"lat": 51.5145945197085, "lng": -0.189968730291502}}}, "name": "Queensway Estates", "place_id": "ChIJM_G9DQAQdkgRLJT2XCncmog", "types": ["point_of_interest", "establishment"], "rating": 2.5, "user_ratings_total": 2}, "ChIJD1WHEQAQdkgRv6RxddDaCCI": {"geometry": {"location": {"lat": 51.51584150000001, "lng": -0.1888954}, "viewport": {"northeast": {"lat": 51.5171329802915, "lng": -0.187529119708498}, "southwest": {"lat": 51.51443501970851, "lng": -0.1902270802915021}}}, "name": "Michael's Hair Salon", "place_id": "ChIJD1WHEQAQdkgRv6RxddDaCCI", "types": ["hair_care", "health", "point_of_interest", "establishment"], "rating": 4, "user_ratings_total": 161}, "ChIJ_64ZCwAQdkgRXkoDny1yrow": {"geometry": {"location": {"lat": 51.5160769, "lng": -0.1882755}, "viewport": {"northeast": {"lat": 51.51742588029149, "lng": -0.186926519708498}, "southwest": {"lat": 51.5147279197085, "lng": -0.189624480291502}}}, "name": "Nisbets Catering Equipment Bayswater Store", "place_id": "ChIJ_64ZCwAQdkgRXkoDny1yrow", "types": ["furniture_store", "home_goods_store", "point_of_interest", "store", "establishment"], "rating": 4, "user_ratings_total": 17}, "ChIJFQiJ6K8RdkgR3AEloc1yHGo": {"geometry": {"location": {"lat": 51.5156113, "lng": -0.1888331}, "viewport": {"northeast": {"lat": 51.5170175802915, "lng": -0.187501019708498}, "southwest": {"lat": 51.5143196197085, "lng": -0.190198980291502}}}, "name": "Fernanda Nadaline Ltd", "place_id": "ChIJFQiJ6K8RdkgR3AEloc1yHGo", "types": ["health", "point_of_interest", "establishment"], "rating": 5, "user_ratings_total": 11}, "ChIJ_0ojEAAQdkgRkL1hU0sWb90": {"geometry": {"location": {"lat": 51.5156113, "lng": -0.1888331}, "viewport": {"northeast": {"lat": 51.5170175802915, "lng": -0.187501019708498}, "southwest": {"lat": 51.5143196197085, "lng": -0.190198980291502}}}, "name": "Speedway Delivery And Logistics", "place_id": "ChIJ_0ojEAAQdkgRkL1hU0sWb90", "types": ["point_of_interest", "establishment"]}, "ChIJ_0ojEAAQdkgRDLspy1-dUnE": {"geometry": {"location": {"lat": 51.5156113, "lng": -0.1888331}, "viewport": {"northeast": {"lat": 51.5170175802915, "lng": -0.187501019708498}, "southwest": {"lat": 51.5143196197085, "lng": -0.190198980291502}}}, "name": "Speedway Delivery And Logistics Company", "place_id": "ChIJ_0ojEAAQdkgRDLspy1-dUnE", "types": ["point_of_interest", "establishment"]}, "ChIJ_0ojEAAQdkgRwSpRtSE-H2M": {"geometry": {"location": {"lat": 51.5156113, "lng": -0.1888331}, "viewport": {"northeast": {"lat": 51.51701748029151, "lng": -0.187501369708498}, "southwest": {"lat": 51.51431951970851, "lng": -0.190199330291502}}}, "name": "Arkadia Design", "place_id": "ChIJ_0ojEAAQdkgRwSpRtSE-H2M", "types": ["general_contractor", "point_of_interest", "establishment"]}, "ChIJ_0ojEAAQdkgR9pmFGWJy7aw": {"geometry": {"location": {"lat": 51.5156113, "lng": -0.1888331}, "viewport": {"northeast": {"lat": 51.51701748029151, "lng": -0.187501369708498}, "southwest": {"lat": 51.51431951970851, "lng": -0.190199330291502}}}, "name": "Enyvisa Ltd", "place_id": "ChIJ_0ojEAAQdkgR9pmFGWJy7aw", "types": ["point_of_interest", "establishment"]}, "ChIJ_0ojEAAQdkgRCaUwWWJWtbY": {"geometry": {"location": {"lat": 51.5156113, "lng": -0.1888331}, "viewport": {"northeast": {"lat": 51.51701748029151, "lng": -0.187501369708498}, "southwest": {"lat": 51.51431951970851, "lng": -0.190199330291502}}}, "name": "Victory Courier Services Ltd", "place_id": "ChIJ_0ojEAAQdkgRCaUwWWJWtbY", "types": ["point_of_interest", "establishment"]}, "ChIJ_0ojEAAQdkgRsDD9DRiIBs4": {"geometry": {"location": {"lat": 51.5156113, "lng": -0.1888331}, "viewport": {"northeast": {"lat": 51.51701748029151, "lng": -0.187501369708498}, "southwest": {"lat": 51.51431951970851, "lng": -0.190199330291502}}}, "name": "N Broll Ltd", "place_id": "ChIJ_0ojEAAQdkgRsDD9DRiIBs4", "types": ["point_of_interest", "establishment"]}, "ChIJ_0ojEAAQdkgRsYOjKeJpdvc": {"geometry": {"location": {"lat": 51.5156113, "lng": -0.1888331}, "viewport": {"northeast": {"lat": 51.51701748029151, "lng": -0.187501369708498}, "southwest": {"lat": 51.51431951970851, "lng": -0.190199330291502}}}, "name": "Sp Dos Santos Construction Ltd", "place_id": "ChIJ_0ojEAAQdkgRsYOjKeJpdvc", "types": ["general_contractor", "point_of_interest", "establishment"]}, "ChIJ_0ojEAAQdkgRfUe4RfxH9ng": {"geometry": {"location": {"lat": 51.5156113, "lng": -0.1888331}, "viewport": {"northeast": {"lat": 51.51701748029151, "lng": -0.187501369708498}, "southwest": {"lat": 51.51431951970851, "lng": -0.190199330291502}}}, "name": "Alexandre Motorcycles Ltd", "place_id": "ChIJ_0ojEAAQdkgRfUe4RfxH9ng", "types": ["point_of_interest", "store", "establishment"]}, "ChIJ8X2fVVUFdkgRtlCll5p0MZI": {"geometry": {"location": {"lat": 51.51470895000019, "lng": -0.1879606999961112}, "viewport": {"northeast": {"lat": 51.51605793029149, "lng": -0.1866117197084979}, "southwest": {"lat": 51.51335996970849, "lng": -0.189309680291502}}}, "name": "142 Queensway", "place_id": "ChIJ8X2fVVUFdkgRtlCll5p0MZI", "types": ["route"]}, "ChIJs4V0AAAQdkgRmamB33C-H2Q": {"geometry": {"location": {"lat": 51.5145883, "lng": -0.1884652}, "viewport": {"northeast": {"lat": 51.51618565, "lng": -0.186842769708498}, "southwest": {"lat": 51.51299225, "lng": -0.189540730291502}}}, "name": "The Whiteley Development", "place_id": "ChIJs4V0AAAQdkgRmamB33C-H2Q", "types": ["finance", "point_of_interest", "establishment"], "rating": 3.4, "user_ratings_total": 2282}, "ChIJz3GX__8PdkgR1ePoK4s_erk": {"geometry": {"location": {"lat": 51.5146574, "lng": -0.1881611}, "viewport": {"northeast": {"lat": 51.5159882302915, "lng": -0.1867086697084979}, "southwest": {"lat": 51.5132902697085, "lng": -0.189406630291502}}}, "name": "Etoile Technologies", "place_id": "ChIJz3GX__8PdkgR1ePoK4s_erk", "types": ["point_of_interest", "establishment"]}, "ChIJS_WMBgAQdkgRNFuJqjeg_Fk": {"geometry": {"location": {"lat": 51.5146605, "lng": -0.1879493}, "viewport": {"northeast": {"lat": 51.51601458029149, "lng": -0.186549769708498}, "southwest": {"lat": 51.5133166197085, "lng": -0.189247730291502}}}, "name": "Londonista Boutique", "place_id": "ChIJS_WMBgAQdkgRNFuJqjeg_Fk", "types": ["point_of_interest", "store", "establishment"], "rating": 3.5, "user_ratings_total": 8}, "ChIJz1DhXPsPdkgRkShYKYm5658": {"geometry": {"location": {"lat": 51.5146951, "lng": -0.1877466}, "viewport": {"northeast": {"lat": 51.5160287302915, "lng": -0.186498869708498}, "southwest": {"lat": 51.5133307697085, "lng": -0.189196830291502}}}, "name": "Tesco Express", "place_id": "ChIJz1DhXPsPdkgRkShYKYm5658", "types": ["supermarket", "convenience_store", "grocery_or_supermarket", "food", "point_of_interest", "store", "establishment"], "rating": 3.7, "user_ratings_total": 97}, "ChIJS8myVlUFdkgRAXBvnVzYL_w": {"geometry": {"location": {"lat": 51.514482, "lng": -0.1876779}, "viewport": {"northeast": {"lat": 51.5159205302915, "lng": -0.1864432697084979}, "southwest": {"lat": 51.5132225697085, "lng": -0.189141230291502}}}, "name": "World Wide Forex Ltd", "place_id": "ChIJS8myVlUFdkgRAXBvnVzYL_w", "types": ["finance", "point_of_interest", "establishment"]}, "ChIJke1CqqoadkgRvS9I_omEcSA": {"geometry": {"location": {"lat": 51.5150759, "lng": -0.1878448}, "viewport": {"northeast": {"lat": 51.5164112302915, "lng": -0.186606919708498}, "southwest": {"lat": 51.5137132697085, "lng": -0.189304880291502}}}, "name": "Hair Loss Laser Group", "place_id": "ChIJke1CqqoadkgRvS9I_omEcSA", "types": ["beauty_salon", "hair_care", "health", "point_of_interest", "establishment"]}, "ChIJcTr6p6oadkgRynAYi3IF2IE": {"geometry": {"location": {"lat": 51.5148115, "lng": -0.1878343}, "viewport": {"northeast": {"lat": 51.5160941802915, "lng": -0.186546819708498}, "southwest": {"lat": 51.5133962197085, "lng": -0.189244780291502}}}, "name": "GeorgeG Hair and Beauty Salon", "place_id": "ChIJcTr6p6oadkgRynAYi3IF2IE", "types": ["beauty_salon", "point_of_interest", "establishment"], "rating": 4, "user_ratings_total": 67}, "ChIJSd03UVUFdkgRpZyrCtB62nY": {"geometry": {"location": {"lat": 51.51440600000001, "lng": -0.1877084}, "viewport": {"northeast": {"lat": 51.51588178029149, "lng": -0.186449369708498}, "southwest": {"lat": 51.5131838197085, "lng": -0.189147330291502}}}, "name": "Superdrug", "place_id": "ChIJSd03UVUFdkgRpZyrCtB62nY", "types": ["point_of_interest", "clothing_store", "store", "establishment"], "rating": 3.9, "user_ratings_total": 77}, "ChIJcTr6p6oadkgR0v2qMSfaqiQ": {"geometry": {"location": {"lat": 51.51507040000001, "lng": -0.1879494}, "viewport": {"northeast": {"lat": 51.5164120302915, "lng": -0.1866603697084979}, "southwest": {"lat": 51.51371406970851, "lng": -0.189358330291502}}}, "name": "Michael Jane", "place_id": "ChIJcTr6p6oadkgR0v2qMSfaqiQ", "types": ["beauty_salon", "hair_care", "spa", "health", "point_of_interest", "establishment"], "rating": 3.7, "user_ratings_total": 51}, "ChIJ53QO__8PdkgR9jRSAMz9Ctw": {"geometry": {"location": {"lat": 51.5146574, "lng": -0.1881611}, "viewport": {"northeast": {"lat": 51.5159882302915, "lng": -0.1867086697084979}, "southwest": {"lat": 51.5132902697085, "lng": -0.189406630291502}}}, "name": "Chilli's", "place_id": "ChIJ53QO__8PdkgR9jRSAMz9Ctw", "types": ["point_of_interest", "establishment"]}, "ChIJD2Cw_P8PdkgROMklst9i32I": {"geometry": {"location": {"lat": 51.5145479, "lng": -0.1883823}, "viewport": {"northeast": {"lat": 51.5159449802915, "lng": -0.186814069708498}, "southwest": {"lat": 51.5132470197085, "lng": -0.189512030291502}}}, "name": "Interfone Flowers", "place_id": "ChIJD2Cw_P8PdkgROMklst9i32I", "types": ["florist", "point_of_interest", "store", "establishment"], "rating": 2.5, "user_ratings_total": 10}, "ChIJ80soAAAQdkgRaNnSMlYMrj0": {"geometry": {"location": {"lat": 51.5148539, "lng": -0.1882195}, "viewport": {"northeast": {"lat": 51.5160864802915, "lng": -0.186732669708498}, "southwest": {"lat": 51.5133885197085, "lng": -0.189430630291502}}}, "name": "Muskaan Hair & Beauty", "place_id": "ChIJ80soAAAQdkgRaNnSMlYMrj0", "types": ["hair_care", "point_of_interest", "establishment"], "rating": 5, "user_ratings_total": 1}, "ChIJeVe6_P8PdkgRQTR0fjHuVfI": {"geometry": {"location": {"lat": 51.5145798, "lng": -0.188726}, "viewport": {"northeast": {"lat": 51.5159609302915, "lng": -0.186985919708498}, "southwest": {"lat": 51.5132629697085, "lng": -0.189683880291502}}}, "name": "W 11 Construction", "place_id": "ChIJeVe6_P8PdkgRQTR0fjHuVfI", "types": ["general_contractor", "point_of_interest", "establishment"]}, "ChIJcTr6p6oadkgRlxI5Shq2-bs": {"geometry": {"location": {"lat": 51.5150368, "lng": -0.1879167}, "viewport": {"northeast": {"lat": 51.5163771302915, "lng": -0.186638269708498}, "southwest": {"lat": 51.5136791697085, "lng": -0.189336230291502}}}, "name": "Royal Trinity Hospice - Queensway Shop", "place_id": "ChIJcTr6p6oadkgRlxI5Shq2-bs", "types": ["point_of_interest", "clothing_store", "store", "establishment"], "rating": 3.3, "user_ratings_total": 18}, "ChIJSRrpqqoadkgRlk6Gr3_vWZI": {"geometry": {"location": {"lat": 51.5149534, "lng": -0.1879231}, "viewport": {"northeast": {"lat": 51.51629563029149, "lng": -0.186628819708498}, "southwest": {"lat": 51.5135976697085, "lng": -0.189326780291502}}}, "name": "Orme Retail Property", "place_id": "ChIJSRrpqqoadkgRlk6Gr3_vWZI", "types": ["real_estate_agency", "point_of_interest", "establishment"]}, "ChIJuy4ZWVUFdkgRCqo6_OFhBD8": {"geometry": {"location": {"lat": 51.5143503, "lng": -0.1879803}, "viewport": {"northeast": {"lat": 51.5156988802915, "lng": -0.186576719708498}, "southwest": {"lat": 51.5130009197085, "lng": -0.189274680291502}}}, "name": "Whiteleys (Stop M)", "place_id": "ChIJuy4ZWVUFdkgRCqo6_OFhBD8", "types": ["bus_station", "transit_station", "point_of_interest", "establishment"], "rating": 5, "user_ratings_total": 1}, "ChIJrxYhq6oadkgRZoG-A4KewtY": {"geometry": {"location": {"lat": 51.51492560000001, "lng": -0.1878474}, "viewport": {"northeast": {"lat": 51.51615123029149, "lng": -0.186564469708498}, "southwest": {"lat": 51.5134532697085, "lng": -0.189262430291502}}}, "name": "Suade Labs", "place_id": "ChIJrxYhq6oadkgRZoG-A4KewtY", "types": ["point_of_interest", "establishment"]}, "ChIJDUkHX4oFdkgRwSSLWaSgnIQ": {"geometry": {"location": {"lat": 51.5147194, "lng": -0.1876891}, "viewport": {"northeast": {"lat": 51.51604813029149, "lng": -0.186473769708498}, "southwest": {"lat": 51.5133501697085, "lng": -0.1891717302915021}}}, "name": "MoneyGram", "place_id": "ChIJDUkHX4oFdkgRwSSLWaSgnIQ", "types": ["finance", "point_of_interest", "establishment"]}, "ChIJ-Rceq6oadkgRZm9C0WwDUng": {"geometry": {"location": {"lat": 51.51495529999999, "lng": -0.1878603999999999}, "viewport": {"northeast": {"lat": 51.51616608029149, "lng": -0.186569269708498}, "southwest": {"lat": 51.5134681197085, "lng": -0.189267230291502}}}, "name": "Veggie World", "place_id": "ChIJ-Rceq6oadkgRZm9C0WwDUng", "types": ["point_of_interest", "establishment"]}, "ChIJS8myVlUFdkgRH7wG23jfoAw": {"geometry": {"location": {"lat": 51.514482, "lng": -0.1876779}, "viewport": {"northeast": {"lat": 51.5159205302915, "lng": -0.1864432697084979}, "southwest": {"lat": 51.5132225697085, "lng": -0.189141230291502}}}, "name": "Phone Expert", "place_id": "ChIJS8myVlUFdkgRH7wG23jfoAw", "types": ["point_of_interest", "establishment"], "rating": 5, "user_ratings_total": 38}, "ChIJYTt1510RdkgRbzcM6NFMc-I": {"geometry": {"location": {"lat": 51.5150913, "lng": -0.1884611}, "viewport": {"northeast": {"lat": 51.5165902802915, "lng": -0.187070319708498}, "southwest": {"lat": 51.5138923197085, "lng": -0.1897682802915021}}}, "name": "White Nails", "place_id": "ChIJYTt1510RdkgRbzcM6NFMc-I", "types": ["beauty_salon", "point_of_interest", "establishment"], "rating": 2, "user_ratings_total": 2}, "ChIJbTVdb0wbdkgRFxMqHSgmF8o": {"geometry": {"location": {"lat": 51.5150759, "lng": -0.1878448}, "viewport": {"northeast": {"lat": 51.5164112302915, "lng": -0.186606919708498}, "southwest": {"lat": 51.5137132697085, "lng": -0.189304880291502}}}, "name": "Artglamfillers", "place_id": "ChIJbTVdb0wbdkgRFxMqHSgmF8o", "types": ["beauty_salon", "point_of_interest", "establishment"], "rating": 4.7, "user_ratings_total": 12}, "ChIJldgQCgQbdkgRDg-LqX3qCOg": {"geometry": {"location": {"lat": 51.5150759, "lng": -0.1878448}, "viewport": {"northeast": {"lat": 51.5164112302915, "lng": -0.186606919708498}, "southwest": {"lat": 51.5137132697085, "lng": -0.189304880291502}}}, "name": "Vicky's Beauty", "place_id": "ChIJldgQCgQbdkgRDg-LqX3qCOg", "types": ["beauty_salon", "point_of_interest", "establishment"], "rating": 1, "user_ratings_total": 1}, "ChIJO_I9cg4RdkgRD0eGD4CFMco": {"geometry": {"location": {"lat": 51.5150759, "lng": -0.1878448}, "viewport": {"northeast": {"lat": 51.5164112302915, "lng": -0.186606919708498}, "southwest": {"lat": 51.5137132697085, "lng": -0.189304880291502}}}, "name": "Portobello Aesthetics London", "place_id": "ChIJO_I9cg4RdkgRD0eGD4CFMco", "types": ["beauty_salon", "point_of_interest", "establishment"], "rating": 5, "user_ratings_total": 25}, "ChIJPwwKuyURdkgR9zoXXBP9DZ0": {"geometry": {"location": {"lat": 51.515076, "lng": -0.1878448}, "viewport": {"northeast": {"lat": 51.5164113302915, "lng": -0.1866069697084979}, "southwest": {"lat": 51.5137133697085, "lng": -0.189304930291502}}}, "name": "Nadirah London Aesthetics & Beauty Clinic - Beauty Salon, Facials, Chemical Peels, Eyelash Extensions, Fat Dissolving, Kensington", "place_id": "ChIJPwwKuyURdkgR9zoXXBP9DZ0", "types": ["beauty_salon", "point_of_interest", "establishment"], "rating": 5, "user_ratings_total": 18}, "ChIJcTr6p6oadkgRXJiqgBbUxvE": {"geometry": {"location": {"lat": 51.51513299999999, "lng": -0.187863}, "viewport": {"northeast": {"lat": 51.5164683302915, "lng": -0.186625069708498}, "southwest": {"lat": 51.5137703697085, "lng": -0.189323030291502}}}, "name": "Tool Shop", "place_id": "ChIJcTr6p6oadkgRXJiqgBbUxvE", "types": ["hardware_store", "point_of_interest", "store", "establishment"], "rating": 4, "user_ratings_total": 42}, "ChIJ2QwTXlUFdkgRtbWEX9mkTsA": {"geometry": {"location": {"lat": 51.51355425000038, "lng": -0.1877147499886686}, "viewport": {"northeast": {"lat": 51.51490323029149, "lng": -0.186365769708498}, "southwest": {"lat": 51.5122052697085, "lng": -0.189063730291502}}}, "name": "110-106 Queensway", "place_id": "ChIJ2QwTXlUFdkgRtbWEX9mkTsA", "types": ["route"]}, "ChIJU-tNXFUFdkgRTBLmsWucPFE": {"geometry": {"location": {"lat": 51.5136624, "lng": -0.1875671}, "viewport": {"northeast": {"lat": 51.5150791302915, "lng": -0.186307469708498}, "southwest": {"lat": 51.5123811697085, "lng": -0.189005430291502}}}, "name": "Prince Alfred", "place_id": "ChIJU-tNXFUFdkgRTBLmsWucPFE", "types": ["bar", "restaurant", "food", "point_of_interest", "establishment"], "rating": 4.2, "user_ratings_total": 1320}, "ChIJUaxChf8PdkgRIC0zkfRwahw": {"geometry": {"location": {"lat": 51.51328650000001, "lng": -0.1884893}, "viewport": {"northeast": {"lat": 51.51460193029151, "lng": -0.187313169708498}, "southwest": {"lat": 51.51190396970851, "lng": -0.1900111302915021}}}, "name": "Eclectica Asset Management LLP", "place_id": "ChIJUaxChf8PdkgRIC0zkfRwahw", "types": ["finance", "point_of_interest", "establishment"]}, "ChIJhUrGjP8PdkgRZW3vuxC7gNs": {"geometry": {"location": {"lat": 51.5134713, "lng": -0.1886666}, "viewport": {"northeast": {"lat": 51.51478833029149, "lng": -0.187305519708498}, "southwest": {"lat": 51.5120903697085, "lng": -0.190003480291502}}}, "name": "Toreagle Ltd", "place_id": "ChIJhUrGjP8PdkgRZW3vuxC7gNs", "types": ["general_contractor", "point_of_interest", "establishment"]}, "ChIJhUrGjP8PdkgRsh2rEWhZ4jU": {"geometry": {"location": {"lat": 51.51345899999999, "lng": -0.1886884}, "viewport": {"northeast": {"lat": 51.5147834302915, "lng": -0.1873301197084979}, "southwest": {"lat": 51.5120854697085, "lng": -0.190028080291502}}}, "name": "Bakproco", "place_id": "ChIJhUrGjP8PdkgRsh2rEWhZ4jU", "types": ["point_of_interest", "establishment"]}, "ChIJPf2Phf8PdkgRUgQQmIesnw0": {"geometry": {"location": {"lat": 51.5132948, "lng": -0.1884418}, "viewport": {"northeast": {"lat": 51.51460563029151, "lng": -0.187289169708498}, "southwest": {"lat": 51.51190766970851, "lng": -0.189987130291502}}}, "name": "Romelle Swire", "place_id": "ChIJPf2Phf8PdkgRUgQQmIesnw0", "types": ["point_of_interest", "establishment"], "rating": 5, "user_ratings_total": 3}, "ChIJTW-eZLcCdkgR3NmY9KjN904": {"geometry": {"location": {"lat": 51.5132589, "lng": -0.1884249}, "viewport": {"northeast": {"lat": 51.5145698302915, "lng": -0.187271769708498}, "southwest": {"lat": 51.5118718697085, "lng": -0.189969730291502}}}, "name": "Address Intelligence", "place_id": "ChIJTW-eZLcCdkgR3NmY9KjN904", "types": ["point_of_interest", "establishment"]}, "ChIJo5plWKoadkgR4_s9ASneeBY": {"geometry": {"location": {"lat": 51.5133568, "lng": -0.1878819}, "viewport": {"northeast": {"lat": 51.5147094302915, "lng": -0.186431169708498}, "southwest": {"lat": 51.5120114697085, "lng": -0.1891291302915021}}}, "name": "Boutique Spa Queensway", "place_id": "ChIJo5plWKoadkgR4_s9ASneeBY", "types": ["beauty_salon", "spa", "health", "point_of_interest", "establishment"], "rating": 4.4, "user_ratings_total": 435}, "ChIJ0W4Ek_8PdkgRRH6tr-bnn1o": {"geometry": {"location": {"lat": 51.513429, "lng": -0.1889485}, "viewport": {"northeast": {"lat": 51.51477383029149, "lng": -0.187622119708498}, "southwest": {"lat": 51.5120758697085, "lng": -0.190320080291502}}}, "name": "Laughton Scott", "place_id": "ChIJ0W4Ek_8PdkgRRH6tr-bnn1o", "types": ["point_of_interest", "establishment"]}, "ChIJlbuYYVUFdkgR0IVp53cmghg": {"geometry": {"location": {"lat": 51.5132956, "lng": -0.1878128}, "viewport": {"northeast": {"lat": 51.51464823029151, "lng": -0.186392219708498}, "southwest": {"lat": 51.51195026970851, "lng": -0.189090180291502}}}, "name": "DHL Express Service Point (Ryman Queensway)", "place_id": "ChIJlbuYYVUFdkgR0IVp53cmghg", "types": ["point_of_interest", "establishment"], "rating": 3, "user_ratings_total": 6}, "ChIJWcHHH9APdkgRuZ2jT6fsMe0": {"geometry": {"location": {"lat": 51.5137906, "lng": -0.1877513}, "viewport": {"northeast": {"lat": 51.5151395802915, "lng": -0.1864023197084979}, "southwest": {"lat": 51.5124416197085, "lng": -0.1891002802915019}}}, "name": "ETG English To Go Language School", "place_id": "ChIJWcHHH9APdkgRuZ2jT6fsMe0", "types": ["point_of_interest", "establishment"], "rating": 5, "user_ratings_total": 4}, "ChIJg7yQYVUFdkgRICgjmWDUX_o": {"geometry": {"location": {"lat": 51.5131948, "lng": -0.1878733}, "viewport": {"northeast": {"lat": 51.51455758029149, "lng": -0.186417169708498}, "southwest": {"lat": 51.5118596197085, "lng": -0.189115130291502}}}, "name": "Preto Queensway", "place_id": "ChIJg7yQYVUFdkgRICgjmWDUX_o", "types": ["restaurant", "food", "point_of_interest", "establishment"], "rating": 4.3, "user_ratings_total": 951}, "ChIJ_8eVYVUFdkgRi8GHxLzKe9k": {"geometry": {"location": {"lat": 51.5133568, "lng": -0.187882}, "viewport": {"northeast": {"lat": 51.5147118802915, "lng": -0.186431619708498}, "southwest": {"lat": 51.5120139197085, "lng": -0.189129580291502}}}, "name": "Spa & Massage", "place_id": "ChIJ_8eVYVUFdkgRi8GHxLzKe9k", "types": ["spa", "point_of_interest", "establishment"], "rating": 4.5, "user_ratings_total": 112}, "ChIJfbQzYlUFdkgR909b2AmpcDg": {"geometry": {"location": {"lat": 51.51312369999999, "lng": -0.1879485}, "viewport": {"northeast": {"lat": 51.51448038029149, "lng": -0.186449219708498}, "southwest": {"lat": 51.51178241970849, "lng": -0.189147180291502}}}, "name": "Estee Lauder", "place_id": "ChIJfbQzYlUFdkgR909b2AmpcDg", "types": ["point_of_interest", "clothing_store", "store", "establishment"], "rating": 3.5, "user_ratings_total": 2}, "ChIJUw8hZ1UFdkgRIGMbSlc2ICI": {"geometry": {"location": {"lat": 51.51343710000001, "lng": -0.1875489}, "viewport": {"northeast": {"lat": 51.51478038029151, "lng": -0.186270319708498}, "southwest": {"lat": 51.51208241970851, "lng": -0.188968280291502}}}, "name": "Navarino", "place_id": "ChIJUw8hZ1UFdkgRIGMbSlc2ICI", "types": ["point_of_interest", "establishment"]}, "ChIJWSiBligQdkgRg4cCbkiTKvc": {"geometry": {"location": {"lat": 51.5132091, "lng": -0.1889512}, "viewport": {"northeast": {"lat": 51.51460153029151, "lng": -0.187585169708498}, "southwest": {"lat": 51.51190356970851, "lng": -0.190283130291502}}}, "name": "Rundell Associates", "place_id": "ChIJWSiBligQdkgRg4cCbkiTKvc", "types": ["general_contractor", "point_of_interest", "establishment"], "rating": 5, "user_ratings_total": 1}, "ChIJqzDabfsPdkgRlf0z4M2G0JY": {"geometry": {"location": {"lat": 51.5135408, "lng": -0.1878324}, "viewport": {"northeast": {"lat": 51.5148774302915, "lng": -0.186421819708498}, "southwest": {"lat": 51.5121794697085, "lng": -0.189119780291502}}}, "name": "M & V Hair and Beauty", "place_id": "ChIJqzDabfsPdkgRlf0z4M2G0JY", "types": ["beauty_salon", "point_of_interest", "establishment"], "rating": 4.1, "user_ratings_total": 58}, "ChIJ2R9xYFUFdkgRWqdrX3QKbdc": {"geometry": {"location": {"lat": 51.5134696, "lng": -0.1879593}, "viewport": {"northeast": {"lat": 51.5148169302915, "lng": -0.186480369708498}, "southwest": {"lat": 51.5121189697085, "lng": -0.189178330291502}}}, "name": "Pret A Manger", "place_id": "ChIJ2R9xYFUFdkgRWqdrX3QKbdc", "types": ["cafe", "restaurant", "food", "point_of_interest", "store", "establishment"], "rating": 4.4, "user_ratings_total": 405}, "ChIJ_8eVYVUFdkgR0-4L-KaeNgg": {"geometry": {"location": {"lat": 51.5133501, "lng": -0.1879632}, "viewport": {"northeast": {"lat": 51.51470853029149, "lng": -0.186472219708498}, "southwest": {"lat": 51.51201056970849, "lng": -0.189170180291502}}}, "name": "Ryman Stationery", "place_id": "ChIJ_8eVYVUFdkgR0-4L-KaeNgg", "types": ["point_of_interest", "store", "establishment"], "rating": 3.7, "user_ratings_total": 32}, "ChIJDzxgZlUFdkgRyQV9rGPxURQ": {"geometry": {"location": {"lat": 51.5134997, "lng": -0.1875882}, "viewport": {"northeast": {"lat": 51.5148664802915, "lng": -0.186296719708498}, "southwest": {"lat": 51.5121685197085, "lng": -0.188994680291502}}}, "name": "Duck & Noodle", "place_id": "ChIJDzxgZlUFdkgRyQV9rGPxURQ", "types": ["meal_takeaway", "restaurant", "food", "point_of_interest", "establishment"], "rating": 3.9, "user_ratings_total": 738}, "ChIJuTTu9P8PdkgRRNaVduD_b_c": {"geometry": {"location": {"lat": 51.51368120000001, "lng": -0.1882005}, "viewport": {"northeast": {"lat": 51.51507383029151, "lng": -0.186859569708498}, "southwest": {"lat": 51.51237586970851, "lng": -0.189557530291502}}}, "name": "Porchester Dental Practice", "place_id": "ChIJuTTu9P8PdkgRRNaVduD_b_c", "types": ["dentist", "health", "point_of_interest", "establishment"], "rating": 3.7, "user_ratings_total": 15}, "ChIJ4WSDX1UFdkgR8x1EzoNKsPY": {"geometry": {"location": {"lat": 51.513685, "lng": -0.1880946}, "viewport": {"northeast": {"lat": 51.5150795802915, "lng": -0.186752119708498}, "southwest": {"lat": 51.5123816197085, "lng": -0.189450080291502}}}, "name": "Amber Marsh STUDENT ACCOMMODATION", "place_id": "ChIJ4WSDX1UFdkgR8x1EzoNKsPY", "types": ["point_of_interest", "establishment"], "rating": 4.9, "user_ratings_total": 119}, "ChIJAQD3X1UFdkgRRxowfS6ePCA": {"geometry": {"location": {"lat": 51.5135946, "lng": -0.1880266}, "viewport": {"northeast": {"lat": 51.51495323029149, "lng": -0.1865269197084979}, "southwest": {"lat": 51.51225526970849, "lng": -0.189224880291502}}}, "name": "Fired Up", "place_id": "ChIJAQD3X1UFdkgRRxowfS6ePCA", "types": ["point_of_interest", "establishment"]}, "ChIJcSJKPGMPdkgRCz7fLGqXj4E": {"geometry": {"location": {"lat": 51.51346540000001, "lng": -0.1879919}, "viewport": {"northeast": {"lat": 51.51482508029151, "lng": -0.186498369708498}, "southwest": {"lat": 51.51212711970851, "lng": -0.1891963302915021}}}, "name": "William-Star-Massage", "place_id": "ChIJcSJKPGMPdkgRCz7fLGqXj4E", "types": ["health", "point_of_interest", "establishment"], "rating": 5, "user_ratings_total": 2}, "ChIJ11EU9P8PdkgRDyKPUD-yH_4": {"geometry": {"location": {"lat": 51.5138232, "lng": -0.1882376}, "viewport": {"northeast": {"lat": 51.5151472302915, "lng": -0.186884369708498}, "southwest": {"lat": 51.51244926970851, "lng": -0.189582330291502}}}, "name": "Whiteleys (Stop N)", "place_id": "ChIJ11EU9P8PdkgRDyKPUD-yH_4", "types": ["bus_station", "transit_station", "point_of_interest", "establishment"]}, "ChIJ_8eVYVUFdkgRa6uRAaiAhVA": {"geometry": {"location": {"lat": 51.51342349999999, "lng": -0.1879674}, "viewport": {"northeast": {"lat": 51.51477248029149, "lng": -0.186618419708498}, "southwest": {"lat": 51.51207451970849, "lng": -0.189316380291502}}}, "name": "Surprise Surprise", "place_id": "ChIJ_8eVYVUFdkgRa6uRAaiAhVA", "types": ["point_of_interest", "store", "establishment"], "rating": 2.7, "user_ratings_total": 14}, "ChIJxeRTkv8PdkgRmD3ROXrk-_A": {"geometry": {"location": {"lat": 51.5136663, "lng": -0.1879362}, "viewport": {"northeast": {"lat": 51.5150208302915, "lng": -0.186486719708498}, "southwest": {"lat": 51.51232286970851, "lng": -0.189184680291502}}}, "name": "GMS Estates Ltd (Residential)", "place_id": "ChIJxeRTkv8PdkgRmD3ROXrk-_A", "types": ["point_of_interest", "establishment"], "rating": 5, "user_ratings_total": 1}, "ChIJW17E8WMPdkgR9h0-r5Q3gXk": {"geometry": {"location": {"lat": 51.5132589, "lng": -0.1884249}, "viewport": {"northeast": {"lat": 51.5145698302915, "lng": -0.187271769708498}, "southwest": {"lat": 51.5118718697085, "lng": -0.189969730291502}}}, "name": "Chapel Davies", "place_id": "ChIJW17E8WMPdkgR9h0-r5Q3gXk", "types": ["real_estate_agency", "point_of_interest", "establishment"]}, "ChIJO7EIjP8PdkgRukg9FrLJv9o": {"geometry": {"location": {"lat": 51.5132589, "lng": -0.1884249}, "viewport": {"northeast": {"lat": 51.5145698302915, "lng": -0.187271769708498}, "southwest": {"lat": 51.5118718697085, "lng": -0.189969730291502}}}, "name": "Caa-Gbg", "place_id": "ChIJO7EIjP8PdkgRukg9FrLJv9o", "types": ["point_of_interest", "establishment"]}, "ChIJx7pc7DMDdkgR128gZMyo_Lw": {"geometry": {"location": {"lat": 51.5132589, "lng": -0.1884249}, "viewport": {"northeast": {"lat": 51.5145698302915, "lng": -0.187271769708498}, "southwest": {"lat": 51.5118718697085, "lng": -0.189969730291502}}}, "name": "Homesearch", "place_id": "ChIJx7pc7DMDdkgR128gZMyo_Lw", "types": ["point_of_interest", "establishment"], "rating": 5, "user_ratings_total": 135}, "ChIJa_J0YykFdkgRZujZxOzR9b4": {"geometry": {"location": {"lat": 51.5132589, "lng": -0.1884249}, "viewport": {"northeast": {"lat": 51.5145698302915, "lng": -0.187271769708498}, "southwest": {"lat": 51.5118718697085, "lng": -0.189969730291502}}}, "name": "Luxury London", "place_id": "ChIJa_J0YykFdkgRZujZxOzR9b4", "types": ["point_of_interest", "establishment"], "rating": 4.2, "user_ratings_total": 6}, "ChIJheTWuPEFdkgRMMmrwpugZLs": {"geometry": {"location": {"lat": 51.5133501, "lng": -0.1879632}, "viewport": {"northeast": {"lat": 51.51469908029149, "lng": -0.186614219708498}, "southwest": {"lat": 51.51200111970849, "lng": -0.1893121802915021}}}, "name": "Western Union (Ryman)", "place_id": "ChIJheTWuPEFdkgRMMmrwpugZLs", "types": ["finance", "point_of_interest", "establishment"]}, "ChIJ67EB9v8PdkgRnA70iYtkSVM": {"geometry": {"location": {"lat": 51.5138836, "lng": -0.1880484}, "viewport": {"northeast": {"lat": 51.5151847802915, "lng": -0.1866465697084979}, "southwest": {"lat": 51.51248681970851, "lng": -0.189344530291502}}}, "name": "Whiteleys", "place_id": "ChIJ67EB9v8PdkgRnA70iYtkSVM", "types": ["transit_station", "point_of_interest", "establishment"], "rating": 3, "user_ratings_total": 2}, "ChIJ51EuLYoFdkgRQLJ1H8-ULVE": {"geometry": {"location": {"lat": 51.51369709999999, "lng": -0.1878317}, "viewport": {"northeast": {"lat": 51.5150483802915, "lng": -0.186440119708498}, "southwest": {"lat": 51.5123504197085, "lng": -0.189138080291502}}}, "name": "Brandy meville", "place_id": "ChIJ51EuLYoFdkgRQLJ1H8-ULVE", "types": ["clothing_store", "point_of_interest", "store", "establishment"]}, "ChIJdaOiWhkFdkgRm1XHiVy8Aoo": {"geometry": {"location": {"lat": 51.5137335, "lng": -0.1878413}, "viewport": {"northeast": {"lat": 51.51508718029149, "lng": -0.186442919708498}, "southwest": {"lat": 51.5123892197085, "lng": -0.189140880291502}}}, "name": "ifixpro4U", "place_id": "ChIJdaOiWhkFdkgRm1XHiVy8Aoo", "types": ["point_of_interest", "establishment"]}, "ChIJ_8eVYVUFdkgRNlYH34K_9h0": {"geometry": {"location": {"lat": 51.5132894, "lng": -0.1879268}, "viewport": {"northeast": {"lat": 51.51463838029149, "lng": -0.186577819708498}, "southwest": {"lat": 51.51194041970849, "lng": -0.189275780291502}}}, "name": "Armour Environmental Services Ltd", "place_id": "ChIJ_8eVYVUFdkgRNlYH34K_9h0", "types": ["home_goods_store", "point_of_interest", "store", "establishment"]}, "ChIJEc5GuXYFdkgRG6Ppa0IB0QQ": {"geometry": {"location": {"lat": 51.5137237, "lng": -0.187772}, "viewport": {"northeast": {"lat": 51.51510638029151, "lng": -0.186415419708498}, "southwest": {"lat": 51.51240841970851, "lng": -0.189113380291502}}}, "name": "Cheap Pallet Transport Bayswater", "place_id": "ChIJEc5GuXYFdkgRG6Ppa0IB0QQ", "types": ["point_of_interest", "establishment"]}, "ChIJTSFg-iIFdkgRrB5d5iXZwdk": {"geometry": {"location": {"lat": 51.51328729999999, "lng": -0.1878914}, "viewport": {"northeast": {"lat": 51.5146419802915, "lng": -0.186431269708498}, "southwest": {"lat": 51.5119440197085, "lng": -0.189129230291502}}}, "name": "Printt Click & Collect (Ryman)", "place_id": "ChIJTSFg-iIFdkgRrB5d5iXZwdk", "types": ["point_of_interest", "store", "establishment"], "rating": 3, "user_ratings_total": 1}, "ChIJ1RVIYysFdkgRZ7hpBiB636k": {"geometry": {"location": {"lat": 51.5132252, "lng": -0.1879551}, "viewport": {"northeast": {"lat": 51.5145817302915, "lng": -0.186459219708498}, "southwest": {"lat": 51.5118837697085, "lng": -0.189157180291502}}}, "name": "Candy World", "place_id": "ChIJ1RVIYysFdkgRZ7hpBiB636k", "types": ["food", "point_of_interest", "store", "establishment"], "rating": 4.1, "user_ratings_total": 17}, "ChIJjRM47FcFdkgRmUuSSSwVaBk": {"geometry": {"location": {"lat": 51.5137906, "lng": -0.1877513}, "viewport": {"northeast": {"lat": 51.5151395802915, "lng": -0.1864023197084979}, "southwest": {"lat": 51.5124416197085, "lng": -0.1891002802915019}}}, "name": "Ortum WebTech", "place_id": "ChIJjRM47FcFdkgRmUuSSSwVaBk", "types": ["point_of_interest", "establishment"], "rating": 5, "user_ratings_total": 1}, "ChIJpwA05k8FdkgRAZbPJEci9Z8": {"geometry": {"location": {"lat": 51.5137906, "lng": -0.1877513}, "viewport": {"northeast": {"lat": 51.5151395802915, "lng": -0.1864023197084979}, "southwest": {"lat": 51.5124416197085, "lng": -0.1891002802915019}}}, "name": "Total Rooters & Heating", "place_id": "ChIJpwA05k8FdkgRAZbPJEci9Z8", "types": ["plumber", "general_contractor", "point_of_interest", "establishment"]}, "ChIJsfc2TbYFdkgRw56b3XSltP8": {"geometry": {"location": {"lat": 51.5137906, "lng": -0.1877513}, "viewport": {"northeast": {"lat": 51.5151395802915, "lng": -0.1864023197084979}, "southwest": {"lat": 51.5124416197085, "lng": -0.1891002802915019}}}, "name": "Atelier Lease Plans", "place_id": "ChIJsfc2TbYFdkgRw56b3XSltP8", "types": ["point_of_interest", "establishment"]}, "ChIJ8yXoHwYRdkgRtigQaln4vv0": {"geometry": {"location": {"lat": 51.5137906, "lng": -0.1877513}, "viewport": {"northeast": {"lat": 51.5151395802915, "lng": -0.1864023197084979}, "southwest": {"lat": 51.5124416197085, "lng": -0.1891002802915019}}}, "name": "Immortality Crystals", "place_id": "ChIJ8yXoHwYRdkgRtigQaln4vv0", "types": ["health", "point_of_interest", "establishment"]}, "ChIJ-w51YVUFdkgRY-TQ5bxsQCM": {"geometry": {"location": {"lat": 51.5132618, "lng": -0.1878089}, "viewport": {"northeast": {"lat": 51.51461448029149, "lng": -0.186388019708498}, "southwest": {"lat": 51.51191651970849, "lng": -0.189085980291502}}}, "name": "American Sweets", "place_id": "ChIJ-w51YVUFdkgRY-TQ5bxsQCM", "types": ["food", "point_of_interest", "store", "establishment"]}, "ChIJN1yOWDEFdkgRBqfM7jFDJPU": {"geometry": {"location": {"lat": 51.5131841, "lng": -0.1879549}, "viewport": {"northeast": {"lat": 51.51454073029149, "lng": -0.186456419708498}, "southwest": {"lat": 51.51184276970849, "lng": -0.189154380291502}}}, "name": "Beaumanor Mansions", "place_id": "ChIJN1yOWDEFdkgRBqfM7jFDJPU", "types": ["lodging", "point_of_interest", "establishment"]}, "ChIJSwoVjP8PdkgRu9KGjaxl9tY": {"geometry": {"location": {"lat": 51.51316979999999, "lng": -0.1886817}, "viewport": {"northeast": {"lat": 51.51450743029149, "lng": -0.1873912197084979}, "southwest": {"lat": 51.5118094697085, "lng": -0.190089180291502}}}, "name": "The Rug Company", "place_id": "ChIJSwoVjP8PdkgRu9KGjaxl9tY", "types": ["home_goods_store", "point_of_interest", "store", "establishment"], "rating": 4, "user_ratings_total": 2}, "ChIJv2iGIvkFdkgRNoa70F8einU": {"geometry": {"location": {"lat": 51.51385070000001, "lng": -0.187762}, "viewport": {"northeast": {"lat": 51.5151964302915, "lng": -0.186462669708498}, "southwest": {"lat": 51.51249846970851, "lng": -0.189160630291502}}}, "name": "W2 Electrical Services", "place_id": "ChIJv2iGIvkFdkgRNoa70F8einU", "types": ["electrician", "point_of_interest", "establishment"]}, "ChIJlWwPZ1UFdkgR3oBRGFWm100": {"geometry": {"location": {"lat": 51.5134878, "lng": -0.1875584}, "viewport": {"northeast": {"lat": 51.51485943029149, "lng": -0.186280319708498}, "southwest": {"lat": 51.5121614697085, "lng": -0.1889782802915021}}}, "name": "Meso Skin", "place_id": "ChIJlWwPZ1UFdkgR3oBRGFWm100", "types": ["point_of_interest", "establishment"]}, "ChIJe_oXjv8PdkgR-umkdErTk-M": {"geometry": {"location": {"lat": 51.51313400000001, "lng": -0.1887230000000001}, "viewport": {"northeast": {"lat": 51.51448018029151, "lng": -0.187388719708498}, "southwest": {"lat": 51.51178221970851, "lng": -0.190086680291502}}}, "name": "ubitricity Charging Station", "place_id": "ChIJe_oXjv8PdkgR-umkdErTk-M", "types": ["point_of_interest", "establishment"]}, "ChIJ4T-4HMYFdkgRFFCQcpl7Hbg": {"geometry": {"location": {"lat": 51.51352209999999, "lng": -0.1875491}, "viewport": {"northeast": {"lat": 51.51486523029148, "lng": -0.186279119708498}, "southwest": {"lat": 51.51216726970848, "lng": -0.188977080291502}}}, "name": "Royal Hyde Park Hotel", "place_id": "ChIJ4T-4HMYFdkgRFFCQcpl7Hbg", "types": ["lodging", "point_of_interest", "establishment"]}, "ChIJUwUn6dQFdkgR4kY8KiOtYNw": {"geometry": {"location": {"lat": 51.5133425, "lng": -0.1876253}, "viewport": {"northeast": {"lat": 51.5146915802915, "lng": -0.186275069708498}, "southwest": {"lat": 51.51199361970851, "lng": -0.188973030291502}}}, "name": "Local Taxi W2 London", "place_id": "ChIJUwUn6dQFdkgR4kY8KiOtYNw", "types": ["point_of_interest", "establishment"]}, "ChIJT2EoO-EFdkgRNafSFxLMFiE": {"geometry": {"location": {"lat": 51.5135459, "lng": -0.1875323}, "viewport": {"northeast": {"lat": 51.51489033029151, "lng": -0.186273019708498}, "southwest": {"lat": 51.51219236970851, "lng": -0.188970980291502}}}, "name": "Bella Italia - Queensway 108", "place_id": "ChIJT2EoO-EFdkgRNafSFxLMFiE", "types": ["night_club", "bar", "restaurant", "food", "point_of_interest", "establishment"], "rating": 4.1, "user_ratings_total": 487}, "ChIJW4tqYlUFdkgR979LV9aWMqw": {"geometry": {"location": {"lat": 51.51312369999999, "lng": -0.1879485}, "viewport": {"northeast": {"lat": 51.51448038029149, "lng": -0.186449219708498}, "southwest": {"lat": 51.51178241970849, "lng": -0.189147180291502}}}, "name": "MOBILE EXCHANGE", "place_id": "ChIJW4tqYlUFdkgR979LV9aWMqw", "types": ["point_of_interest", "establishment"], "rating": 3.6, "user_ratings_total": 5}, "ChIJNQLykf8PdkgRR2S73KrExrg": {"geometry": {"location": {"lat": 51.5132227, "lng": -0.1889581}, "viewport": {"northeast": {"lat": 51.5146410302915, "lng": -0.187611369708498}, "southwest": {"lat": 51.5119430697085, "lng": -0.190309330291502}}}, "name": "Meritas Court", "place_id": "ChIJNQLykf8PdkgRR2S73KrExrg", "types": ["point_of_interest", "establishment"], "rating": 4.3, "user_ratings_total": 3}, "ChIJDzxgZlUFdkgRp0VxCAzkZDI": {"geometry": {"location": {"lat": 51.5134312, "lng": -0.1875196}, "viewport": {"northeast": {"lat": 51.5147740802915, "lng": -0.186254819708498}, "southwest": {"lat": 51.5120761197085, "lng": -0.188952780291502}}}, "name": "The Aloe Arborescens Company Ltd", "place_id": "ChIJDzxgZlUFdkgRp0VxCAzkZDI", "types": ["point_of_interest", "establishment"]}, "ChIJ25ygQSE_dkgRR2KLu1VvRr0": {"geometry": {"location": {"lat": 51.5134257, "lng": -0.1875155}, "viewport": {"northeast": {"lat": 51.5147684802915, "lng": -0.186252219708498}, "southwest": {"lat": 51.5120705197085, "lng": -0.188950180291502}}}, "name": "Belsky\u2019s Hair Lounge", "place_id": "ChIJ25ygQSE_dkgRR2KLu1VvRr0", "types": ["hair_care", "point_of_interest", "establishment"], "rating": 4.3, "user_ratings_total": 48}, "ChIJR-_pe1UFdkgRHoRa3ogar_M": {"geometry": {"location": {"lat": 51.51260535910254, "lng": -0.1875705004722852}, "viewport": {"northeast": {"lat": 51.5139542302915, "lng": -0.186223219708498}, "southwest": {"lat": 51.5112562697085, "lng": -0.188921180291502}}}, "name": "93-97 Queensway", "place_id": "ChIJR-_pe1UFdkgRHoRa3ogar_M", "types": ["route"]}, "ChIJHTvBX1UFdkgRS86BoAY44f4": {"geometry": {"location": {"lat": 51.51283000000001, "lng": -0.1877768}, "viewport": {"northeast": {"lat": 51.51413778029151, "lng": -0.186396469708498}, "southwest": {"lat": 51.51143981970851, "lng": -0.189094430291502}}}, "name": "Pizza Hut Restaurants", "place_id": "ChIJHTvBX1UFdkgRS86BoAY44f4", "types": ["meal_takeaway", "restaurant", "food", "point_of_interest", "establishment"], "rating": 3.7, "user_ratings_total": 1464}, "ChIJ7WF9nv8PdkgRrynFdr9AC7A": {"geometry": {"location": {"lat": 51.51241350000001, "lng": -0.1891314}, "viewport": {"northeast": {"lat": 51.51382318029151, "lng": -0.187803869708498}, "southwest": {"lat": 51.51112521970851, "lng": -0.190501830291502}}}, "name": "Kings Head", "place_id": "ChIJ7WF9nv8PdkgRrynFdr9AC7A", "types": ["bar", "point_of_interest", "establishment"], "rating": 4.3, "user_ratings_total": 620}, "ChIJz3k2hP8PdkgR2a5TwlsEgDs": {"geometry": {"location": {"lat": 51.5127108, "lng": -0.1884947}, "viewport": {"northeast": {"lat": 51.5140705802915, "lng": -0.187187869708498}, "southwest": {"lat": 51.5113726197085, "lng": -0.189885830291502}}}, "name": "Athenian Grocery", "place_id": "ChIJz3k2hP8PdkgR2a5TwlsEgDs", "types": ["grocery_or_supermarket", "supermarket", "food", "point_of_interest", "store", "establishment"], "rating": 4.7, "user_ratings_total": 167}, "ChIJV9MrfFUFdkgRm3pK2zSvcMs": {"geometry": {"location": {"lat": 51.5125992, "lng": -0.1878014}, "viewport": {"northeast": {"lat": 51.5140114802915, "lng": -0.186477319708498}, "southwest": {"lat": 51.5113135197085, "lng": -0.189175280291502}}}, "name": "CMFashionAddict", "place_id": "ChIJV9MrfFUFdkgRm3pK2zSvcMs", "types": ["point_of_interest", "store", "establishment"]}, "ChIJ70-vh_8PdkgR8xEWRpBlErM": {"geometry": {"location": {"lat": 51.5127833, "lng": -0.1881936}, "viewport": {"northeast": {"lat": 51.51408163029149, "lng": -0.186825769708498}, "southwest": {"lat": 51.51138366970849, "lng": -0.189523730291502}}}, "name": "Gybe Media & Technology", "place_id": "ChIJ70-vh_8PdkgR8xEWRpBlErM", "types": ["point_of_interest", "establishment"]}, "ChIJq5O_f1UFdkgRFMOCuroF6q8": {"geometry": {"location": {"lat": 51.5123216, "lng": -0.1878537}, "viewport": {"northeast": {"lat": 51.5137426802915, "lng": -0.186598069708498}, "southwest": {"lat": 51.5110447197085, "lng": -0.189296030291502}}}, "name": "Bayswater", "place_id": "ChIJq5O_f1UFdkgRFMOCuroF6q8", "types": ["transit_station", "point_of_interest", "establishment"]}, "ChIJfY15hv8PdkgRqXe2P0SvmQY": {"geometry": {"location": {"lat": 51.5127622, "lng": -0.1882006}, "viewport": {"northeast": {"lat": 51.5140700802915, "lng": -0.186836319708498}, "southwest": {"lat": 51.5113721197085, "lng": -0.1895342802915021}}}, "name": "Warda Cleaning Services", "place_id": "ChIJfY15hv8PdkgRqXe2P0SvmQY", "types": ["point_of_interest", "establishment"]}, "ChIJKZyRf1UFdkgR3epMaeDsjto": {"geometry": {"location": {"lat": 51.51235250000001, "lng": -0.1877694}, "viewport": {"northeast": {"lat": 51.5137096802915, "lng": -0.186303519708498}, "southwest": {"lat": 51.5110117197085, "lng": -0.189001480291502}}}, "name": "Bayswater", "place_id": "ChIJKZyRf1UFdkgR3epMaeDsjto", "types": ["subway_station", "transit_station", "point_of_interest", "establishment"], "rating": 4.3, "user_ratings_total": 129}, "ChIJq6p-waoadkgRnmiQvm5nrbg": {"geometry": {"location": {"lat": 51.5123545, "lng": -0.1877315}, "viewport": {"northeast": {"lat": 51.5137091302915, "lng": -0.1862843197084979}, "southwest": {"lat": 51.5110111697085, "lng": -0.188982280291502}}}, "name": "Bayswater MiniCabs", "place_id": "ChIJq6p-waoadkgRnmiQvm5nrbg", "types": ["taxi_stand", "point_of_interest", "establishment"], "rating": 5, "user_ratings_total": 1}, "ChIJa81vj_8PdkgR1LdtNivu0lY": {"geometry": {"location": {"lat": 51.51293640000001, "lng": -0.1885365000000001}, "viewport": {"northeast": {"lat": 51.51427183029151, "lng": -0.187259469708498}, "southwest": {"lat": 51.51157386970851, "lng": -0.1899574302915021}}}, "name": "Jade Rose - Therapist", "place_id": "ChIJa81vj_8PdkgR1LdtNivu0lY", "types": ["health", "point_of_interest", "establishment"]}, "ChIJcyBFgFUFdkgRqaku6ouE6MU": {"geometry": {"location": {"lat": 51.51258170000001, "lng": -0.1878136}, "viewport": {"northeast": {"lat": 51.51400463029151, "lng": -0.186465669708498}, "southwest": {"lat": 51.51130666970851, "lng": -0.189163630291502}}}, "name": "Bayswater Arms", "place_id": "ChIJcyBFgFUFdkgRqaku6ouE6MU", "types": ["bar", "point_of_interest", "establishment"], "rating": 4, "user_ratings_total": 1548}, "ChIJpXyKhv8PdkgRoOG5lqb6tEI": {"geometry": {"location": {"lat": 51.5127627, "lng": -0.1882625}, "viewport": {"northeast": {"lat": 51.5141116802915, "lng": -0.186913519708498}, "southwest": {"lat": 51.5114137197085, "lng": -0.189611480291502}}}, "name": "Santorini Restaurant", "place_id": "ChIJpXyKhv8PdkgRoOG5lqb6tEI", "types": ["restaurant", "food", "point_of_interest", "establishment"], "rating": 4.3, "user_ratings_total": 836}, "ChIJVdMrfFUFdkgRJOO6WHlrrZo": {"geometry": {"location": {"lat": 51.5125774, "lng": -0.1877903}, "viewport": {"northeast": {"lat": 51.5138800802915, "lng": -0.186323169708498}, "southwest": {"lat": 51.5111821197085, "lng": -0.189021130291502}}}, "name": "Barclays Bank", "place_id": "ChIJVdMrfFUFdkgRJOO6WHlrrZo", "types": ["bank", "atm", "finance", "point_of_interest", "establishment"], "rating": 2.3, "user_ratings_total": 26}, "ChIJWzo3mv8PdkgRJGjma0ORAQE": {"geometry": {"location": {"lat": 51.5127545, "lng": -0.189064}, "viewport": {"northeast": {"lat": 51.5140062802915, "lng": -0.187679569708498}, "southwest": {"lat": 51.5113083197085, "lng": -0.1903775302915021}}}, "name": "Eshvi", "place_id": "ChIJWzo3mv8PdkgRJGjma0ORAQE", "types": ["point_of_interest", "store", "establishment"], "rating": 3.5, "user_ratings_total": 2}, "ChIJhdiaCAAQdkgRyiDUOloAOTY": {"geometry": {"location": {"lat": 51.5128891, "lng": -0.1877623}, "viewport": {"northeast": {"lat": 51.51424198029149, "lng": -0.1863399197084979}, "southwest": {"lat": 51.5115440197085, "lng": -0.189037880291502}}}, "name": "United Forex Ltd", "place_id": "ChIJhdiaCAAQdkgRyiDUOloAOTY", "types": ["finance", "point_of_interest", "establishment"]}, "ChIJmR93ZYkPdkgR-BSYBz67SEA": {"geometry": {"location": {"lat": 51.5124486, "lng": -0.188355}, "viewport": {"northeast": {"lat": 51.51389408029149, "lng": -0.187034569708498}, "southwest": {"lat": 51.51119611970849, "lng": -0.189732530291502}}}, "name": "THE REAL NIGHT CLUB", "place_id": "ChIJmR93ZYkPdkgR-BSYBz67SEA", "types": ["night_club", "point_of_interest", "establishment"]}, "ChIJaQ3Qhv8PdkgR9zazR9FY0zg": {"geometry": {"location": {"lat": 51.5125428, "lng": -0.1883037}, "viewport": {"northeast": {"lat": 51.51394673029149, "lng": -0.186981219708498}, "southwest": {"lat": 51.51124876970849, "lng": -0.189679180291502}}}, "name": "Alexandra Court Bayswater", "place_id": "ChIJaQ3Qhv8PdkgR9zazR9FY0zg", "types": ["point_of_interest", "establishment"], "rating": 4, "user_ratings_total": 1}, "ChIJZd7MhDEPdkgRfLZ5cHi4WoA": {"geometry": {"location": {"lat": 51.5124884, "lng": -0.1886343}, "viewport": {"northeast": {"lat": 51.5138955802915, "lng": -0.187351119708498}, "southwest": {"lat": 51.5111976197085, "lng": -0.190049080291502}}}, "name": "DPD Parcel Shop Location", "place_id": "ChIJZd7MhDEPdkgRfLZ5cHi4WoA", "types": ["point_of_interest", "establishment"], "rating": 1, "user_ratings_total": 1}, "ChIJ-zDkhP8PdkgRQBgGO4xpIZ8": {"geometry": {"location": {"lat": 51.512528, "lng": -0.1886331}, "viewport": {"northeast": {"lat": 51.51391643029149, "lng": -0.187298519708498}, "southwest": {"lat": 51.5112184697085, "lng": -0.189996480291502}}}, "name": "Zipcar", "place_id": "ChIJ-zDkhP8PdkgRQBgGO4xpIZ8", "types": ["car_rental", "point_of_interest", "establishment"]}, "ChIJi9wyhP8PdkgRchg1x-HAyy4": {"geometry": {"location": {"lat": 51.512701, "lng": -0.1883971}, "viewport": {"northeast": {"lat": 51.51403078029149, "lng": -0.187032919708498}, "southwest": {"lat": 51.51133281970849, "lng": -0.189730880291502}}}, "name": "Archie Foodstore", "place_id": "ChIJi9wyhP8PdkgRchg1x-HAyy4", "types": ["grocery_or_supermarket", "food", "point_of_interest", "store", "establishment"], "rating": 5, "user_ratings_total": 1}, "ChIJ_17onP8PdkgR068m8bsosDI": {"geometry": {"location": {"lat": 51.51247679999999, "lng": -0.1887351}, "viewport": {"northeast": {"lat": 51.5138818802915, "lng": -0.187412919708498}, "southwest": {"lat": 51.5111839197085, "lng": -0.190110880291502}}}, "name": "4 U R Convenience", "place_id": "ChIJ_17onP8PdkgR068m8bsosDI", "types": ["convenience_store", "food", "point_of_interest", "store", "establishment"], "rating": 2, "user_ratings_total": 4}, "ChIJeWSth_8PdkgR2hwjHn4Xw-E": {"geometry": {"location": {"lat": 51.51276149999999, "lng": -0.1882087}, "viewport": {"northeast": {"lat": 51.51406918029149, "lng": -0.186844369708498}, "southwest": {"lat": 51.51137121970849, "lng": -0.189542330291502}}}, "name": "Iremit Global Remittance Ltd", "place_id": "ChIJeWSth_8PdkgR2hwjHn4Xw-E", "types": ["point_of_interest", "establishment"]}, "ChIJBR8GiccPdkgR1XhbncUX9_g": {"geometry": {"location": {"lat": 51.51276149999999, "lng": -0.1882087}, "viewport": {"northeast": {"lat": 51.5140948302915, "lng": -0.186820419708498}, "southwest": {"lat": 51.51139686970851, "lng": -0.189518380291502}}}, "name": "Ginger & Lemon Nail & Beauty Salon Queensway", "place_id": "ChIJBR8GiccPdkgR1XhbncUX9_g", "types": ["beauty_salon", "point_of_interest", "establishment"], "rating": 4.6, "user_ratings_total": 51}, "ChIJp7TGnP8PdkgRsker0BQ6eK8": {"geometry": {"location": {"lat": 51.51245770000001, "lng": -0.1888352}, "viewport": {"northeast": {"lat": 51.51377258029151, "lng": -0.187474919708498}, "southwest": {"lat": 51.51107461970851, "lng": -0.190172880291502}}}, "name": "Nisha's beauty", "place_id": "ChIJp7TGnP8PdkgRsker0BQ6eK8", "types": ["beauty_salon", "point_of_interest", "establishment"], "rating": 5, "user_ratings_total": 1}, "ChIJqbTGnP8PdkgRPUIcZ01Vjk0": {"geometry": {"location": {"lat": 51.51245770000001, "lng": -0.1888353}, "viewport": {"northeast": {"lat": 51.51377258029151, "lng": -0.187475019708498}, "southwest": {"lat": 51.51107461970851, "lng": -0.1901729802915021}}}, "name": "Mr Pointing", "place_id": "ChIJqbTGnP8PdkgRPUIcZ01Vjk0", "types": ["general_contractor", "point_of_interest", "establishment"]}, "ChIJ7WF9nv8PdkgRKV4gOKPzU7E": {"geometry": {"location": {"lat": 51.5125, "lng": -0.1888889}, "viewport": {"northeast": {"lat": 51.5138845802915, "lng": -0.187552919708498}, "southwest": {"lat": 51.5111866197085, "lng": -0.190250880291502}}}, "name": "Emile Hair & Beauty", "place_id": "ChIJ7WF9nv8PdkgRKV4gOKPzU7E", "types": ["beauty_salon", "hair_care", "point_of_interest", "establishment"], "rating": 4.4, "user_ratings_total": 25}, "ChIJ4xSGGDgFdkgRmwkTro1q5tc": {"geometry": {"location": {"lat": 51.5123528, "lng": -0.1877998}, "viewport": {"northeast": {"lat": 51.5137183802915, "lng": -0.186318669708498}, "southwest": {"lat": 51.5110204197085, "lng": -0.189016630291502}}}, "name": "tSmart", "place_id": "ChIJ4xSGGDgFdkgRmwkTro1q5tc", "types": ["point_of_interest", "establishment"]}, "ChIJKQcaf1UFdkgRekoH8KE4PMc": {"geometry": {"location": {"lat": 51.51235339999999, "lng": -0.1877784}, "viewport": {"northeast": {"lat": 51.5137093802915, "lng": -0.186307919708498}, "southwest": {"lat": 51.5110114197085, "lng": -0.189005880291502}}}, "name": "As U Like It", "place_id": "ChIJKQcaf1UFdkgRekoH8KE4PMc", "types": ["cafe", "food", "point_of_interest", "establishment"]}, "ChIJKQcaf1UFdkgRo0RkS2gft78": {"geometry": {"location": {"lat": 51.51235339999999, "lng": -0.1877784}, "viewport": {"northeast": {"lat": 51.5137093802915, "lng": -0.186307919708498}, "southwest": {"lat": 51.5110114197085, "lng": -0.189005880291502}}}, "name": "Global Currency Mart", "place_id": "ChIJKQcaf1UFdkgRo0RkS2gft78", "types": ["finance", "point_of_interest", "establishment"]}, "ChIJcyBFgFUFdkgR328TUl-PyPs": {"geometry": {"location": {"lat": 51.51235339999999, "lng": -0.1877784}, "viewport": {"northeast": {"lat": 51.5137093802915, "lng": -0.186307919708498}, "southwest": {"lat": 51.5110114197085, "lng": -0.189005880291502}}}, "name": "S J Lanka Forex", "place_id": "ChIJcyBFgFUFdkgR328TUl-PyPs", "types": ["finance", "point_of_interest", "establishment"]}, "ChIJ-zF4hf8PdkgRi5ex2MeMvwE": {"geometry": {"location": {"lat": 51.512847, "lng": -0.188595}, "viewport": {"northeast": {"lat": 51.5144647802915, "lng": -0.187347769708498}, "southwest": {"lat": 51.5117668197085, "lng": -0.190045730291502}}}, "name": "Finding your Voice", "place_id": "ChIJ-zF4hf8PdkgRi5ex2MeMvwE", "types": ["point_of_interest", "establishment"], "rating": 5, "user_ratings_total": 1}, "ChIJJ4nzMt4FdkgRvvUl5lXIddM": {"geometry": {"location": {"lat": 51.5125845, "lng": -0.1877197}, "viewport": {"northeast": {"lat": 51.5138879302915, "lng": -0.186295219708498}, "southwest": {"lat": 51.5111899697085, "lng": -0.188993180291502}}}, "name": "Barclays ATM", "place_id": "ChIJJ4nzMt4FdkgRvvUl5lXIddM", "types": ["atm", "finance", "point_of_interest", "establishment"], "rating": 2, "user_ratings_total": 2}, "ChIJAxyNHr8FdkgRXDWt-f_cyS8": {"geometry": {"location": {"lat": 51.5125957, "lng": -0.1877201}, "viewport": {"northeast": {"lat": 51.5138934802915, "lng": -0.186296219708498}, "southwest": {"lat": 51.5111955197085, "lng": -0.188994180291502}}}, "name": "Ahmed", "place_id": "ChIJAxyNHr8FdkgRXDWt-f_cyS8", "types": ["school", "point_of_interest", "establishment"]}, "ChIJ4bQJfFUFdkgRIruhvA0eSgQ": {"geometry": {"location": {"lat": 51.512604, "lng": -0.187656}, "viewport": {"northeast": {"lat": 51.5139507302915, "lng": -0.186264019708498}, "southwest": {"lat": 51.5112527697085, "lng": -0.188961980291502}}}, "name": "Bayswater (Stop P)", "place_id": "ChIJ4bQJfFUFdkgRIruhvA0eSgQ", "types": ["transit_station", "point_of_interest", "establishment"], "rating": 3.5, "user_ratings_total": 2}, "ChIJdcE4-v4PdkgRSkPTpezbINI": {"geometry": {"location": {"lat": 51.51242429999999, "lng": -0.1891116}, "viewport": {"northeast": {"lat": 51.5137770802915, "lng": -0.187735219708498}, "southwest": {"lat": 51.5110791197085, "lng": -0.1904331802915021}}}, "name": "Lingumi", "place_id": "ChIJdcE4-v4PdkgRSkPTpezbINI", "types": ["point_of_interest", "establishment"]}, "ChIJqapamv8PdkgRfycWurtLGQA": {"geometry": {"location": {"lat": 51.5127616, "lng": -0.1889983}, "viewport": {"northeast": {"lat": 51.5140144302915, "lng": -0.187614219708498}, "southwest": {"lat": 51.5113164697085, "lng": -0.190312180291502}}}, "name": "Project Mosaic", "place_id": "ChIJqapamv8PdkgRfycWurtLGQA", "types": ["point_of_interest", "establishment"]}, "ChIJsSGB9OgPdkgRNdRJlvr7xtc": {"geometry": {"location": {"lat": 51.51276149999999, "lng": -0.1889984}, "viewport": {"northeast": {"lat": 51.51401438029149, "lng": -0.187614319708498}, "southwest": {"lat": 51.51131641970849, "lng": -0.190312280291502}}}, "name": "PilateStance Private Pilates Sessions", "place_id": "ChIJsSGB9OgPdkgRNdRJlvr7xtc", "types": ["gym", "health", "point_of_interest", "establishment"]}, "ChIJAQBQmv8PdkgR5D4eS4cXp48": {"geometry": {"location": {"lat": 51.51276149999999, "lng": -0.1889984}, "viewport": {"northeast": {"lat": 51.51401438029149, "lng": -0.187614319708498}, "southwest": {"lat": 51.51131641970849, "lng": -0.190312280291502}}}, "name": "Universal Assuretech", "place_id": "ChIJAQBQmv8PdkgR5D4eS4cXp48", "types": ["insurance_agency", "point_of_interest", "establishment"]}, "ChIJicB7qGYPdkgRV5R2w6Aaqd8": {"geometry": {"location": {"lat": 51.51276149999999, "lng": -0.1889984}, "viewport": {"northeast": {"lat": 51.51401438029149, "lng": -0.187614319708498}, "southwest": {"lat": 51.51131641970849, "lng": -0.190312280291502}}}, "name": "Cultural Traffic and The Mott Collection", "place_id": "ChIJicB7qGYPdkgRV5R2w6Aaqd8", "types": ["book_store", "point_of_interest", "store", "establishment"]}, "ChIJ___GYlUFdkgR7qNPGpduRlI": {"geometry": {"location": {"lat": 51.5129378, "lng": -0.1879302}, "viewport": {"northeast": {"lat": 51.5142948802915, "lng": -0.186427769708498}, "southwest": {"lat": 51.5115969197085, "lng": -0.1891257302915021}}}, "name": "Rajdoot Restaurant", "place_id": "ChIJ___GYlUFdkgR7qNPGpduRlI", "types": ["restaurant", "food", "point_of_interest", "establishment"], "rating": 1, "user_ratings_total": 1}, "ChIJ___GYlUFdkgRXVWB4eBj-8g": {"geometry": {"location": {"lat": 51.5129378, "lng": -0.1879302}, "viewport": {"northeast": {"lat": 51.5142948802915, "lng": -0.186427769708498}, "southwest": {"lat": 51.5115969197085, "lng": -0.1891257302915021}}}, "name": "Screwfix", "place_id": "ChIJ___GYlUFdkgRXVWB4eBj-8g", "types": ["point_of_interest", "store", "establishment"], "rating": 4.4, "user_ratings_total": 193}, "ChIJ06_GYlUFdkgRmhml2XBodPI": {"geometry": {"location": {"lat": 51.5129461, "lng": -0.1879215}, "viewport": {"northeast": {"lat": 51.5143029302915, "lng": -0.186423969708498}, "southwest": {"lat": 51.5116049697085, "lng": -0.189121930291502}}}, "name": "Get Tranquil Ltd", "place_id": "ChIJ06_GYlUFdkgRmhml2XBodPI", "types": ["point_of_interest", "establishment"]}, "ChIJS_0_g1UFdkgRSS-OfqLa8ss": {"geometry": {"location": {"lat": 51.5128859, "lng": -0.1877619}, "viewport": {"northeast": {"lat": 51.5142387802915, "lng": -0.186339519708498}, "southwest": {"lat": 51.5115408197085, "lng": -0.1890374802915021}}}, "name": "GB London Souvenirs", "place_id": "ChIJS_0_g1UFdkgRSS-OfqLa8ss", "types": ["point_of_interest", "store", "establishment"], "rating": 1, "user_ratings_total": 1}, "ChIJZ5nPg_8PdkgRhgxYXu9u4oE": {"geometry": {"location": {"lat": 51.5124135, "lng": -0.1883751}, "viewport": {"northeast": {"lat": 51.51377892377782, "lng": -0.1871049418803198}, "southwest": {"lat": 51.51108096319482, "lng": -0.1898029024633239}}}, "name": "Parking lot", "place_id": "ChIJZ5nPg_8PdkgRhgxYXu9u4oE", "types": ["parking", "premise", "point_of_interest", "establishment"]}, "ChIJU9QOMAAQdkgRz0KhZTOQlQo": {"geometry": {"location": {"lat": 51.51557070079977, "lng": -0.1902698504532741}, "viewport": {"northeast": {"lat": 51.51691968029149, "lng": -0.188920869708498}, "southwest": {"lat": 51.51422171970849, "lng": -0.191618830291502}}}, "name": "33-53 A4206", "place_id": "ChIJU9QOMAAQdkgRz0KhZTOQlQo", "types": ["route"]}, "ChIJq0BIPQAQdkgRZYz2pln0fdk": {"geometry": {"location": {"lat": 51.515522, "lng": -0.1895566}, "viewport": {"northeast": {"lat": 51.51693203029149, "lng": -0.1882236697084979}, "southwest": {"lat": 51.5142340697085, "lng": -0.190921630291502}}}, "name": "The Tiroler Hut", "place_id": "ChIJq0BIPQAQdkgRZYz2pln0fdk", "types": ["restaurant", "food", "point_of_interest", "establishment"], "rating": 4.5, "user_ratings_total": 346}, "ChIJI4KA-9wEdkgRajXLM6AY_vQ": {"geometry": {"location": {"lat": 51.51552710000001, "lng": -0.1899699}, "viewport": {"northeast": {"lat": 51.5169131802915, "lng": -0.188631419708498}, "southwest": {"lat": 51.51421521970851, "lng": -0.191329380291502}}}, "name": "URC Thames North Trust", "place_id": "ChIJI4KA-9wEdkgRajXLM6AY_vQ", "types": ["point_of_interest", "establishment"]}, "ChIJYQc5OgAQdkgRBXjUR6G5qnY": {"geometry": {"location": {"lat": 51.5158814, "lng": -0.1896636}, "viewport": {"northeast": {"lat": 51.5171118302915, "lng": -0.188281319708498}, "southwest": {"lat": 51.5144138697085, "lng": -0.190979280291502}}}, "name": "cmcsurveyors", "place_id": "ChIJYQc5OgAQdkgRBXjUR6G5qnY", "types": ["point_of_interest", "establishment"]}, "ChIJs7mOWVMFdkgR6k-5qhUW_3U": {"geometry": {"location": {"lat": 51.5156889, "lng": -0.1900649}, "viewport": {"northeast": {"lat": 51.5170533302915, "lng": -0.188621369708498}, "southwest": {"lat": 51.5143553697085, "lng": -0.191319330291502}}}, "name": "Wake Up", "place_id": "ChIJs7mOWVMFdkgR6k-5qhUW_3U", "types": ["point_of_interest", "establishment"]}, "ChIJ1az2DQAQdkgR28xWA2PgRjQ": {"geometry": {"location": {"lat": 51.51580000000001, "lng": -0.1897851}, "viewport": {"northeast": {"lat": 51.5170832802915, "lng": -0.188381269708498}, "southwest": {"lat": 51.5143853197085, "lng": -0.191079230291502}}}, "name": "Western Union", "place_id": "ChIJ1az2DQAQdkgR28xWA2PgRjQ", "types": ["finance", "point_of_interest", "establishment"]}, "ChIJz7RTMAAQdkgRRVWioXNQqpw": {"geometry": {"location": {"lat": 51.5156442, "lng": -0.1904277}, "viewport": {"northeast": {"lat": 51.51694743029149, "lng": -0.1890654697084979}, "southwest": {"lat": 51.5142494697085, "lng": -0.191763430291502}}}, "name": "InsideOut London Ltd.", "place_id": "ChIJz7RTMAAQdkgRRVWioXNQqpw", "types": ["plumber", "general_contractor", "point_of_interest", "establishment"]}, "ChIJ-5AxMAAQdkgR1-VKpcHB7WI": {"geometry": {"location": {"lat": 51.5156445, "lng": -0.1904337}, "viewport": {"northeast": {"lat": 51.5169472802915, "lng": -0.1890713697084979}, "southwest": {"lat": 51.5142493197085, "lng": -0.191769330291502}}}, "name": "Al Saqi Book Store", "place_id": "ChIJ-5AxMAAQdkgR1-VKpcHB7WI", "types": ["book_store", "point_of_interest", "store", "establishment"], "rating": 4.5, "user_ratings_total": 121}, "ChIJKVy-0AEQdkgRSQ9w3HlsAR8": {"geometry": {"location": {"lat": 51.5158814, "lng": -0.1896636}, "viewport": {"northeast": {"lat": 51.5171118302915, "lng": -0.188281319708498}, "southwest": {"lat": 51.5144138697085, "lng": -0.190979280291502}}}, "name": "Instant Offices", "place_id": "ChIJKVy-0AEQdkgRSQ9w3HlsAR8", "types": ["real_estate_agency", "point_of_interest", "establishment"]}, "ChIJtYPtPAAQdkgRvLjtZ4tbh64": {"geometry": {"location": {"lat": 51.5158678, "lng": -0.1896462}, "viewport": {"northeast": {"lat": 51.5171032302915, "lng": -0.188224219708498}, "southwest": {"lat": 51.5144052697085, "lng": -0.190922180291502}}}, "name": "Westbourne Property London", "place_id": "ChIJtYPtPAAQdkgRvLjtZ4tbh64", "types": ["real_estate_agency", "point_of_interest", "establishment"]}, "ChIJKccnIwAQdkgRg6bIpuwAOe0": {"geometry": {"location": {"lat": 51.51556040000001, "lng": -0.1896543}, "viewport": {"northeast": {"lat": 51.5169461302915, "lng": -0.188315819708498}, "southwest": {"lat": 51.5142481697085, "lng": -0.191013780291502}}}, "name": "Lokkanta", "place_id": "ChIJKccnIwAQdkgRg6bIpuwAOe0", "types": ["bar", "restaurant", "food", "point_of_interest", "establishment"], "rating": 4.5, "user_ratings_total": 429}, "ChIJBScuPAAQdkgRJ-QXobzR8To": {"geometry": {"location": {"lat": 51.51580380000001, "lng": -0.1895474}, "viewport": {"northeast": {"lat": 51.5170740802915, "lng": -0.188227819708498}, "southwest": {"lat": 51.5143761197085, "lng": -0.190925780291502}}}, "name": "TAB X TAB", "place_id": "ChIJBScuPAAQdkgRJ-QXobzR8To", "types": ["restaurant", "cafe", "bar", "food", "point_of_interest", "establishment"], "rating": 4.5, "user_ratings_total": 433}, "ChIJq6qqqm8FdkgRQo32Rzo_THs": {"geometry": {"location": {"lat": 51.5159387, "lng": -0.1907395}, "viewport": {"northeast": {"lat": 51.5172809302915, "lng": -0.189436719708498}, "southwest": {"lat": 51.5145829697085, "lng": -0.192134680291502}}}, "name": "Skene Catling de la Pena", "place_id": "ChIJq6qqqm8FdkgRQo32Rzo_THs", "types": ["point_of_interest", "establishment"], "rating": 5, "user_ratings_total": 1}, "ChIJF1DyIwAQdkgR39l4qU-t-kU": {"geometry": {"location": {"lat": 51.51531869999999, "lng": -0.1896231}, "viewport": {"northeast": {"lat": 51.51662608029149, "lng": -0.188253119708498}, "southwest": {"lat": 51.5139281197085, "lng": -0.190951080291502}}}, "name": "Uniqlean", "place_id": "ChIJF1DyIwAQdkgR39l4qU-t-kU", "types": ["point_of_interest", "establishment"], "rating": 4.7, "user_ratings_total": 3}, "ChIJIRtwIgAQdkgRUuZaONZxl2g": {"geometry": {"location": {"lat": 51.51531869999999, "lng": -0.1896231}, "viewport": {"northeast": {"lat": 51.51662608029149, "lng": -0.188253119708498}, "southwest": {"lat": 51.5139281197085, "lng": -0.190951080291502}}}, "name": "Uniqletts", "place_id": "ChIJIRtwIgAQdkgRUuZaONZxl2g", "types": ["real_estate_agency", "point_of_interest", "establishment"], "rating": 3, "user_ratings_total": 4}, "ChIJMZGFGAAQdkgRk7CwjQC_K_0": {"geometry": {"location": {"lat": 51.51539040000001, "lng": -0.189474}, "viewport": {"northeast": {"lat": 51.5166732302915, "lng": -0.188102169708498}, "southwest": {"lat": 51.5139752697085, "lng": -0.190800130291502}}}, "name": "Peverel", "place_id": "ChIJMZGFGAAQdkgRk7CwjQC_K_0", "types": ["point_of_interest", "establishment"]}, "ChIJMxnbLQAQdkgR62_8-VIhz4s": {"geometry": {"location": {"lat": 51.5153986, "lng": -0.1906657}, "viewport": {"northeast": {"lat": 51.5168099802915, "lng": -0.189334419708498}, "southwest": {"lat": 51.5141120197085, "lng": -0.192032380291502}}}, "name": "Costa Coffee", "place_id": "ChIJMxnbLQAQdkgR62_8-VIhz4s", "types": ["cafe", "food", "point_of_interest", "store", "establishment"], "rating": 4.2, "user_ratings_total": 174}, "ChIJYQc5OgAQdkgR9WF0GxBoPmc": {"geometry": {"location": {"lat": 51.51570239999999, "lng": -0.1902051}, "viewport": {"northeast": {"lat": 51.51706033029149, "lng": -0.188691569708498}, "southwest": {"lat": 51.51436236970849, "lng": -0.191389530291502}}}, "name": "BoConcept Notting Hill", "place_id": "ChIJYQc5OgAQdkgR9WF0GxBoPmc", "types": ["furniture_store", "home_goods_store", "point_of_interest", "store", "establishment"], "rating": 4.3, "user_ratings_total": 7}, "ChIJs-6Z2gEQdkgRp1a6huWSlKk": {"geometry": {"location": {"lat": 51.515849, "lng": -0.189245}, "viewport": {"northeast": {"lat": 51.5171171802915, "lng": -0.187871669708498}, "southwest": {"lat": 51.5144192197085, "lng": -0.190569630291502}}}, "name": "Electrical Wholesalers", "place_id": "ChIJs-6Z2gEQdkgRp1a6huWSlKk", "types": ["home_goods_store", "point_of_interest", "store", "establishment"], "rating": 3.6, "user_ratings_total": 22}, "ChIJKccnIwAQdkgRUXiTCFKzLmQ": {"geometry": {"location": {"lat": 51.5155938, "lng": -0.1893621}, "viewport": {"northeast": {"lat": 51.5169790302915, "lng": -0.188023469708498}, "southwest": {"lat": 51.5142810697085, "lng": -0.190721430291502}}}, "name": "Banana Tree Bayswater", "place_id": "ChIJKccnIwAQdkgRUXiTCFKzLmQ", "types": ["restaurant", "food", "point_of_interest", "establishment"], "rating": 4.2, "user_ratings_total": 879}, "ChIJjfdPJQAQdkgRDk5K1xwGR_k": {"geometry": {"location": {"lat": 51.51548199999999, "lng": -0.1902424}, "viewport": {"northeast": {"lat": 51.5168738302915, "lng": -0.188905819708498}, "southwest": {"lat": 51.5141758697085, "lng": -0.191603780291502}}}, "name": "Snowflake Luxury Gelato - Bayswater", "place_id": "ChIJjfdPJQAQdkgRDk5K1xwGR_k", "types": ["cafe", "food", "point_of_interest", "store", "establishment"], "rating": 4.1, "user_ratings_total": 441}, "ChIJQYdOMAAQdkgR6S1lF4ES9UI": {"geometry": {"location": {"lat": 51.5156442, "lng": -0.1904277}, "viewport": {"northeast": {"lat": 51.51694743029149, "lng": -0.1890654697084979}, "southwest": {"lat": 51.5142494697085, "lng": -0.191763430291502}}}, "name": "Hirsch Bedner Associates", "place_id": "ChIJQYdOMAAQdkgR6S1lF4ES9UI", "types": ["general_contractor", "point_of_interest", "establishment"], "rating": 4.7, "user_ratings_total": 6}, "ChIJKccnIwAQdkgRGSMCPIRQ4VI": {"geometry": {"location": {"lat": 51.5154454, "lng": -0.1906264}, "viewport": {"northeast": {"lat": 51.5168341302915, "lng": -0.189288919708498}, "southwest": {"lat": 51.5141361697085, "lng": -0.191986880291502}}}, "name": "HAIRJES", "place_id": "ChIJKccnIwAQdkgRGSMCPIRQ4VI", "types": ["hair_care", "point_of_interest", "establishment"], "rating": 4.9, "user_ratings_total": 143}, "ChIJKVoDPQAQdkgR8XbWANKjP4o": {"geometry": {"location": {"lat": 51.5156381, "lng": -0.1896864}, "viewport": {"northeast": {"lat": 51.51695343029149, "lng": -0.188327819708498}, "southwest": {"lat": 51.51425546970849, "lng": -0.191025780291502}}}, "name": "Queensway Westbourne Grove", "place_id": "ChIJKVoDPQAQdkgR8XbWANKjP4o", "types": ["transit_station", "point_of_interest", "establishment"]}, "ChIJBYO6OwAQdkgRe_k0SDp3Pco": {"geometry": {"location": {"lat": 51.5157482, "lng": -0.1900713}, "viewport": {"northeast": {"lat": 51.5171241302915, "lng": -0.188643469708498}, "southwest": {"lat": 51.5144261697085, "lng": -0.191341430291502}}}, "name": "Sociale Cafe", "place_id": "ChIJBYO6OwAQdkgRe_k0SDp3Pco", "types": ["cafe", "restaurant", "food", "point_of_interest", "store", "establishment"], "rating": 4.3, "user_ratings_total": 135}, "ChIJC1SaOwAQdkgRF9yMGtPAHKI": {"geometry": {"location": {"lat": 51.5158075, "lng": -0.190131}, "viewport": {"northeast": {"lat": 51.5171840302915, "lng": -0.188704219708498}, "southwest": {"lat": 51.5144860697085, "lng": -0.191402180291502}}}, "name": "Rackham Westbourne Grove", "place_id": "ChIJC1SaOwAQdkgRF9yMGtPAHKI", "types": ["general_contractor", "point_of_interest", "establishment"]}, "ChIJTxXlOgAQdkgR9eeNUft3AeY": {"geometry": {"location": {"lat": 51.5156268, "lng": -0.1902602}, "viewport": {"northeast": {"lat": 51.51694748029149, "lng": -0.188903469708498}, "southwest": {"lat": 51.5142495197085, "lng": -0.191601430291502}}}, "name": "Queensway", "place_id": "ChIJTxXlOgAQdkgR9eeNUft3AeY", "types": ["bus_station", "transit_station", "point_of_interest", "establishment"], "rating": 5, "user_ratings_total": 2}, "ChIJb0HGUFUFdkgR8x4gbjsWExw": {"geometry": {"location": {"lat": 51.5158668, "lng": -0.1898156}, "viewport": {"northeast": {"lat": 51.51711668029149, "lng": -0.188381269708498}, "southwest": {"lat": 51.5144187197085, "lng": -0.191079230291502}}}, "name": "Royal Mail Westbourne Grove Customer Service Point", "place_id": "ChIJb0HGUFUFdkgR8x4gbjsWExw", "types": ["post_office", "finance", "point_of_interest", "establishment"], "rating": 2.1, "user_ratings_total": 8}, "ChIJ80Wx6L0RdkgRlvCFHtykr8E": {"geometry": {"location": {"lat": 51.5158668, "lng": -0.1898156}, "viewport": {"northeast": {"lat": 51.51711668029149, "lng": -0.188381269708498}, "southwest": {"lat": 51.5144187197085, "lng": -0.191079230291502}}}, "name": "Westbourne Grove Customer Service Point", "place_id": "ChIJ80Wx6L0RdkgRlvCFHtykr8E", "types": ["point_of_interest", "establishment"], "rating": 3.2, "user_ratings_total": 30}, "ChIJr6pTJtARdkgRuEqijL2jVcE": {"geometry": {"location": {"lat": 51.51589449999999, "lng": -0.1902577}, "viewport": {"northeast": {"lat": 51.5172538802915, "lng": -0.188786619708498}, "southwest": {"lat": 51.5145559197085, "lng": -0.191484580291502}}}, "name": "Westbourne Lofts", "place_id": "ChIJr6pTJtARdkgRuEqijL2jVcE", "types": ["point_of_interest", "establishment"]}, "ChIJBScuPAAQdkgR3JDzTREs_gQ": {"geometry": {"location": {"lat": 51.5157997, "lng": -0.1897398}, "viewport": {"northeast": {"lat": 51.5170831302915, "lng": -0.188381269708498}, "southwest": {"lat": 51.5143851697085, "lng": -0.191079230291502}}}, "name": "Paddington Man and Van Ltd", "place_id": "ChIJBScuPAAQdkgR3JDzTREs_gQ", "types": ["point_of_interest", "establishment"]}, "ChIJAQCQLAAQdkgRtZQfmL4-1fc": {"geometry": {"location": {"lat": 51.51565530000001, "lng": -0.190373}, "viewport": {"northeast": {"lat": 51.5169577802915, "lng": -0.189010819708498}, "southwest": {"lat": 51.51425981970851, "lng": -0.191708780291502}}}, "name": "Rent Simple", "place_id": "ChIJAQCQLAAQdkgRtZQfmL4-1fc", "types": ["point_of_interest", "establishment"]}, "ChIJheWrOgAQdkgRKN_o5vwESf0": {"geometry": {"location": {"lat": 51.51552899999999, "lng": -0.19024}, "viewport": {"northeast": {"lat": 51.5168873802915, "lng": -0.188893769708498}, "southwest": {"lat": 51.5141894197085, "lng": -0.191591730291502}}}, "name": "Santander Cycles", "place_id": "ChIJheWrOgAQdkgRKN_o5vwESf0", "types": ["point_of_interest", "establishment"]}, "ChIJcUR_fDURdkgRWBGFt608rCE": {"geometry": {"location": {"lat": 51.51549319999999, "lng": -0.1900554}, "viewport": {"northeast": {"lat": 51.5168897802915, "lng": -0.188720169708498}, "southwest": {"lat": 51.5141918197085, "lng": -0.191418130291502}}}, "name": "Psycle", "place_id": "ChIJcUR_fDURdkgRWBGFt608rCE", "types": ["gym", "health", "point_of_interest", "establishment"], "rating": 3.6, "user_ratings_total": 12}, "ChIJKyJzh8URdkgRGnt1q3GpO4g": {"geometry": {"location": {"lat": 51.51571389999999, "lng": -0.1895842}, "viewport": {"northeast": {"lat": 51.51702978029149, "lng": -0.1882259197084979}, "southwest": {"lat": 51.5143318197085, "lng": -0.190923880291502}}}, "name": "Bicycle Rack", "place_id": "ChIJKyJzh8URdkgRGnt1q3GpO4g", "types": ["point_of_interest", "establishment"]}, "ChIJIRtwIgAQdkgRxsIhnEK5iVY": {"geometry": {"location": {"lat": 51.5154723, "lng": -0.1902684}, "viewport": {"northeast": {"lat": 51.5166974302915, "lng": -0.188591969708498}, "southwest": {"lat": 51.5139994697085, "lng": -0.191289930291502}}}, "name": "Inverness Properties UK ltd", "place_id": "ChIJIRtwIgAQdkgRxsIhnEK5iVY", "types": ["point_of_interest", "establishment"], "rating": 4, "user_ratings_total": 20}, "ChIJKccnIwAQdkgRehQjSA8UzTY": {"geometry": {"location": {"lat": 51.5155148, "lng": -0.1896941}, "viewport": {"northeast": {"lat": 51.51692148029149, "lng": -0.188361319708498}, "southwest": {"lat": 51.51422351970849, "lng": -0.191059280291502}}}, "name": "\u0627\u0644\u0627\u0643\u0627\u062f\u064a\u0645\u064a\u0629 \u0627\u0644\u0639\u0627\u0644\u0645\u064a\u0629 \u0644\u0644\u062a\u0623\u0647\u064a\u0644 \u0627\u0644\u0642\u0631\u0622\u0646\u064a", "place_id": "ChIJKccnIwAQdkgRehQjSA8UzTY", "types": ["school", "point_of_interest", "establishment"]}, "ChIJ5USgo68RdkgRLsPggWyPIAA": {"geometry": {"location": {"lat": 51.515511, "lng": -0.189684}, "viewport": {"northeast": {"lat": 51.5169200802915, "lng": -0.188351869708498}, "southwest": {"lat": 51.5142221197085, "lng": -0.191049830291502}}}, "name": "Jump Start My Car Paddington", "place_id": "ChIJ5USgo68RdkgRLsPggWyPIAA", "types": ["car_repair", "point_of_interest", "establishment"]}, "ChIJh1aSCAIQdkgRhLZDeLdDq3A": {"geometry": {"location": {"lat": 51.5154611, "lng": -0.190351}, "viewport": {"northeast": {"lat": 51.5168571802915, "lng": -0.189015619708498}, "southwest": {"lat": 51.5141592197085, "lng": -0.191713580291502}}}, "name": "JOE & THE JUICE", "place_id": "ChIJh1aSCAIQdkgRhLZDeLdDq3A", "types": ["meal_takeaway", "cafe", "restaurant", "food", "point_of_interest", "store", "establishment"], "rating": 3.7, "user_ratings_total": 108}, "ChIJSztqrUMRdkgRrigayVRIc2o": {"geometry": {"location": {"lat": 51.5159589, "lng": -0.1895034}, "viewport": {"northeast": {"lat": 51.5171601802915, "lng": -0.188112969708498}, "southwest": {"lat": 51.51446221970851, "lng": -0.190810930291502}}}, "name": "Inside Outside Builders", "place_id": "ChIJSztqrUMRdkgRrigayVRIc2o", "types": ["point_of_interest", "establishment"]}, "ChIJs-kV6o8RdkgRzbKEMkmp7To": {"geometry": {"location": {"lat": 51.5153938, "lng": -0.1895349}, "viewport": {"northeast": {"lat": 51.5166710802915, "lng": -0.188161169708498}, "southwest": {"lat": 51.5139731197085, "lng": -0.190859130291502}}}, "name": "Gifthis!", "place_id": "ChIJs-kV6o8RdkgRzbKEMkmp7To", "types": ["point_of_interest", "store", "establishment"]}, "ChIJee7vPwAQdkgRjNVRy9tuaQI": {"geometry": {"location": {"lat": 51.51612420000001, "lng": -0.1895767}, "viewport": {"northeast": {"lat": 51.5174881302915, "lng": -0.188183169708498}, "southwest": {"lat": 51.5147901697085, "lng": -0.190881130291502}}}, "name": "Dovile Antusaite Sostakas\u200b", "place_id": "ChIJee7vPwAQdkgRjNVRy9tuaQI", "types": ["point_of_interest", "establishment"]}, "ChIJzdAgKXoRdkgRaT57qJ-k-94": {"geometry": {"location": {"lat": 51.51526940000001, "lng": -0.1898261}, "viewport": {"northeast": {"lat": 51.5165825302915, "lng": -0.188374969708498}, "southwest": {"lat": 51.5138845697085, "lng": -0.191072930291502}}}, "name": "Compass House", "place_id": "ChIJzdAgKXoRdkgRaT57qJ-k-94", "types": ["point_of_interest", "establishment"]}, "ChIJKccnIwAQdkgR3Lt47kfgsm8": {"geometry": {"location": {"lat": 51.515438, "lng": -0.1906986}, "viewport": {"northeast": {"lat": 51.51682633029149, "lng": -0.189363619708498}, "southwest": {"lat": 51.5141283697085, "lng": -0.192061580291502}}}, "name": "Nashi Pharmacy", "place_id": "ChIJKccnIwAQdkgR3Lt47kfgsm8", "types": ["pharmacy", "health", "point_of_interest", "store", "establishment"], "rating": 3.8, "user_ratings_total": 20}, "ChIJAa9dIgAQdkgRILUFNj-AxzI": {"geometry": {"location": {"lat": 51.51531869999999, "lng": -0.1896231}, "viewport": {"northeast": {"lat": 51.51662608029149, "lng": -0.188253119708498}, "southwest": {"lat": 51.5139281197085, "lng": -0.190951080291502}}}, "name": "Enterprise Rentals Ltd", "place_id": "ChIJAa9dIgAQdkgRILUFNj-AxzI", "types": ["point_of_interest", "establishment"]}, "ChIJAa9dIgAQdkgRyN-VCVBcs9k": {"geometry": {"location": {"lat": 51.51531869999999, "lng": -0.1896231}, "viewport": {"northeast": {"lat": 51.51662608029149, "lng": -0.188253119708498}, "southwest": {"lat": 51.5139281197085, "lng": -0.190951080291502}}}, "name": "Laga", "place_id": "ChIJAa9dIgAQdkgRyN-VCVBcs9k", "types": ["cafe", "food", "point_of_interest", "store", "establishment"]}, "ChIJq6ouEgAQdkgRWNFbgNVUrOY": {"geometry": {"location": {"lat": 51.5153256, "lng": -0.1895967}, "viewport": {"northeast": {"lat": 51.5168292302915, "lng": -0.188291119708498}, "southwest": {"lat": 51.5141312697085, "lng": -0.1909890802915021}}}, "name": "Brick House", "place_id": "ChIJq6ouEgAQdkgRWNFbgNVUrOY", "types": ["restaurant", "food", "point_of_interest", "establishment"]}, "ChIJAQD0IwAQdkgRt_Pb4Ybqhgo": {"geometry": {"location": {"lat": 51.5152446, "lng": -0.1898663}, "viewport": {"northeast": {"lat": 51.5165790302915, "lng": -0.188393219708498}, "southwest": {"lat": 51.5138810697085, "lng": -0.191091180291502}}}, "name": "Compton & Woodhouse", "place_id": "ChIJAQD0IwAQdkgRt_Pb4Ybqhgo", "types": ["store", "point_of_interest", "establishment"]}, "ChIJtddCC4cRdkgRK_YniBWye6Q": {"geometry": {"location": {"lat": 51.51562379999999, "lng": -0.1908482}, "viewport": {"northeast": {"lat": 51.51696998029149, "lng": -0.189446419708498}, "southwest": {"lat": 51.5142720197085, "lng": -0.192144380291502}}}, "name": "Chinese Massage in Bayswater Queensway", "place_id": "ChIJtddCC4cRdkgRK_YniBWye6Q", "types": ["spa", "point_of_interest", "establishment"]}, "ChIJL_Vn4EsRdkgRKQReK0z8nRM": {"geometry": {"location": {"lat": 51.51562379999999, "lng": -0.1908482}, "viewport": {"northeast": {"lat": 51.51696998029149, "lng": -0.189446419708498}, "southwest": {"lat": 51.5142720197085, "lng": -0.192144380291502}}}, "name": "Han Sen", "place_id": "ChIJL_Vn4EsRdkgRKQReK0z8nRM", "types": ["health", "point_of_interest", "establishment"]}, "ChIJVf_389kRdkgRrX5tmq_evPk": {"geometry": {"location": {"lat": 51.51540350000001, "lng": -0.1906682}, "viewport": {"northeast": {"lat": 51.51681238029151, "lng": -0.189336169708498}, "southwest": {"lat": 51.51411441970851, "lng": -0.192034130291502}}}, "name": "Ved Beauty - Westbourne Grove", "place_id": "ChIJVf_389kRdkgRrX5tmq_evPk", "types": ["beauty_salon", "point_of_interest", "establishment"], "rating": 5, "user_ratings_total": 1}, "ChIJ_QlbUV8RdkgRRynCxu_jZwg": {"geometry": {"location": {"lat": 51.51540350000001, "lng": -0.1906682}, "viewport": {"northeast": {"lat": 51.51681238029151, "lng": -0.189336169708498}, "southwest": {"lat": 51.51411441970851, "lng": -0.192034130291502}}}, "name": "Harly Beauty", "place_id": "ChIJ_QlbUV8RdkgRRynCxu_jZwg", "types": ["beauty_salon", "point_of_interest", "establishment"], "rating": 5, "user_ratings_total": 1}, "ChIJvyToho4RdkgRNewFTE-UJ4Y": {"geometry": {"location": {"lat": 51.5155829, "lng": -0.189259}, "viewport": {"northeast": {"lat": 51.5169786302915, "lng": -0.187926069708498}, "southwest": {"lat": 51.5142806697085, "lng": -0.190624030291502}}}, "name": "Grilandia", "place_id": "ChIJvyToho4RdkgRNewFTE-UJ4Y", "types": ["restaurant", "food", "point_of_interest", "establishment"], "rating": 4.6, "user_ratings_total": 251}, "ChIJm-P_BPIRdkgRJ0Ny9MfIxto": {"geometry": {"location": {"lat": 51.51561150000001, "lng": -0.1892425}, "viewport": {"northeast": {"lat": 51.5169944302915, "lng": -0.187957769708498}, "southwest": {"lat": 51.5142964697085, "lng": -0.190655730291502}}}, "name": "CanConC", "place_id": "ChIJm-P_BPIRdkgRJ0Ny9MfIxto", "types": ["point_of_interest", "establishment"]}, "ChIJFXQtxQEQdkgR_GUXBh6xg0M": {"geometry": {"location": {"lat": 51.5156557, "lng": -0.1908817}, "viewport": {"northeast": {"lat": 51.5169873802915, "lng": -0.189469069708498}, "southwest": {"lat": 51.5142894197085, "lng": -0.192167030291502}}}, "name": "SWO & Co", "place_id": "ChIJFXQtxQEQdkgR_GUXBh6xg0M", "types": ["real_estate_agency", "point_of_interest", "establishment"], "rating": 3, "user_ratings_total": 2}, "ChIJtUClGAAQdkgR-96oJkFoiCY": {"geometry": {"location": {"lat": 51.51522840000001, "lng": -0.1898431}, "viewport": {"northeast": {"lat": 51.5165670302915, "lng": -0.188382569708498}, "southwest": {"lat": 51.5138690697085, "lng": -0.191080530291502}}}, "name": "London Detectives", "place_id": "ChIJtUClGAAQdkgR-96oJkFoiCY", "types": ["point_of_interest", "establishment"]}, "ChIJNzcec9kRdkgRCD2yqE2-rMw": {"geometry": {"location": {"lat": 51.5158019, "lng": -0.1891962}, "viewport": {"northeast": {"lat": 51.5170955802915, "lng": -0.187830569708498}, "southwest": {"lat": 51.5143976197085, "lng": -0.190528530291502}}}, "name": "GAIL's Bakery Westbourne Grove", "place_id": "ChIJNzcec9kRdkgRCD2yqE2-rMw", "types": ["bakery", "meal_delivery", "cafe", "restaurant", "food", "point_of_interest", "store", "establishment"], "rating": 4.4, "user_ratings_total": 202},