{"E00023501": {"ChIJlTMmt8sadkgRttClKJI-SXg": {"geometry": {"location": {"lat": 51.51850190000126, "lng": -0.1609926499845238}, "viewport": {"northeast": {"lat": 51.5198508802915, "lng": -0.159643669708498}, "southwest": {"lat": 51.5171529197085, "lng": -0.162341630291502}}}, "name": "Bryanston Square", "place_id": "ChIJlTMmt8sadkgRttClKJI-SXg", "types": ["route"]}, "ChIJ_3AvvssadkgRi_yuhI1jh8w": {"geometry": {"location": {"lat": 51.518639, "lng": -0.160141}, "viewport": {"northeast": {"lat": 51.5200099802915, "lng": -0.158668669708498}, "southwest": {"lat": 51.5173120197085, "lng": -0.161366630291502}}}, "name": "Anthony Sinclair", "place_id": "ChIJ_3AvvssadkgRi_yuhI1jh8w", "types": ["point_of_interest", "establishment"], "rating": 4.9, "user_ratings_total": 9}, "ChIJGTKwlcsadkgRje5F_BVSBRs": {"geometry": {"location": {"lat": 51.5186501, "lng": -0.1600871}, "viewport": {"northeast": {"lat": 51.5200162302915, "lng": -0.1586420697084979}, "southwest": {"lat": 51.5173182697085, "lng": -0.161340030291502}}}, "name": "Mr Fish", "place_id": "ChIJGTKwlcsadkgRje5F_BVSBRs", "types": ["clothing_store", "point_of_interest", "store", "establishment"]}, "ChIJb4MM7csadkgRnOJv-H8FW1c": {"geometry": {"location": {"lat": 51.5185814, "lng": -0.1599499000000001}, "viewport": {"northeast": {"lat": 51.51993838029149, "lng": -0.158554969708498}, "southwest": {"lat": 51.51724041970849, "lng": -0.161252930291502}}}, "name": "Knowledge Tree Training", "place_id": "ChIJb4MM7csadkgRnOJv-H8FW1c", "types": ["point_of_interest", "establishment"], "rating": 4.9, "user_ratings_total": 128}, "ChIJI25Vx8sadkgR1rfod6SzYto": {"geometry": {"location": {"lat": 51.5188442, "lng": -0.1604862}, "viewport": {"northeast": {"lat": 51.52014838029151, "lng": -0.159117369708498}, "southwest": {"lat": 51.51745041970851, "lng": -0.1618153302915021}}}, "name": "Workshop CJ Wood Architects", "place_id": "ChIJI25Vx8sadkgR1rfod6SzYto", "types": ["point_of_interest", "establishment"]}, "ChIJg3S6u8sadkgRww80_kMdtZI": {"geometry": {"location": {"lat": 51.51865509999999, "lng": -0.160605}, "viewport": {"northeast": {"lat": 51.5200377802915, "lng": -0.159270869708498}, "southwest": {"lat": 51.5173398197085, "lng": -0.161968830291502}}}, "name": "Embassy of Switzerland", "place_id": "ChIJg3S6u8sadkgRww80_kMdtZI", "types": ["embassy", "point_of_interest", "establishment"], "rating": 4.5, "user_ratings_total": 87}, "ChIJZcWNwMsadkgRtsRFLebuzvU": {"geometry": {"location": {"lat": 51.5189055, "lng": -0.1603317}, "viewport": {"northeast": {"lat": 51.5202877302915, "lng": -0.158797519708498}, "southwest": {"lat": 51.51758976970851, "lng": -0.1614954802915021}}}, "name": "eRight", "place_id": "ChIJZcWNwMsadkgRtsRFLebuzvU", "types": ["point_of_interest", "establishment"]}, "ChIJXZDswMsadkgR9IufUY0WNrQ": {"geometry": {"location": {"lat": 51.5188851, "lng": -0.1601824}, "viewport": {"northeast": {"lat": 51.5202545802915, "lng": -0.158712219708498}, "southwest": {"lat": 51.51755661970851, "lng": -0.1614101802915021}}}, "name": "Business Sweden", "place_id": "ChIJXZDswMsadkgR9IufUY0WNrQ", "types": ["point_of_interest", "establishment"], "rating": 4.5, "user_ratings_total": 2}, "ChIJeRkrussadkgR9aIYij2eLl4": {"geometry": {"location": {"lat": 51.51849970000001, "lng": -0.1606667}, "viewport": {"northeast": {"lat": 51.5199497302915, "lng": -0.159362469708498}, "southwest": {"lat": 51.5172517697085, "lng": -0.162060430291502}}}, "name": "Swiss Cultural Fund UK", "place_id": "ChIJeRkrussadkgR9aIYij2eLl4", "types": ["point_of_interest", "establishment"]}, "ChIJj8zeg_8bdkgRTW7sw5npIQg": {"geometry": {"location": {"lat": 51.51820470000001, "lng": -0.1606906}, "viewport": {"northeast": {"lat": 51.5195398302915, "lng": -0.159418219708498}, "southwest": {"lat": 51.5168418697085, "lng": -0.162116180291502}}}, "name": "Siva Estates Ltd", "place_id": "ChIJj8zeg_8bdkgRTW7sw5npIQg", "types": ["real_estate_agency", "point_of_interest", "establishment"]}, "ChIJXZDswMsadkgRT3YOhH2s_Ko": {"geometry": {"location": {"lat": 51.5189, "lng": -0.1604391}, "viewport": {"northeast": {"lat": 51.5202913802915, "lng": -0.158854169708498}, "southwest": {"lat": 51.5175934197085, "lng": -0.161552130291502}}}, "name": "The Swedish Chamber of Commerce for the UK", "place_id": "ChIJXZDswMsadkgRT3YOhH2s_Ko", "types": ["point_of_interest", "establishment"]}, "ChIJs2wSlssadkgRGufgkpSUx3s": {"geometry": {"location": {"lat": 51.518468, "lng": -0.160033}, "viewport": {"northeast": {"lat": 51.5198371802915, "lng": -0.158572569708498}, "southwest": {"lat": 51.5171392197085, "lng": -0.161270530291502}}}, "name": "NEIL WILSON ARCHITECTS", "place_id": "ChIJs2wSlssadkgRGufgkpSUx3s", "types": ["point_of_interest", "establishment"]}, "ChIJybm2ossadkgRcoTWuaB6j2o": {"geometry": {"location": {"lat": 51.5181591, "lng": -0.1601781}, "viewport": {"northeast": {"lat": 51.5195110802915, "lng": -0.158812019708498}, "southwest": {"lat": 51.5168131197085, "lng": -0.161509980291502}}}, "name": "Millennium Enterprise", "place_id": "ChIJybm2ossadkgRcoTWuaB6j2o", "types": ["store", "point_of_interest", "establishment"]}, "ChIJlzGwlcsadkgR6ixqhFfF6iY": {"geometry": {"location": {"lat": 51.5186501, "lng": -0.1600871}, "viewport": {"northeast": {"lat": 51.5200162302915, "lng": -0.1586420697084979}, "southwest": {"lat": 51.5173182697085, "lng": -0.161340030291502}}}, "name": "Mason & Sons", "place_id": "ChIJlzGwlcsadkgR6ixqhFfF6iY", "types": ["clothing_store", "point_of_interest", "store", "establishment"], "rating": 5, "user_ratings_total": 12}, "ChIJz66Tt8sadkgRRIGaYfIwMMc": {"geometry": {"location": {"lat": 51.5187566, "lng": -0.1609091}, "viewport": {"northeast": {"lat": 51.52006783029149, "lng": -0.159543319708498}, "southwest": {"lat": 51.51736986970849, "lng": -0.162241280291502}}}, "name": "Stuart Barham", "place_id": "ChIJz66Tt8sadkgRRIGaYfIwMMc", "types": ["point_of_interest", "establishment"]}, "ChIJNcZ4mwAbdkgRG-d95j80kNM": {"geometry": {"location": {"lat": 51.5183692, "lng": -0.1599003}, "viewport": {"northeast": {"lat": 51.5197305802915, "lng": -0.158481819708498}, "southwest": {"lat": 51.51703261970851, "lng": -0.161179780291502}}}, "name": "Anthony Trollope Blue Plaque", "place_id": "ChIJNcZ4mwAbdkgRG-d95j80kNM", "types": ["point_of_interest", "establishment"], "rating": 5, "user_ratings_total": 1}, "ChIJuf_gv8sadkgRg__OAtuWn1M": {"geometry": {"location": {"lat": 51.5187689, "lng": -0.1601215}, "viewport": {"northeast": {"lat": 51.5201240802915, "lng": -0.158775119708498}, "southwest": {"lat": 51.5174261197085, "lng": -0.161473080291502}}}, "name": "Zipcar", "place_id": "ChIJuf_gv8sadkgRg__OAtuWn1M", "types": ["car_rental", "point_of_interest", "establishment"], "rating": 1, "user_ratings_total": 1}, "ChIJIxgGlcsadkgRp1aOKBi839A": {"geometry": {"location": {"lat": 51.5186928, "lng": -0.1599683}, "viewport": {"northeast": {"lat": 51.52004448029149, "lng": -0.158603769708498}, "southwest": {"lat": 51.51734651970849, "lng": -0.161301730291502}}}, "name": "Blue Plaque: John Lennon", "place_id": "ChIJIxgGlcsadkgRp1aOKBi839A", "types": ["point_of_interest", "establishment"], "rating": 4.6, "user_ratings_total": 86}, "ChIJ__-vwMsadkgRxmHGuvo2Eqw": {"geometry": {"location": {"lat": 51.5188818, "lng": -0.160432}, "viewport": {"northeast": {"lat": 51.52027328029151, "lng": -0.1588464697084979}, "southwest": {"lat": 51.51757531970851, "lng": -0.161544430291502}}}, "name": "VEO World Europe Ltd", "place_id": "ChIJ__-vwMsadkgRxmHGuvo2Eqw", "types": ["point_of_interest", "establishment"]}, "ChIJ__-vwMsadkgRFogWQzAkh1I": {"geometry": {"location": {"lat": 51.5188818, "lng": -0.160432}, "viewport": {"northeast": {"lat": 51.52027328029151, "lng": -0.1588464697084979}, "southwest": {"lat": 51.51757531970851, "lng": -0.161544430291502}}}, "name": "S\u00c4KER Self Storage Technology", "place_id": "ChIJ__-vwMsadkgRFogWQzAkh1I", "types": ["storage", "point_of_interest", "establishment"]}, "ChIJ__-vwMsadkgRl0jf_iq2Gow": {"geometry": {"location": {"lat": 51.5188818, "lng": -0.160432}, "viewport": {"northeast": {"lat": 51.52027328029151, "lng": -0.1588464697084979}, "southwest": {"lat": 51.51757531970851, "lng": -0.161544430291502}}}, "name": "Bizpart", "place_id": "ChIJ__-vwMsadkgRl0jf_iq2Gow", "types": ["point_of_interest", "establishment"]}, "ChIJ__-vwMsadkgRdfSsnb8o_2U": {"geometry": {"location": {"lat": 51.5188818, "lng": -0.160432}, "viewport": {"northeast": {"lat": 51.52027328029151, "lng": -0.1588464697084979}, "southwest": {"lat": 51.51757531970851, "lng": -0.161544430291502}}}, "name": "Zenicor Medical Systems UK", "place_id": "ChIJ__-vwMsadkgRdfSsnb8o_2U", "types": ["point_of_interest", "establishment"]}, "ChIJW-cJmvYFdkgR7TEYWU5iqpY": {"geometry": {"location": {"lat": 51.5188818, "lng": -0.160432}, "viewport": {"northeast": {"lat": 51.52027328029151, "lng": -0.1588464697084979}, "southwest": {"lat": 51.51757531970851, "lng": -0.161544430291502}}}, "name": "MARIA TIBBLIN LTD.", "place_id": "ChIJW-cJmvYFdkgR7TEYWU5iqpY", "types": ["general_contractor", "point_of_interest", "establishment"], "rating": 5, "user_ratings_total": 7}, "ChIJvciwwMsadkgRIYUliBXZw38": {"geometry": {"location": {"lat": 51.5189, "lng": -0.160439}, "viewport": {"northeast": {"lat": 51.52029133029149, "lng": -0.158854119708498}, "southwest": {"lat": 51.5175933697085, "lng": -0.161552080291502}}}, "name": "Handy Scandi Ltd", "place_id": "ChIJvciwwMsadkgRIYUliBXZw38", "types": ["point_of_interest", "establishment"]}, "ChIJfxERp8sadkgRi1DGlBNVAlY": {"geometry": {"location": {"lat": 51.51772126777916, "lng": -0.1606330321975764}, "viewport": {"northeast": {"lat": 51.51919790000007, "lng": -0.159273719708498}, "southwest": {"lat": 51.51624949999994, "lng": -0.161971680291502}}}, "name": "Bryanston Square", "place_id": "ChIJfxERp8sadkgRi1DGlBNVAlY", "types": ["route"]}, "ChIJXy7foMsadkgRfvcBPl8Qbcg": {"geometry": {"location": {"lat": 51.5176826, "lng": -0.1604003}, "viewport": {"northeast": {"lat": 51.5190138302915, "lng": -0.159149319708498}, "southwest": {"lat": 51.5163158697085, "lng": -0.161847280291502}}}, "name": "International Foundation for Greece", "place_id": "ChIJXy7foMsadkgRfvcBPl8Qbcg", "types": ["point_of_interest", "establishment"]}, "ChIJaXp5C8sadkgReaG8r-7OiIk": {"geometry": {"location": {"lat": 51.5171579, "lng": -0.1603541}, "viewport": {"northeast": {"lat": 51.51851338029151, "lng": -0.1589696697084979}, "southwest": {"lat": 51.51581541970851, "lng": -0.161667630291502}}}, "name": "DIDEKO", "place_id": "ChIJaXp5C8sadkgReaG8r-7OiIk", "types": ["finance", "point_of_interest", "establishment"], "rating": 5, "user_ratings_total": 1}, "ChIJu4N3C8sadkgRWVn69NcoqY0": {"geometry": {"location": {"lat": 51.5172531, "lng": -0.16018}, "viewport": {"northeast": {"lat": 51.5185826802915, "lng": -0.158938119708498}, "southwest": {"lat": 51.51588471970851, "lng": -0.161636080291502}}}, "name": "FOOT PORTRAIT", "place_id": "ChIJu4N3C8sadkgRWVn69NcoqY0", "types": ["point_of_interest", "establishment"], "rating": 5, "user_ratings_total": 1}, "ChIJu4N3C8sadkgRrRSoUHwpYs4": {"geometry": {"location": {"lat": 51.5172499, "lng": -0.16018}, "viewport": {"northeast": {"lat": 51.5185796302915, "lng": -0.158937419708498}, "southwest": {"lat": 51.51588166970851, "lng": -0.161635380291502}}}, "name": "Bryanston Square Residents Association Ltd", "place_id": "ChIJu4N3C8sadkgRrRSoUHwpYs4", "types": ["point_of_interest", "establishment"]}, "ChIJkS8SqMsadkgRmhsUm47CmmE": {"geometry": {"location": {"lat": 51.51769, "lng": -0.1610229}, "viewport": {"northeast": {"lat": 51.5190221302915, "lng": -0.159769969708498}, "southwest": {"lat": 51.5163241697085, "lng": -0.162467930291502}}}, "name": "Bryanston Square", "place_id": "ChIJkS8SqMsadkgRmhsUm47CmmE", "types": ["park", "point_of_interest", "establishment"], "rating": 4.1, "user_ratings_total": 85}, "ChIJq4zLn8sadkgR0Yu80Py5f98": {"geometry": {"location": {"lat": 51.51759020000001, "lng": -0.159936}, "viewport": {"northeast": {"lat": 51.5189450802915, "lng": -0.158553119708498}, "southwest": {"lat": 51.5162471197085, "lng": -0.161251080291502}}}, "name": "Dellart l.t.d.", "place_id": "ChIJq4zLn8sadkgR0Yu80Py5f98", "types": ["art_gallery", "point_of_interest", "establishment"]}, "ChIJwZhOocsadkgRIACZXjM8HoE": {"geometry": {"location": {"lat": 51.517799, "lng": -0.160447}, "viewport": {"northeast": {"lat": 51.51912963029151, "lng": -0.159199569708498}, "southwest": {"lat": 51.51643166970851, "lng": -0.161897530291502}}}, "name": "Zipcar", "place_id": "ChIJwZhOocsadkgRIACZXjM8HoE", "types": ["car_rental", "point_of_interest", "establishment"]}, "ChIJzzN3qssadkgRvSNoWy-BjiY": {"geometry": {"location": {"lat": 51.5175448, "lng": -0.1613361}, "viewport": {"northeast": {"lat": 51.51890773029149, "lng": -0.159907619708498}, "southwest": {"lat": 51.5162097697085, "lng": -0.162605580291502}}}, "name": "Richard & Mireia BARCELONA", "place_id": "ChIJzzN3qssadkgRvSNoWy-BjiY", "types": ["travel_agency", "point_of_interest", "establishment"]}, "ChIJk383EcsadkgRt3veg1rl128": {"geometry": {"location": {"lat": 51.51656025000487, "lng": -0.1606812500047191}, "viewport": {"northeast": {"lat": 51.5179092302915, "lng": -0.159332269708498}, "southwest": {"lat": 51.5152112697085, "lng": -0.162030230291502}}}, "name": "131 George St", "place_id": "ChIJk383EcsadkgRt3veg1rl128", "types": ["route"]}, "ChIJV-DOOMsadkgR0k0Wo2hpeok": {"geometry": {"location": {"lat": 51.515754, "lng": -0.160335}, "viewport": {"northeast": {"lat": 51.5171257302915, "lng": -0.158856569708498}, "southwest": {"lat": 51.5144277697085, "lng": -0.161554530291502}}}, "name": "Marble Arch Suites", "place_id": "ChIJV-DOOMsadkgR0k0Wo2hpeok", "types": ["lodging", "point_of_interest", "establishment"], "rating": 3.9, "user_ratings_total": 74}, "ChIJZV7gPssadkgRCV1MRnHUH4g": {"geometry": {"location": {"lat": 51.51597189999999, "lng": -0.1602876}, "viewport": {"northeast": {"lat": 51.51733133029149, "lng": -0.158874369708498}, "southwest": {"lat": 51.51463336970849, "lng": -0.161572330291502}}}, "name": "Carrus Group", "place_id": "ChIJZV7gPssadkgRCV1MRnHUH4g", "types": ["point_of_interest", "establishment"], "rating": 5, "user_ratings_total": 2}, "ChIJNec43MoadkgR_wcVDYwRFpQ": {"geometry": {"location": {"lat": 51.5162685, "lng": -0.1612565}, "viewport": {"northeast": {"lat": 51.51770648029149, "lng": -0.159947369708498}, "southwest": {"lat": 51.51500851970849, "lng": -0.162645330291502}}}, "name": "DSV Petroleum Limited", "place_id": "ChIJNec43MoadkgR_wcVDYwRFpQ", "types": ["point_of_interest", "establishment"]}, "ChIJAxVuszQFdkgRzXvQKVQuHws": {"geometry": {"location": {"lat": 51.515854, "lng": -0.160214}, "viewport": {"northeast": {"lat": 51.51721163029151, "lng": -0.158812019708498}, "southwest": {"lat": 51.51451366970851, "lng": -0.161509980291502}}}, "name": "Glinert Davis", "place_id": "ChIJAxVuszQFdkgRzXvQKVQuHws", "types": ["lawyer", "point_of_interest", "establishment"]}, "ChIJMS7qIM4adkgRmEfufrB2vlU": {"geometry": {"location": {"lat": 51.5159865, "lng": -0.1604383}, "viewport": {"northeast": {"lat": 51.5173569302915, "lng": -0.158957419708498}, "southwest": {"lat": 51.5146589697085, "lng": -0.161655380291502}}}, "name": "The Music Market/Arts and Media", "place_id": "ChIJMS7qIM4adkgRmEfufrB2vlU", "types": ["point_of_interest", "establishment"], "rating": 4.4, "user_ratings_total": 39}, "ChIJY-4kGssadkgR50dOtitIPjU": {"geometry": {"location": {"lat": 51.51663629999999, "lng": -0.1610121}, "viewport": {"northeast": {"lat": 51.51792913029149, "lng": -0.159601069708498}, "southwest": {"lat": 51.51523116970849, "lng": -0.162299030291502}}}, "name": "Wetherby Preparatory School", "place_id": "ChIJY-4kGssadkgR50dOtitIPjU", "types": ["secondary_school", "school", "point_of_interest", "establishment"], "rating": 4.3, "user_ratings_total": 8}, "ChIJp5TmPssadkgRo_DbPcd92Fk": {"geometry": {"location": {"lat": 51.51597, "lng": -0.160353}, "viewport": {"northeast": {"lat": 51.51733448029149, "lng": -0.158908769708498}, "southwest": {"lat": 51.5146365197085, "lng": -0.161606730291502}}}, "name": "Saltours International Ltd", "place_id": "ChIJp5TmPssadkgRo_DbPcd92Fk", "types": ["travel_agency", "point_of_interest", "establishment"], "rating": 5, "user_ratings_total": 1}, "ChIJp5TmPssadkgR1QNuedf8X48": {"geometry": {"location": {"lat": 51.5159799, "lng": -0.1604283}, "viewport": {"northeast": {"lat": 51.5173497802915, "lng": -0.158950769708498}, "southwest": {"lat": 51.5146518197085, "lng": -0.161648730291502}}}, "name": "Montagu Property Services", "place_id": "ChIJp5TmPssadkgR1QNuedf8X48", "types": ["point_of_interest", "establishment"], "rating": 4.5, "user_ratings_total": 2}, "ChIJQc0vP8sadkgRf-5mwrYfbAA": {"geometry": {"location": {"lat": 51.5159147, "lng": -0.1604264}, "viewport": {"northeast": {"lat": 51.5172865302915, "lng": -0.158936969708498}, "southwest": {"lat": 51.5145885697085, "lng": -0.161634930291502}}}, "name": "Khaleej Times", "place_id": "ChIJQc0vP8sadkgRf-5mwrYfbAA", "types": ["point_of_interest", "establishment"], "rating": 2, "user_ratings_total": 1}, "ChIJL4smPssadkgR7Vbcb9EaTlU": {"geometry": {"location": {"lat": 51.5161334, "lng": -0.1603167}, "viewport": {"northeast": {"lat": 51.5174889802915, "lng": -0.158925019708498}, "southwest": {"lat": 51.5147910197085, "lng": -0.161622980291502}}}, "name": "ubitricity Charging Station", "place_id": "ChIJL4smPssadkgR7Vbcb9EaTlU", "types": ["point_of_interest", "establishment"]}, "ChIJk8Z4P40bdkgRHOei8uWhZH4": {"geometry": {"location": {"lat": 51.51642380000001, "lng": -0.1607718}, "viewport": {"northeast": {"lat": 51.5178286302915, "lng": -0.1594477697084979}, "southwest": {"lat": 51.5151306697085, "lng": -0.162145730291502}}}, "name": "Theo school", "place_id": "ChIJk8Z4P40bdkgRHOei8uWhZH4", "types": ["school", "point_of_interest", "establishment"]}, "ChIJ2QLZFssadkgR4dFctiq4QhY": {"geometry": {"location": {"lat": 51.516487, "lng": -0.1606359}, "viewport": {"northeast": {"lat": 51.51785808029149, "lng": -0.159161669708498}, "southwest": {"lat": 51.5151601197085, "lng": -0.161859630291502}}}, "name": "Fox Parker & Sons", "place_id": "ChIJ2QLZFssadkgR4dFctiq4QhY", "types": ["real_estate_agency", "point_of_interest", "establishment"]}, "ChIJK7MYjN8bdkgRz8-a9Ye1BgM": {"geometry": {"location": {"lat": 51.5159865, "lng": -0.1604383}, "viewport": {"northeast": {"lat": 51.5173569302915, "lng": -0.158957419708498}, "southwest": {"lat": 51.5146589697085, "lng": -0.161655380291502}}}, "name": "Montagu Cleaning Services", "place_id": "ChIJK7MYjN8bdkgRz8-a9Ye1BgM", "types": ["laundry", "point_of_interest", "establishment"]}, "ChIJd_A9FcsadkgRYkDVv8MJyG8": {"geometry": {"location": {"lat": 51.5163565, "lng": -0.1601646}, "viewport": {"northeast": {"lat": 51.51770488029149, "lng": -0.158886519708498}, "southwest": {"lat": 51.51500691970849, "lng": -0.161584480291502}}}, "name": "C.M. Atif & Co. Solicitors", "place_id": "ChIJd_A9FcsadkgRYkDVv8MJyG8", "types": ["lawyer", "point_of_interest", "establishment"], "rating": 3.5, "user_ratings_total": 6}, "ChIJpenrFMsadkgRPxtSMnwMpTk": {"geometry": {"location": {"lat": 51.516442, "lng": -0.1602059}, "viewport": {"northeast": {"lat": 51.5177801802915, "lng": -0.158923369708498}, "southwest": {"lat": 51.5150822197085, "lng": -0.161621330291502}}}, "name": "ubitricity Charging Station", "place_id": "ChIJpenrFMsadkgRPxtSMnwMpTk", "types": ["point_of_interest", "establishment"]}, "ChIJBwwOmcwbdkgRdYyInz34kYw": {"geometry": {"location": {"lat": 51.51604249999999, "lng": -0.1600399}, "viewport": {"northeast": {"lat": 51.51737998029149, "lng": -0.158756119708498}, "southwest": {"lat": 51.51468201970849, "lng": -0.161454080291502}}}, "name": "Booking Supermarket", "place_id": "ChIJBwwOmcwbdkgRdYyInz34kYw", "types": ["travel_agency", "point_of_interest", "establishment"]}, "ChIJGYYz73UbdkgRkALEFnQnTn0": {"geometry": {"location": {"lat": 51.5162684, "lng": -0.1612564}, "viewport": {"northeast": {"lat": 51.5177064302915, "lng": -0.159948669708498}, "southwest": {"lat": 51.5150084697085, "lng": -0.162646630291502}}}, "name": "Wetherby School", "place_id": "ChIJGYYz73UbdkgRkALEFnQnTn0", "types": ["school", "point_of_interest", "establishment"]}, "ChIJNz3tCbMbdkgRVB5BREEo8Yg": {"geometry": {"location": {"lat": 51.51665010000001, "lng": -0.1604246}, "viewport": {"northeast": {"lat": 51.5179908302915, "lng": -0.159071969708498}, "southwest": {"lat": 51.5152928697085, "lng": -0.161769930291502}}}, "name": "William Pitt Byrne monument", "place_id": "ChIJNz3tCbMbdkgRVB5BREEo8Yg", "types": ["tourist_attraction", "point_of_interest", "establishment"], "rating": 5, "user_ratings_total": 2}, "ChIJi3mRIcsadkgRvEDXOTkSguo": {"geometry": {"location": {"lat": 51.5161064, "lng": -0.1612565}, "viewport": {"northeast": {"lat": 51.51761958029149, "lng": -0.159981319708498}, "southwest": {"lat": 51.5149216197085, "lng": -0.162679280291502}}}, "name": "RMD PROPERTIES", "place_id": "ChIJi3mRIcsadkgRvEDXOTkSguo", "types": ["point_of_interest", "establishment"]}, "ChIJvbHZHssadkgRe2JTPIIBPi0": {"geometry": {"location": {"lat": 51.5163875, "lng": -0.1612533}, "viewport": {"northeast": {"lat": 51.51777148029149, "lng": -0.159910169708498}, "southwest": {"lat": 51.51507351970849, "lng": -0.162608130291502}}}, "name": "Bryanston Court", "place_id": "ChIJvbHZHssadkgRe2JTPIIBPi0", "types": ["point_of_interest", "establishment"]}, "ChIJnQKRJMsadkgRKSUWuGPXodI": {"geometry": {"location": {"lat": 51.51583179999999, "lng": -0.1609523}, "viewport": {"northeast": {"lat": 51.51713753029149, "lng": -0.1598927697084979}, "southwest": {"lat": 51.51443956970849, "lng": -0.162590730291502}}}, "name": "Resilient Property Group", "place_id": "ChIJnQKRJMsadkgRKSUWuGPXodI", "types": ["finance", "point_of_interest", "establishment"]}, "ChIJn9MYhTIbdkgRDuhKoRcEuZA": {"geometry": {"location": {"lat": 51.5157676, "lng": -0.1604541}, "viewport": {"northeast": {"lat": 51.5171485302915, "lng": -0.158923369708498}, "southwest": {"lat": 51.5144505697085, "lng": -0.161621330291502}}}, "name": "Point Zero Builders", "place_id": "ChIJn9MYhTIbdkgRDuhKoRcEuZA", "types": ["point_of_interest", "establishment"]}, "ChIJ7y1p9TQbdkgRtr8YSvG9Tao": {"geometry": {"location": {"lat": 51.5157747, "lng": -0.1609154}, "viewport": {"northeast": {"lat": 51.5171883302915, "lng": -0.159169619708498}, "southwest": {"lat": 51.5144903697085, "lng": -0.161867580291502}}}, "name": "Montagu Builders", "place_id": "ChIJ7y1p9TQbdkgRtr8YSvG9Tao", "types": ["point_of_interest", "establishment"]}, "ChIJX_ZYXLobdkgRlzrE5eIX2eA": {"geometry": {"location": {"lat": 51.5157506, "lng": -0.1603335}, "viewport": {"northeast": {"lat": 51.5171223302915, "lng": -0.158855019708498}, "southwest": {"lat": 51.51442436970851, "lng": -0.161552980291502}}}, "name": "\u0641\u0646\u062f\u0642 \u0645\u0634\u0639\u0644 \u0627\u0644\u0634\u0631\u064a\u0641", "place_id": "ChIJX_ZYXLobdkgRlzrE5eIX2eA", "types": ["lodging", "point_of_interest", "establishment"]}, "ChIJH8NwK8sadkgRiIuZv3csahg": {"geometry": {"location": {"lat": 51.51511282579602, "lng": -0.1612772667859773}, "viewport": {"northeast": {"lat": 51.5164616802915, "lng": -0.159929019708498}, "southwest": {"lat": 51.51376371970851, "lng": -0.162626980291502}}}, "name": "24-20 Seymour Pl", "place_id": "ChIJH8NwK8sadkgRiIuZv3csahg", "types": ["route"]}, "ChIJ8ZQFMMsadkgRWZQo41cSV74": {"geometry": {"location": {"lat": 51.51549339999999, "lng": -0.1607113}, "viewport": {"northeast": {"lat": 51.51678673029149, "lng": -0.159338869708498}, "southwest": {"lat": 51.51408876970849, "lng": -0.162036830291502}}}, "name": "Berkeley Court Hotel", "place_id": "ChIJ8ZQFMMsadkgRWZQo41cSV74", "types": ["lodging", "point_of_interest", "establishment"], "rating": 2.1, "user_ratings_total": 132}, "ChIJiSLCS8sadkgRg4pjUJI9ypI": {"geometry": {"location": {"lat": 51.515335, "lng": -0.1600612}, "viewport": {"northeast": {"lat": 51.51669933029149, "lng": -0.158625369708498}, "southwest": {"lat": 51.5140013697085, "lng": -0.161323330291502}}}, "name": "Rose Court Hotel", "place_id": "ChIJiSLCS8sadkgRg4pjUJI9ypI", "types": ["lodging", "point_of_interest", "establishment"], "rating": 2.7, "user_ratings_total": 222}, "ChIJIxuVL8sadkgR1SoxTan6eS8": {"geometry": {"location": {"lat": 51.5154387, "lng": -0.1609023}, "viewport": {"northeast": {"lat": 51.5167441302915, "lng": -0.159527869708498}, "southwest": {"lat": 51.5140461697085, "lng": -0.162225830291502}}}, "name": "Hadleigh Hotel", "place_id": "ChIJIxuVL8sadkgR1SoxTan6eS8", "types": ["lodging", "point_of_interest", "establishment"], "rating": 2.9, "user_ratings_total": 22}, "ChIJM8sZTcsadkgRQS9OfWPKwMw": {"geometry": {"location": {"lat": 51.51512469999999, "lng": -0.1600656}, "viewport": {"northeast": {"lat": 51.5165140302915, "lng": -0.158590269708498}, "southwest": {"lat": 51.5138160697085, "lng": -0.161288230291502}}}, "name": "The Marble Arch London", "place_id": "ChIJM8sZTcsadkgRQS9OfWPKwMw", "types": ["lodging", "point_of_interest", "establishment"], "rating": 4.1, "user_ratings_total": 258}, "ChIJxZicLssadkgRdRQuvdNVXBI": {"geometry": {"location": {"lat": 51.51516419999999, "lng": -0.1608668}, "viewport": {"northeast": {"lat": 51.51659963029149, "lng": -0.159554269708498}, "southwest": {"lat": 51.5139016697085, "lng": -0.162252230291502}}}, "name": "The Sumner Hotel", "place_id": "ChIJxZicLssadkgRdRQuvdNVXBI", "types": ["lodging", "point_of_interest", "establishment"], "rating": 4.2, "user_ratings_total": 107}, "ChIJq98ILMsadkgRLDT5fBu1FhY": {"geometry": {"location": {"lat": 51.5151957, "lng": -0.1611716}, "viewport": {"northeast": {"lat": 51.5165931302915, "lng": -0.159843069708498}, "southwest": {"lat": 51.5138951697085, "lng": -0.162541030291502}}}, "name": "The Portman", "place_id": "ChIJq98ILMsadkgRLDT5fBu1FhY", "types": ["bar", "restaurant", "food", "point_of_interest", "establishment"], "rating": 4, "user_ratings_total": 449}, "ChIJywcwPNEEdkgRJmIevPk0kxM": {"geometry": {"location": {"lat": 51.5150412, "lng": -0.1610306}, "viewport": {"northeast": {"lat": 51.5163735802915, "lng": -0.1597827197084979}, "southwest": {"lat": 51.5136756197085, "lng": -0.162480680291502}}}, "name": "The One Hair Colour Specialist", "place_id": "ChIJywcwPNEEdkgRJmIevPk0kxM", "types": ["hair_care", "point_of_interest", "establishment"], "rating": 4.5, "user_ratings_total": 74}, "ChIJIYI-L8sadkgRTweXEO2VFrM": {"geometry": {"location": {"lat": 51.51540999999999, "lng": -0.1610803}, "viewport": {"northeast": {"lat": 51.5167141302915, "lng": -0.159712419708498}, "southwest": {"lat": 51.5140161697085, "lng": -0.162410380291502}}}, "name": "OYO Boston Court Hotel", "place_id": "ChIJIYI-L8sadkgRTweXEO2VFrM", "types": ["lodging", "point_of_interest", "establishment"], "rating": 2.7, "user_ratings_total": 130}, "ChIJiztxOssadkgRTNLqB_aa8uo": {"geometry": {"location": {"lat": 51.5155795, "lng": -0.1605815}, "viewport": {"northeast": {"lat": 51.5168426302915, "lng": -0.159195269708498}, "southwest": {"lat": 51.5141446697085, "lng": -0.161893230291502}}}, "name": "Twiggy", "place_id": "ChIJiztxOssadkgRTNLqB_aa8uo", "types": ["lodging", "point_of_interest", "establishment"], "rating": 2.2, "user_ratings_total": 6}, "ChIJq98ILMsadkgRCqeuekJB12A": {"geometry": {"location": {"lat": 51.5151906, "lng": -0.1611644}, "viewport": {"northeast": {"lat": 51.5165909302915, "lng": -0.159837069708498}, "southwest": {"lat": 51.5138929697085, "lng": -0.162535030291502}}}, "name": "The Meredith Group - Head Office", "place_id": "ChIJq98ILMsadkgRCqeuekJB12A", "types": ["point_of_interest", "establishment"]}, "ChIJiztxOssadkgRoyhLyJ5S6iw": {"geometry": {"location": {"lat": 51.51553719999999, "lng": -0.1604083}, "viewport": {"northeast": {"lat": 51.51683318029149, "lng": -0.1590439697084979}, "southwest": {"lat": 51.5141352197085, "lng": -0.161741930291502}}}, "name": "Shiatsu London", "place_id": "ChIJiztxOssadkgRoyhLyJ5S6iw", "types": ["point_of_interest", "establishment"], "rating": 5, "user_ratings_total": 1}, "ChIJg-Aff9QadkgRoyG6fg5cyhs": {"geometry": {"location": {"lat": 51.515536, "lng": -0.1604215}, "viewport": {"northeast": {"lat": 51.51683158029149, "lng": -0.159050369708498}, "southwest": {"lat": 51.5141336197085, "lng": -0.161748330291502}}}, "name": "Cara Beckinsale", "place_id": "ChIJg-Aff9QadkgRoyG6fg5cyhs", "types": ["health", "point_of_interest", "establishment"], "rating": 5, "user_ratings_total": 1}, "ChIJh9dvKssadkgRohrfjxkTeLU": {"geometry": {"location": {"lat": 51.5155372, "lng": -0.1604174}, "viewport": {"northeast": {"lat": 51.5168325302915, "lng": -0.1590482197084979}, "southwest": {"lat": 51.5141345697085, "lng": -0.161746180291502}}}, "name": "Lebon Osteopaths", "place_id": "ChIJh9dvKssadkgRohrfjxkTeLU", "types": ["health", "point_of_interest", "establishment"]}, "ChIJjfEjN8sadkgRmrpAE71oeOQ": {"geometry": {"location": {"lat": 51.51553699999999, "lng": -0.160408}, "viewport": {"northeast": {"lat": 51.5168331302915, "lng": -0.159043869708498}, "southwest": {"lat": 51.5141351697085, "lng": -0.161741830291502}}}, "name": "Chiro London - Marylebone", "place_id": "ChIJjfEjN8sadkgRmrpAE71oeOQ", "types": ["health", "point_of_interest", "establishment"], "rating": 5, "user_ratings_total": 35}, "ChIJEfJZN8sadkgRngSdAcGO-YU": {"geometry": {"location": {"lat": 51.5155372, "lng": -0.1604082}, "viewport": {"northeast": {"lat": 51.5168332302915, "lng": -0.159043919708498}, "southwest": {"lat": 51.5141352697085, "lng": -0.161741880291502}}}, "name": "Ghislaine Vaughan", "place_id": "ChIJEfJZN8sadkgRngSdAcGO-YU", "types": ["health", "point_of_interest", "establishment"]}, "ChIJiztxOssadkgR3LLDxxgMmAI": {"geometry": {"location": {"lat": 51.5155447, "lng": -0.1603717}, "viewport": {"northeast": {"lat": 51.5168399802915, "lng": -0.159025369708498}, "southwest": {"lat": 51.5141420197085, "lng": -0.161723330291502}}}, "name": "Power Richenda", "place_id": "ChIJiztxOssadkgR3LLDxxgMmAI", "types": ["health", "point_of_interest", "establishment"]}, "ChIJiztxOssadkgRRbPr2qhtACk": {"geometry": {"location": {"lat": 51.51551500000001, "lng": -0.16041}, "viewport": {"northeast": {"lat": 51.51682013029151, "lng": -0.159056119708498}, "southwest": {"lat": 51.51412216970851, "lng": -0.161754080291502}}}, "name": "The Berkeley Clinic", "place_id": "ChIJiztxOssadkgRRbPr2qhtACk", "types": ["doctor", "health", "point_of_interest", "establishment"], "rating": 4.6, "user_ratings_total": 29}, "ChIJKesAK8sadkgRL08GcpaxKVA": {"geometry": {"location": {"lat": 51.51505599999999, "lng": -0.161359}, "viewport": {"northeast": {"lat": 51.5164130802915, "lng": -0.159960569708498}, "southwest": {"lat": 51.5137151197085, "lng": -0.162658530291502}}}, "name": "Sovereign Union International PLC", "place_id": "ChIJKesAK8sadkgRL08GcpaxKVA", "types": ["bank", "finance", "point_of_interest", "establishment"]}, "ChIJgSm2KMsadkgRBnQg-Rhs5Bo": {"geometry": {"location": {"lat": 51.5154727, "lng": -0.161227}, "viewport": {"northeast": {"lat": 51.5168141802915, "lng": -0.159974969708498}, "southwest": {"lat": 51.5141162197085, "lng": -0.162672930291502}}}, "name": "Fratelli Greci Finest Foods Ltd", "place_id": "ChIJgSm2KMsadkgRBnQg-Rhs5Bo", "types": ["grocery_or_supermarket", "restaurant", "food", "point_of_interest", "store", "establishment"], "rating": 4.6, "user_ratings_total": 102}, "ChIJMYhIKssadkgRm4wVaQIHAvw": {"geometry": {"location": {"lat": 51.51515380000001, "lng": -0.1614049}, "viewport": {"northeast": {"lat": 51.51651123029151, "lng": -0.160004369708498}, "southwest": {"lat": 51.51381326970851, "lng": -0.162702330291502}}}, "name": "Marble Arch Paints Paint and Hardware Store", "place_id": "ChIJMYhIKssadkgRm4wVaQIHAvw", "types": ["hardware_store", "locksmith", "plumber", "home_goods_store", "general_contractor", "point_of_interest", "store", "establishment"], "rating": 4.1, "user_ratings_total": 21}, "ChIJATbXOssadkgRR-AYfek61xQ": {"geometry": {"location": {"lat": 51.5151358, "lng": -0.1614064}, "viewport": {"northeast": {"lat": 51.5164939302915, "lng": -0.160001619708498}, "southwest": {"lat": 51.5137959697085, "lng": -0.162699580291502}}}, "name": "ACE Funding", "place_id": "ChIJATbXOssadkgRR-AYfek61xQ", "types": ["general_contractor", "point_of_interest", "establishment"]}, "ChIJmbaRNcsadkgRZMgufUsW-fA": {"geometry": {"location": {"lat": 51.5151198, "lng": -0.1605948}, "viewport": {"northeast": {"lat": 51.51645638029149, "lng": -0.1593200197084979}, "southwest": {"lat": 51.51375841970849, "lng": -0.162017980291502}}}, "name": "Hotel 17 Condominium, London", "place_id": "ChIJmbaRNcsadkgRZMgufUsW-fA", "types": ["lodging", "point_of_interest", "establishment"], "rating": 3, "user_ratings_total": 1}, "ChIJ1_g-4rYbdkgRwcykPm80mAA": {"geometry": {"location": {"lat": 51.51519130000001, "lng": -0.1609282}, "viewport": {"northeast": {"lat": 51.51660938029151, "lng": -0.159608369708498}, "southwest": {"lat": 51.51391141970851, "lng": -0.162306330291502}}}, "name": "zZ Consultants UK", "place_id": "ChIJ1_g-4rYbdkgRwcykPm80mAA", "types": ["point_of_interest", "establishment"]}, "ChIJs7gQNssadkgR0qLC3RNDMks": {"geometry": {"location": {"lat": 51.51528500000001, "lng": -0.160141}, "viewport": {"northeast": {"lat": 51.5166576802915, "lng": -0.158657669708498}, "southwest": {"lat": 51.5139597197085, "lng": -0.161355630291502}}}, "name": "Cumberland Rooms", "place_id": "ChIJs7gQNssadkgR0qLC3RNDMks", "types": ["lodging", "point_of_interest", "establishment"]}, "ChIJby55NcsadkgRAId1C_kgLzo": {"geometry": {"location": {"lat": 51.5150506, "lng": -0.1601128}, "viewport": {"northeast": {"lat": 51.51634853029149, "lng": -0.158736369708498}, "southwest": {"lat": 51.5136505697085, "lng": -0.1614343302915021}}}, "name": "Zipcar", "place_id": "ChIJby55NcsadkgRAId1C_kgLzo", "types": ["car_rental", "point_of_interest", "establishment"]}, "ChIJ658WT7IbdkgR0zTZ2JfHNW4": {"geometry": {"location": {"lat": 51.5150412, "lng": -0.1610306}, "viewport": {"northeast": {"lat": 51.5163732802915, "lng": -0.159782619708498}, "southwest": {"lat": 51.5136753197085, "lng": -0.162480580291502}}}, "name": "Hairight.com", "place_id": "ChIJ658WT7IbdkgR0zTZ2JfHNW4", "types": ["hair_care", "health", "point_of_interest", "establishment"], "rating": 5, "user_ratings_total": 1}, "ChIJBWNW-04bdkgR3NhWT9iWuD4": {"geometry": {"location": {"lat": 51.5150412, "lng": -0.1610306}, "viewport": {"northeast": {"lat": 51.5163735802915, "lng": -0.1597827197084979}, "southwest": {"lat": 51.5136756197085, "lng": -0.162480680291502}}}, "name": "Otylia Roberts Waxing Centre", "place_id": "ChIJBWNW-04bdkgR3NhWT9iWuD4", "types": ["beauty_salon", "point_of_interest", "establishment"], "rating": 5, "user_ratings_total": 11}, "ChIJ1150SssadkgRshQTHHYUA98": {"geometry": {"location": {"lat": 51.51513419999999, "lng": -0.1600727}, "viewport": {"northeast": {"lat": 51.5165081302915, "lng": -0.1585887197084979}, "southwest": {"lat": 51.5138101697085, "lng": -0.161286680291502}}}, "name": "\u30b6 \u30de\u30fc\u30d6\u30eb \u30a2\u30fc\u30c1", "place_id": "ChIJ1150SssadkgRshQTHHYUA98", "types": ["lodging", "point_of_interest", "establishment"]}, "ChIJd5Tu4c8bdkgR9L5bNpFilLY": {"geometry": {"location": {"lat": 51.5151248, "lng": -0.1600673}, "viewport": {"northeast": {"lat": 51.5165007302915, "lng": -0.158583719708498}, "southwest": {"lat": 51.51380276970851, "lng": -0.161281680291502}}}, "name": "Connecting Services UK", "place_id": "ChIJd5Tu4c8bdkgR9L5bNpFilLY", "types": ["point_of_interest", "establishment"], "rating": 5, "user_ratings_total": 1}, "ChIJIyohtLEbdkgRWSVky3Hk5jc": {"geometry": {"location": {"lat": 51.5152054, "lng": -0.1610775}, "viewport": {"northeast": {"lat": 51.5166054802915, "lng": -0.159750069708498}, "southwest": {"lat": 51.5139075197085, "lng": -0.162448030291502}}}, "name": "movido Ltd", "place_id": "ChIJIyohtLEbdkgRWSVky3Hk5jc", "types": ["point_of_interest", "establishment"]}, "ChIJbdN-Ft4bdkgReKY1S5Vspo4": {"geometry": {"location": {"lat": 51.5151247, "lng": -0.1600655}, "viewport": {"northeast": {"lat": 51.51650068029151, "lng": -0.158582719708498}, "southwest": {"lat": 51.51380271970851, "lng": -0.1612806802915021}}}, "name": "Amouage Pavilion", "place_id": "ChIJbdN-Ft4bdkgReKY1S5Vspo4", "types": ["point_of_interest", "clothing_store", "store", "establishment"]}, "ChIJv3k-MMsadkgRZyNUNQNGr4w": {"geometry": {"location": {"lat": 51.5154647, "lng": -0.1607561}, "viewport": {"northeast": {"lat": 51.5167681302915, "lng": -0.159387319708498}, "southwest": {"lat": 51.5140701697085, "lng": -0.162085280291502}}}, "name": "ubitricity Charging Station", "place_id": "ChIJv3k-MMsadkgRZyNUNQNGr4w", "types": ["point_of_interest", "establishment"]}, "ChIJq6oFLMsadkgRRan2rq1gKcM": {"geometry": {"location": {"lat": 51.515195, "lng": -0.1611579}, "viewport": {"northeast": {"lat": 51.51659373029149, "lng": -0.159830419708498}, "southwest": {"lat": 51.51389576970849, "lng": -0.162528380291502}}}, "name": "MBC (Mayfair) Limited", "place_id": "ChIJq6oFLMsadkgRRan2rq1gKcM", "types": ["point_of_interest", "establishment"]}, "ChIJWWBqLMsadkgRMNgQny8l1vg": {"geometry": {"location": {"lat": 51.51510879999999, "lng": -0.1611573}, "viewport": {"northeast": {"lat": 51.51644868029149, "lng": -0.1598636197084979}, "southwest": {"lat": 51.51375071970849, "lng": -0.162561580291502}}}, "name": "The Gate Marylebone", "place_id": "ChIJWWBqLMsadkgRMNgQny8l1vg", "types": ["bar", "restaurant", "food", "point_of_interest", "establishment"], "rating": 4.2, "user_ratings_total": 582}, "ChIJ0zzsJ68bdkgRZyokdTxWd-k": {"geometry": {"location": {"lat": 51.5155359, "lng": -0.1605135}, "viewport": {"northeast": {"lat": 51.5168244802915, "lng": -0.159139019708498}, "southwest": {"lat": 51.5141265197085, "lng": -0.161836980291502}}}, "name": "Elizabeth Garrett Anderson Blue Plaque", "place_id": "ChIJ0zzsJ68bdkgRZyokdTxWd-k", "types": ["point_of_interest", "establishment"], "rating": 5, "user_ratings_total": 1}, "ChIJ-3mmMMsadkgRLoXffdeKwsY": {"geometry": {"location": {"lat": 51.5155359, "lng": -0.1605135}, "viewport": {"northeast": {"lat": 51.51682458029151, "lng": -0.159138369708498}, "southwest": {"lat": 51.51412661970851, "lng": -0.161836330291502}}}, "name": "Asm Capital Limited", "place_id": "ChIJ-3mmMMsadkgRLoXffdeKwsY", "types": ["point_of_interest", "establishment"]}, "ChIJU1VRN8sadkgRoQUHPeRPioA": {"geometry": {"location": {"lat": 51.5155348, "lng": -0.1604356}, "viewport": {"northeast": {"lat": 51.51682993029149, "lng": -0.159063269708498}, "southwest": {"lat": 51.51413196970849, "lng": -0.161761230291502}}}, "name": "Astrid Fajre", "place_id": "ChIJU1VRN8sadkgRoQUHPeRPioA", "types": ["health", "point_of_interest", "establishment"]}, "ChIJhVUtZmUbdkgRVBdMtyWqDgM": {"geometry": {"location": {"lat": 51.5154931, "lng": -0.1608952}, "viewport": {"northeast": {"lat": 51.5167725302915, "lng": -0.159516869708498}, "southwest": {"lat": 51.51407456970851, "lng": -0.162214830291502}}}, "name": "Henry's Townhouse Marylebone", "place_id": "ChIJhVUtZmUbdkgRVBdMtyWqDgM", "types": ["point_of_interest", "establishment"], "rating": 4.5, "user_ratings_total": 2}, "ChIJG_JZN8sadkgRYrLOwp9RpFc": {"geometry": {"location": {"lat": 51.51553719999999, "lng": -0.1604083}, "viewport": {"northeast": {"lat": 51.51683318029149, "lng": -0.1590439697084979}, "southwest": {"lat": 51.5141352197085, "lng": -0.161741930291502}}}, "name": "Cameo In situ", "place_id": "ChIJG_JZN8sadkgRYrLOwp9RpFc", "types": ["health", "point_of_interest", "establishment"]}, "ChIJryiaL8sadkgRTBHdfCInJIk": {"geometry": {"location": {"lat": 51.5154942, "lng": -0.160973}, "viewport": {"northeast": {"lat": 51.5167671802915, "lng": -0.1595919697084979}, "southwest": {"lat": 51.5140692197085, "lng": -0.162289930291502}}}, "name": "InterMarketWay", "place_id": "ChIJryiaL8sadkgRTBHdfCInJIk", "types": ["point_of_interest", "establishment"]}, "ChIJpV7kS8sadkgRNz7C6hXX24g": {"geometry": {"location": {"lat": 51.5151656, "lng": -0.159897}, "viewport": {"northeast": {"lat": 51.51652308029149, "lng": -0.158500569708498}, "southwest": {"lat": 51.51382511970849, "lng": -0.161198530291502}}}, "name": "ubitricity Charging Station", "place_id": "ChIJpV7kS8sadkgRNz7C6hXX24g", "types": ["point_of_interest", "establishment"]}, "ChIJVVURL8sadkgRud9FG0sV9jA": {"geometry": {"location": {"lat": 51.5154518, "lng": -0.1610789}, "viewport": {"northeast": {"lat": 51.5167366302915, "lng": -0.159702069708498}, "southwest": {"lat": 51.5140386697085, "lng": -0.162400030291502}}}, "name": "Triibe Trading Ltd", "place_id": "ChIJVVURL8sadkgRud9FG0sV9jA", "types": ["point_of_interest", "establishment"]}, "ChIJBZqEhfkbdkgRjJHMcr07GB4": {"geometry": {"location": {"lat": 51.5154243, "lng": -0.1611942}, "viewport": {"northeast": {"lat": 51.5167130802915, "lng": -0.159819819708498}, "southwest": {"lat": 51.5140151197085, "lng": -0.162517780291502}}}, "name": "TheLESC (London Electric Scooter Company)", "place_id": "ChIJBZqEhfkbdkgRjJHMcr07GB4", "types": ["car_repair", "point_of_interest", "establishment"], "rating": 5, "user_ratings_total": 1}, "ChIJP8cZKcsadkgR5gdvjoFC2rM": {"geometry": {"location": {"lat": 51.5154243, "lng": -0.1611942}, "viewport": {"northeast": {"lat": 51.5167130802915, "lng": -0.1598191197084979}, "southwest": {"lat": 51.5140151197085, "lng": -0.162517080291502}}}, "name": "Noor Alshams", "place_id": "ChIJP8cZKcsadkgR5gdvjoFC2rM", "types": ["clothing_store", "point_of_interest", "store", "establishment"]}, "ChIJJeKDBeEbdkgRGiPvBv3-dj0": {"geometry": {"location": {"lat": 51.5154243, "lng": -0.1611942}, "viewport": {"northeast": {"lat": 51.5167130802915, "lng": -0.1598191197084979}, "southwest": {"lat": 51.5140151197085, "lng": -0.162517080291502}}}, "name": "Nick Green Screenwriting", "place_id": "ChIJJeKDBeEbdkgRGiPvBv3-dj0", "types": ["point_of_interest", "establishment"]}, "ChIJhSRqSMsadkgRCBeIEWCbo8s": {"geometry": {"location": {"lat": 51.51548039999999, "lng": -0.159978}, "viewport": {"northeast": {"lat": 51.5168150302915, "lng": -0.158620319708498}, "southwest": {"lat": 51.5141170697085, "lng": -0.161318280291502}}}, "name": "Whitworth & Greene Solicitors", "place_id": "ChIJhSRqSMsadkgRCBeIEWCbo8s", "types": ["lawyer", "point_of_interest", "establishment"]}, "ChIJVVUBK8sadkgR2E-6dTn59oE": {"geometry": {"location": {"lat": 51.51504079999999, "lng": -0.1613524}, "viewport": {"northeast": {"lat": 51.5163978802915, "lng": -0.159954019708498}, "southwest": {"lat": 51.5136999197085, "lng": -0.162651980291502}}}, "name": "Best Cruise Charter", "place_id": "ChIJVVUBK8sadkgR2E-6dTn59oE", "types": ["point_of_interest", "establishment"]}, "ChIJSa6tYIcbdkgRJ0yfgHHovU0": {"geometry": {"location": {"lat": 51.5150652, "lng": -0.1613757}, "viewport": {"northeast": {"lat": 51.51642328029149, "lng": -0.159971269708498}, "southwest": {"lat": 51.5137253197085, "lng": -0.162669230291502}}}, "name": "So French", "place_id": "ChIJSa6tYIcbdkgRJ0yfgHHovU0", "types": ["cafe", "food", "point_of_interest", "store", "establishment"], "rating": 5, "user_ratings_total": 12}, "ChIJnZUBK8sadkgRMsXG644ifn8": {"geometry": {"location": {"lat": 51.51504569999999, "lng": -0.1613689}, "viewport": {"northeast": {"lat": 51.51640413029149, "lng": -0.159963419708498}, "southwest": {"lat": 51.51370616970849, "lng": -0.162661380291502}}}, "name": "Traceability UK Ltd", "place_id": "ChIJnZUBK8sadkgRMsXG644ifn8", "types": ["point_of_interest", "establishment"]}, "ChIJr7KNQMoadkgRuGSIvlXQnHE": {"geometry": {"location": {"lat": 51.5186676212159, "lng": -0.1627853089907953}, "viewport": {"northeast": {"lat": 51.52001658029149, "lng": -0.161436469708498}, "southwest": {"lat": 51.51731861970849, "lng": -0.164134430291502}}}, "name": "92-80 Seymour Pl", "place_id": "ChIJr7KNQMoadkgRuGSIvlXQnHE", "types": ["route"]}, "ChIJNfQFa8oadkgRD4_ZDiyeaao": {"geometry": {"location": {"lat": 51.51837869999999, "lng": -0.1631233}, "viewport": {"northeast": {"lat": 51.51985698029149, "lng": -0.161555769708498}, "southwest": {"lat": 51.51715901970849, "lng": -0.164253730291502}}}, "name": "West 1 Climbing Wall", "place_id": "ChIJNfQFa8oadkgRD4_ZDiyeaao", "types": ["point_of_interest", "establishment"], "rating": 4.2, "user_ratings_total": 84}, "ChIJNXwL_T0FdkgR2aseUbzI-wA": {"geometry": {"location": {"lat": 51.51847859999999, "lng": -0.1625635}, "viewport": {"northeast": {"lat": 51.5198035302915, "lng": -0.161119669708498}, "southwest": {"lat": 51.5171055697085, "lng": -0.163817630291502}}}, "name": "International Andrology", "place_id": "ChIJNXwL_T0FdkgR2aseUbzI-wA", "types": ["health", "point_of_interest", "establishment"], "rating": 3.6, "user_ratings_total": 25}, "ChIJQcNvRMoadkgREhCqA5yH9QI": {"geometry": {"location": {"lat": 51.5185465, "lng": -0.1624871}, "viewport": {"northeast": {"lat": 51.5198324802915, "lng": -0.161081469708498}, "southwest": {"lat": 51.5171345197085, "lng": -0.163779430291502}}}, "name": "Happy Kids Dental Marylebone", "place_id": "ChIJQcNvRMoadkgREhCqA5yH9QI", "types": ["dentist", "insurance_agency", "doctor", "health", "point_of_interest", "establishment"], "rating": 4.7, "user_ratings_total": 197}, "ChIJzTbZSsoadkgRfKJJ-gECZxY": {"geometry": {"location": {"lat": 51.51868589999999, "lng": -0.1617239}, "viewport": {"northeast": {"lat": 51.5199711802915, "lng": -0.160323519708498}, "southwest": {"lat": 51.5172732197085, "lng": -0.163021480291502}}}, "name": "Bryanston Development Company Ltd", "place_id": "ChIJzTbZSsoadkgRfKJJ-gECZxY", "types": ["general_contractor", "point_of_interest", "establishment"]}, "ChIJoWOSQcoadkgRgUrKrFbaOuk": {"geometry": {"location": {"lat": 51.518563, "lng": -0.162879}, "viewport": {"northeast": {"lat": 51.51994913029149, "lng": -0.161473369708498}, "southwest": {"lat": 51.51725116970849, "lng": -0.164171330291502}}}, "name": "London No 1 Scuba Diving Club", "place_id": "ChIJoWOSQcoadkgRgUrKrFbaOuk", "types": ["school", "point_of_interest", "store", "establishment"], "rating": 5, "user_ratings_total": 4}, "ChIJNfQFa8oadkgRwBuNf7sa_oc": {"geometry": {"location": {"lat": 51.518612, "lng": -0.162959}, "viewport": {"northeast": {"lat": 51.5199779302915, "lng": -0.161518019708498}, "southwest": {"lat": 51.5172799697085, "lng": -0.164215980291502}}}, "name": "Xen-Do Martial Arts", "place_id": "ChIJNfQFa8oadkgRwBuNf7sa_oc", "types": ["gym", "health", "point_of_interest", "establishment"], "rating": 4.9, "user_ratings_total": 55}, "ChIJfaWXXMoadkgR07a6qkN1fvY": {"geometry": {"location": {"lat": 51.51859379999999, "lng": -0.1629449}, "viewport": {"northeast": {"lat": 51.51996453029149, "lng": -0.161506419708498}, "southwest": {"lat": 51.51726656970849, "lng": -0.164204380291502}}}, "name": "Marylebone Badminton Club", "place_id": "ChIJfaWXXMoadkgR07a6qkN1fvY", "types": ["point_of_interest", "establishment"], "rating": 4.9, "user_ratings_total": 13}, "ChIJBSBkTcoadkgRCMScemtgnRE": {"geometry": {"location": {"lat": 51.5182695, "lng": -0.1617971}, "viewport": {"northeast": {"lat": 51.5196431802915, "lng": -0.160307169708498}, "southwest": {"lat": 51.5169452197085, "lng": -0.163005130291502}}}, "name": "Nataliya", "place_id": "ChIJBSBkTcoadkgRCMScemtgnRE", "types": ["point_of_interest", "establishment"]}, "ChIJM1e1RsoadkgRbgpHbMyQpqs": {"geometry": {"location": {"lat": 51.5186664, "lng": -0.1626593}, "viewport": {"northeast": {"lat": 51.5200399802915, "lng": -0.1613797697084979}, "southwest": {"lat": 51.51734201970851, "lng": -0.164077730291502}}}, "name": "Bluebird Travel", "place_id": "ChIJM1e1RsoadkgRbgpHbMyQpqs", "types": ["travel_agency", "point_of_interest", "establishment"], "rating": 4.8, "user_ratings_total": 5}, "ChIJccrjRcoadkgR7-aL2Es0VLM": {"geometry": {"location": {"lat": 51.5185111, "lng": -0.1623894}, "viewport": {"northeast": {"lat": 51.5198222302915, "lng": -0.161017469708498}, "southwest": {"lat": 51.5171242697085, "lng": -0.163715430291502}}}, "name": "Princess Court", "place_id": "ChIJccrjRcoadkgR7-aL2Es0VLM", "types": ["point_of_interest", "establishment"], "rating": 4.7, "user_ratings_total": 3}, "ChIJMVH1SMoadkgRgxOvtd3SOzA": {"geometry": {"location": {"lat": 51.5186726, "lng": -0.1622221}, "viewport": {"northeast": {"lat": 51.51997368029149, "lng": -0.161133119708498}, "southwest": {"lat": 51.5172757197085, "lng": -0.163831080291502}}}, "name": "Francesco Sansostri Architects Ltd", "place_id": "ChIJMVH1SMoadkgRgxOvtd3SOzA", "types": ["point_of_interest", "establishment"]}, "ChIJ246bUMoadkgRo8BGClAit20": {"geometry": {"location": {"lat": 51.5181143, "lng": -0.1623225}, "viewport": {"northeast": {"lat": 51.51947553029149, "lng": -0.160903119708498}, "southwest": {"lat": 51.51677756970849, "lng": -0.163601080291502}}}, "name": "Tasty Capers Catering", "place_id": "ChIJ246bUMoadkgRo8BGClAit20", "types": ["food", "point_of_interest", "establishment"], "rating": 5, "user_ratings_total": 2}, "ChIJMzME7awbdkgRYhgm6S0OtIE": {"geometry": {"location": {"lat": 51.5187146, "lng": -0.162546}, "viewport": {"northeast": {"lat": 51.52004193029151, "lng": -0.161317319708498}, "southwest": {"lat": 51.51734396970851, "lng": -0.164015280291502}}}, "name": "Health Travel", "place_id": "ChIJMzME7awbdkgRYhgm6S0OtIE", "types": ["travel_agency", "point_of_interest", "establishment"]}, "ChIJZ6S9huobdkgRRhA1hja99DQ": {"geometry": {"location": {"lat": 51.518757, "lng": -0.1618747}, "viewport": {"northeast": {"lat": 51.52002478029151, "lng": -0.160963669708498}, "southwest": {"lat": 51.51732681970851, "lng": -0.163661630291502}}}, "name": "Myrtle & Soap", "place_id": "ChIJZ6S9huobdkgRRhA1hja99DQ", "types": ["point_of_interest", "store", "establishment"], "rating": 4.2, "user_ratings_total": 5}, "ChIJCeJYP8oadkgRnu-FROZgLKY": {"geometry": {"location": {"lat": 51.51884779999999, "lng": -0.1627465}, "viewport": {"northeast": {"lat": 51.5202098302915, "lng": -0.161455119708498}, "southwest": {"lat": 51.5175118697085, "lng": -0.164153080291502}}}, "name": "Business & Traning Consultants", "place_id": "ChIJCeJYP8oadkgRnu-FROZgLKY", "types": ["point_of_interest", "establishment"]}, "ChIJr6I7-MoadkgRfNGqtrFOieU": {"geometry": {"location": {"lat": 51.51742772732614, "lng": -0.1622312974931064}, "viewport": {"northeast": {"lat": 51.51877643029149, "lng": -0.160883819708498}, "southwest": {"lat": 51.51607846970849, "lng": -0.163581780291502}}}, "name": "83-109 Seymour Pl", "place_id": "ChIJr6I7-MoadkgRfNGqtrFOieU", "types": ["route"]}, "ChIJTTk7-MoadkgRnSaOfex8VI8": {"geometry": {"location": {"lat": 51.51741519999999, "lng": -0.1622584}, "viewport": {"northeast": {"lat": 51.5187607302915, "lng": -0.160929419708498}, "southwest": {"lat": 51.5160627697085, "lng": -0.163627380291502}}}, "name": "The Musketeers Club", "place_id": "ChIJTTk7-MoadkgRnSaOfex8VI8", "types": ["point_of_interest", "establishment"], "rating": 1, "user_ratings_total": 1}, "ChIJw6Ept7oPdkgRyGbQLRFughQ": {"geometry": {"location": {"lat": 51.5170968, "lng": -0.1624031}, "viewport": {"northeast": {"lat": 51.5183689802915, "lng": -0.161046269708498}, "southwest": {"lat": 51.5156710197085, "lng": -0.163744230291502}}}, "name": "Sylvia Young Theatre School", "place_id": "ChIJw6Ept7oPdkgRyGbQLRFughQ", "types": ["school", "point_of_interest", "establishment"], "rating": 4.7, "user_ratings_total": 23}, "ChIJU0hF8MoadkgRg8RIX6Bk1ig": {"geometry": {"location": {"lat": 51.5170342, "lng": -0.1623991}, "viewport": {"northeast": {"lat": 51.5183394302915, "lng": -0.161031219708498}, "southwest": {"lat": 51.51564146970851, "lng": -0.163729180291502}}}, "name": "Sylvia Young Agency", "place_id": "ChIJU0hF8MoadkgRg8RIX6Bk1ig", "types": ["point_of_interest", "establishment"], "rating": 3.4, "user_ratings_total": 5}, "ChIJMZzK8soadkgR3hFDJScRqUo": {"geometry": {"location": {"lat": 51.5170373, "lng": -0.1630341}, "viewport": {"northeast": {"lat": 51.5184320302915, "lng": -0.161578469708498}, "southwest": {"lat": 51.5157340697085, "lng": -0.164276430291502}}}, "name": "Nutford House, London", "place_id": "ChIJMZzK8soadkgR3hFDJScRqUo", "types": ["point_of_interest", "establishment"], "rating": 4.1, "user_ratings_total": 30}, "ChIJ30ai1fobdkgR9KhqlHHOuSA": {"geometry": {"location": {"lat": 51.517167, "lng": -0.162323}, "viewport": {"northeast": {"lat": 51.5185320802915, "lng": -0.160878469708498}, "southwest": {"lat": 51.5158341197085, "lng": -0.163576430291502}}}, "name": "Young", "place_id": "ChIJ30ai1fobdkgR9KhqlHHOuSA", "types": ["point_of_interest", "clothing_store", "store", "establishment"]}, "ChIJy5LX8MoadkgRfdi7UH_vKKY": {"geometry": {"location": {"lat": 51.5171508, "lng": -0.1623166}, "viewport": {"northeast": {"lat": 51.5185159302915, "lng": -0.160871769708498}, "southwest": {"lat": 51.5158179697085, "lng": -0.163569730291502}}}, "name": "Eleventh Church of Christian Scientists", "place_id": "ChIJy5LX8MoadkgRfdi7UH_vKKY", "types": ["church", "place_of_worship", "point_of_interest", "establishment"], "rating": 5, "user_ratings_total": 1}, "ChIJecAv8coadkgR8J-WPHlvN7E": {"geometry": {"location": {"lat": 51.5171597, "lng": -0.1625314}, "viewport": {"northeast": {"lat": 51.5183961302915, "lng": -0.161133819708498}, "southwest": {"lat": 51.5156981697085, "lng": -0.163831780291502}}}, "name": "At Your Beat", "place_id": "ChIJecAv8coadkgR8J-WPHlvN7E", "types": ["point_of_interest", "establishment"]}, "ChIJceixKMsadkgRWkSztOXVrZI": {"geometry": {"location": {"lat": 51.51748320000001, "lng": -0.1620792}, "viewport": {"northeast": {"lat": 51.51881803029151, "lng": -0.160813069708498}, "southwest": {"lat": 51.51612006970851, "lng": -0.163511030291502}}}, "name": "Allure", "place_id": "ChIJceixKMsadkgRWkSztOXVrZI", "types": ["health", "point_of_interest", "establishment"]}, "ChIJF-y6rj0bdkgR_P9qg8muSUs": {"geometry": {"location": {"lat": 51.5171361, "lng": -0.1626308}, "viewport": {"northeast": {"lat": 51.51847103029151, "lng": -0.161372669708498}, "southwest": {"lat": 51.51577306970851, "lng": -0.164070630291502}}}, "name": "Barbabroad london", "place_id": "ChIJF-y6rj0bdkgR_P9qg8muSUs", "types": ["point_of_interest", "establishment"]}, "ChIJDcNOUSYbdkgRgtH1R3YpZi4": {"geometry": {"location": {"lat": 51.5170496, "lng": -0.1624923}, "viewport": {"northeast": {"lat": 51.51834038029151, "lng": -0.161118219708498}, "southwest": {"lat": 51.51564241970851, "lng": -0.1638161802915021}}}, "name": "Fitness Fun Machine Zumba class Central London", "place_id": "ChIJDcNOUSYbdkgRgtH1R3YpZi4", "types": ["point_of_interest", "establishment"], "rating": 5, "user_ratings_total": 3}, "ChIJV0SWbxcbdkgRqAq9biEcOE0": {"geometry": {"location": {"lat": 51.51759999999999, "lng": -0.16215}, "viewport": {"northeast": {"lat": 51.5189363302915, "lng": -0.160874919708498}, "southwest": {"lat": 51.5162383697085, "lng": -0.163572880291502}}}, "name": "UPS Access Point", "place_id": "ChIJV0SWbxcbdkgRqAq9biEcOE0", "types": ["point_of_interest", "establishment"], "rating": 3.7, "user_ratings_total": 3}, "ChIJW6SCWMoadkgRczfzQ8NVg9c": {"geometry": {"location": {"lat": 51.5175762, "lng": -0.1625388}, "viewport": {"northeast": {"lat": 51.51894428029149, "lng": -0.161078069708498}, "southwest": {"lat": 51.51624631970849, "lng": -0.163776030291502}}}, "name": "Maria Fung - Graphics Print & Web", "place_id": "ChIJW6SCWMoadkgRczfzQ8NVg9c", "types": ["point_of_interest", "establishment"]}, "ChIJRT-4V8oadkgRhVfZLsQiECU": {"geometry": {"location": {"lat": 51.5176125, "lng": -0.1621774}, "viewport": {"northeast": {"lat": 51.5189505802915, "lng": -0.160892169708498}, "southwest": {"lat": 51.5162526197085, "lng": -0.163590130291502}}}, "name": "Mertoun Terrace", "place_id": "ChIJRT-4V8oadkgRhVfZLsQiECU", "types": ["point_of_interest", "establishment"]}, "ChIJQ1fv-8oadkgRVgq8GuvH0u0": {"geometry": {"location": {"lat": 51.5170425, "lng": -0.1619293}, "viewport": {"northeast": {"lat": 51.5183808802915, "lng": -0.160642419708498}, "southwest": {"lat": 51.5156829197085, "lng": -0.163340380291502}}}, "name": "Seymour Place Music", "place_id": "ChIJQ1fv-8oadkgRVgq8GuvH0u0", "types": ["point_of_interest", "establishment"]}, "ChIJW6SCWMoadkgRMPD2lWOluUk": {"geometry": {"location": {"lat": 51.51769039999999, "lng": -0.1625866}, "viewport": {"northeast": {"lat": 51.5190582802915, "lng": -0.161127119708498}, "southwest": {"lat": 51.5163603197085, "lng": -0.163825080291502}}}, "name": "Taylor & Crawley Ltd", "place_id": "ChIJW6SCWMoadkgRMPD2lWOluUk", "types": ["car_dealer", "point_of_interest", "store", "establishment"]}, "ChIJjQQJ404bdkgRLozZXM4sdwo": {"geometry": {"location": {"lat": 51.5177086, "lng": -0.162046}, "viewport": {"northeast": {"lat": 51.5190583802915, "lng": -0.160692169708498}, "southwest": {"lat": 51.5163604197085, "lng": -0.163390130291502}}}, "name": "Dolce Vita London", "place_id": "ChIJjQQJ404bdkgRLozZXM4sdwo", "types": ["point_of_interest", "establishment"]}, "ChIJ6YYBM-8bdkgRJeF7J-kdv6c": {"geometry": {"location": {"lat": 51.5177855, "lng": -0.1623869}, "viewport": {"northeast": {"lat": 51.5191251302915, "lng": -0.161086269708498}, "southwest": {"lat": 51.5164271697085, "lng": -0.163784230291502}}}, "name": "G&P Doors Co", "place_id": "ChIJ6YYBM-8bdkgRJeF7J-kdv6c", "types": ["point_of_interest", "establishment"]}, "ChIJ3_nz0F4bdkgRGuW0Pzlgvbo": {"geometry": {"location": {"lat": 51.5177855, "lng": -0.1623869}, "viewport": {"northeast": {"lat": 51.5191251302915, "lng": -0.161086269708498}, "southwest": {"lat": 51.5164271697085, "lng": -0.163784230291502}}}, "name": "Extra Rooters & Heating", "place_id": "ChIJ3_nz0F4bdkgRGuW0Pzlgvbo", "types": ["plumber", "general_contractor", "point_of_interest", "establishment"]}, "ChIJN2uTwg4bdkgRzmx2m9lZ93c": {"geometry": {"location": {"lat": 51.5177855, "lng": -0.1623869}, "viewport": {"northeast": {"lat": 51.5191251302915, "lng": -0.161086269708498}, "southwest": {"lat": 51.5164271697085, "lng": -0.163784230291502}}}, "name": "GP Access Control - CCTV & Intercom Systems", "place_id": "ChIJN2uTwg4bdkgRzmx2m9lZ93c", "types": ["point_of_interest", "establishment"]}, "ChIJCb7rWcoadkgRguZIQVV99hE": {"geometry": {"location": {"lat": 51.5177855, "lng": -0.1623869}, "viewport": {"northeast": {"lat": 51.5191251302915, "lng": -0.161086269708498}, "southwest": {"lat": 51.5164271697085, "lng": -0.163784230291502}}}, "name": "GFS GSA Shipping Agency Company", "place_id": "ChIJCb7rWcoadkgRguZIQVV99hE", "types": ["point_of_interest", "establishment"]}, "ChIJh0cE9soadkgRuZDFLO01z7w": {"geometry": {"location": {"lat": 51.517503, "lng": -0.162608}, "viewport": {"northeast": {"lat": 51.51884480736712, "lng": -0.1611956396491429}, "southwest": {"lat": 51.51614684678412, "lng": -0.1638936002321469}}}, "name": "Parking lot", "place_id": "ChIJh0cE9soadkgRuZDFLO01z7w", "types": ["parking", "premise", "point_of_interest", "establishment"]}, "ChIJNXmn58oadkgReGLKDKVuA-k": {"geometry": {"location": {"lat": 51.51627805001564, "lng": -0.1623940500139147}, "viewport": {"northeast": {"lat": 51.51762703029149, "lng": -0.161045069708498}, "southwest": {"lat": 51.5149290697085, "lng": -0.163743030291502}}}, "name": "137 George St", "place_id": "ChIJNXmn58oadkgReGLKDKVuA-k", "types": ["route"]}, "ChIJh8017soadkgRHio7XTj4GxY": {"geometry": {"location": {"lat": 51.5166614, "lng": -0.1624422}, "viewport": {"northeast": {"lat": 51.5181371302915, "lng": -0.161113869708498}, "southwest": {"lat": 51.5154391697085, "lng": -0.163811830291502}}}, "name": "Brown Street Recruitment", "place_id": "ChIJh8017soadkgRHio7XTj4GxY", "types": ["point_of_interest", "establishment"]}, "ChIJwSPaxMoadkgR92SY0EZZQ9w": {"geometry": {"location": {"lat": 51.51583889999999, "lng": -0.1625793}, "viewport": {"northeast": {"lat": 51.51703038029149, "lng": -0.161211369708498}, "southwest": {"lat": 51.5143324197085, "lng": -0.163909330291502}}}, "name": "Flat 1 Stourcliffe Close", "place_id": "ChIJwSPaxMoadkgR92SY0EZZQ9w", "types": ["lodging", "point_of_interest", "establishment"], "rating": 4.7, "user_ratings_total": 3}, "ChIJI7N03MoadkgRm52YPaRYpFA": {"geometry": {"location": {"lat": 51.5158989, "lng": -0.1620243}, "viewport": {"northeast": {"lat": 51.51745423029149, "lng": -0.160760119708498}, "southwest": {"lat": 51.5147562697085, "lng": -0.163458080291502}}}, "name": "Theresa Lloyd Associates", "place_id": "ChIJI7N03MoadkgRm52YPaRYpFA", "types": ["finance", "point_of_interest", "establishment"]}, "ChIJy0p058oadkgRdwEouJU53aQ": {"geometry": {"location": {"lat": 51.51619549999999, "lng": -0.1621854}, "viewport": {"northeast": {"lat": 51.5175995302915, "lng": -0.160860119708498}, "southwest": {"lat": 51.5149015697085, "lng": -0.163558080291502}}}, "name": "London Flat EHY", "place_id": "ChIJy0p058oadkgRdwEouJU53aQ", "types": ["point_of_interest", "establishment"]}, "ChIJCwNrz8oadkgR_tcoxvnoVtU": {"geometry": {"location": {"lat": 51.51609819999999, "lng": -0.1625434}, "viewport": {"northeast": {"lat": 51.5174555802915, "lng": -0.161123669708498}, "southwest": {"lat": 51.5147576197085, "lng": -0.163821630291502}}}, "name": "Green Valley Delivery location", "place_id": "ChIJCwNrz8oadkgR_tcoxvnoVtU", "types": ["store", "point_of_interest", "establishment"], "rating": 5, "user_ratings_total": 1}, "ChIJH1FO5soadkgRIAOh-VrSE_g": {"geometry": {"location": {"lat": 51.51641249999999, "lng": -0.1621782}, "viewport": {"northeast": {"lat": 51.5180249302915, "lng": -0.160942769708498}, "southwest": {"lat": 51.5153269697085, "lng": -0.1636407302915021}}}, "name": "Cumberland Mansions", "place_id": "ChIJH1FO5soadkgRIAOh-VrSE_g", "types": ["lodging", "point_of_interest", "establishment"], "rating": 4.5, "user_ratings_total": 10}, "ChIJ62p_SzgbdkgRkkITjwCXBdE": {"geometry": {"location": {"lat": 51.5164196, "lng": -0.1629159}, "viewport": {"northeast": {"lat": 51.5176607802915, "lng": -0.161516269708498}, "southwest": {"lat": 51.5149628197085, "lng": -0.1642142302915021}}}, "name": "Richard VI", "place_id": "ChIJ62p_SzgbdkgRkkITjwCXBdE", "types": ["museum", "point_of_interest", "establishment"], "rating": 4.9, "user_ratings_total": 8}, "ChIJOYdMz8oadkgRGrswmnCjH0M": {"geometry": {"location": {"lat": 51.51583129999999, "lng": -0.1625671}, "viewport": {"northeast": {"lat": 51.5169912802915, "lng": -0.161274819708498}, "southwest": {"lat": 51.5142933197085, "lng": -0.1639727802915021}}}, "name": "Stourcliffe Close", "place_id": "ChIJOYdMz8oadkgRGrswmnCjH0M", "types": ["point_of_interest", "establishment"], "rating": 1, "user_ratings_total": 1}, "ChIJN_Zc8k4bdkgRL4e71_ybEDo": {"geometry": {"location": {"lat": 51.5164594, "lng": -0.1617061}, "viewport": {"northeast": {"lat": 51.5178001302915, "lng": -0.160409969708498}, "southwest": {"lat": 51.51510216970851, "lng": -0.163107930291502}}}, "name": "Flat battery Marylebone", "place_id": "ChIJN_Zc8k4bdkgRL4e71_ybEDo", "types": ["car_repair", "point_of_interest", "establishment"]}, "ChIJHbs768oadkgRvL9uw-CkCfc": {"geometry": {"location": {"lat": 51.51642750000001, "lng": -0.1629775}, "viewport": {"northeast": {"lat": 51.5176596302915, "lng": -0.161574469708498}, "southwest": {"lat": 51.51496166970851, "lng": -0.1642724302915021}}}, "name": "Philip Woolf Property", "place_id": "ChIJHbs768oadkgRvL9uw-CkCfc", "types": ["point_of_interest", "establishment"]}, "ChIJo9xaAcwadkgRVTqT1-lG4s8": {"geometry": {"location": {"lat": 51.5162562, "lng": -0.1630601}, "viewport": {"northeast": {"lat": 51.5175604302915, "lng": -0.161689569708498}, "southwest": {"lat": 51.5148624697085, "lng": -0.164387530291502}}}, "name": "Landmark Properties", "place_id": "ChIJo9xaAcwadkgRVTqT1-lG4s8", "types": ["general_contractor", "point_of_interest", "establishment"]}, "ChIJ4XbrEOYbdkgRwnZd27NP7ds": {"geometry": {"location": {"lat": 51.5157491, "lng": -0.1623785}, "viewport": {"northeast": {"lat": 51.51709808029149, "lng": -0.161053319708498}, "southwest": {"lat": 51.51440011970849, "lng": -0.163751280291502}}}, "name": "depto Londres", "place_id": "ChIJ4XbrEOYbdkgRwnZd27NP7ds", "types": ["lodging", "point_of_interest", "establishment"]}, "ChIJ_fpXLA8bdkgR2QiE9SKFvC0": {"geometry": {"location": {"lat": 51.5157479, "lng": -0.1623523}, "viewport": {"northeast": {"lat": 51.5170966802915, "lng": -0.161053919708498}, "southwest": {"lat": 51.5143987197085, "lng": -0.163751880291502}}}, "name": "Man and Van Removals Packing Service", "place_id": "ChIJ_fpXLA8bdkgR2QiE9SKFvC0", "types": ["moving_company", "storage", "point_of_interest", "establishment"], "rating": 5, "user_ratings_total": 1}, "ChIJN3kKKssadkgRbXc_M4aC91E": {"geometry": {"location": {"lat": 51.51510829999999, "lng": -0.1615923}, "viewport": {"northeast": {"lat": 51.5165150302915, "lng": -0.160266669708498}, "southwest": {"lat": 51.5138170697085, "lng": -0.1629646302915021}}}, "name": "Marble Arch Inn", "place_id": "ChIJN3kKKssadkgRbXc_M4aC91E", "types": ["lodging", "point_of_interest", "establishment"], "rating": 3.5, "user_ratings_total": 201}, "ChIJAQCwzsoadkgRo2f3IF-gK70": {"geometry": {"location": {"lat": 51.5152732, "lng": -0.1625723}, "viewport": {"northeast": {"lat": 51.51669473029149, "lng": -0.161291869708498}, "southwest": {"lat": 51.5139967697085, "lng": -0.163989830291502}}}, "name": "Homely Apartment Edgware Road", "place_id": "ChIJAQCwzsoadkgRo2f3IF-gK70", "types": ["lodging", "point_of_interest", "establishment"]}, "ChIJ2yECzsoadkgRjTIWZKVNeo4": {"geometry": {"location": {"lat": 51.51522610000001, "lng": -0.1622634}, "viewport": {"northeast": {"lat": 51.5165269302915, "lng": -0.160879319708498}, "southwest": {"lat": 51.51382896970851, "lng": -0.163577280291502}}}, "name": "Green Valley", "place_id": "ChIJ2yECzsoadkgRjTIWZKVNeo4", "types": ["supermarket", "grocery_or_supermarket", "food", "point_of_interest", "store", "establishment"], "rating": 4.1, "user_ratings_total": 1119}, "ChIJf67u2coadkgRFaOvG9A-cKc": {"geometry": {"location": {"lat": 51.51545100000001, "lng": -0.1616306}, "viewport": {"northeast": {"lat": 51.5168153302915, "lng": -0.160180619708498}, "southwest": {"lat": 51.5141173697085, "lng": -0.162878580291502}}}, "name": "West London Synagogue", "place_id": "ChIJf67u2coadkgRFaOvG9A-cKc", "types": ["synagogue", "tourist_attraction", "place_of_worship", "point_of_interest", "establishment"], "rating": 4.5, "user_ratings_total": 62}, "ChIJAz3nzcoadkgRYRGwNy7qFdw": {"geometry": {"location": {"lat": 51.5152744, "lng": -0.1625562}, "viewport": {"northeast": {"lat": 51.51669768029149, "lng": -0.161277419708498}, "southwest": {"lat": 51.51399971970849, "lng": -0.163975380291502}}}, "name": "Sana Estates", "place_id": "ChIJAz3nzcoadkgRYRGwNy7qFdw", "types": ["real_estate_agency", "point_of_interest", "establishment"], "rating": 3, "user_ratings_total": 5}, "ChIJ80F5BCsbdkgRz5otMUOFA9k": {"geometry": {"location": {"lat": 51.5152782, "lng": -0.1620039}, "viewport": {"northeast": {"lat": 51.51657298029149, "lng": -0.160630869708498}, "southwest": {"lat": 51.5138750197085, "lng": -0.163328830291502}}}, "name": "Westminster Psychotherapy Ltd", "place_id": "ChIJ80F5BCsbdkgRz5otMUOFA9k", "types": ["health", "point_of_interest", "establishment"], "rating": 5, "user_ratings_total": 2}, "ChIJORQyzMoadkgR5O8fWtUmcsI": {"geometry": {"location": {"lat": 51.5151786, "lng": -0.1624979}, "viewport": {"northeast": {"lat": 51.5164778802915, "lng": -0.161160319708498}, "southwest": {"lat": 51.5137799197085, "lng": -0.163858280291502}}}, "name": "\u062f\u064a\u0648\u0627\u0646 \u0639\u062a\u064a\u0628\u0647 - \u0644\u0646\u062f\u0646", "place_id": "ChIJORQyzMoadkgR5O8fWtUmcsI", "types": ["lodging", "point_of_interest", "establishment"], "rating": 5, "user_ratings_total": 12}, "ChIJ-zoVzMoadkgR4oE4NVEteV8": {"geometry": {"location": {"lat": 51.5151671, "lng": -0.1625365}, "viewport": {"northeast": {"lat": 51.5164721302915, "lng": -0.161167219708498}, "southwest": {"lat": 51.5137741697085, "lng": -0.163865180291502}}}, "name": "Saffron Restaurant", "place_id": "ChIJ-zoVzMoadkgR4oE4NVEteV8", "types": ["restaurant", "food", "point_of_interest", "establishment"], "rating": 3.9, "user_ratings_total": 288}, "ChIJ5-6N0soadkgRdRBaRVKntc0": {"geometry": {"location": {"lat": 51.5150225, "lng": -0.1622221}, "viewport": {"northeast": {"lat": 51.5164192802915, "lng": -0.160893719708498}, "southwest": {"lat": 51.5137213197085, "lng": -0.163591680291502}}}, "name": "IRM - Individual Reputation Management", "place_id": "ChIJ5-6N0soadkgRdRBaRVKntc0", "types": ["point_of_interest", "establishment"]}, "ChIJ5-6N0soadkgRDLGHEfVtF0g": {"geometry": {"location": {"lat": 51.5150225, "lng": -0.1622221}, "viewport": {"northeast": {"lat": 51.5164192802915, "lng": -0.160893719708498}, "southwest": {"lat": 51.5137213197085, "lng": -0.163591680291502}}}, "name": "Bedlam", "place_id": "ChIJ5-6N0soadkgRDLGHEfVtF0g", "types": ["point_of_interest", "establishment"]}, "ChIJ5-6N0soadkgRnWh24AXdav0": {"geometry": {"location": {"lat": 51.5150225, "lng": -0.1622221}, "viewport": {"northeast": {"lat": 51.5164192802915, "lng": -0.160893719708498}, "southwest": {"lat": 51.5137213197085, "lng": -0.163591680291502}}}, "name": "Yarran Global Services", "place_id": "ChIJ5-6N0soadkgRnWh24AXdav0", "types": ["point_of_interest", "establishment"], "rating": 5, "user_ratings_total": 1}, "ChIJKfeOUssadkgR7CLiDlyvwdY": {"geometry": {"location": {"lat": 51.51528949999999, "lng": -0.1620837}, "viewport": {"northeast": {"lat": 51.51657268029149, "lng": -0.1607054697084979}, "southwest": {"lat": 51.51387471970849, "lng": -0.163403430291502}}}, "name": "Western Marble Arch Synagogue", "place_id": "ChIJKfeOUssadkgR7CLiDlyvwdY", "types": ["synagogue", "place_of_worship", "point_of_interest", "establishment"], "rating": 4.5, "user_ratings_total": 35}, "ChIJLYJ8ycoadkgRCv5C63JaxyY": {"geometry": {"location": {"lat": 51.5152435, "lng": -0.1628117}, "viewport": {"northeast": {"lat": 51.5166480802915, "lng": -0.1614454697084979}, "southwest": {"lat": 51.5139501197085, "lng": -0.164143430291502}}}, "name": "Attorneys Without Borders", "place_id": "ChIJLYJ8ycoadkgRCv5C63JaxyY", "types": ["point_of_interest", "establishment"]}, "ChIJLYJ8ycoadkgR1C31e82eV9c": {"geometry": {"location": {"lat": 51.5152435, "lng": -0.1628117}, "viewport": {"northeast": {"lat": 51.5166480802915, "lng": -0.1614454697084979}, "southwest": {"lat": 51.5139501197085, "lng": -0.164143430291502}}}, "name": "International Jurisdictions", "place_id": "ChIJLYJ8ycoadkgR1C31e82eV9c", "types": ["point_of_interest", "establishment"]}, "ChIJ8-201coadkgR8Z2nI13vFNQ": {"geometry": {"location": {"lat": 51.51508559999999, "lng": -0.1617261}, "viewport": {"northeast": {"lat": 51.5164920802915, "lng": -0.160402669708498}, "southwest": {"lat": 51.5137941197085, "lng": -0.163100630291502}}}, "name": "Raven Green & Company", "place_id": "ChIJ8-201coadkgR8Z2nI13vFNQ", "types": ["point_of_interest", "establishment"]}, "ChIJf67u2coadkgR7aZkxtvP6qc": {"geometry": {"location": {"lat": 51.5154663, "lng": -0.1616172}, "viewport": {"northeast": {"lat": 51.5168292302915, "lng": -0.160176369708498}, "southwest": {"lat": 51.5141312697085, "lng": -0.162874330291502}}}, "name": "Simply Dancing Ltd", "place_id": "ChIJf67u2coadkgR7aZkxtvP6qc", "types": ["school", "point_of_interest", "establishment"], "rating": 5, "user_ratings_total": 8}, "ChIJ48l50soadkgRLbHO8y9iupg": {"geometry": {"location": {"lat": 51.51511240000001, "lng": -0.1615482}, "viewport": {"northeast": {"lat": 51.5165204302915, "lng": -0.160223119708498}, "southwest": {"lat": 51.5138224697085, "lng": -0.162921080291502}}}, "name": "Tallinn Hotels and Travel", "place_id": "ChIJ48l50soadkgRLbHO8y9iupg", "types": ["travel_agency", "point_of_interest", "establishment"]}, "ChIJA0Dr18oadkgRXjCZuczOdkI": {"geometry": {"location": {"lat": 51.51548889999999, "lng": -0.1616524}, "viewport": {"northeast": {"lat": 51.5168537302915, "lng": -0.160199119708498}, "southwest": {"lat": 51.5141557697085, "lng": -0.162897080291502}}}, "name": "Stricty Swing @ Opus One", "place_id": "ChIJA0Dr18oadkgRXjCZuczOdkI", "types": ["night_club", "point_of_interest", "establishment"], "rating": 3.6, "user_ratings_total": 5}, "ChIJf07r18oadkgRjvZ-KHFN6zA": {"geometry": {"location": {"lat": 51.5154889, "lng": -0.1616523}, "viewport": {"northeast": {"lat": 51.5168537302915, "lng": -0.160199069708498}, "southwest": {"lat": 51.5141557697085, "lng": -0.162897030291502}}}, "name": "Jitterbugs", "place_id": "ChIJf07r18oadkgRjvZ-KHFN6zA", "types": ["point_of_interest", "establishment"]}, "ChIJYfzy1soadkgRqEHq8QKgMWE": {"geometry": {"location": {"lat": 51.51528640000001, "lng": -0.1619055}, "viewport": {"northeast": {"lat": 51.5165852302915, "lng": -0.160534269708498}, "southwest": {"lat": 51.5138872697085, "lng": -0.163232230291502}}}, "name": "Sofia House", "place_id": "ChIJYfzy1soadkgRqEHq8QKgMWE", "types": ["point_of_interest", "establishment"], "rating": 1, "user_ratings_total": 2}, "ChIJi_R2dQYQdkgRzeG_oHbCsmI": {"geometry": {"location": {"lat": 51.515062, "lng": -0.1620656}, "viewport": {"northeast": {"lat": 51.5164525302915, "lng": -0.160734569708498}, "southwest": {"lat": 51.5137545697085, "lng": -0.163432530291502}}}, "name": "Moreno Wines", "place_id": "ChIJi_R2dQYQdkgRzeG_oHbCsmI", "types": ["point_of_interest", "establishment"], "rating": 4.8, "user_ratings_total": 8}, "ChIJU5ljnDQFdkgRgrsKJKpeAWU": {"geometry": {"location": {"lat": 51.5150385, "lng": -0.1622474}, "viewport": {"northeast": {"lat": 51.5164258302915, "lng": -0.160914969708498}, "southwest": {"lat": 51.5137278697085, "lng": -0.163612930291502}}}, "name": "Avanti Service", "place_id": "ChIJU5ljnDQFdkgRgrsKJKpeAWU", "types": ["insurance_agency", "health", "point_of_interest", "establishment"], "rating": 1, "user_ratings_total": 2}, "ChIJAfZKLTUFdkgRbfgP9UDxiho": {"geometry": {"location": {"lat": 51.51503090000001, "lng": -0.1622833}, "viewport": {"northeast": {"lat": 51.5164189802915, "lng": -0.160951169708498}, "southwest": {"lat": 51.5137210197085, "lng": -0.163649130291502}}}, "name": "Clarendon", "place_id": "ChIJAfZKLTUFdkgRbfgP9UDxiho", "types": ["real_estate_agency", "point_of_interest", "establishment"], "rating": 5, "user_ratings_total": 43}, "ChIJERMZOHgbdkgR_uo65YsTQYM": {"geometry": {"location": {"lat": 51.5150532, "lng": -0.1621774}, "viewport": {"northeast": {"lat": 51.5164391302915, "lng": -0.160844369708498}, "southwest": {"lat": 51.5137411697085, "lng": -0.163542330291502}}}, "name": "\u0634\u0642\u0642 \u0644\u0646\u062f\u0646", "place_id": "ChIJERMZOHgbdkgR_uo65YsTQYM", "types": ["real_estate_agency", "point_of_interest", "establishment"]}, "ChIJIW6N0soadkgR6JTWXQ3x92M": {"geometry": {"location": {"lat": 51.5150225, "lng": -0.1622114}, "viewport": {"northeast": {"lat": 51.51642013029151, "lng": -0.160883419708498}, "southwest": {"lat": 51.51372216970851, "lng": -0.163581380291502}}}, "name": "Browning Environmental Communications", "place_id": "ChIJIW6N0soadkgR6JTWXQ3x92M", "types": ["point_of_interest", "establishment"]}, "ChIJo1cfdMoadkgRKQmGE3i6ZZk": {"geometry": {"location": {"lat": 51.51856631300851, "lng": -0.1643049445251332}, "viewport": {"northeast": {"lat": 51.51991573029149, "lng": -0.162954569708498}, "southwest": {"lat": 51.51721776970849, "lng": -0.165652530291502}}}, "name": "16-3 Shouldham St", "place_id": "ChIJo1cfdMoadkgRKQmGE3i6ZZk", "types": ["route"]}, "ChIJW6SCWMoadkgRu6IgoaJSars": {"geometry": {"location": {"lat": 51.51836189999999, "lng": -0.1632576}, "viewport": {"northeast": {"lat": 51.51985933029149, "lng": -0.161670369708498}, "southwest": {"lat": 51.5171613697085, "lng": -0.164368330291502}}}, "name": "Seymour Leisure Centre", "place_id": "ChIJW6SCWMoadkgRu6IgoaJSars", "types": ["gym", "school", "health", "point_of_interest", "establishment"], "rating": 3.6, "user_ratings_total": 285}, "ChIJuZ_yE9UTdkgRdGgXeApSn2w": {"geometry": {"location": {"lat": 51.5183793, "lng": -0.1642488}, "viewport": {"northeast": {"lat": 51.5197597802915, "lng": -0.162841469708498}, "southwest": {"lat": 51.5170618197085, "lng": -0.165539430291502}}}, "name": "Dominvs Group", "place_id": "ChIJuZ_yE9UTdkgRdGgXeApSn2w", "types": ["finance", "real_estate_agency", "general_contractor", "point_of_interest", "establishment"], "rating": 4.3, "user_ratings_total": 4}, "ChIJkVdaeMoadkgRBHV-q378NVE": {"geometry": {"location": {"lat": 51.5180653, "lng": -0.1643241}, "viewport": {"northeast": {"lat": 51.51938258029151, "lng": -0.163033619708498}, "southwest": {"lat": 51.51668461970851, "lng": -0.165731580291502}}}, "name": "High Commission of Tonga, London", "place_id": "ChIJkVdaeMoadkgRBHV-q378NVE", "types": ["embassy", "point_of_interest", "establishment"], "rating": 5, "user_ratings_total": 1}, "ChIJbTo4c8oadkgR9ZT3223Cdto": {"geometry": {"location": {"lat": 51.5187912, "lng": -0.1640556}, "viewport": {"northeast": {"lat": 51.5202186302915, "lng": -0.162742819708498}, "southwest": {"lat": 51.5175206697085, "lng": -0.165440780291502}}}, "name": "Focus Detectives", "place_id": "ChIJbTo4c8oadkgR9ZT3223Cdto", "types": ["point_of_interest", "establishment"]}, "ChIJ73-XjyobdkgR9oV227a_saM": {"geometry": {"location": {"lat": 51.518696, "lng": -0.1647144}, "viewport": {"northeast": {"lat": 51.52008448029149, "lng": -0.163309269708498}, "southwest": {"lat": 51.5173865197085, "lng": -0.1660072302915021}}}, "name": "The 10 Group", "place_id": "ChIJ73-XjyobdkgR9oV227a_saM", "types": ["point_of_interest", "establishment"], "rating": 5, "user_ratings_total": 1}, "ChIJe5y8EsoadkgRXV2MG8NM_RI": {"geometry": {"location": {"lat": 51.518899, "lng": -0.163735}, "viewport": {"northeast": {"lat": 51.52030178029149, "lng": -0.162411619708498}, "southwest": {"lat": 51.5176038197085, "lng": -0.165109580291502}}}, "name": "Morpheus", "place_id": "ChIJe5y8EsoadkgRXV2MG8NM_RI", "types": ["gym", "health", "point_of_interest", "establishment"]}, "ChIJPUxNt84bdkgRJHoCQWbPD5M": {"geometry": {"location": {"lat": 51.5183793, "lng": -0.1642488}, "viewport": {"northeast": {"lat": 51.5197603302915, "lng": -0.162842169708498}, "southwest": {"lat": 51.5170623697085, "lng": -0.165540130291502}}}, "name": "Dominvs Aviation", "place_id": "ChIJPUxNt84bdkgRJHoCQWbPD5M", "types": ["point_of_interest", "establishment"]}, "ChIJ-f9Ld8oadkgRO5PfL4NN35Y": {"geometry": {"location": {"lat": 51.5183793, "lng": -0.1642488}, "viewport": {"northeast": {"lat": 51.5197603302915, "lng": -0.162842169708498}, "southwest": {"lat": 51.5170623697085, "lng": -0.165540130291502}}}, "name": "CHRISTOPHER SCHOLEY", "place_id": "ChIJ-f9Ld8oadkgRO5PfL4NN35Y", "types": ["point_of_interest", "establishment"]}, "ChIJqQ1x0r4bdkgRTBs-pFpp6gY": {"geometry": {"location": {"lat": 51.5182403, "lng": -0.1640322}, "viewport": {"northeast": {"lat": 51.5196177802915, "lng": -0.162632019708498}, "southwest": {"lat": 51.51691981970851, "lng": -0.1653299802915021}}}, "name": "Marbel arch inn", "place_id": "ChIJqQ1x0r4bdkgRTBs-pFpp6gY", "types": ["lodging", "point_of_interest", "establishment"]}, "ChIJqRbpAvUbdkgR5zbmWXCnBe8": {"geometry": {"location": {"lat": 51.518164, "lng": -0.163632}, "viewport": {"northeast": {"lat": 51.5195379802915, "lng": -0.162293869708498}, "southwest": {"lat": 51.5168400197085, "lng": -0.164991830291502}}}, "name": "JustPark | London, Bryanston Place", "place_id": "ChIJqRbpAvUbdkgR5zbmWXCnBe8", "types": ["parking", "point_of_interest", "establishment"]}, "ChIJGTJCphwbdkgR2IiQ9XjHdHk": {"geometry": {"location": {"lat": 51.5185901, "lng": -0.163511}, "viewport": {"northeast": {"lat": 51.51981168029149, "lng": -0.162397969708498}, "southwest": {"lat": 51.51711371970849, "lng": -0.165095930291502}}}, "name": "Serpentine Running Club", "place_id": "ChIJGTJCphwbdkgR2IiQ9XjHdHk", "types": ["point_of_interest", "establishment"], "rating": 5, "user_ratings_total": 2}, "ChIJccYPiLUadkgRKDch6_nBfJY": {"geometry": {"location": {"lat": 51.5182151, "lng": -0.1645746}, "viewport": {"northeast": {"lat": 51.5195386802915, "lng": -0.163272469708498}, "southwest": {"lat": 51.5168407197085, "lng": -0.165970430291502}}}, "name": "Barham House", "place_id": "ChIJccYPiLUadkgRKDch6_nBfJY", "types": ["point_of_interest", "establishment"]}, "ChIJ6cFHc8oadkgRFn8-9K3i5u4": {"geometry": {"location": {"lat": 51.5187905, "lng": -0.16407}, "viewport": {"northeast": {"lat": 51.52021708029149, "lng": -0.162756819708498}, "southwest": {"lat": 51.5175191197085, "lng": -0.165454780291502}}}, "name": "Make Life Happen", "place_id": "ChIJ6cFHc8oadkgRFn8-9K3i5u4", "types": ["health", "point_of_interest", "establishment"]}, "ChIJc-UKZcoadkgRQ5QHw81cES4": {"geometry": {"location": {"lat": 51.51809, "lng": -0.163609}, "viewport": {"northeast": {"lat": 51.5194496302915, "lng": -0.162240219708498}, "southwest": {"lat": 51.5167516697085, "lng": -0.164938180291502}}}, "name": "Santander Cycles", "place_id": "ChIJc-UKZcoadkgRQ5QHw81cES4", "types": ["point_of_interest", "establishment"], "rating": 5, "user_ratings_total": 2}, "ChIJ48qNQMoadkgRglbwu-RTZ0o": {"geometry": {"location": {"lat": 51.5186349, "lng": -0.1633748}, "viewport": {"northeast": {"lat": 51.52003593029149, "lng": -0.161748169708498}, "southwest": {"lat": 51.51733796970849, "lng": -0.164446130291502}}}, "name": "Koryo Taekwondo Academy", "place_id": "ChIJ48qNQMoadkgRglbwu-RTZ0o", "types": ["health", "point_of_interest", "establishment"], "rating": 4.8, "user_ratings_total": 17}, "ChIJHSPc21UbdkgR77pshTkXOa0": {"geometry": {"location": {"lat": 51.5181844, "lng": -0.1633438}, "viewport": {"northeast": {"lat": 51.51957428029149, "lng": -0.162012769708498}, "southwest": {"lat": 51.51687631970849, "lng": -0.164710730291502}}}, "name": "Sherwood Court Car Park - MY CAR PARKS", "place_id": "ChIJHSPc21UbdkgR77pshTkXOa0", "types": ["parking", "point_of_interest", "establishment"], "rating": 4.2, "user_ratings_total": 5}, "ChIJhY5T8icbdkgRQCEfEnFVtRU": {"geometry": {"location": {"lat": 51.5183758, "lng": -0.1632589}, "viewport": {"northeast": {"lat": 51.51985553029149, "lng": -0.1616283697084979}, "southwest": {"lat": 51.5171575697085, "lng": -0.164326330291502}}}, "name": "Peak Body Coaching", "place_id": "ChIJhY5T8icbdkgRQCEfEnFVtRU", "types": ["gym", "health", "point_of_interest", "establishment"], "rating": 5, "user_ratings_total": 26}, "ChIJNfQFa8oadkgR1ObeGhv-o-g": {"geometry": {"location": {"lat": 51.51837870000001, "lng": -0.1632359}, "viewport": {"northeast": {"lat": 51.5198569802915, "lng": -0.161616569708498}, "southwest": {"lat": 51.5171590197085, "lng": -0.164314530291502}}}, "name": "Amber Beauty Salon", "place_id": "ChIJNfQFa8oadkgR1ObeGhv-o-g", "types": ["beauty_salon", "point_of_interest", "establishment"], "rating": 4.7, "user_ratings_total": 30}, "ChIJVXvGmIYbdkgRRQRHd6UfFe4": {"geometry": {"location": {"lat": 51.5179172, "lng": -0.1640646}, "viewport": {"northeast": {"lat": 51.5192264302915, "lng": -0.162789019708498}, "southwest": {"lat": 51.5165284697085, "lng": -0.165486980291502}}}, "name": "Veeve Star Of Marylebone", "place_id": "ChIJVXvGmIYbdkgRRQRHd6UfFe4", "types": ["lodging", "point_of_interest", "establishment"]}, "ChIJSWGZu8YbdkgRKyE2AbMfT6M": {"geometry": {"location": {"lat": 51.51888229999999, "lng": -0.1637183}, "viewport": {"northeast": {"lat": 51.5202941802915, "lng": -0.162399219708498}, "southwest": {"lat": 51.51759621970851, "lng": -0.165097180291502}}}, "name": "Veroulinker", "place_id": "ChIJSWGZu8YbdkgRKyE2AbMfT6M", "types": ["finance", "point_of_interest", "establishment"]}, "ChIJQ0fdo1YbdkgRP256IFDOmLE": {"geometry": {"location": {"lat": 51.51888229999999, "lng": -0.1637183}, "viewport": {"northeast": {"lat": 51.5202941802915, "lng": -0.162399219708498}, "southwest": {"lat": 51.51759621970851, "lng": -0.165097180291502}}}, "name": "Drainage Response", "place_id": "ChIJQ0fdo1YbdkgRP256IFDOmLE", "types": ["general_contractor", "point_of_interest", "establishment"]}, "ChIJZV7bh7UadkgRJPtfjVbQZ6s": {"geometry": {"location": {"lat": 51.5180886, "lng": -0.1647362}, "viewport": {"northeast": {"lat": 51.5194643802915, "lng": -0.163337769708498}, "southwest": {"lat": 51.5167664197085, "lng": -0.166035730291502}}}, "name": "Ro\u2019ya Petro Services Ltd.", "place_id": "ChIJZV7bh7UadkgRJPtfjVbQZ6s", "types": ["point_of_interest", "establishment"]}, "ChIJybxsh8oadkgRrfqxBpgT3T0": {"geometry": {"location": {"lat": 51.51745620556282, "lng": -0.1639869426431384}, "viewport": {"northeast": {"lat": 51.5188056302915, "lng": -0.162638369708498}, "southwest": {"lat": 51.5161076697085, "lng": -0.165336330291502}}}, "name": "11 Harrowby St", "place_id": "ChIJybxsh8oadkgRrfqxBpgT3T0", "types": ["route"]}, "ChIJO5D5f7UadkgRWDXcRVpNjJk": {"geometry": {"location": {"lat": 51.5174675, "lng": -0.1646263}, "viewport": {"northeast": {"lat": 51.5188855802915, "lng": -0.163221619708498}, "southwest": {"lat": 51.5161876197085, "lng": -0.165919580291502}}}, "name": "Rosenthal", "place_id": "ChIJO5D5f7UadkgRWDXcRVpNjJk", "types": ["accounting", "finance", "point_of_interest", "establishment"]}, "ChIJA6KAfcoadkgRS3qUq6Z7U_Q": {"geometry": {"location": {"lat": 51.5175316, "lng": -0.1640164}, "viewport": {"northeast": {"lat": 51.5189165302915, "lng": -0.1626001197084979}, "southwest": {"lat": 51.5162185697085, "lng": -0.165298080291502}}}, "name": "The Duke Rooms London", "place_id": "ChIJA6KAfcoadkgRS3qUq6Z7U_Q", "types": ["lodging", "bar", "restaurant", "food", "point_of_interest", "establishment"], "rating": 4, "user_ratings_total": 222}, "ChIJXfidgMoadkgRZ7c5B6-0Mss": {"geometry": {"location": {"lat": 51.5174906, "lng": -0.1642058}, "viewport": {"northeast": {"lat": 51.5187972302915, "lng": -0.162816469708498}, "southwest": {"lat": 51.5160992697085, "lng": -0.1655144302915021}}}, "name": "Hai Gallery", "place_id": "ChIJXfidgMoadkgRZ7c5B6-0Mss", "types": ["art_gallery", "point_of_interest", "establishment"]}, "ChIJqVrofcoadkgRtIzvbxbvo3c": {"geometry": {"location": {"lat": 51.5176064, "lng": -0.1640943}, "viewport": {"northeast": {"lat": 51.5189876802915, "lng": -0.162686619708498}, "southwest": {"lat": 51.5162897197085, "lng": -0.165384580291502}}}, "name": "Property International", "place_id": "ChIJqVrofcoadkgRtIzvbxbvo3c", "types": ["point_of_interest", "establishment"]}, "ChIJtRMjqz8bdkgRT1jW8Z9GZ40": {"geometry": {"location": {"lat": 51.5174906, "lng": -0.1642058}, "viewport": {"northeast": {"lat": 51.51883958029149, "lng": -0.162856819708498}, "southwest": {"lat": 51.51614161970849, "lng": -0.1655547802915021}}}, "name": "VovoKa Cleaning Services", "place_id": "ChIJtRMjqz8bdkgRT1jW8Z9GZ40", "types": ["point_of_interest", "establishment"]}, "ChIJtfzKV9MEdkgRUTKN1xqS7wY": {"geometry": {"location": {"lat": 51.51748509999999, "lng": -0.1642072}, "viewport": {"northeast": {"lat": 51.51879353029149, "lng": -0.162819619708498}, "southwest": {"lat": 51.51609556970849, "lng": -0.165517580291502}}}, "name": "Orped Studio", "place_id": "ChIJtfzKV9MEdkgRUTKN1xqS7wY", "types": ["point_of_interest", "establishment"]}, "ChIJN5D5f7UadkgRTzbjmmituM0": {"geometry": {"location": {"lat": 51.5175032, "lng": -0.1645542}, "viewport": {"northeast": {"lat": 51.51890343029151, "lng": -0.163204219708498}, "southwest": {"lat": 51.51620546970851, "lng": -0.165902180291502}}}, "name": "Base Associates Ltd", "place_id": "ChIJN5D5f7UadkgRTzbjmmituM0", "types": ["point_of_interest", "establishment"]}, "ChIJbfWLYsoadkgRwiBcg6JfC6M": {"geometry": {"location": {"lat": 51.51766259999999, "lng": -0.1637465}, "viewport": {"northeast": {"lat": 51.51897458029149, "lng": -0.162454819708498}, "southwest": {"lat": 51.51627661970849, "lng": -0.165152780291502}}}, "name": "Tourists Travel Bureau UK Limited", "place_id": "ChIJbfWLYsoadkgRwiBcg6JfC6M", "types": ["point_of_interest", "establishment"], "rating": 5, "user_ratings_total": 6}, "ChIJ2X0AfsoadkgR8bxMB719MOw": {"geometry": {"location": {"lat": 51.5174993, "lng": -0.1642456}, "viewport": {"northeast": {"lat": 51.5187969802915, "lng": -0.162847369708498}, "southwest": {"lat": 51.5160990197085, "lng": -0.165545330291502}}}, "name": "Park Estates London Limited", "place_id": "ChIJ2X0AfsoadkgR8bxMB719MOw", "types": ["real_estate_agency", "finance", "point_of_interest", "establishment"], "rating": 4.7, "user_ratings_total": 14}, "ChIJbfWLYsoadkgR5ioh1mcVVD0": {"geometry": {"location": {"lat": 51.51771460000001, "lng": -0.1636204}, "viewport": {"northeast": {"lat": 51.51901838029151, "lng": -0.162228219708498}, "southwest": {"lat": 51.51632041970851, "lng": -0.1649261802915021}}}, "name": "Destination Capital Limited", "place_id": "ChIJbfWLYsoadkgR5ioh1mcVVD0", "types": ["point_of_interest", "establishment"]}, "ChIJ4w7Ei8oadkgRal8hWFNEJmc": {"geometry": {"location": {"lat": 51.5171355, "lng": -0.1632829}, "viewport": {"northeast": {"lat": 51.5185579802915, "lng": -0.162004069708498}, "southwest": {"lat": 51.51586001970851, "lng": -0.164702030291502}}}, "name": "Prodigious", "place_id": "ChIJ4w7Ei8oadkgRal8hWFNEJmc", "types": ["point_of_interest", "establishment"], "rating": 4.8, "user_ratings_total": 6}, "ChIJm5lHicoadkgRpX7u6Zuaxow": {"geometry": {"location": {"lat": 51.51721790000001, "lng": -0.1634341}, "viewport": {"northeast": {"lat": 51.5185844802915, "lng": -0.162101969708498}, "southwest": {"lat": 51.5158865197085, "lng": -0.164799930291502}}}, "name": "102.2 Smooth Radio", "place_id": "ChIJm5lHicoadkgRpX7u6Zuaxow", "types": ["point_of_interest", "establishment"], "rating": 3.7, "user_ratings_total": 3}, "ChIJsWJzp7pvdkgRbYVhONewPKc": {"geometry": {"location": {"lat": 51.5171112, "lng": -0.1633653}, "viewport": {"northeast": {"lat": 51.5185313802915, "lng": -0.162084269708498}, "southwest": {"lat": 51.5158334197085, "lng": -0.164782230291502}}}, "name": "Tangerine Films", "place_id": "ChIJsWJzp7pvdkgRbYVhONewPKc", "types": ["point_of_interest", "establishment"], "rating": 5, "user_ratings_total": 2}, "ChIJ8QzZgMoadkgRJpNa1516v4I": {"geometry": {"location": {"lat": 51.51737199999999, "lng": -0.164207}, "viewport": {"northeast": {"lat": 51.5187490302915, "lng": -0.162885819708498}, "southwest": {"lat": 51.5160510697085, "lng": -0.165583780291502}}}, "name": "Santander Cycles", "place_id": "ChIJ8QzZgMoadkgRJpNa1516v4I", "types": ["point_of_interest", "establishment"], "rating": 5, "user_ratings_total": 1}, "ChIJcQ3p0T4bdkgRHd9Z8O56M1A": {"geometry": {"location": {"lat": 51.5173758, "lng": -0.1638111}, "viewport": {"northeast": {"lat": 51.51877848029149, "lng": -0.162513669708498}, "southwest": {"lat": 51.5160805197085, "lng": -0.165211630291502}}}, "name": "Creatiun", "place_id": "ChIJcQ3p0T4bdkgRHd9Z8O56M1A", "types": ["point_of_interest", "establishment"], "rating": 5, "user_ratings_total": 11}, "ChIJBXZVYcoadkgRM1GHKJvxc_g": {"geometry": {"location": {"lat": 51.5173466, "lng": -0.1642822}, "viewport": {"northeast": {"lat": 51.5187208302915, "lng": -0.1629594197084979}, "southwest": {"lat": 51.5160228697085, "lng": -0.165657380291502}}}, "name": "Hacker Own Brand Ltd", "place_id": "ChIJBXZVYcoadkgRM1GHKJvxc_g", "types": ["point_of_interest", "establishment"], "rating": 4.3, "user_ratings_total": 10}, "ChIJex30xugbdkgRW6b0_twMkDY": {"geometry": {"location": {"lat": 51.5174848, "lng": -0.1642112}, "viewport": {"northeast": {"lat": 51.5187925302915, "lng": -0.162822619708498}, "southwest": {"lat": 51.5160945697085, "lng": -0.165520580291502}}}, "name": "Akura Furnishings Ltd", "place_id": "ChIJex30xugbdkgRW6b0_twMkDY", "types": ["general_contractor", "point_of_interest", "establishment"]}, "ChIJrfOmgMoadkgR31EAf2iIG-0": {"geometry": {"location": {"lat": 51.5175067, "lng": -0.164208}, "viewport": {"northeast": {"lat": 51.51880703029151, "lng": -0.162812719708498}, "southwest": {"lat": 51.51610906970851, "lng": -0.165510680291502}}}, "name": "Resilience Training and Coaching", "place_id": "ChIJrfOmgMoadkgR31EAf2iIG-0", "types": ["point_of_interest", "establishment"]}, "ChIJAb6WgMoadkgRO_pQEyA2H-o": {"geometry": {"location": {"lat": 51.5174993, "lng": -0.1642456}, "viewport": {"northeast": {"lat": 51.5187969802915, "lng": -0.162847369708498}, "southwest": {"lat": 51.5160990197085, "lng": -0.165545330291502}}}, "name": "\u0635\u0627\u0644\u0648\u0646 \u0633\u0627\u0645\u0631 Samer Salon", "place_id": "ChIJAb6WgMoadkgRO_pQEyA2H-o", "types": ["hair_care", "health", "point_of_interest", "establishment"], "rating": 4.1, "user_ratings_total": 89}, "ChIJZXNx_H4bdkgRwcRYee4lHNI": {"geometry": {"location": {"lat": 51.5174624, "lng": -0.1643167}, "viewport": {"northeast": {"lat": 51.5187650802915, "lng": -0.162919519708498}, "southwest": {"lat": 51.5160671197085, "lng": -0.165617480291502}}}, "name": "Samer dry cleaners \u0645\u063a\u0633\u0644\u0629 \u0633\u0627\u0645\u0631", "place_id": "ChIJZXNx_H4bdkgRwcRYee4lHNI", "types": ["laundry", "point_of_interest", "establishment"], "rating": 4.3, "user_ratings_total": 7}, "ChIJ7x-SfcoadkgR6OZ1ghFR48k": {"geometry": {"location": {"lat": 51.5175449, "lng": -0.16407}, "viewport": {"northeast": {"lat": 51.5189320302915, "lng": -0.162639119708498}, "southwest": {"lat": 51.5162340697085, "lng": -0.165337080291502}}}, "name": "The Duke of York Gastro Pub", "place_id": "ChIJ7x-SfcoadkgR6OZ1ghFR48k", "types": ["bar", "restaurant", "food", "point_of_interest", "establishment"], "rating": 4.4, "user_ratings_total": 23}, "ChIJ74VoQwAbdkgRft4KwIwVKx8": {"geometry": {"location": {"lat": 51.5174353, "lng": -0.1643851}, "viewport": {"northeast": {"lat": 51.51873783029151, "lng": -0.162990119708498}, "southwest": {"lat": 51.51603986970851, "lng": -0.165688080291502}}}, "name": "RefriTech LTD", "place_id": "ChIJ74VoQwAbdkgRft4KwIwVKx8", "types": ["point_of_interest", "establishment"], "rating": 5, "user_ratings_total": 5}, "ChIJiQtZFSUbdkgRtyRmAcw8ww0": {"geometry": {"location": {"lat": 51.5173702, "lng": -0.1645942}, "viewport": {"northeast": {"lat": 51.5186672802915, "lng": -0.163193819708498}, "southwest": {"lat": 51.5159693197085, "lng": -0.165891780291502}}}, "name": "Richmond Global Link Ltd", "place_id": "ChIJiQtZFSUbdkgRtyRmAcw8ww0", "types": ["point_of_interest", "establishment"]}, "ChIJTew8fcoadkgRquKcNGYm4mU": {"geometry": {"location": {"lat": 51.517638, "lng": -0.163857}, "viewport": {"northeast": {"lat": 51.5189377302915, "lng": -0.162460919708498}, "southwest": {"lat": 51.5162397697085, "lng": -0.1651588802915021}}}, "name": "ubitricity Charging Station", "place_id": "ChIJTew8fcoadkgRquKcNGYm4mU", "types": ["point_of_interest", "establishment"]}, "ChIJL-1cfsoadkgRDtocVu9jN4A": {"geometry": {"location": {"lat": 51.5176517, "lng": -0.1642583}, "viewport": {"northeast": {"lat": 51.5190479802915, "lng": -0.162821969708498}, "southwest": {"lat": 51.5163500197085, "lng": -0.1655199302915021}}}, "name": "Single Invoice Finance Ltd", "place_id": "ChIJL-1cfsoadkgRDtocVu9jN4A", "types": ["finance", "point_of_interest", "establishment"]}, "ChIJN8T7TGMbdkgRv0xOeLPoMJM": {"geometry": {"location": {"lat": 51.517298, "lng": -0.1646509}, "viewport": {"northeast": {"lat": 51.5186124802915, "lng": -0.163270869708498}, "southwest": {"lat": 51.5159145197085, "lng": -0.165968830291502}}}, "name": "Victoria Salon \u0635\u0627\u0644\u0648\u0646 \u0641\u064a\u0643\u062a\u0648\u0631\u064a\u0627", "place_id": "ChIJN8T7TGMbdkgRv0xOeLPoMJM", "types": ["hair_care", "health", "point_of_interest", "establishment"], "rating": 4.6, "user_ratings_total": 11}, "ChIJO5D5f7UadkgRsYzXfjWXWfg": {"geometry": {"location": {"lat": 51.5175032, "lng": -0.1645542}, "viewport": {"northeast": {"lat": 51.51890343029151, "lng": -0.163204219708498}, "southwest": {"lat": 51.51620546970851, "lng": -0.165902180291502}}}, "name": "Angus Dundee Distillers PLC", "place_id": "ChIJO5D5f7UadkgRsYzXfjWXWfg", "types": ["point_of_interest", "establishment"], "rating": 3, "user_ratings_total": 2}, "ChIJRfKWsPgbdkgRLVPJ-1qCPHU": {"geometry": {"location": {"lat": 51.51766259999999, "lng": -0.1637465}, "viewport": {"northeast": {"lat": 51.5193033802915, "lng": -0.1627038000000001}, "southwest": {"lat": 51.5166054197085, "lng": -0.1668746}}}, "name": "BioLab London", "place_id": "ChIJRfKWsPgbdkgRLVPJ-1qCPHU", "types": ["hospital", "health", "point_of_interest", "establishment"], "rating": 5, "user_ratings_total": 21}, "ChIJj1Kpf7UadkgRl7K4CptzHSo": {"geometry": {"location": {"lat": 51.51737929999999, "lng": -0.164677}, "viewport": {"northeast": {"lat": 51.5186615802915, "lng": -0.163261919708498}, "southwest": {"lat": 51.5159636197085, "lng": -0.1659598802915021}}}, "name": "Cctv Supply & Sales", "place_id": "ChIJj1Kpf7UadkgRl7K4CptzHSo", "types": ["point_of_interest", "establishment"]}, "ChIJkYvrfrUadkgRMWvG9v7vFdY": {"geometry": {"location": {"lat": 51.517396, "lng": -0.1646923}, "viewport": {"northeast": {"lat": 51.5187108302915, "lng": -0.163406569708498}, "southwest": {"lat": 51.5160128697085, "lng": -0.166104530291502}}}, "name": "Apartamento Final", "place_id": "ChIJkYvrfrUadkgRMWvG9v7vFdY", "types": ["lodging", "point_of_interest", "establishment"], "rating": 5, "user_ratings_total": 2}, "ChIJg9btfMoadkgRelRiJwPV2t0": {"geometry": {"location": {"lat": 51.5177484, "lng": -0.1639099}, "viewport": {"northeast": {"lat": 51.51907008029149, "lng": -0.162610569708498}, "southwest": {"lat": 51.5163721197085, "lng": -0.165308530291502}}}, "name": "Cashflow Ninja Limited", "place_id": "ChIJg9btfMoadkgRelRiJwPV2t0", "types": ["accounting", "finance", "point_of_interest", "establishment"]}, "ChIJL3v9ObIbdkgRIX_w4d7OiPM": {"geometry": {"location": {"lat": 51.51777939999999, "lng": -0.1642987}, "viewport": {"northeast": {"lat": 51.5191543802915, "lng": -0.162901719708498}, "southwest": {"lat": 51.5164564197085, "lng": -0.165599680291502}}}, "name": "Snapr", "place_id": "ChIJL3v9ObIbdkgRIX_w4d7OiPM", "types": ["point_of_interest", "establishment"], "rating": 1, "user_ratings_total": 1}, "ChIJ50mPXZUbdkgRhl9sSvRP25E": {"geometry": {"location": {"lat": 51.5173178, "lng": -0.1648966}, "viewport": {"northeast": {"lat": 51.5186743302915, "lng": -0.163533569708498}, "southwest": {"lat": 51.5159763697085, "lng": -0.166231530291502}}}, "name": "London home", "place_id": "ChIJ50mPXZUbdkgRhl9sSvRP25E", "types": ["point_of_interest", "establishment"]}, "ChIJ7eaDicoadkgRoAiPxYayNkg": {"geometry": {"location": {"lat": 51.5173375, "lng": -0.1635267}, "viewport": {"northeast": {"lat": 51.51872346660637, "lng": -0.1620900612092831}, "southwest": {"lat": 51.51602550602338, "lng": -0.1647880217922871}}}, "name": "Parking lot", "place_id": "ChIJ7eaDicoadkgRoAiPxYayNkg", "types": ["parking", "premise", "point_of_interest", "establishment"]}, "ChIJI94JYLUadkgRKXRiOAoO8WU": {"geometry": {"location": {"lat": 51.51621410041926, "lng": -0.1645373485107178}, "viewport": {"northeast": {"lat": 51.5175630802915, "lng": -0.163188369708498}, "southwest": {"lat": 51.5148651197085, "lng": -0.165886330291502}}}, "name": "Edgware Road", "place_id": "ChIJI94JYLUadkgRKXRiOAoO8WU", "types": ["route"]}, "ChIJCfVIlsoadkgRdELI-JQksDo": {"geometry": {"location": {"lat": 51.5163963, "lng": -0.1638291}, "viewport": {"northeast": {"lat": 51.5177665302915, "lng": -0.162616069708498}, "southwest": {"lat": 51.5150685697085, "lng": -0.165314030291502}}}, "name": "London Marriott Hotel Marble Arch", "place_id": "ChIJCfVIlsoadkgRdELI-JQksDo", "types": ["lodging", "point_of_interest", "establishment"], "rating": 4.2, "user_ratings_total": 1252}, "ChIJvf4PSlIDdkgR9v-qtHbZD7I": {"geometry": {"location": {"lat": 51.5164413, "lng": -0.1645557}, "viewport": {"northeast": {"lat": 51.5178329302915, "lng": -0.163231519708498}, "southwest": {"lat": 51.5151349697085, "lng": -0.165929480291502}}}, "name": "The Real Asset Company", "place_id": "ChIJvf4PSlIDdkgR9v-qtHbZD7I", "types": ["finance", "point_of_interest", "store", "establishment"], "rating": 4.5, "user_ratings_total": 2}, "ChIJAzUsnsoadkgRgEretnGmRew": {"geometry": {"location": {"lat": 51.5164328, "lng": -0.164441}, "viewport": {"northeast": {"lat": 51.51783958029149, "lng": -0.163125619708498}, "southwest": {"lat": 51.51514161970849, "lng": -0.165823580291502}}}, "name": "Probate/Employment Law Firms London", "place_id": "ChIJAzUsnsoadkgRgEretnGmRew", "types": ["lawyer", "point_of_interest", "establishment"]}, "ChIJmaTACL-RcUgRienFgYeO5R0": {"geometry": {"location": {"lat": 51.516462, "lng": -0.164354}, "viewport": {"northeast": {"lat": 51.5178410802915, "lng": -0.162952319708498}, "southwest": {"lat": 51.5151431197085, "lng": -0.165650280291502}}}, "name": "Research Autism", "place_id": "ChIJmaTACL-RcUgRienFgYeO5R0", "types": ["point_of_interest", "establishment"]}, "ChIJQw0ZosoadkgR6bCuH3Uh00Q": {"geometry": {"location": {"lat": 51.5163119, "lng": -0.1644759}, "viewport": {"northeast": {"lat": 51.5176293802915, "lng": -0.163182919708498}, "southwest": {"lat": 51.5149314197085, "lng": -0.165880880291502}}},