{"E00023803": {"ChIJ8aOes6AadkgRUcj_ipebD3A": {"geometry": {"location": {"lat": 51.53081413764621, "lng": -0.1871221211306064}, "viewport": {"northeast": {"lat": 51.53216493029149, "lng": -0.185769569708498}, "southwest": {"lat": 51.5294669697085, "lng": -0.188467530291502}}}, "name": "171-203 Randolph Ave", "place_id": "ChIJ8aOes6AadkgRUcj_ipebD3A", "types": ["route"]}, "ChIJsXALMacadkgRbNv1JNUguGk": {"geometry": {"location": {"lat": 51.5303754, "lng": -0.1863827}, "viewport": {"northeast": {"lat": 51.5316878302915, "lng": -0.185099219708498}, "southwest": {"lat": 51.5289898697085, "lng": -0.187797180291502}}}, "name": "Zipcar", "place_id": "ChIJsXALMacadkgRbNv1JNUguGk", "types": ["car_rental", "point_of_interest", "establishment"]}, "ChIJSeCqR6cadkgR7hDlvutWBiY": {"geometry": {"location": {"lat": 51.52996530000001, "lng": -0.1864298}, "viewport": {"northeast": {"lat": 51.5312413802915, "lng": -0.184992619708498}, "southwest": {"lat": 51.52854341970851, "lng": -0.1876905802915021}}}, "name": "The Content Organisation", "place_id": "ChIJSeCqR6cadkgR7hDlvutWBiY", "types": ["point_of_interest", "establishment"]}, "ChIJf9nYOacadkgRzL9N0w_C1Jg": {"geometry": {"location": {"lat": 51.529965, "lng": -0.1864262}, "viewport": {"northeast": {"lat": 51.53124173029151, "lng": -0.184989819708498}, "southwest": {"lat": 51.52854376970851, "lng": -0.187687780291502}}}, "name": "Dr P Milton - Randolph Surgery", "place_id": "ChIJf9nYOacadkgRzL9N0w_C1Jg", "types": ["doctor", "health", "point_of_interest", "establishment"]}, "ChIJa2GqMacadkgRfl62bVg9JMw": {"geometry": {"location": {"lat": 51.530154, "lng": -0.186137}, "viewport": {"northeast": {"lat": 51.5315059802915, "lng": -0.184866569708498}, "southwest": {"lat": 51.5288080197085, "lng": -0.187564530291502}}}, "name": "Starbucks Coffee", "place_id": "ChIJa2GqMacadkgRfl62bVg9JMw", "types": ["cafe", "restaurant", "food", "point_of_interest", "store", "establishment"], "rating": 3.9, "user_ratings_total": 308}, "ChIJSeCqR6cadkgREAhfB47cjtg": {"geometry": {"location": {"lat": 51.529965, "lng": -0.1864262}, "viewport": {"northeast": {"lat": 51.53124173029151, "lng": -0.184989819708498}, "southwest": {"lat": 51.52854376970851, "lng": -0.187687780291502}}}, "name": "Dr H Martin - Randolph Surgery", "place_id": "ChIJSeCqR6cadkgREAhfB47cjtg", "types": ["doctor", "health", "point_of_interest", "establishment"], "rating": 5, "user_ratings_total": 1}, "ChIJNw-pR6cadkgRTYx-QnQqhrY": {"geometry": {"location": {"lat": 51.529965, "lng": -0.1864262}, "viewport": {"northeast": {"lat": 51.53124173029151, "lng": -0.184989819708498}, "southwest": {"lat": 51.52854376970851, "lng": -0.187687780291502}}}, "name": "Dr A Berger", "place_id": "ChIJNw-pR6cadkgRTYx-QnQqhrY", "types": ["doctor", "health", "point_of_interest", "establishment"]}, "ChIJf9nYOacadkgRVl11-ozH5lg": {"geometry": {"location": {"lat": 51.529965, "lng": -0.1864262}, "viewport": {"northeast": {"lat": 51.53124173029151, "lng": -0.184989819708498}, "southwest": {"lat": 51.52854376970851, "lng": -0.187687780291502}}}, "name": "Dr L Bello - Randolph Surgery", "place_id": "ChIJf9nYOacadkgRVl11-ozH5lg", "types": ["doctor", "health", "point_of_interest", "establishment"]}, "ChIJf9nYOacadkgRWuOGtFTzYoI": {"geometry": {"location": {"lat": 51.529965, "lng": -0.1864262}, "viewport": {"northeast": {"lat": 51.53124173029151, "lng": -0.184989819708498}, "southwest": {"lat": 51.52854376970851, "lng": -0.187687780291502}}}, "name": "Randolph Surgery", "place_id": "ChIJf9nYOacadkgRWuOGtFTzYoI", "types": ["doctor", "health", "point_of_interest", "establishment"], "rating": 4.2, "user_ratings_total": 141}, "ChIJ4ybZOacadkgRj8JZu6PHopU": {"geometry": {"location": {"lat": 51.529963, "lng": -0.1864264}, "viewport": {"northeast": {"lat": 51.5312403302915, "lng": -0.184990719708498}, "southwest": {"lat": 51.5285423697085, "lng": -0.187688680291502}}}, "name": "Dr A Nessa - The Randolph Surgery", "place_id": "ChIJ4ybZOacadkgRj8JZu6PHopU", "types": ["doctor", "health", "point_of_interest", "establishment"]}, "ChIJ4ybZOacadkgRTJRghJuNtJU": {"geometry": {"location": {"lat": 51.529963, "lng": -0.1864264}, "viewport": {"northeast": {"lat": 51.5312403302915, "lng": -0.184990719708498}, "southwest": {"lat": 51.5285423697085, "lng": -0.187688680291502}}}, "name": "Dr M Tahir - The Randolph Surgery", "place_id": "ChIJ4ybZOacadkgRTJRghJuNtJU", "types": ["doctor", "health", "point_of_interest", "establishment"]}, "ChIJ4ybZOacadkgR8UqX5jX2aIo": {"geometry": {"location": {"lat": 51.529963, "lng": -0.1864264}, "viewport": {"northeast": {"lat": 51.5312403302915, "lng": -0.184990719708498}, "southwest": {"lat": 51.5285423697085, "lng": -0.187688680291502}}}, "name": "Dr Z Toukan - The Randolph Surgery", "place_id": "ChIJ4ybZOacadkgR8UqX5jX2aIo", "types": ["doctor", "health", "point_of_interest", "establishment"]}, "ChIJ2QJFmlYbdkgRl8EJPnCiRss": {"geometry": {"location": {"lat": 51.5298386, "lng": -0.1867219}, "viewport": {"northeast": {"lat": 51.53118758029149, "lng": -0.185372919708498}, "southwest": {"lat": 51.52848961970849, "lng": -0.188070880291502}}}, "name": "Leon Kammer Coaching", "place_id": "ChIJ2QJFmlYbdkgRl8EJPnCiRss", "types": ["health", "point_of_interest", "establishment"]}, "ChIJ17eVv50bdkgR0Uclh6Inxis": {"geometry": {"location": {"lat": 51.5303979, "lng": -0.1860864}, "viewport": {"northeast": {"lat": 51.5317447802915, "lng": -0.1847349197084979}, "southwest": {"lat": 51.5290468197085, "lng": -0.187432880291502}}}, "name": "Motivo", "place_id": "ChIJ17eVv50bdkgR0Uclh6Inxis", "types": ["point_of_interest", "establishment"]}, "ChIJTRugtKAadkgRH_zshqGtNdI": {"geometry": {"location": {"lat": 51.530739, "lng": -0.1868887}, "viewport": {"northeast": {"lat": 51.5320691802915, "lng": -0.185589519708498}, "southwest": {"lat": 51.5293712197085, "lng": -0.188287480291502}}}, "name": "ubitricity Charging Station", "place_id": "ChIJTRugtKAadkgRH_zshqGtNdI", "types": ["point_of_interest", "establishment"]}, "ChIJt1i0CwcbdkgR6CRNOblYGt0": {"geometry": {"location": {"lat": 51.5300875, "lng": -0.1860667}, "viewport": {"northeast": {"lat": 51.5313765802915, "lng": -0.184646569708498}, "southwest": {"lat": 51.5286786197085, "lng": -0.187344530291502}}}, "name": "GAIL's Bakery Maida Vale", "place_id": "ChIJt1i0CwcbdkgR6CRNOblYGt0", "types": ["bakery", "meal_delivery", "cafe", "restaurant", "food", "point_of_interest", "store", "establishment"], "rating": 4.1, "user_ratings_total": 164}, "ChIJ33evQKcadkgR_32StRzlz24": {"geometry": {"location": {"lat": 51.52964630062937, "lng": -0.1866234015230821}, "viewport": {"northeast": {"lat": 51.5309952802915, "lng": -0.185274419708498}, "southwest": {"lat": 51.5282973197085, "lng": -0.187972380291502}}}, "name": "282-266 Elgin Ave", "place_id": "ChIJ33evQKcadkgR_32StRzlz24", "types": ["route"]}, "ChIJ0an7VqcadkgRAeYsKPakwuE": {"geometry": {"location": {"lat": 51.5293257, "lng": -0.1870338}, "viewport": {"northeast": {"lat": 51.53066338029149, "lng": -0.185704819708498}, "southwest": {"lat": 51.52796541970849, "lng": -0.188402780291502}}}, "name": "English Table Tennis Association - Maida Vale", "place_id": "ChIJ0an7VqcadkgRAeYsKPakwuE", "types": ["point_of_interest", "establishment"], "rating": 5, "user_ratings_total": 1}, "ChIJOcL8Q6cadkgRsB4zYUYMVO0": {"geometry": {"location": {"lat": 51.52962360000001, "lng": -0.1872027}, "viewport": {"northeast": {"lat": 51.5308932302915, "lng": -0.185757769708498}, "southwest": {"lat": 51.5281952697085, "lng": -0.188455730291502}}}, "name": "Go-Faster Consultancy Ltd.", "place_id": "ChIJOcL8Q6cadkgRsB4zYUYMVO0", "types": ["point_of_interest", "establishment"], "rating": 3, "user_ratings_total": 1}, "ChIJ--TYRqcadkgR5DGn4iceJPQ": {"geometry": {"location": {"lat": 51.52969909999999, "lng": -0.1868675}, "viewport": {"northeast": {"lat": 51.5309947302915, "lng": -0.185453969708498}, "southwest": {"lat": 51.5282967697085, "lng": -0.188151930291502}}}, "name": "Urban Angels", "place_id": "ChIJ--TYRqcadkgR5DGn4iceJPQ", "types": ["point_of_interest", "store", "establishment"]}, "ChIJq6pGFKcadkgR-moa1HhZIVk": {"geometry": {"location": {"lat": 51.52909089999999, "lng": -0.1864167}, "viewport": {"northeast": {"lat": 51.53038223029149, "lng": -0.1851874197084979}, "southwest": {"lat": 51.52768426970849, "lng": -0.187885380291502}}}, "name": "London Technology Club Limited", "place_id": "ChIJq6pGFKcadkgR-moa1HhZIVk", "types": ["point_of_interest", "establishment"]}, "ChIJwwkHDHgRdkgRF4JzPoPJ2t4": {"geometry": {"location": {"lat": 51.5295079, "lng": -0.1866345}, "viewport": {"northeast": {"lat": 51.53089938029149, "lng": -0.185336969708498}, "southwest": {"lat": 51.52820141970849, "lng": -0.188034930291502}}}, "name": "Floors Doctor", "place_id": "ChIJwwkHDHgRdkgRF4JzPoPJ2t4", "types": ["laundry", "general_contractor", "point_of_interest", "establishment"], "rating": 5, "user_ratings_total": 12}, "ChIJN_XLQqcadkgRs7GcOdc81ic": {"geometry": {"location": {"lat": 51.5294264, "lng": -0.1874766}, "viewport": {"northeast": {"lat": 51.5308129302915, "lng": -0.186060469708498}, "southwest": {"lat": 51.5281149697085, "lng": -0.188758430291502}}}, "name": "Ashworth Mansions", "place_id": "ChIJN_XLQqcadkgRs7GcOdc81ic", "types": ["point_of_interest", "establishment"], "rating": 5, "user_ratings_total": 2}, "ChIJiR_U-OcbdkgRFlOr7QltLcw": {"geometry": {"location": {"lat": 51.52962950000001, "lng": -0.1862901}, "viewport": {"northeast": {"lat": 51.5310336802915, "lng": -0.1850078697084979}, "southwest": {"lat": 51.5283357197085, "lng": -0.187705830291502}}}, "name": "Maida Vale Paving & Driveways", "place_id": "ChIJiR_U-OcbdkgRFlOr7QltLcw", "types": ["general_contractor", "point_of_interest", "establishment"], "rating": 5, "user_ratings_total": 2}, "ChIJPdgJeacadkgREaH5o5tdGcE": {"geometry": {"location": {"lat": 51.5282876136709, "lng": -0.187652157772047}, "viewport": {"northeast": {"lat": 51.5296454802915, "lng": -0.18627345}, "southwest": {"lat": 51.5269475197085, "lng": -0.18898845}}}, "name": "26-4 Biddulph Rd", "place_id": "ChIJPdgJeacadkgREaH5o5tdGcE", "types": ["route"]}, "ChIJQej-dacadkgR0cSUlPslw7g": {"geometry": {"location": {"lat": 51.5280147, "lng": -0.187014}, "viewport": {"northeast": {"lat": 51.52932133029149, "lng": -0.185753519708498}, "southwest": {"lat": 51.5266233697085, "lng": -0.188451480291502}}}, "name": "St Gregory's Foundation", "place_id": "ChIJQej-dacadkgR0cSUlPslw7g", "types": ["point_of_interest", "establishment"]}, "ChIJ_XXrd6cadkgRI1gVXrVXL1Q": {"geometry": {"location": {"lat": 51.528073, "lng": -0.187326}, "viewport": {"northeast": {"lat": 51.5294299302915, "lng": -0.185961569708498}, "southwest": {"lat": 51.52673196970851, "lng": -0.188659530291502}}}, "name": "Source London Charging Station", "place_id": "ChIJ_XXrd6cadkgRI1gVXrVXL1Q", "types": ["point_of_interest", "establishment"]}, "ChIJ9WZroeQbdkgR6fZsJy5fYzc": {"geometry": {"location": {"lat": 51.5285977, "lng": -0.1865975}, "viewport": {"northeast": {"lat": 51.53000473029149, "lng": -0.1851257197084979}, "southwest": {"lat": 51.5273067697085, "lng": -0.187823680291502}}}, "name": "London Security Systems", "place_id": "ChIJ9WZroeQbdkgR6fZsJy5fYzc", "types": ["point_of_interest", "establishment"]}, "ChIJI415ez4bdkgRg6inlEgd7eQ": {"geometry": {"location": {"lat": 51.5285977, "lng": -0.1865975}, "viewport": {"northeast": {"lat": 51.53000473029149, "lng": -0.1851257197084979}, "southwest": {"lat": 51.5273067697085, "lng": -0.187823680291502}}}, "name": "Concordia Interiors", "place_id": "ChIJI415ez4bdkgRg6inlEgd7eQ", "types": ["general_contractor", "point_of_interest", "establishment"]}, "ChIJJ425o6cadkgRkGWINR5u-Z0": {"geometry": {"location": {"lat": 51.52758350003021, "lng": -0.1867755999953713}, "viewport": {"northeast": {"lat": 51.5289324802915, "lng": -0.185426619708498}, "southwest": {"lat": 51.5262345197085, "lng": -0.188124580291502}}}, "name": "Lauderdale Road", "place_id": "ChIJJ425o6cadkgRkGWINR5u-Z0", "types": ["route"]}, "ChIJw9hAo6cadkgRiAGiDOWxnA0": {"geometry": {"location": {"lat": 51.52738600000001, "lng": -0.1866124}, "viewport": {"northeast": {"lat": 51.5288310802915, "lng": -0.185256069708498}, "southwest": {"lat": 51.5261331197085, "lng": -0.187954030291502}}}, "name": "Reiki Courses", "place_id": "ChIJw9hAo6cadkgRiAGiDOWxnA0", "types": ["health", "point_of_interest", "establishment"]}, "ChIJlX9j5AkQdkgRJHN1MtF7A_A": {"geometry": {"location": {"lat": 51.53000407517543, "lng": -0.1881194591445541}, "viewport": {"northeast": {"lat": 51.53132818029151, "lng": -0.186778469708498}, "southwest": {"lat": 51.52863021970851, "lng": -0.189476430291502}}}, "name": "Grantully Road", "place_id": "ChIJlX9j5AkQdkgRJHN1MtF7A_A", "types": ["route"]}, "ChIJX9He4gkQdkgR0sN5rrcSKVU": {"geometry": {"location": {"lat": 51.5299005, "lng": -0.188309}, "viewport": {"northeast": {"lat": 51.5312702302915, "lng": -0.186967919708498}, "southwest": {"lat": 51.5285722697085, "lng": -0.189665880291502}}}, "name": "ubitricity Charging Station", "place_id": "ChIJX9He4gkQdkgR0sN5rrcSKVU", "types": ["point_of_interest", "establishment"]}, "ChIJyzJJUacadkgR9ivBvDYLLuI": {"geometry": {"location": {"lat": 51.53023880000001, "lng": -0.1877509}, "viewport": {"northeast": {"lat": 51.53158778029152, "lng": -0.186401919708498}, "southwest": {"lat": 51.52888981970852, "lng": -0.189099880291502}}}, "name": "Bowling Room", "place_id": "ChIJyzJJUacadkgR9ivBvDYLLuI", "types": ["gym", "health", "point_of_interest", "establishment"]}, "ChIJXcym2AkQdkgRaWdN_89kM0U": {"geometry": {"location": {"lat": 51.52892445009931, "lng": -0.188156850243235}, "viewport": {"northeast": {"lat": 51.53027343029149, "lng": -0.186807869708498}, "southwest": {"lat": 51.52757546970849, "lng": -0.189505830291502}}}, "name": "244-238 Elgin Ave", "place_id": "ChIJXcym2AkQdkgRaWdN_89kM0U", "types": ["route"]}, "ChIJFex0wgkQdkgRr_bikx0dWaA": {"geometry": {"location": {"lat": 51.5291548, "lng": -0.1890245}, "viewport": {"northeast": {"lat": 51.53055543029151, "lng": -0.187559619708498}, "southwest": {"lat": 51.52785746970851, "lng": -0.190257580291502}}}, "name": "Haviland and Co", "place_id": "ChIJFex0wgkQdkgRr_bikx0dWaA", "types": ["accounting", "finance", "point_of_interest", "establishment"]}, "ChIJd71C2AkQdkgRgaThCuZiljE": {"geometry": {"location": {"lat": 51.5287921, "lng": -0.1880941}, "viewport": {"northeast": {"lat": 51.5301923802915, "lng": -0.1868079197084979}, "southwest": {"lat": 51.5274944197085, "lng": -0.189505880291502}}}, "name": "Vievital", "place_id": "ChIJd71C2AkQdkgRgaThCuZiljE", "types": ["health", "point_of_interest", "establishment"]}, "ChIJT5n4facadkgRnqWB65RQXiE": {"geometry": {"location": {"lat": 51.52916889999999, "lng": -0.1889945}, "viewport": {"northeast": {"lat": 51.5305626802915, "lng": -0.187544919708498}, "southwest": {"lat": 51.5278647197085, "lng": -0.190242880291502}}}, "name": "The Silver Club", "place_id": "ChIJT5n4facadkgRnqWB65RQXiE", "types": ["jewelry_store", "home_goods_store", "point_of_interest", "store", "establishment"], "rating": 4, "user_ratings_total": 5}, "ChIJcSZnZ3ARdkgREQ-MyGMzUIs": {"geometry": {"location": {"lat": 51.5292523, "lng": -0.1882127}, "viewport": {"northeast": {"lat": 51.5304889302915, "lng": -0.186726819708498}, "southwest": {"lat": 51.5277909697085, "lng": -0.189424780291502}}}, "name": "Magento e-Commerce Development Agency London - DubSEO", "place_id": "ChIJcSZnZ3ARdkgREQ-MyGMzUIs", "types": ["point_of_interest", "establishment"], "rating": 5, "user_ratings_total": 1}, "ChIJs9ClYacadkgRsvNkbDnA_v4": {"geometry": {"location": {"lat": 51.529101, "lng": -0.187983}, "viewport": {"northeast": {"lat": 51.53042008029149, "lng": -0.186597569708498}, "southwest": {"lat": 51.5277221197085, "lng": -0.189295530291502}}}, "name": "ubitricity Charging Station", "place_id": "ChIJs9ClYacadkgRsvNkbDnA_v4", "types": ["point_of_interest", "establishment"]}, "ChIJG-l8iGQRdkgRL8EUS4tDs7g": {"geometry": {"location": {"lat": 51.5294406, "lng": -0.1890035}, "viewport": {"northeast": {"lat": 51.5308080302915, "lng": -0.187613469708498}, "southwest": {"lat": 51.5281100697085, "lng": -0.190311430291502}}}, "name": "Source London Maida Vale", "place_id": "ChIJG-l8iGQRdkgRL8EUS4tDs7g", "types": ["point_of_interest", "establishment"], "rating": 5, "user_ratings_total": 1}, "ChIJTZmY6QkQdkgRyD-8rFv6yxI": {"geometry": {"location": {"lat": 51.52945, "lng": -0.189159}, "viewport": {"northeast": {"lat": 51.53082033029149, "lng": -0.187762469708498}, "southwest": {"lat": 51.5281223697085, "lng": -0.190460430291502}}}, "name": "Source London Charging Station", "place_id": "ChIJTZmY6QkQdkgRyD-8rFv6yxI", "types": ["point_of_interest", "establishment"], "rating": 2.5, "user_ratings_total": 2}, "ChIJ475v2AkQdkgRKBPZm7y1Inw": {"geometry": {"location": {"lat": 51.5287762, "lng": -0.1881886}, "viewport": {"northeast": {"lat": 51.53011568029151, "lng": -0.186861569708498}, "southwest": {"lat": 51.52741771970851, "lng": -0.189559530291502}}}, "name": "Chargemaster Charging Station", "place_id": "ChIJ475v2AkQdkgRKBPZm7y1Inw", "types": ["point_of_interest", "establishment"]}, "ChIJ_3bhzwkQdkgR5e5MynhXzs8": {"geometry": {"location": {"lat": 51.52859600068741, "lng": -0.1888877515651967}, "viewport": {"northeast": {"lat": 51.5299449802915, "lng": -0.187538769708498}, "southwest": {"lat": 51.5272470197085, "lng": -0.190236730291502}}}, "name": "232-214 Elgin Ave", "place_id": "ChIJ_3bhzwkQdkgR5e5MynhXzs8", "types": ["route"]}, "ChIJ_7WHKwgQdkgR-ZQ1wSCjJoc": {"geometry": {"location": {"lat": 51.5277989, "lng": -0.1884919}, "viewport": {"northeast": {"lat": 51.5290612802915, "lng": -0.187144269708498}, "southwest": {"lat": 51.5263633197085, "lng": -0.189842230291502}}}, "name": "Sponsor A Child Nigeria", "place_id": "ChIJ_7WHKwgQdkgR-ZQ1wSCjJoc", "types": ["point_of_interest", "establishment"]}, "ChIJq6rlfacadkgR_DO6kwhfn70": {"geometry": {"location": {"lat": 51.5283592, "lng": -0.1880801}, "viewport": {"northeast": {"lat": 51.5297579802915, "lng": -0.186624219708498}, "southwest": {"lat": 51.5270600197085, "lng": -0.189322180291502}}}, "name": "Floor Sanding Maida Vale", "place_id": "ChIJq6rlfacadkgR_DO6kwhfn70", "types": ["point_of_interest", "establishment"]}, "ChIJ8exA0AkQdkgRryeqhEjYHqY": {"geometry": {"location": {"lat": 51.52856, "lng": -0.188777}, "viewport": {"northeast": {"lat": 51.5299351802915, "lng": -0.187464769708498}, "southwest": {"lat": 51.5272372197085, "lng": -0.190162730291502}}}, "name": "ubitricity Charging Station", "place_id": "ChIJ8exA0AkQdkgRryeqhEjYHqY", "types": ["point_of_interest", "establishment"]}, "ChIJWzdQLwgQdkgRLH7G1B86lxo": {"geometry": {"location": {"lat": 51.5273789, "lng": -0.1885364}, "viewport": {"northeast": {"lat": 51.5288513802915, "lng": -0.187185519708498}, "southwest": {"lat": 51.5261534197085, "lng": -0.189883480291502}}}, "name": "The Reinvention Works Limited", "place_id": "ChIJWzdQLwgQdkgRLH7G1B86lxo", "types": ["health", "point_of_interest", "establishment"]}, "ChIJWzdQLwgQdkgRLwDliDr98SY": {"geometry": {"location": {"lat": 51.5273789, "lng": -0.1885364}, "viewport": {"northeast": {"lat": 51.5288513802915, "lng": -0.187185519708498}, "southwest": {"lat": 51.5261534197085, "lng": -0.189883480291502}}}, "name": "Ig Antibacterial Cleaning", "place_id": "ChIJWzdQLwgQdkgRLwDliDr98SY", "types": ["point_of_interest", "establishment"]}, "ChIJ5dxm9lQRdkgRi3IC77vVzJE": {"geometry": {"location": {"lat": 51.5273789, "lng": -0.1885364}, "viewport": {"northeast": {"lat": 51.5288513802915, "lng": -0.187185519708498}, "southwest": {"lat": 51.5261534197085, "lng": -0.189883480291502}}}, "name": "CG Forensic Mental Health", "place_id": "ChIJ5dxm9lQRdkgRi3IC77vVzJE", "types": ["point_of_interest", "establishment"]}, "ChIJd5VCLwgQdkgR22FMus-HEGg": {"geometry": {"location": {"lat": 51.52738819999999, "lng": -0.1885862}, "viewport": {"northeast": {"lat": 51.52885618029149, "lng": -0.1872353697084979}, "southwest": {"lat": 51.52615821970849, "lng": -0.189933330291502}}}, "name": "Caroline Harper Homeopathy", "place_id": "ChIJd5VCLwgQdkgR22FMus-HEGg", "types": ["health", "point_of_interest", "establishment"], "rating": 5, "user_ratings_total": 14}, "ChIJYXZohAkQdkgRfyZIWSl03SM": {"geometry": {"location": {"lat": 51.5302527, "lng": -0.1907901}, "viewport": {"northeast": {"lat": 51.53160168029149, "lng": -0.189441119708498}, "southwest": {"lat": 51.5289037197085, "lng": -0.192139080291502}}}, "name": "Paddington Recreation Ground", "place_id": "ChIJYXZohAkQdkgRfyZIWSl03SM", "types": ["gym", "park", "health", "point_of_interest", "establishment"], "rating": 4.5, "user_ratings_total": 1596}, "ChIJ4dnwdwkQdkgRvtv5i-nUYdY": {"geometry": {"location": {"lat": 51.53029799999999, "lng": -0.190979}, "viewport": {"northeast": {"lat": 51.5316469802915, "lng": -0.189630019708498}, "southwest": {"lat": 51.5289490197085, "lng": -0.192327980291502}}}, "name": "Active Vida", "place_id": "ChIJ4dnwdwkQdkgRvtv5i-nUYdY", "types": ["health", "point_of_interest", "establishment"], "rating": 5, "user_ratings_total": 9}, "ChIJ24H_AkcRdkgRMLqBg-Q3X50": {"geometry": {"location": {"lat": 51.53018039999999, "lng": -0.190122}, "viewport": {"northeast": {"lat": 51.53152938029148, "lng": -0.1887730197084979}, "southwest": {"lat": 51.52883141970849, "lng": -0.191470980291502}}}, "name": "The Mitey Ducks", "place_id": "ChIJ24H_AkcRdkgRMLqBg-Q3X50", "types": ["point_of_interest", "establishment"]}, "ChIJ2_j7HsURdkgRQb0cwCpHmYs": {"geometry": {"location": {"lat": 51.5304656, "lng": -0.1905977}, "viewport": {"northeast": {"lat": 51.5318145802915, "lng": -0.189248719708498}, "southwest": {"lat": 51.5291166197085, "lng": -0.1919466802915021}}}, "name": "Integrated Personal Training - Maida Vale", "place_id": "ChIJ2_j7HsURdkgRQb0cwCpHmYs", "types": ["health", "point_of_interest", "establishment"], "rating": 5, "user_ratings_total": 20}, "ChIJC-CYoAkQdkgRogLbvMaFESY": {"geometry": {"location": {"lat": 51.5299092, "lng": -0.1860307}, "viewport": {"northeast": {"lat": 51.53646839825367, "lng": -0.1798539108348075}, "southwest": {"lat": 51.52509817806344, "lng": -0.1949944414629}}}, "name": "Maida Vale", "place_id": "ChIJC-CYoAkQdkgRogLbvMaFESY", "types": ["sublocality_level_1", "sublocality", "political"]}, "ChIJlZ6QpAkQdkgRY56aFUwRGYA": {"geometry": {"location": {"lat": 51.52913437888486, "lng": -0.1900544913725568}, "viewport": {"northeast": {"lat": 51.5304845302915, "lng": -0.1885954}, "southwest": {"lat": 51.5277865697085, "lng": -0.1915166}}}, "name": "5-36 Grantully Rd", "place_id": "ChIJlZ6QpAkQdkgRY56aFUwRGYA", "types": ["route"]}, "ChIJDR7KugkQdkgRrKxwU6yzumo": {"geometry": {"location": {"lat": 51.5293158, "lng": -0.1897591}, "viewport": {"northeast": {"lat": 51.53066118029149, "lng": -0.188405719708498}, "southwest": {"lat": 51.5279632197085, "lng": -0.191103680291502}}}, "name": "Volatile Media", "place_id": "ChIJDR7KugkQdkgRrKxwU6yzumo", "types": ["point_of_interest", "establishment"]}, "ChIJVaS0wQkQdkgRmt1DvQH4qyw": {"geometry": {"location": {"lat": 51.52920930000001, "lng": -0.189455}, "viewport": {"northeast": {"lat": 51.5306233802915, "lng": -0.188183769708498}, "southwest": {"lat": 51.5279254197085, "lng": -0.190881730291502}}}, "name": "De Novo Arts", "place_id": "ChIJVaS0wQkQdkgRmt1DvQH4qyw", "types": ["point_of_interest", "establishment"]}, "ChIJ0ewhftARdkgR9t1uHh5asfU": {"geometry": {"location": {"lat": 51.5290128, "lng": -0.1903703}, "viewport": {"northeast": {"lat": 51.53037138029151, "lng": -0.189032819708498}, "southwest": {"lat": 51.52767341970851, "lng": -0.191730780291502}}}, "name": "Practice24", "place_id": "ChIJ0ewhftARdkgR9t1uHh5asfU", "types": ["health", "point_of_interest", "establishment"]}, "ChIJ3_zJpAkQdkgR-g5L14L-r9A": {"geometry": {"location": {"lat": 51.528899, "lng": -0.190376}, "viewport": {"northeast": {"lat": 51.53027598029149, "lng": -0.189060419708498}, "southwest": {"lat": 51.52757801970849, "lng": -0.191758380291502}}}, "name": "ubitricity Charging Station", "place_id": "ChIJ3_zJpAkQdkgR-g5L14L-r9A", "types": ["point_of_interest", "establishment"]}, "ChIJVeKRtAkQdkgRsPz-z_6bYsU": {"geometry": {"location": {"lat": 51.52815606574273, "lng": -0.1898537186748388}, "viewport": {"northeast": {"lat": 51.5295038302915, "lng": -0.188503269708498}, "southwest": {"lat": 51.5268058697085, "lng": -0.191201230291502}}}, "name": "159-183 Elgin Ave", "place_id": "ChIJVeKRtAkQdkgRsPz-z_6bYsU", "types": ["route"]}, "ChIJcb0ntwkQdkgR6zooBdbTR5U": {"geometry": {"location": {"lat": 51.528387, "lng": -0.1899097}, "viewport": {"northeast": {"lat": 51.5296543802915, "lng": -0.188461069708498}, "southwest": {"lat": 51.5269564197085, "lng": -0.191159030291502}}}, "name": "Abicord", "place_id": "ChIJcb0ntwkQdkgR6zooBdbTR5U", "types": ["health", "point_of_interest", "establishment"]}, "ChIJbbdKTQgQdkgRFLu1cQenj8M": {"geometry": {"location": {"lat": 51.5279993, "lng": -0.1903881}, "viewport": {"northeast": {"lat": 51.5293169802915, "lng": -0.189003919708498}, "southwest": {"lat": 51.5266190197085, "lng": -0.191701880291502}}}, "name": "ubitricity Charging Station", "place_id": "ChIJbbdKTQgQdkgRFLu1cQenj8M", "types": ["point_of_interest", "establishment"]}, "ChIJhXWKrAkQdkgRRzxPOTzbMcQ": {"geometry": {"location": {"lat": 51.5281009, "lng": -0.1905716}, "viewport": {"northeast": {"lat": 51.52935978029149, "lng": -0.1891125697084979}, "southwest": {"lat": 51.5266618197085, "lng": -0.191810530291502}}}, "name": "MLS Property Services Ltd", "place_id": "ChIJhXWKrAkQdkgRRzxPOTzbMcQ", "types": ["point_of_interest", "establishment"], "rating": 2.7, "user_ratings_total": 3}, "ChIJFRKftAkQdkgRGQWVi9J6bj4": {"geometry": {"location": {"lat": 51.52808499999999, "lng": -0.189962}, "viewport": {"northeast": {"lat": 51.5294214802915, "lng": -0.188597769708498}, "southwest": {"lat": 51.5267235197085, "lng": -0.191295730291502}}}, "name": "ubitricity Charging Station", "place_id": "ChIJFRKftAkQdkgRGQWVi9J6bj4", "types": ["point_of_interest", "establishment"]}, "ChIJ5bVRn0YRdkgR_myxY--1nBs": {"geometry": {"location": {"lat": 51.52795679999999, "lng": -0.1900186999999999}, "viewport": {"northeast": {"lat": 51.52934423029149, "lng": -0.1887166697084979}, "southwest": {"lat": 51.52664626970849, "lng": -0.191414630291502}}}, "name": "Anita Flavina Dance Shoes", "place_id": "ChIJ5bVRn0YRdkgR_myxY--1nBs", "types": ["point_of_interest", "store", "establishment"]}, "ChIJDUi_tgkQdkgR7XaTWSeVN60": {"geometry": {"location": {"lat": 51.5284027, "lng": -0.1899071}, "viewport": {"northeast": {"lat": 51.5296655302915, "lng": -0.188452869708498}, "southwest": {"lat": 51.5269675697085, "lng": -0.191150830291502}}}, "name": "Stephen Marks Yoga", "place_id": "ChIJDUi_tgkQdkgR7XaTWSeVN60", "types": ["school", "point_of_interest", "establishment"]}, "ChIJ80DrtQkQdkgRT8rl23MLClo": {"geometry": {"location": {"lat": 51.528248, "lng": -0.189684}, "viewport": {"northeast": {"lat": 51.5296146802915, "lng": -0.188356569708498}, "southwest": {"lat": 51.5269167197085, "lng": -0.191054530291502}}}, "name": "ubitricity Charging Station", "place_id": "ChIJ80DrtQkQdkgRT8rl23MLClo", "types": ["point_of_interest", "establishment"]}, "ChIJbemwtQkQdkgRFa0ahRRRIzk": {"geometry": {"location": {"lat": 51.5281932, "lng": -0.189637}, "viewport": {"northeast": {"lat": 51.5295623302915, "lng": -0.188314469708498}, "southwest": {"lat": 51.52686436970851, "lng": -0.191012430291502}}}, "name": "ubitricity Charging Station", "place_id": "ChIJbemwtQkQdkgRFa0ahRRRIzk", "types": ["point_of_interest", "establishment"]}, "ChIJs6pWtQkQdkgR-wPcG79PNoY": {"geometry": {"location": {"lat": 51.528018, "lng": -0.189631}, "viewport": {"northeast": {"lat": 51.52944413029149, "lng": -0.188376219708498}, "southwest": {"lat": 51.5267461697085, "lng": -0.191074180291502}}}, "name": "My London Electrician", "place_id": "ChIJs6pWtQkQdkgR-wPcG79PNoY", "types": ["electrician", "point_of_interest", "establishment"], "rating": 4.8, "user_ratings_total": 178}, "ChIJF5S8IlQRdkgRD1eZCGcgB4M": {"geometry": {"location": {"lat": 51.5277451, "lng": -0.1898479}, "viewport": {"northeast": {"lat": 51.52904098029151, "lng": -0.188501519708498}, "southwest": {"lat": 51.52634301970851, "lng": -0.191199480291502}}}, "name": "Italian felicatessen", "place_id": "ChIJF5S8IlQRdkgRD1eZCGcgB4M", "types": ["grocery_or_supermarket", "food", "point_of_interest", "store", "establishment"]}, "ChIJSebdSwgQdkgRu93G7ltGLq0": {"geometry": {"location": {"lat": 51.5276889, "lng": -0.1898589}, "viewport": {"northeast": {"lat": 51.52902933514565, "lng": -0.1885280040560757}, "southwest": {"lat": 51.52633137456265, "lng": -0.1912259646390798}}}, "name": "Parking lot", "place_id": "ChIJSebdSwgQdkgRu93G7ltGLq0", "types": ["parking", "premise", "point_of_interest", "establishment"]}, "ChIJ_ewzSAgQdkgRtjxD90K9V_I": {"geometry": {"location": {"lat": 51.5275133, "lng": -0.1900438}, "viewport": {"northeast": {"lat": 51.52892678029148, "lng": -0.1886916697084979}, "southwest": {"lat": 51.52622881970849, "lng": -0.191389630291502}}}, "name": "Le Cochonnet - Italian Restaurant & Pizzeria", "place_id": "ChIJ_ewzSAgQdkgRtjxD90K9V_I", "types": ["bar", "restaurant", "food", "point_of_interest", "establishment"], "rating": 3.9, "user_ratings_total": 370}, "ChIJ129kVwgQdkgRCMrXbp2HPsg": {"geometry": {"location": {"lat": 51.5274296, "lng": -0.1905877000000001}, "viewport": {"northeast": {"lat": 51.52880338029149, "lng": -0.189132819708498}, "southwest": {"lat": 51.52610541970849, "lng": -0.1918307802915021}}}, "name": "Wanderlust Nail Lounge", "place_id": "ChIJ129kVwgQdkgRCMrXbp2HPsg", "types": ["beauty_salon", "point_of_interest", "establishment"], "rating": 4.7, "user_ratings_total": 57}, "ChIJRWK7UAgQdkgRvS_zQslaejM": {"geometry": {"location": {"lat": 51.527353, "lng": -0.19053}, "viewport": {"northeast": {"lat": 51.5287498802915, "lng": -0.189117269708498}, "southwest": {"lat": 51.5260519197085, "lng": -0.191815230291502}}}, "name": "Compton Reeback Estate Agents", "place_id": "ChIJRWK7UAgQdkgRvS_zQslaejM", "types": ["real_estate_agency", "point_of_interest", "establishment"], "rating": 4.9, "user_ratings_total": 151}, "ChIJIYo3TnoRdkgRNIsd0Dxvmrg": {"geometry": {"location": {"lat": 51.5273206, "lng": -0.1904582}, "viewport": {"northeast": {"lat": 51.5286669802915, "lng": -0.189104419708498}, "southwest": {"lat": 51.5259690197085, "lng": -0.191802380291502}}}, "name": "Cheapest Online Conveyancing", "place_id": "ChIJIYo3TnoRdkgRNIsd0Dxvmrg", "types": ["lawyer", "point_of_interest", "establishment"]}, "ChIJsxG5WggQdkgRSxvyATQDaS0": {"geometry": {"location": {"lat": 51.5273206, "lng": -0.1904582}, "viewport": {"northeast": {"lat": 51.5287019302915, "lng": -0.189055519708498}, "southwest": {"lat": 51.5260039697085, "lng": -0.191753480291502}}}, "name": "Bon Appetit", "place_id": "ChIJsxG5WggQdkgRSxvyATQDaS0", "types": ["food", "point_of_interest", "store", "establishment"], "rating": 4.5, "user_ratings_total": 41}, "ChIJwbBWctcRdkgRpiTOvE2hUlM": {"geometry": {"location": {"lat": 51.5273913, "lng": -0.190479}, "viewport": {"northeast": {"lat": 51.52877273029149, "lng": -0.189064319708498}, "southwest": {"lat": 51.52607476970849, "lng": -0.191762280291502}}}, "name": "Iona, Lara and Brill\u2019s Pad", "place_id": "ChIJwbBWctcRdkgRpiTOvE2hUlM", "types": ["point_of_interest", "establishment"]}, "ChIJL6Z38i0RdkgRxl-gBZ9X2ss": {"geometry": {"location": {"lat": 51.5273854, "lng": -0.1905957}, "viewport": {"northeast": {"lat": 51.5287809302915, "lng": -0.189136619708498}, "southwest": {"lat": 51.5260829697085, "lng": -0.191834580291502}}}, "name": "Post Office Travel Money", "place_id": "ChIJL6Z38i0RdkgRxl-gBZ9X2ss", "types": ["finance", "point_of_interest", "establishment"]}, "ChIJy0og9JoRdkgRqdSt9D1dSu0": {"geometry": {"location": {"lat": 51.5273854, "lng": -0.1905957}, "viewport": {"northeast": {"lat": 51.5287809302915, "lng": -0.189136619708498}, "southwest": {"lat": 51.5260829697085, "lng": -0.191834580291502}}}, "name": "MoneyGram", "place_id": "ChIJy0og9JoRdkgRqdSt9D1dSu0", "types": ["finance", "point_of_interest", "establishment"]}, "ChIJHbx-gZ4RdkgR8y_ESgDaLzQ": {"geometry": {"location": {"lat": 51.5274167, "lng": -0.1905369}, "viewport": {"northeast": {"lat": 51.5287965802915, "lng": -0.189112469708498}, "southwest": {"lat": 51.5260986197085, "lng": -0.191810430291502}}}, "name": "Maida Vale London - catherine", "place_id": "ChIJHbx-gZ4RdkgR8y_ESgDaLzQ", "types": ["lodging", "point_of_interest", "establishment"]}, "ChIJRWK7UAgQdkgRMb4tMxDTpmY": {"geometry": {"location": {"lat": 51.52742659999999, "lng": -0.1905796}, "viewport": {"northeast": {"lat": 51.5288015302915, "lng": -0.189128569708498}, "southwest": {"lat": 51.5261035697085, "lng": -0.191826530291502}}}, "name": "Hamish 2", "place_id": "ChIJRWK7UAgQdkgRMb4tMxDTpmY", "types": ["convenience_store", "food", "point_of_interest", "store", "establishment"], "rating": 3, "user_ratings_total": 29}, "ChIJCzeXUAgQdkgRvsr3YZcZqs8": {"geometry": {"location": {"lat": 51.52740000000001, "lng": -0.1907}, "viewport": {"northeast": {"lat": 51.5286837302915, "lng": -0.189227569708498}, "southwest": {"lat": 51.52598576970851, "lng": -0.191925530291502}}}, "name": "Castellain Road Post Office", "place_id": "ChIJCzeXUAgQdkgRvsr3YZcZqs8", "types": ["post_office", "convenience_store", "finance", "food", "point_of_interest", "store", "establishment"], "rating": 1.3, "user_ratings_total": 12}, "ChIJc6VeTggQdkgRY2EKqUiXr4w": {"geometry": {"location": {"lat": 51.5275268, "lng": -0.1901468}, "viewport": {"northeast": {"lat": 51.5288217802915, "lng": -0.188887669708498}, "southwest": {"lat": 51.5261238197085, "lng": -0.191585630291502}}}, "name": "Avalon Flowers", "place_id": "ChIJc6VeTggQdkgRY2EKqUiXr4w", "types": ["florist", "point_of_interest", "store", "establishment"], "rating": 4.4, "user_ratings_total": 28}, "ChIJO7LDUQgQdkgRoUwkaMaft0I": {"geometry": {"location": {"lat": 51.52746189999999, "lng": -0.1906561}, "viewport": {"northeast": {"lat": 51.52881088029149, "lng": -0.189307119708498}, "southwest": {"lat": 51.5261129197085, "lng": -0.192005080291502}}}, "name": "Petit Caf\u00e9", "place_id": "ChIJO7LDUQgQdkgRoUwkaMaft0I", "types": ["cafe", "food", "point_of_interest", "store", "establishment"], "rating": 3.9, "user_ratings_total": 132}, "ChIJmVkqSQgQdkgReyGMKR5oQ-I": {"geometry": {"location": {"lat": 51.5275111, "lng": -0.1899602}, "viewport": {"northeast": {"lat": 51.5289249302915, "lng": -0.188608069708498}, "southwest": {"lat": 51.5262269697085, "lng": -0.191306030291502}}}, "name": "Illy", "place_id": "ChIJmVkqSQgQdkgReyGMKR5oQ-I", "types": ["cafe", "food", "point_of_interest", "establishment"], "rating": 3, "user_ratings_total": 1}, "ChIJPaLYKAoQdkgRnGxkBdjOfno": {"geometry": {"location": {"lat": 51.53021280000001, "lng": -0.1914033}, "viewport": {"northeast": {"lat": 51.53156178029151, "lng": -0.190054319708498}, "southwest": {"lat": 51.52886381970851, "lng": -0.192752280291502}}}, "name": "Paddington Recreation Ground Toilets", "place_id": "ChIJPaLYKAoQdkgRnGxkBdjOfno", "types": ["point_of_interest", "establishment"], "rating": 4.6, "user_ratings_total": 12}, "ChIJo72peQkQdkgRhKdmYyGbNgQ": {"geometry": {"location": {"lat": 51.53012349999999, "lng": -0.1913085}, "viewport": {"northeast": {"lat": 51.53147248029149, "lng": -0.189959519708498}, "southwest": {"lat": 51.52877451970849, "lng": -0.192657480291502}}}, "name": "Pavillon", "place_id": "ChIJo72peQkQdkgRhKdmYyGbNgQ", "types": ["point_of_interest", "establishment"]}, "ChIJXRWZbPMRdkgR1J7miw9CiTk": {"geometry": {"location": {"lat": 51.52935009999999, "lng": -0.1912544}, "viewport": {"northeast": {"lat": 51.5306990802915, "lng": -0.189905419708498}, "southwest": {"lat": 51.5280011197085, "lng": -0.192603380291502}}}, "name": "Rollerblading lessons", "place_id": "ChIJXRWZbPMRdkgR1J7miw9CiTk", "types": ["point_of_interest", "establishment"]}, "ChIJW1qxAwkQdkgR9raDGjzz7fg": {"geometry": {"location": {"lat": 51.52829645001056, "lng": -0.1917331499616234}, "viewport": {"northeast": {"lat": 51.5296454302915, "lng": -0.1903841697084979}, "southwest": {"lat": 51.5269474697085, "lng": -0.193082130291502}}}, "name": "13 Morshead Rd", "place_id": "ChIJW1qxAwkQdkgR9raDGjzz7fg", "types": ["route"]}, "ChIJiZnRAwkQdkgRLE7ZgPxDUxU": {"geometry": {"location": {"lat": 51.5281015, "lng": -0.1913411}, "viewport": {"northeast": {"lat": 51.5294349302915, "lng": -0.190027319708498}, "southwest": {"lat": 51.5267369697085, "lng": -0.192725280291502}}}, "name": "ubitricity Charging Station", "place_id": "ChIJiZnRAwkQdkgRLE7ZgPxDUxU", "types": ["point_of_interest", "establishment"]}, "ChIJ-7H4_AgQdkgR_vmtdWnAuXw": {"geometry": {"location": {"lat": 51.5277886, "lng": -0.1916775}, "viewport": {"northeast": {"lat": 51.52917906915322, "lng": -0.1902396436515344}, "southwest": {"lat": 51.52648110857022, "lng": -0.1929376042345384}}}, "name": "Parking lot", "place_id": "ChIJ-7H4_AgQdkgR_vmtdWnAuXw", "types": ["parking", "premise", "point_of_interest", "establishment"]}, "ChIJ63ZH-ggQdkgRSZOMPReoTUM": {"geometry": {"location": {"lat": 51.527449, "lng": -0.191541}, "viewport": {"northeast": {"lat": 51.5287677802915, "lng": -0.190156069708498}, "southwest": {"lat": 51.5260698197085, "lng": -0.192854030291502}}}, "name": "ubitricity Charging Station", "place_id": "ChIJ63ZH-ggQdkgRSZOMPReoTUM", "types": ["point_of_interest", "establishment"]}, "ChIJPcdSP6cadkgRLt9GQr8SooY": {"geometry": {"location": {"lat": 51.52986115002331, "lng": -0.1861645500563592}, "viewport": {"northeast": {"lat": 51.5312101302915, "lng": -0.184815569708498}, "southwest": {"lat": 51.5285121697085, "lng": -0.187513530291502}}}, "name": "215-235 Elgin Ave", "place_id": "ChIJPcdSP6cadkgRLt9GQr8SooY", "types": ["route"]}, "ChIJoyS9O6cadkgR7p-wwBXKIIs": {"geometry": {"location": {"lat": 51.5297023, "lng": -0.1860369}, "viewport": {"northeast": {"lat": 51.5311139302915, "lng": -0.184787619708498}, "southwest": {"lat": 51.5284159697085, "lng": -0.187485580291502}}}, "name": "Elgin Dental Care and Implant Clinic", "place_id": "ChIJoyS9O6cadkgR7p-wwBXKIIs", "types": ["dentist", "health", "point_of_interest", "establishment"], "rating": 4.9, "user_ratings_total": 91}, "ChIJUbw9BZcNdkgRjgsMOGL4Qlk": {"geometry": {"location": {"lat": 51.529628, "lng": -0.1860302}, "viewport": {"northeast": {"lat": 51.5310714802915, "lng": -0.184795569708498}, "southwest": {"lat": 51.5283735197085, "lng": -0.187493530291502}}}, "name": "Visiting Specialist Services", "place_id": "ChIJUbw9BZcNdkgRjgsMOGL4Qlk", "types": ["dentist", "health", "point_of_interest", "establishment"]}, "ChIJY1efPKcadkgR_UpIesRbg9A": {"geometry": {"location": {"lat": 51.529628, "lng": -0.1860301}, "viewport": {"northeast": {"lat": 51.5310714802915, "lng": -0.184795469708498}, "southwest": {"lat": 51.5283735197085, "lng": -0.187493430291502}}}, "name": "VSSAcademy", "place_id": "ChIJY1efPKcadkgR_UpIesRbg9A", "types": ["point_of_interest", "establishment"]}, "ChIJLTbdL6cadkgRlah9nopnN7o": {"geometry": {"location": {"lat": 51.530085, "lng": -0.185953}, "viewport": {"northeast": {"lat": 51.5314010302915, "lng": -0.184541919708498}, "southwest": {"lat": 51.52870306970851, "lng": -0.187239880291502}}}, "name": "Thai Rice Maida Vale", "place_id": "ChIJLTbdL6cadkgRlah9nopnN7o", "types": ["restaurant", "food", "point_of_interest", "establishment"], "rating": 3.9, "user_ratings_total": 284}, "ChIJ5-9oYg8QdkgRfbeTu7qYnL0": {"geometry": {"location": {"lat": 51.5296944, "lng": -0.1860326}, "viewport": {"northeast": {"lat": 51.5311163302915, "lng": -0.184771819708498}, "southwest": {"lat": 51.5284183697085, "lng": -0.187469780291502}}}, "name": "Energy Strategy & Policy Consulting Ltd", "place_id": "ChIJ5-9oYg8QdkgRfbeTu7qYnL0", "types": ["point_of_interest", "establishment"]}, "ChIJ1fTppyAbdkgRQYJjDpDH1vo": {"geometry": {"location": {"lat": 51.5296749, "lng": -0.1860444}, "viewport": {"northeast": {"lat": 51.5311013302915, "lng": -0.184789019708498}, "southwest": {"lat": 51.5284033697085, "lng": -0.187486980291502}}}, "name": "Hiab Hire Maida Vale", "place_id": "ChIJ1fTppyAbdkgRQYJjDpDH1vo", "types": ["point_of_interest", "establishment"]}, "ChIJ__-ePKcadkgRZxtuIVD5vVg": {"geometry": {"location": {"lat": 51.52963569999999, "lng": -0.1860407}, "viewport": {"northeast": {"lat": 51.5310751302915, "lng": -0.184801169708498}, "southwest": {"lat": 51.52837716970851, "lng": -0.187499130291502}}}, "name": "SCPI", "place_id": "ChIJ__-ePKcadkgRZxtuIVD5vVg", "types": ["point_of_interest", "establishment"]}, "ChIJYVefPKcadkgRqVx2ckdrymw": {"geometry": {"location": {"lat": 51.529628, "lng": -0.1860302}, "viewport": {"northeast": {"lat": 51.5310714802915, "lng": -0.184795569708498}, "southwest": {"lat": 51.5283735197085, "lng": -0.187493530291502}}}, "name": "E K K Ltd", "place_id": "ChIJYVefPKcadkgRqVx2ckdrymw", "types": ["point_of_interest", "establishment"]}, "ChIJn9BXIG0bdkgRGNiayCgJKNY": {"geometry": {"location": {"lat": 51.5299251, "lng": -0.1860709}, "viewport": {"northeast": {"lat": 51.53127208029151, "lng": -0.184701969708498}, "southwest": {"lat": 51.52857411970851, "lng": -0.187399930291502}}}, "name": "Edward Builders", "place_id": "ChIJn9BXIG0bdkgRGNiayCgJKNY", "types": ["point_of_interest", "establishment"]}, "ChIJs_pzW8kRdkgRKq4wFx32_cU": {"geometry": {"location": {"lat": 51.529837, "lng": -0.1862644}, "viewport": {"northeast": {"lat": 51.5311967302915, "lng": -0.184928469708498}, "southwest": {"lat": 51.5284987697085, "lng": -0.187626430291502}}}, "name": "Stefano Chiriaco | Personal Trainer Maida Vale", "place_id": "ChIJs_pzW8kRdkgRKq4wFx32_cU", "types": ["health", "point_of_interest", "establishment"]}, "ChIJPcVTDqcadkgRJkTTMbk22v4": {"geometry": {"location": {"lat": 51.52853789203802, "lng": -0.186129748071555}, "viewport": {"northeast": {"lat": 51.53000480000006, "lng": -0.18430815}, "southwest": {"lat": 51.52706039999995, "lng": -0.18797155}}}, "name": "1-25 Ashworth Rd", "place_id": "ChIJPcVTDqcadkgRJkTTMbk22v4", "types": ["route"]}, "ChIJ20y8pacadkgRE_LC3NAijPw": {"geometry": {"location": {"lat": 51.5275648, "lng": -0.1860271}, "viewport": {"northeast": {"lat": 51.5288806302915, "lng": -0.184680669708498}, "southwest": {"lat": 51.5261826697085, "lng": -0.187378630291502}}}, "name": "Word Up Language Services", "place_id": "ChIJ20y8pacadkgRE_LC3NAijPw", "types": ["point_of_interest", "establishment"]}, "ChIJs6UlgqQbdkgRdbFQKaxaLow": {"geometry": {"location": {"lat": 51.5276782, "lng": -0.1859465}, "viewport": {"northeast": {"lat": 51.5289677802915, "lng": -0.184600969708498}, "southwest": {"lat": 51.5262698197085, "lng": -0.187298930291502}}}, "name": "Marie", "place_id": "ChIJs6UlgqQbdkgRdbFQKaxaLow", "types": ["point_of_interest", "establishment"]}, "ChIJhbJtYocbdkgRgK0B1S2gYIA": {"geometry": {"location": {"lat": 51.5304934, "lng": -0.1876641}, "viewport": {"northeast": {"lat": 51.5319794802915, "lng": -0.186016519708498}, "southwest": {"lat": 51.5292815197085, "lng": -0.188714480291502}}}, "name": "W9 Carpentry & Building", "place_id": "ChIJhbJtYocbdkgRgK0B1S2gYIA", "types": ["point_of_interest", "establishment"]}, "ChIJjUUGZ6cadkgRPHqy_6_GRFA": {"geometry": {"location": {"lat": 51.52933815002305, "lng": -0.1872804500562155}, "viewport": {"northeast": {"lat": 51.5306871302915, "lng": -0.185931469708498}, "southwest": {"lat": 51.5279891697085, "lng": -0.188629430291502}}}, "name": "262 Elgin Ave", "place_id": "ChIJjUUGZ6cadkgRPHqy_6_GRFA", "types": ["route"]}, "ChIJjUUGZ6cadkgRt0qGbjeDKlg": {"geometry": {"location": {"lat": 51.52915015044881, "lng": -0.1876790510938123}, "viewport": {"northeast": {"lat": 51.5304991302915, "lng": -0.186330069708498}, "southwest": {"lat": 51.5278011697085, "lng": -0.189028030291502}}}, "name": "209-211 Elgin Ave", "place_id": "ChIJjUUGZ6cadkgRt0qGbjeDKlg", "types": ["route"]}, "ChIJeajB0QkQdkgRYCyINCxSfR4": {"geometry": {"location": {"lat": 51.52867380000001, "lng": -0.1883181}, "viewport": {"northeast": {"lat": 51.53006623029149, "lng": -0.187053469708498}, "southwest": {"lat": 51.5273682697085, "lng": -0.189751430291502}}}, "name": "Maida Vale Medical Centre.", "place_id": "ChIJeajB0QkQdkgRYCyINCxSfR4", "types": ["hospital", "health", "point_of_interest", "establishment"], "rating": 2, "user_ratings_total": 51}, "ChIJS5edY6cadkgROpMiJi4yvcg": {"geometry": {"location": {"lat": 51.5288255, "lng": -0.1878333}, "viewport": {"northeast": {"lat": 51.53025428029149, "lng": -0.186582069708498}, "southwest": {"lat": 51.52755631970849, "lng": -0.189280030291502}}}, "name": "Dr Z Ahmed - Maida Vale Medical Centre", "place_id": "ChIJS5edY6cadkgROpMiJi4yvcg", "types": ["hospital", "health", "point_of_interest", "establishment"]}, "ChIJr3rpX8AbdkgRO31MYiovi3Q": {"geometry": {"location": {"lat": 51.5289544, "lng": -0.1875923}, "viewport": {"northeast": {"lat": 51.5303785302915, "lng": -0.186334869708498}, "southwest": {"lat": 51.5276805697085, "lng": -0.189032830291502}}}, "name": "myhousevet", "place_id": "ChIJr3rpX8AbdkgRO31MYiovi3Q", "types": ["veterinary_care", "point_of_interest", "establishment"], "rating": 5, "user_ratings_total": 10}, "ChIJVz-UhKcadkgR3TvndrpLnkY": {"geometry": {"location": {"lat": 51.5276055510883, "lng": -0.1875652998516343}, "viewport": {"northeast": {"lat": 51.5289545302915, "lng": -0.186216319708498}, "southwest": {"lat": 51.52625656970851, "lng": -0.188914280291502}}}, "name": "Lauderdale Road", "place_id": "ChIJVz-UhKcadkgR3TvndrpLnkY", "types": ["route"]}, "ChIJv1xzhKcadkgR1eSMp5T5vxQ": {"geometry": {"location": {"lat": 51.527649, "lng": -0.187668}, "viewport": {"northeast": {"lat": 51.5289887302915, "lng": -0.186319669708498}, "southwest": {"lat": 51.5262907697085, "lng": -0.189017630291502}}}, "name": "Supernova IT Solutions Limited", "place_id": "ChIJv1xzhKcadkgR1eSMp5T5vxQ", "types": ["point_of_interest", "establishment"], "rating": 5, "user_ratings_total": 1}, "ChIJZw2Qm6cadkgR_wKsTXNkgog": {"geometry": {"location": {"lat": 51.52751689999999, "lng": -0.1875454}, "viewport": {"northeast": {"lat": 51.52890988029149, "lng": -0.186193419708498}, "southwest": {"lat": 51.52621191970849, "lng": -0.188891380291502}}}, "name": "Quin Tel Comms Home Automation", "place_id": "ChIJZw2Qm6cadkgR_wKsTXNkgog", "types": ["electrician", "point_of_interest", "establishment"]}, "ChIJdQOng6cadkgRCIJiCDrNJg8": {"geometry": {"location": {"lat": 51.5277829, "lng": -0.1875919}, "viewport": {"northeast": {"lat": 51.52904373029149, "lng": -0.1862489197084979}, "southwest": {"lat": 51.5263457697085, "lng": -0.188946880291502}}}, "name": "Imaginative Book Illustration Society", "place_id": "ChIJdQOng6cadkgRCIJiCDrNJg8", "types": ["point_of_interest", "establishment"]}, "ChIJRdzIhqcadkgR_uejUeU9Bwc": {"geometry": {"location": {"lat": 51.5276717, "lng": -0.1878478}, "viewport": {"northeast": {"lat": 51.5289913302915, "lng": -0.186498469708498}, "southwest": {"lat": 51.5262933697085, "lng": -0.189196430291502}}}, "name": "ubitricity Charging Station", "place_id": "ChIJRdzIhqcadkgR_uejUeU9Bwc", "types": ["point_of_interest", "establishment"]}, "ChIJ-TN3m6cadkgR1MXWR_HAd_Q": {"geometry": {"location": {"lat": 51.5275174, "lng": -0.1874048}, "viewport": {"northeast": {"lat": 51.5289081302915, "lng": -0.186047819708498}, "southwest": {"lat": 51.5262101697085, "lng": -0.188745780291502}}}, "name": "ubitricity Charging Station", "place_id": "ChIJ-TN3m6cadkgR1MXWR_HAd_Q", "types": ["point_of_interest", "establishment"]}, "ChIJc12U-WwRdkgRoc0p83JK1jg": {"geometry": {"location": {"lat": 51.52972320000001, "lng": -0.1891594}, "viewport": {"northeast": {"lat": 51.53107218029152, "lng": -0.187810419708498}, "southwest": {"lat": 51.52837421970852, "lng": -0.190508380291502}}}, "name": "Athena Barka Fine Art Ltd", "place_id": "ChIJc12U-WwRdkgRoc0p83JK1jg", "types": ["point_of_interest", "establishment"]}, "ChIJNYAtxAkQdkgRIPUEus4Ps5U": {"geometry": {"location": {"lat": 51.52877849999999, "lng": -0.1891069}, "viewport": {"northeast": {"lat": 51.5300339802915, "lng": -0.187649269708498}, "southwest": {"lat": 51.5273360197085, "lng": -0.1903472302915021}}}, "name": "Graham W Price - Abicord", "place_id": "ChIJNYAtxAkQdkgRIPUEus4Ps5U", "types": ["health", "point_of_interest", "establishment"]}, "ChIJVVWlxQkQdkgR8TfDeKw-YgA": {"geometry": {"location": {"lat": 51.52877849999999, "lng": -0.1891069}, "viewport": {"northeast": {"lat": 51.5300339802915, "lng": -0.187649269708498}, "southwest": {"lat": 51.5273360197085, "lng": -0.1903472302915021}}}, "name": "Abicord Consulting", "place_id": "ChIJVVWlxQkQdkgR8TfDeKw-YgA", "types": ["point_of_interest", "establishment"]}, "ChIJkyCuxQkQdkgRqamYcvW0BxI": {"geometry": {"location": {"lat": 51.52879309999999, "lng": -0.1891067}, "viewport": {"northeast": {"lat": 51.5300443302915, "lng": -0.1876464197084979}, "southwest": {"lat": 51.5273463697085, "lng": -0.190344380291502}}}, "name": "SMLtd Property International", "place_id": "ChIJkyCuxQkQdkgRqamYcvW0BxI", "types": ["point_of_interest", "establishment"]}, "ChIJuURaSQgQdkgRmxgRGMTFeoI": {"geometry": {"location": {"lat": 51.5276388505947, "lng": -0.189851849942081}, "viewport": {"northeast": {"lat": 51.52898783029149, "lng": -0.188502869708498}, "southwest": {"lat": 51.52628986970849, "lng": -0.191200830291502}}}, "name": "9-3 Lauderdale Rd", "place_id": "ChIJuURaSQgQdkgRmxgRGMTFeoI", "types": ["route"]}, "ChIJ_ewzSAgQdkgR4r8LA-9RxRg": {"geometry": {"location": {"lat": 51.5275165, "lng": -0.1897985}, "viewport": {"northeast": {"lat": 51.52892608029151, "lng": -0.1884465697084979}, "southwest": {"lat": 51.52622811970851, "lng": -0.191144530291502}}}, "name": "W9 Dry Cleaners", "place_id": "ChIJ_ewzSAgQdkgR4r8LA-9RxRg", "types": ["laundry", "point_of_interest", "establishment"], "rating": 3.9, "user_ratings_total": 8}, "ChIJiQnmmKcadkgRHM2qrRUOU3M": {"geometry": {"location": {"lat": 51.5275403, "lng": -0.1893023}, "viewport": {"northeast": {"lat": 51.5289343802915, "lng": -0.187952619708498}, "southwest": {"lat": 51.5262364197085, "lng": -0.1906505802915021}}}, "name": "Tidal Creative - www.tidalcreative.co.uk", "place_id": "ChIJiQnmmKcadkgRHM2qrRUOU3M", "types": ["point_of_interest", "establishment"]}, "ChIJi3S7NggQdkgRqbQWshcutiA": {"geometry": {"location": {"lat": 51.5274672, "lng": -0.189199}, "viewport": {"northeast": {"lat": 51.52889743029149, "lng": -0.187839069708498}, "southwest": {"lat": 51.52619946970849, "lng": -0.190537030291502}}}, "name": "Sushi Murasaki", "place_id": "ChIJi3S7NggQdkgRqbQWshcutiA", "types": ["restaurant", "food", "point_of_interest", "establishment"], "rating": 4.6, "user_ratings_total": 262}, "ChIJ2QgoNggQdkgRptOYcc0EqXk": {"geometry": {"location": {"lat": 51.5274693, "lng": -0.1896452}, "viewport": {"northeast": {"lat": 51.52890093029151, "lng": -0.188285969708498}, "southwest": {"lat": 51.52620296970851, "lng": -0.190983930291502}}}, "name": "Hamptons Estate Agents Maida Vale", "place_id": "ChIJ2QgoNggQdkgRptOYcc0EqXk", "types": ["finance", "real_estate_agency", "point_of_interest", "establishment"], "rating": 4.8, "user_ratings_total": 306}, "ChIJE-XFSQgQdkgRB34gG5o3B1Y": {"geometry": {"location": {"lat": 51.5274732, "lng": -0.1897235}, "viewport": {"northeast": {"lat": 51.5289037302915, "lng": -0.188370569708498}, "southwest": {"lat": 51.5262057697085, "lng": -0.191068530291502}}}, "name": "La Piccola Deli Maida Vale", "place_id": "ChIJE-XFSQgQdkgRB34gG5o3B1Y", "types": ["cafe", "food", "point_of_interest", "store", "establishment"], "rating": 4.3, "user_ratings_total": 122}, "ChIJhzeVXaYadkgR8ft533c9rU0": {"geometry": {"location": {"lat": 51.52751919999999, "lng": -0.1898947}, "viewport": {"northeast": {"lat": 51.52892833029149, "lng": -0.188542769708498}, "southwest": {"lat": 51.52623036970849, "lng": -0.191240730291502}}}, "name": "Vitality Hair & Beauty Salon", "place_id": "ChIJhzeVXaYadkgR8ft533c9rU0", "types": ["beauty_salon", "hair_care", "point_of_interest", "establishment"], "rating": 4.7, "user_ratings_total": 90}, "ChIJ_UQvyYoRdkgRbi1XLhkpgjs": {"geometry": {"location": {"lat": 51.5275085, "lng": -0.189491}, "viewport": {"northeast": {"lat": 51.52891898029149, "lng": -0.188127019708498}, "southwest": {"lat": 51.5262210197085, "lng": -0.190824980291502}}}, "name": "Chelo", "place_id": "ChIJ_UQvyYoRdkgRbi1XLhkpgjs", "types": ["restaurant", "food", "point_of_interest", "establishment"], "rating": 4.6, "user_ratings_total": 112}, "ChIJ__86SAgQdkgRrkViQlf71Kw": {"geometry": {"location": {"lat": 51.5274855, "lng": -0.1892784}, "viewport": {"northeast": {"lat": 51.52883173029149, "lng": -0.187820469708498}, "southwest": {"lat": 51.52613376970849, "lng": -0.190518430291502}}}, "name": "Cherrypik Interiors", "place_id": "ChIJ__86SAgQdkgRrkViQlf71Kw", "types": ["furniture_store", "home_goods_store", "general_contractor", "point_of_interest", "store", "establishment"]}, "ChIJ_9W5NwgQdkgRTIubb0k5II4": {"geometry": {"location": {"lat": 51.5274635, "lng": -0.1894993}, "viewport": {"northeast": {"lat": 51.5288967802915, "lng": -0.188146219708498}, "southwest": {"lat": 51.5261988197085, "lng": -0.190844180291502}}}, "name": "Beattie Construction Ltd", "place_id": "ChIJ_9W5NwgQdkgRTIubb0k5II4", "types": ["general_contractor", "point_of_interest", "establishment"], "rating": 5, "user_ratings_total": 4}, "ChIJna_7MQgQdkgRBrLM479dbNA": {"geometry": {"location": {"lat": 51.5276647, "lng": -0.1891609999999999}, "viewport": {"northeast": {"lat": 51.5289961302915, "lng": -0.187811569708498}, "southwest": {"lat": 51.5262981697085, "lng": -0.190509530291502}}}, "name": "ubitricity Charging Station", "place_id": "ChIJna_7MQgQdkgRBrLM479dbNA", "types": ["point_of_interest", "establishment"]}, "ChIJAQAUNwgQdkgR4Iy5zlZ-LeU": {"geometry": {"location": {"lat": 51.5274432, "lng": -0.189351}, "viewport": {"northeast": {"lat": 51.5288859802915, "lng": -0.188000519708498}, "southwest": {"lat": 51.5261880197085, "lng": -0.190698480291502}}}, "name": "Yummy Licks", "place_id": "ChIJAQAUNwgQdkgR4Iy5zlZ-LeU", "types": ["cafe", "food", "point_of_interest", "store", "establishment"], "rating": 4.4, "user_ratings_total": 65}, "ChIJ5cAvSAgQdkgRO9sTmplyW6s": {"geometry": {"location": {"lat": 51.5274693, "lng": -0.1896452}, "viewport": {"northeast": {"lat": 51.52890103029149, "lng": -0.188288519708498}, "southwest": {"lat": 51.52620306970849, "lng": -0.190986480291502}}}, "name": "EI Prestige", "place_id": "ChIJ5cAvSAgQdkgRO9sTmplyW6s", "types": ["point_of_interest", "establishment"]}, "ChIJLWHO6W4RdkgR8pgfb6-3UqI": {"geometry": {"location": {"lat": 51.5274693, "lng": -0.1896452}, "viewport": {"northeast": {"lat": 51.52890103029149, "lng": -0.188292169708498}, "southwest": {"lat": 51.52620306970849, "lng": -0.190990130291502}}}, "name": "All'oro Italia", "place_id": "ChIJLWHO6W4RdkgR8pgfb6-3UqI", "types": ["restaurant", "food", "point_of_interest", "establishment"], "rating": 5, "user_ratings_total": 1}, "ChIJJ6ozBXMRdkgRuwlfUV2vaYM": {"geometry": {"location": {"lat": 51.5274693, "lng": -0.1896452}, "viewport": {"northeast": {"lat": 51.52890103029149, "lng": -0.188292169708498}, "southwest": {"lat": 51.52620306970849, "lng": -0.190990130291502}}}, "name": "Portholes", "place_id": "ChIJJ6ozBXMRdkgRuwlfUV2vaYM", "types": ["point_of_interest", "establishment"]}, "ChIJxaVLOVsRdkgRtHg4Nr1tVAY": {"geometry": {"location": {"lat": 51.52745299999999, "lng": -0.1896617}, "viewport": {"northeast": {"lat": 51.52889303029149, "lng": -0.188308269708498}, "southwest": {"lat": 51.5261950697085, "lng": -0.191006230291502}}}, "name": "AEA Cleaning Services Ltd", "place_id": "ChIJxaVLOVsRdkgRtHg4Nr1tVAY", "types": ["point_of_interest", "establishment"]}, "ChIJM71-D4ARdkgRsIacA9U6BLI": {"geometry": {"location": {"lat": 51.5308053, "lng": -0.1904868}, "viewport": {"northeast": {"lat": 51.53215428029149, "lng": -0.189137819708498}, "southwest": {"lat": 51.5294563197085, "lng": -0.191835780291502}}}, "name": "Enlite Fitness", "place_id": "ChIJM71-D4ARdkgRsIacA9U6BLI", "types": ["health", "point_of_interest", "establishment"], "rating": 5, "user_ratings_total": 17}, "ChIJsTa1ZUcRdkgRhYr6H-FYmoY": {"geometry": {"location": {"lat": 51.5298904, "lng": -0.1911622}, "viewport": {"northeast": {"lat": 51.5312393802915, "lng": -0.189813219708498}, "southwest": {"lat": 51.5285414197085, "lng": -0.1925111802915021}}}, "name": "slicksebbar", "place_id": "ChIJsTa1ZUcRdkgRhYr6H-FYmoY", "types": ["health", "point_of_interest", "establishment"]}, "ChIJlZ6QpAkQdkgRoFqIZL0WLsY": {"geometry": {"location": {"lat": 51.52860398475218, "lng": -0.1911988425941844}, "viewport": {"northeast": {"lat": 51.52995293029149, "lng": -0.189849819708498}, "southwest": {"lat": 51.5272549697085, "lng": -0.192547780291502}}}, "name": "Grantully Road", "place_id": "ChIJlZ6QpAkQdkgRoFqIZL0WLsY", "types": ["route"]}, "ChIJ0b4P6QkQdkgRhgGQH1bkQc4": {"geometry": {"location": {"lat": 51.528445, "lng": -0.1910557}, "viewport": {"northeast": {"lat": 51.5298662302915, "lng": -0.189793819708498}, "southwest": {"lat": 51.5271682697085, "lng": -0.192491780291502}}}, "name": "AIMS Accountants For Business - Peter Torino", "place_id": "ChIJ0b4P6QkQdkgRhgGQH1bkQc4", "types": ["accounting", "finance", "point_of_interest", "establishment"], "rating": 4, "user_ratings_total": 1}, "ChIJu83CBwkQdkgRNSI4BlkPPDI": {"geometry": {"location": {"lat": 51.52861, "lng": -0.191185}, "viewport": {"northeast": {"lat": 51.5299843302915, "lng": -0.189866519708498}, "southwest": {"lat": 51.5272863697085, "lng": -0.192564480291502}}}, "name": "ubitricity Charging Station", "place_id": "ChIJu83CBwkQdkgRNSI4BlkPPDI", "types": ["point_of_interest", "establishment"]}, "ChIJVwzaqQkQdkgRlKPS_sCnWBw": {"geometry": {"location": {"lat": 51.528445, "lng": -0.1910557}, "viewport": {"northeast": {"lat": 51.5298662302915, "lng": -0.189793819708498}, "southwest": {"lat": 51.5271682697085, "lng": -0.192491780291502}}}, "name": "Global Symposium Ltd", "place_id": "ChIJVwzaqQkQdkgRlKPS_sCnWBw", "types": ["point_of_interest", "establishment"]}, "ChIJ73uAJiARdkgRAJsngTvUKzA": {"geometry": {"location": {"lat": 51.528445, "lng": -0.1910557}, "viewport": {"northeast": {"lat": 51.5298662302915, "lng": -0.189793819708498}, "southwest": {"lat": 51.5271682697085, "lng": -0.192491780291502}}}, "name": "VARCALE CAPITAL MANAGEMENT", "place_id": "ChIJ73uAJiARdkgRAJsngTvUKzA", "types": ["point_of_interest", "establishment"]}, "ChIJyYG0slERdkgRJJJoBK59cf4": {"geometry": {"location": {"lat": 51.5289621, "lng": -0.1910832}, "viewport": {"northeast": {"lat": 51.5303110802915, "lng": -0.189734219708498}, "southwest": {"lat": 51.5276131197085, "lng": -0.192432180291502}}}, "name": "Movement with Sophie LTD", "place_id": "ChIJyYG0slERdkgRJJJoBK59cf4", "types": ["health", "point_of_interest", "establishment"], "rating": 5, "user_ratings_total": 7}, "ChIJFYKv-QgQdkgRspJgfhCEwfY": {"geometry": {"location": {"lat": 51.52757911517534, "lng": -0.1910600313457801}, "viewport": {"northeast": {"lat": 51.5289309802915, "lng": -0.189714819708498}, "southwest": {"lat": 51.5262330197085, "lng": -0.192412780291502}}}, "name": "170-164 Elgin Ave", "place_id": "ChIJFYKv-QgQdkgRspJgfhCEwfY", "types": ["route"]}, "ChIJj1_r-wgQdkgRUHee7_VRF4k": {"geometry": {"location": {"lat": 51.5276593, "lng": -0.1915743}, "viewport": {"northeast": {"lat": 51.52890528029149, "lng": -0.190102619708498}, "southwest": {"lat": 51.5262073197085, "lng": -0.192800580291502}}}, "name": "City of Westminster College, Maida Vale Campus", "place_id": "ChIJj1_r-wgQdkgRUHee7_VRF4k", "types": ["university", "point_of_interest", "establishment"], "rating": 4.4, "user_ratings_total": 17}, "ChIJTYPp9SERdkgRoG__zziIgGw": {"geometry": {"location": {"lat": 51.5278046, "lng": -0.1911637}, "viewport": {"northeast": {"lat": 51.5291780802915, "lng": -0.189779119708498}, "southwest": {"lat": 51.5264801197085, "lng": -0.192477080291502}}}, "name": "Priority Mail Box", "place_id": "ChIJTYPp9SERdkgRoG__zziIgGw", "types": ["post_office", "finance", "point_of_interest", "establishment"]}, "ChIJnfdThpURdkgRPQKpnL3eyD0": {"geometry": {"location": {"lat": 51.52761700000001, "lng": -0.1906167}, "viewport": {"northeast": {"lat": 51.52895383029151, "lng": -0.189155669708498}, "southwest": {"lat": 51.52625586970851, "lng": -0.191853630291502}}}, "name": "DIM Electrical Services", "place_id": "ChIJnfdThpURdkgRPQKpnL3eyD0", "types": ["electrician", "point_of_interest", "establishment"], "rating": 5, "user_ratings_total": 2}}}