{"E00023732": {"ChIJU6_PbFUFdkgRZTR2ZUY7v7U": {"geometry": {"location": {"lat": 51.51310270132914, "lng": -0.1866030134730578}, "viewport": {"northeast": {"lat": 51.51463075000004, "lng": -0.185251219708498}, "southwest": {"lat": 51.51157494999995, "lng": -0.187949180291502}}}, "name": "41-95 Inverness Terrace", "place_id": "ChIJU6_PbFUFdkgRZTR2ZUY7v7U", "types": ["route"]}, "ChIJV3D2a1UFdkgRi-1tte2rN9c": {"geometry": {"location": {"lat": 51.5132273, "lng": -0.1869552}, "viewport": {"northeast": {"lat": 51.5145911802915, "lng": -0.185448819708498}, "southwest": {"lat": 51.5118932197085, "lng": -0.188146780291502}}}, "name": "73 Studios", "place_id": "ChIJV3D2a1UFdkgRi-1tte2rN9c", "types": ["lodging", "point_of_interest", "establishment"], "rating": 3.2, "user_ratings_total": 19}, "ChIJDzxgZlUFdkgR3GQwAQumb64": {"geometry": {"location": {"lat": 51.513445, "lng": -0.1874445}, "viewport": {"northeast": {"lat": 51.5147833802915, "lng": -0.186217919708498}, "southwest": {"lat": 51.51208541970851, "lng": -0.188915880291502}}}, "name": "NOX HOTELS | Hyde Park", "place_id": "ChIJDzxgZlUFdkgR3GQwAQumb64", "types": ["lodging", "point_of_interest", "establishment"], "rating": 3.8, "user_ratings_total": 513}, "ChIJU-tNXFUFdkgRTBLmsWucPFE": {"geometry": {"location": {"lat": 51.5136624, "lng": -0.1875671}, "viewport": {"northeast": {"lat": 51.5150791302915, "lng": -0.186307469708498}, "southwest": {"lat": 51.5123811697085, "lng": -0.189005430291502}}}, "name": "Prince Alfred", "place_id": "ChIJU-tNXFUFdkgRTBLmsWucPFE", "types": ["bar", "restaurant", "food", "point_of_interest", "establishment"], "rating": 4.2, "user_ratings_total": 1320}, "ChIJo9_aYFUFdkgRAudTdQFvIxU": {"geometry": {"location": {"lat": 51.5133935, "lng": -0.1874332}, "viewport": {"northeast": {"lat": 51.5147270802915, "lng": -0.186203519708498}, "southwest": {"lat": 51.51202911970851, "lng": -0.188901480291502}}}, "name": "Gold Mine", "place_id": "ChIJo9_aYFUFdkgRAudTdQFvIxU", "types": ["restaurant", "food", "point_of_interest", "establishment"], "rating": 4.3, "user_ratings_total": 1658}, "ChIJYTZ3QlUFdkgRgBtiMzpO2fw": {"geometry": {"location": {"lat": 51.5137361, "lng": -0.1871278}, "viewport": {"northeast": {"lat": 51.51508508029149, "lng": -0.1857788197084979}, "southwest": {"lat": 51.5123871197085, "lng": -0.188476780291502}}}, "name": "New Dawn Hotel", "place_id": "ChIJYTZ3QlUFdkgRgBtiMzpO2fw", "types": ["lodging", "point_of_interest", "establishment"], "rating": 3, "user_ratings_total": 251}, "ChIJww_1W1UFdkgRItRlOnyzrhI": {"geometry": {"location": {"lat": 51.51394149999999, "lng": -0.1875592}, "viewport": {"northeast": {"lat": 51.5153070302915, "lng": -0.186318019708498}, "southwest": {"lat": 51.5126090697085, "lng": -0.189015980291502}}}, "name": "Boots", "place_id": "ChIJww_1W1UFdkgRItRlOnyzrhI", "types": ["point_of_interest", "store", "establishment"], "rating": 4.1, "user_ratings_total": 797}, "ChIJSVQgZFUFdkgRb4xk_tajLd0": {"geometry": {"location": {"lat": 51.5131846, "lng": -0.1875276}, "viewport": {"northeast": {"lat": 51.5145335802915, "lng": -0.186178619708498}, "southwest": {"lat": 51.5118356197085, "lng": -0.188876580291502}}}, "name": "Hyde Park Agencies Ltd", "place_id": "ChIJSVQgZFUFdkgRb4xk_tajLd0", "types": ["point_of_interest", "establishment"], "rating": 4.3, "user_ratings_total": 13}, "ChIJUw8hZ1UFdkgRIGMbSlc2ICI": {"geometry": {"location": {"lat": 51.51343710000001, "lng": -0.1875489}, "viewport": {"northeast": {"lat": 51.51478038029151, "lng": -0.186270319708498}, "southwest": {"lat": 51.51208241970851, "lng": -0.188968280291502}}}, "name": "Navarino", "place_id": "ChIJUw8hZ1UFdkgRIGMbSlc2ICI", "types": ["point_of_interest", "establishment"]}, "ChIJYzZ3QlUFdkgRUIkXNiTKuVw": {"geometry": {"location": {"lat": 51.5135639, "lng": -0.1870656}, "viewport": {"northeast": {"lat": 51.5149290802915, "lng": -0.185545519708498}, "southwest": {"lat": 51.5122311197085, "lng": -0.188243480291502}}}, "name": "Imperial Court Suites", "place_id": "ChIJYzZ3QlUFdkgRUIkXNiTKuVw", "types": ["lodging", "point_of_interest", "establishment"], "rating": 3.5, "user_ratings_total": 169}, "ChIJQZFoaVUFdkgRZIpI4O4diGM": {"geometry": {"location": {"lat": 51.5133386, "lng": -0.186992}, "viewport": {"northeast": {"lat": 51.5147024802915, "lng": -0.185478069708498}, "southwest": {"lat": 51.5120045197085, "lng": -0.188176030291502}}}, "name": "Imperial Court Studios", "place_id": "ChIJQZFoaVUFdkgRZIpI4O4diGM", "types": ["lodging", "point_of_interest", "establishment"], "rating": 3.1, "user_ratings_total": 126}, "ChIJGeVchVUFdkgRgNqfqNh8ek4": {"geometry": {"location": {"lat": 51.5135456, "lng": -0.1865659}, "viewport": {"northeast": {"lat": 51.5148878802915, "lng": -0.185287819708498}, "southwest": {"lat": 51.5121899197085, "lng": -0.187985780291502}}}, "name": "The Marketing Marshall Ltd", "place_id": "ChIJGeVchVUFdkgRgNqfqNh8ek4", "types": ["point_of_interest", "establishment"]}, "ChIJQ2NTYVUFdkgRPI55T7gwyR0": {"geometry": {"location": {"lat": 51.5132282, "lng": -0.1874848}, "viewport": {"northeast": {"lat": 51.5145771802915, "lng": -0.1861358197084979}, "southwest": {"lat": 51.5118792197085, "lng": -0.188833780291502}}}, "name": "Moor & Hitch", "place_id": "ChIJQ2NTYVUFdkgRPI55T7gwyR0", "types": ["restaurant", "food", "point_of_interest", "establishment"], "rating": 4.2, "user_ratings_total": 613}, "ChIJ2ZYjZFUFdkgRJKm56JZUCv4": {"geometry": {"location": {"lat": 51.51318490000001, "lng": -0.1874719000000001}, "viewport": {"northeast": {"lat": 51.51452923029151, "lng": -0.186213369708498}, "southwest": {"lat": 51.51183126970851, "lng": -0.188911330291502}}}, "name": "Arteecollage Ltd", "place_id": "ChIJ2ZYjZFUFdkgRJKm56JZUCv4", "types": ["clothing_store", "point_of_interest", "store", "establishment"]}, "ChIJnZXbP1UFdkgRYbuQUk21Mp0": {"geometry": {"location": {"lat": 51.5135292, "lng": -0.1863712}, "viewport": {"northeast": {"lat": 51.5148626302915, "lng": -0.185186319708498}, "southwest": {"lat": 51.5121646697085, "lng": -0.187884280291502}}}, "name": "Jakub Lukasiewicz visual Artist", "place_id": "ChIJnZXbP1UFdkgRYbuQUk21Mp0", "types": ["point_of_interest", "establishment"], "rating": 4, "user_ratings_total": 1}, "ChIJPwqCalUFdkgRAy4s2XUbyak": {"geometry": {"location": {"lat": 51.51365879999999, "lng": -0.1864172}, "viewport": {"northeast": {"lat": 51.51499288029149, "lng": -0.185225319708498}, "southwest": {"lat": 51.51229491970849, "lng": -0.187923280291502}}}, "name": "Club Living - Hyde Park Apartments", "place_id": "ChIJPwqCalUFdkgRAy4s2XUbyak", "types": ["lodging", "point_of_interest", "establishment"], "rating": 5, "user_ratings_total": 2}, "ChIJDzxgZlUFdkgRYove2z0CdUc": {"geometry": {"location": {"lat": 51.5131258, "lng": -0.187446}, "viewport": {"northeast": {"lat": 51.5144696802915, "lng": -0.186196419708498}, "southwest": {"lat": 51.51177171970851, "lng": -0.188894380291502}}}, "name": "Fakhreldine", "place_id": "ChIJDzxgZlUFdkgRYove2z0CdUc", "types": ["restaurant", "food", "point_of_interest", "establishment"], "rating": 1, "user_ratings_total": 1}, "ChIJWcHHH9APdkgRuZ2jT6fsMe0": {"geometry": {"location": {"lat": 51.5137906, "lng": -0.1877513}, "viewport": {"northeast": {"lat": 51.5151395802915, "lng": -0.1864023197084979}, "southwest": {"lat": 51.5124416197085, "lng": -0.1891002802915019}}}, "name": "ETG English To Go Language School", "place_id": "ChIJWcHHH9APdkgRuZ2jT6fsMe0", "types": ["point_of_interest", "establishment"], "rating": 5, "user_ratings_total": 4}, "ChIJlbuYYVUFdkgR0IVp53cmghg": {"geometry": {"location": {"lat": 51.5132956, "lng": -0.1878128}, "viewport": {"northeast": {"lat": 51.51464823029151, "lng": -0.186392219708498}, "southwest": {"lat": 51.51195026970851, "lng": -0.189090180291502}}}, "name": "DHL Express Service Point (Ryman Queensway)", "place_id": "ChIJlbuYYVUFdkgR0IVp53cmghg", "types": ["point_of_interest", "establishment"], "rating": 3, "user_ratings_total": 6}, "ChIJiYREZFUFdkgRCr5bKi6gOcs": {"geometry": {"location": {"lat": 51.5130618, "lng": -0.1874556}, "viewport": {"northeast": {"lat": 51.51441078029149, "lng": -0.186106619708498}, "southwest": {"lat": 51.5117128197085, "lng": -0.188804580291502}}}, "name": "Vodafone", "place_id": "ChIJiYREZFUFdkgRCr5bKi6gOcs", "types": ["point_of_interest", "store", "establishment"], "rating": 4.3, "user_ratings_total": 38}, "ChIJDzxgZlUFdkgRyQV9rGPxURQ": {"geometry": {"location": {"lat": 51.5134997, "lng": -0.1875882}, "viewport": {"northeast": {"lat": 51.5148664802915, "lng": -0.186296719708498}, "southwest": {"lat": 51.5121685197085, "lng": -0.188994680291502}}}, "name": "Duck & Noodle", "place_id": "ChIJDzxgZlUFdkgRyQV9rGPxURQ", "types": ["meal_takeaway", "restaurant", "food", "point_of_interest", "establishment"], "rating": 3.9, "user_ratings_total": 738}, "ChIJo5plWKoadkgR4_s9ASneeBY": {"geometry": {"location": {"lat": 51.5133568, "lng": -0.1878819}, "viewport": {"northeast": {"lat": 51.5147094302915, "lng": -0.186431169708498}, "southwest": {"lat": 51.5120114697085, "lng": -0.1891291302915021}}}, "name": "Boutique Spa Queensway", "place_id": "ChIJo5plWKoadkgR4_s9ASneeBY", "types": ["beauty_salon", "spa", "health", "point_of_interest", "establishment"], "rating": 4.4, "user_ratings_total": 435}, "ChIJDzxgZlUFdkgRrhuc7RlleRQ": {"geometry": {"location": {"lat": 51.5132792, "lng": -0.1875308}, "viewport": {"northeast": {"lat": 51.5146281802915, "lng": -0.186181819708498}, "southwest": {"lat": 51.5119302197085, "lng": -0.188879780291502}}}, "name": "Halal Restaurant 98 Queensway", "place_id": "ChIJDzxgZlUFdkgRrhuc7RlleRQ", "types": ["restaurant", "food", "point_of_interest", "establishment"], "rating": 3.5, "user_ratings_total": 314}, "ChIJqzDabfsPdkgRlf0z4M2G0JY": {"geometry": {"location": {"lat": 51.5135408, "lng": -0.1878324}, "viewport": {"northeast": {"lat": 51.5148774302915, "lng": -0.186421819708498}, "southwest": {"lat": 51.5121794697085, "lng": -0.189119780291502}}}, "name": "M & V Hair and Beauty", "place_id": "ChIJqzDabfsPdkgRlf0z4M2G0JY", "types": ["beauty_salon", "point_of_interest", "establishment"], "rating": 4.1, "user_ratings_total": 58}, "ChIJ_8eVYVUFdkgRi8GHxLzKe9k": {"geometry": {"location": {"lat": 51.5133568, "lng": -0.187882}, "viewport": {"northeast": {"lat": 51.5147118802915, "lng": -0.186431619708498}, "southwest": {"lat": 51.5120139197085, "lng": -0.189129580291502}}}, "name": "Spa & Massage", "place_id": "ChIJ_8eVYVUFdkgRi8GHxLzKe9k", "types": ["spa", "point_of_interest", "establishment"], "rating": 4.5, "user_ratings_total": 112}, "ChIJeRXmaVUFdkgROzu7R9-ZuIw": {"geometry": {"location": {"lat": 51.51350840000001, "lng": -0.1870082}, "viewport": {"northeast": {"lat": 51.5148715802915, "lng": -0.185509519708498}, "southwest": {"lat": 51.51217361970851, "lng": -0.188207480291502}}}, "name": "Zen Electrical Solutions", "place_id": "ChIJeRXmaVUFdkgROzu7R9-ZuIw", "types": ["electrician", "point_of_interest", "establishment"], "rating": 5, "user_ratings_total": 6}, "ChIJyYSpzLwFdkgRG1Yxg11ibkc": {"geometry": {"location": {"lat": 51.5133935, "lng": -0.1874332}, "viewport": {"northeast": {"lat": 51.5147342302915, "lng": -0.186207919708498}, "southwest": {"lat": 51.5120362697085, "lng": -0.188905880291502}}}, "name": "Mesoskin Clinic", "place_id": "ChIJyYSpzLwFdkgRG1Yxg11ibkc", "types": ["beauty_salon", "point_of_interest", "establishment"], "rating": 5, "user_ratings_total": 1}, "ChIJDf0FZ1UFdkgR7kYXur784M4": {"geometry": {"location": {"lat": 51.5133935, "lng": -0.1874332}, "viewport": {"northeast": {"lat": 51.5147342302915, "lng": -0.186207919708498}, "southwest": {"lat": 51.5120362697085, "lng": -0.188905880291502}}}, "name": "\u30de\u30a4\u30b9\u30c6\u30a4 \u30db\u30c6\u30eb", "place_id": "ChIJDf0FZ1UFdkgR7kYXur784M4", "types": ["lodging", "point_of_interest", "establishment"], "rating": 3.9, "user_ratings_total": 8}, "ChIJQZFoaVUFdkgRv1nI18t875Q": {"geometry": {"location": {"lat": 51.51327560000001, "lng": -0.1869672}, "viewport": {"northeast": {"lat": 51.5146394802915, "lng": -0.185460719708498}, "southwest": {"lat": 51.51194151970851, "lng": -0.1881586802915021}}}, "name": "London House", "place_id": "ChIJQZFoaVUFdkgRv1nI18t875Q", "types": ["travel_agency", "point_of_interest", "establishment"]}, "ChIJT2EoO-EFdkgRNafSFxLMFiE": {"geometry": {"location": {"lat": 51.5135459, "lng": -0.1875323}, "viewport": {"northeast": {"lat": 51.51489033029151, "lng": -0.186273019708498}, "southwest": {"lat": 51.51219236970851, "lng": -0.188970980291502}}}, "name": "Bella Italia - Queensway 108", "place_id": "ChIJT2EoO-EFdkgRNafSFxLMFiE", "types": ["night_club", "bar", "restaurant", "food", "point_of_interest", "establishment"], "rating": 4.1, "user_ratings_total": 487}, "ChIJ25ygQSE_dkgRR2KLu1VvRr0": {"geometry": {"location": {"lat": 51.5134257, "lng": -0.1875155}, "viewport": {"northeast": {"lat": 51.5147684802915, "lng": -0.186252219708498}, "southwest": {"lat": 51.5120705197085, "lng": -0.188950180291502}}}, "name": "Belsky\u2019s Hair Lounge", "place_id": "ChIJ25ygQSE_dkgRR2KLu1VvRr0", "types": ["hair_care", "point_of_interest", "establishment"], "rating": 4.3, "user_ratings_total": 48}, "ChIJS1yWifgFdkgRz0SqfBSBANE": {"geometry": {"location": {"lat": 51.5134437, "lng": -0.1866634}, "viewport": {"northeast": {"lat": 51.5147953302915, "lng": -0.185286469708498}, "southwest": {"lat": 51.5120973697085, "lng": -0.187984430291502}}}, "name": "Scaffolder In Bayswater", "place_id": "ChIJS1yWifgFdkgRz0SqfBSBANE", "types": ["point_of_interest", "establishment"]}, "ChIJDzxgZlUFdkgRp0VxCAzkZDI": {"geometry": {"location": {"lat": 51.5134312, "lng": -0.1875196}, "viewport": {"northeast": {"lat": 51.5147740802915, "lng": -0.186254819708498}, "southwest": {"lat": 51.5120761197085, "lng": -0.188952780291502}}}, "name": "The Aloe Arborescens Company Ltd", "place_id": "ChIJDzxgZlUFdkgRp0VxCAzkZDI", "types": ["point_of_interest", "establishment"]}, "ChIJ4T-4HMYFdkgRFFCQcpl7Hbg": {"geometry": {"location": {"lat": 51.51352209999999, "lng": -0.1875491}, "viewport": {"northeast": {"lat": 51.51486523029148, "lng": -0.186279119708498}, "southwest": {"lat": 51.51216726970848, "lng": -0.188977080291502}}}, "name": "Royal Hyde Park Hotel", "place_id": "ChIJ4T-4HMYFdkgRFFCQcpl7Hbg", "types": ["lodging", "point_of_interest", "establishment"]}, "ChIJlWwPZ1UFdkgR3oBRGFWm100": {"geometry": {"location": {"lat": 51.5134878, "lng": -0.1875584}, "viewport": {"northeast": {"lat": 51.51485943029149, "lng": -0.186280319708498}, "southwest": {"lat": 51.5121614697085, "lng": -0.1889782802915021}}}, "name": "Meso Skin", "place_id": "ChIJlWwPZ1UFdkgR3oBRGFWm100", "types": ["point_of_interest", "establishment"]}, "ChIJBSJrZ4IFdkgRadS1j3CfrVo": {"geometry": {"location": {"lat": 51.5135456, "lng": -0.1865659}, "viewport": {"northeast": {"lat": 51.5148878802915, "lng": -0.185287819708498}, "southwest": {"lat": 51.5121899197085, "lng": -0.187985780291502}}}, "name": "Covent garden", "place_id": "ChIJBSJrZ4IFdkgRadS1j3CfrVo", "types": ["clothing_store", "point_of_interest", "store", "establishment"]}, "ChIJw69EOnQFdkgRBggVumze0NU": {"geometry": {"location": {"lat": 51.51347980000001, "lng": -0.1865653}, "viewport": {"northeast": {"lat": 51.51482338029151, "lng": -0.185276419708498}, "southwest": {"lat": 51.51212541970851, "lng": -0.187974380291502}}}, "name": "Aesthetics Girl", "place_id": "ChIJw69EOnQFdkgRBggVumze0NU", "types": ["doctor", "health", "point_of_interest", "establishment"]}, "ChIJxziKZlUFdkgRSu5v9oq9zTA": {"geometry": {"location": {"lat": 51.513282, "lng": -0.1874915}, "viewport": {"northeast": {"lat": 51.5146265302915, "lng": -0.186229619708498}, "southwest": {"lat": 51.5119285697085, "lng": -0.188927580291502}}}, "name": "Halal Of Marble Arch", "place_id": "ChIJxziKZlUFdkgRSu5v9oq9zTA", "types": ["point_of_interest", "establishment"]}, "ChIJfUMpbFUFdkgRLjRs02fyPIw": {"geometry": {"location": {"lat": 51.5131756, "lng": -0.1869516}, "viewport": {"northeast": {"lat": 51.5145393802915, "lng": -0.185438819708498}, "southwest": {"lat": 51.5118414197085, "lng": -0.188136780291502}}}, "name": "Hyde Park Serviced Apartments", "place_id": "ChIJfUMpbFUFdkgRLjRs02fyPIw", "types": ["lodging", "point_of_interest", "establishment"], "rating": 3.4, "user_ratings_total": 187}, "ChIJUwUn6dQFdkgR4kY8KiOtYNw": {"geometry": {"location": {"lat": 51.5133425, "lng": -0.1876253}, "viewport": {"northeast": {"lat": 51.5146915802915, "lng": -0.186275069708498}, "southwest": {"lat": 51.51199361970851, "lng": -0.188973030291502}}}, "name": "Local Taxi W2 London", "place_id": "ChIJUwUn6dQFdkgR4kY8KiOtYNw", "types": ["point_of_interest", "establishment"]}, "ChIJl8gMXBQFdkgReNJoI8QEaJc": {"geometry": {"location": {"lat": 51.513215, "lng": -0.1874695}, "viewport": {"northeast": {"lat": 51.5145591802915, "lng": -0.186214119708498}, "southwest": {"lat": 51.5118612197085, "lng": -0.188912080291502}}}, "name": "Grantling", "place_id": "ChIJl8gMXBQFdkgReNJoI8QEaJc", "types": ["point_of_interest", "establishment"]}, "ChIJNVZmWDMFdkgReaIk3yUVnXI": {"geometry": {"location": {"lat": 51.51357230000001, "lng": -0.1864456}, "viewport": {"northeast": {"lat": 51.51490868029151, "lng": -0.185229519708498}, "southwest": {"lat": 51.51221071970851, "lng": -0.187927480291502}}}, "name": "Halal Party Catering", "place_id": "ChIJNVZmWDMFdkgReaIk3yUVnXI", "types": ["food", "point_of_interest", "store", "establishment"]}, "ChIJdxfSZVUFdkgRVRMrROeCBuA": {"geometry": {"location": {"lat": 51.5131791, "lng": -0.1874635}, "viewport": {"northeast": {"lat": 51.51452323029149, "lng": -0.186208719708498}, "southwest": {"lat": 51.5118252697085, "lng": -0.188906680291502}}}, "name": "Hereward Solicitors & Co", "place_id": "ChIJdxfSZVUFdkgRVRMrROeCBuA", "types": ["point_of_interest", "establishment"]}, "ChIJk2nSZVUFdkgRCePRlJzmvKM": {"geometry": {"location": {"lat": 51.51317940000001, "lng": -0.1874678}, "viewport": {"northeast": {"lat": 51.5145236802915, "lng": -0.186210919708498}, "southwest": {"lat": 51.5118257197085, "lng": -0.188908880291502}}}, "name": "ART MORPHOLOGY", "place_id": "ChIJk2nSZVUFdkgRCePRlJzmvKM", "types": ["point_of_interest", "establishment"]}, "ChIJ__9PW1UFdkgRwQUja_ndTMg": {"geometry": {"location": {"lat": 51.51391399999999, "lng": -0.1873503}, "viewport": {"northeast": {"lat": 51.5152495302915, "lng": -0.186209869708498}, "southwest": {"lat": 51.5125515697085, "lng": -0.188907830291502}}}, "name": "Flower Delivery Bayswater", "place_id": "ChIJ__9PW1UFdkgRwQUja_ndTMg", "types": ["point_of_interest", "establishment"], "rating": 1, "user_ratings_total": 1}, "ChIJl5v0o6cFdkgRsZ7omfw03lE": {"geometry": {"location": {"lat": 51.51391399999999, "lng": -0.1873503}, "viewport": {"northeast": {"lat": 51.5152495302915, "lng": -0.186209869708498}, "southwest": {"lat": 51.5125515697085, "lng": -0.188907830291502}}}, "name": "Benefit Cosmetics Brow Bar", "place_id": "ChIJl5v0o6cFdkgRsZ7omfw03lE", "types": ["beauty_salon", "hair_care", "point_of_interest", "store", "establishment"]}, "ChIJv-cN7SEFdkgRRAz3lqcH7BA": {"geometry": {"location": {"lat": 51.5133666, "lng": -0.1864435}, "viewport": {"northeast": {"lat": 51.5147052302915, "lng": -0.185203819708498}, "southwest": {"lat": 51.5120072697085, "lng": -0.187901780291502}}}, "name": "Socialisa", "place_id": "ChIJv-cN7SEFdkgRRAz3lqcH7BA", "types": ["point_of_interest", "establishment"]}, "ChIJO8NZlWUFdkgReofrK6ZQfFI": {"geometry": {"location": {"lat": 51.5133666, "lng": -0.1864435}, "viewport": {"northeast": {"lat": 51.5147052302915, "lng": -0.185203819708498}, "southwest": {"lat": 51.5120072697085, "lng": -0.187901780291502}}}, "name": "Casa Kensington imperial court studios", "place_id": "ChIJO8NZlWUFdkgReofrK6ZQfFI", "types": ["lodging", "point_of_interest", "establishment"]}, "ChIJ9c-8G5gFdkgRmxYlnm3yznM": {"geometry": {"location": {"lat": 51.5136075, "lng": -0.1864053}, "viewport": {"northeast": {"lat": 51.5149416302915, "lng": -0.185213119708498}, "southwest": {"lat": 51.5122436697085, "lng": -0.187911080291502}}}, "name": "OYO Royal Park Hotel", "place_id": "ChIJ9c-8G5gFdkgRmxYlnm3yznM", "types": ["lodging", "point_of_interest", "establishment"], "rating": 3.6, "user_ratings_total": 37}, "ChIJDQYlbFUFdkgRtfGzxwzgiCk": {"geometry": {"location": {"lat": 51.5131014, "lng": -0.1868951}, "viewport": {"northeast": {"lat": 51.51446343029149, "lng": -0.185401519708498}, "southwest": {"lat": 51.5117654697085, "lng": -0.188099480291502}}}, "name": "Devlin London", "place_id": "ChIJDQYlbFUFdkgRtfGzxwzgiCk", "types": ["real_estate_agency", "point_of_interest", "establishment"]}, "ChIJxe3QP1UFdkgRLKG7WKSFdvA": {"geometry": {"location": {"lat": 51.5136671, "lng": -0.1864197}, "viewport": {"northeast": {"lat": 51.5150012302915, "lng": -0.185227569708498}, "southwest": {"lat": 51.5123032697085, "lng": -0.187925530291502}}}, "name": "Vics Clearance Services", "place_id": "ChIJxe3QP1UFdkgRLKG7WKSFdvA", "types": ["point_of_interest", "establishment"]}, "ChIJE6aUNesFdkgRONS6_XqYaUM": {"geometry": {"location": {"lat": 51.5139528, "lng": -0.1869003}, "viewport": {"northeast": {"lat": 51.51529918029149, "lng": -0.185987069708498}, "southwest": {"lat": 51.51260121970849, "lng": -0.188685030291502}}}, "name": "Gjergj Kastrioti-SKANDERBEG", "place_id": "ChIJE6aUNesFdkgRONS6_XqYaUM", "types": ["point_of_interest", "establishment"], "rating": 5, "user_ratings_total": 7}, "ChIJmRK88BYFdkgR9ZCWW4TLGpM": {"geometry": {"location": {"lat": 51.5131273, "lng": -0.1874679}, "viewport": {"northeast": {"lat": 51.5144762802915, "lng": -0.186118919708498}, "southwest": {"lat": 51.5117783197085, "lng": -0.188816880291502}}}, "name": "AL KABABGI MEZZE&GRILL(\u0627\u0644\u0643\u0628\u0627\u0628\u0686\u064a \u0645\u0632\u0627\u062a \u0648 \u0645\u0634\u0627\u0648\u064a)", "place_id": "ChIJmRK88BYFdkgR9ZCWW4TLGpM", "types": ["restaurant", "food", "point_of_interest", "establishment"], "rating": 4.4, "user_ratings_total": 304}, "ChIJDzxgZlUFdkgR08bQC306n5U": {"geometry": {"location": {"lat": 51.51312069999999, "lng": -0.1874636}, "viewport": {"northeast": {"lat": 51.5144650302915, "lng": -0.186204969708498}, "southwest": {"lat": 51.5117670697085, "lng": -0.188902930291502}}}, "name": "A Nice Man With a Van", "place_id": "ChIJDzxgZlUFdkgR08bQC306n5U", "types": ["moving_company", "storage", "point_of_interest", "establishment"]}, "ChIJEc5GuXYFdkgRG6Ppa0IB0QQ": {"geometry": {"location": {"lat": 51.5137237, "lng": -0.187772}, "viewport": {"northeast": {"lat": 51.51510638029151, "lng": -0.186415419708498}, "southwest": {"lat": 51.51240841970851, "lng": -0.189113380291502}}}, "name": "Cheap Pallet Transport Bayswater", "place_id": "ChIJEc5GuXYFdkgRG6Ppa0IB0QQ", "types": ["point_of_interest", "establishment"]}, "ChIJrYkAyZkFdkgR3Suz-ETAmZM": {"geometry": {"location": {"lat": 51.51388300000001, "lng": -0.1875834}, "viewport": {"northeast": {"lat": 51.5152261302915, "lng": -0.186325069708498}, "southwest": {"lat": 51.5125281697085, "lng": -0.189023030291502}}}, "name": "Samsung repairs", "place_id": "ChIJrYkAyZkFdkgR3Suz-ETAmZM", "types": ["electronics_store", "point_of_interest", "store", "establishment"], "rating": 3, "user_ratings_total": 1}, "ChIJ20JIjvAFdkgRW9d2VOvO6v0": {"geometry": {"location": {"lat": 51.51315079999999, "lng": -0.1866144}, "viewport": {"northeast": {"lat": 51.51450453029149, "lng": -0.1852153697084979}, "southwest": {"lat": 51.51180656970849, "lng": -0.187913330291502}}}, "name": "blooms by lee", "place_id": "ChIJ20JIjvAFdkgRW9d2VOvO6v0", "types": ["restaurant", "food", "point_of_interest", "establishment"]}, "ChIJp0gxEJ0FdkgRwI7tUIhWjys": {"geometry": {"location": {"lat": 51.5130839, "lng": -0.1874129}, "viewport": {"northeast": {"lat": 51.5144270802915, "lng": -0.186177019708498}, "southwest": {"lat": 51.51172911970851, "lng": -0.188874980291502}}}, "name": "KeyNest - Smart Key Exchange", "place_id": "ChIJp0gxEJ0FdkgRwI7tUIhWjys", "types": ["point_of_interest", "store", "establishment"]}, "ChIJjRM47FcFdkgRmUuSSSwVaBk": {"geometry": {"location": {"lat": 51.5137906, "lng": -0.1877513}, "viewport": {"northeast": {"lat": 51.5151395802915, "lng": -0.1864023197084979}, "southwest": {"lat": 51.5124416197085, "lng": -0.1891002802915019}}}, "name": "Ortum WebTech", "place_id": "ChIJjRM47FcFdkgRmUuSSSwVaBk", "types": ["point_of_interest", "establishment"], "rating": 5, "user_ratings_total": 1}, "ChIJR-_pe1UFdkgRHoRa3ogar_M": {"geometry": {"location": {"lat": 51.51260535910254, "lng": -0.1875705004722852}, "viewport": {"northeast": {"lat": 51.5139542302915, "lng": -0.186223219708498}, "southwest": {"lat": 51.5112562697085, "lng": -0.188921180291502}}}, "name": "93-97 Queensway", "place_id": "ChIJR-_pe1UFdkgRHoRa3ogar_M", "types": ["route"]}, "ChIJow-TdFUFdkgRYdNhThd8-P4": {"geometry": {"location": {"lat": 51.5124323, "lng": -0.1867661}, "viewport": {"northeast": {"lat": 51.51367138029149, "lng": -0.185346519708498}, "southwest": {"lat": 51.5109734197085, "lng": -0.188044480291502}}}, "name": "La Suite West Hotel London", "place_id": "ChIJow-TdFUFdkgRYdNhThd8-P4", "types": ["lodging", "restaurant", "food", "point_of_interest", "establishment"], "rating": 3.9, "user_ratings_total": 463}, "ChIJ08ThoVUFdkgRQ54P2PT1mJc": {"geometry": {"location": {"lat": 51.5120278, "lng": -0.1866111}, "viewport": {"northeast": {"lat": 51.5133615802915, "lng": -0.185150219708498}, "southwest": {"lat": 51.5106636197085, "lng": -0.187848180291502}}}, "name": "Berjaya Eden Park Hotel", "place_id": "ChIJ08ThoVUFdkgRQ54P2PT1mJc", "types": ["lodging", "point_of_interest", "establishment"], "rating": 3.2, "user_ratings_total": 784}, "ChIJ___vcFUFdkgR2fq3rtvs8OU": {"geometry": {"location": {"lat": 51.5126828, "lng": -0.1871519}, "viewport": {"northeast": {"lat": 51.51403208029151, "lng": -0.185794119708498}, "southwest": {"lat": 51.51133411970851, "lng": -0.1884920802915021}}}, "name": "Lovely Bayswater Suites by Sonder", "place_id": "ChIJ___vcFUFdkgR2fq3rtvs8OU", "types": ["lodging", "point_of_interest", "establishment"], "rating": 3.5, "user_ratings_total": 2}, "ChIJJ0PXZFUFdkgRDjRQWMyideU": {"geometry": {"location": {"lat": 51.5129404, "lng": -0.1873767}, "viewport": {"northeast": {"lat": 51.5142815802915, "lng": -0.186170819708498}, "southwest": {"lat": 51.5115836197085, "lng": -0.188868780291502}}}, "name": "Four Seasons", "place_id": "ChIJJ0PXZFUFdkgRDjRQWMyideU", "types": ["restaurant", "food", "point_of_interest", "establishment"], "rating": 4, "user_ratings_total": 922}, "ChIJI0MLe1UFdkgR7HMO0puNEyE": {"geometry": {"location": {"lat": 51.51276819999999, "lng": -0.1873876}, "viewport": {"northeast": {"lat": 51.51409128029149, "lng": -0.186138919708498}, "southwest": {"lat": 51.5113933197085, "lng": -0.188836880291502}}}, "name": "McDonald's Queensway - London", "place_id": "ChIJI0MLe1UFdkgR7HMO0puNEyE", "types": ["restaurant", "meal_takeaway", "food", "point_of_interest", "establishment"], "rating": 3.5, "user_ratings_total": 1259}, "ChIJ8aICelUFdkgRG2WqOmAtPiM": {"geometry": {"location": {"lat": 51.5123955, "lng": -0.1874052}, "viewport": {"northeast": {"lat": 51.51374063029149, "lng": -0.186122819708498}, "southwest": {"lat": 51.51104266970849, "lng": -0.188820780291502}}}, "name": "Tesco Express", "place_id": "ChIJ8aICelUFdkgRG2WqOmAtPiM", "types": ["supermarket", "convenience_store", "grocery_or_supermarket", "food", "point_of_interest", "store", "establishment"], "rating": 3.4, "user_ratings_total": 98}, "ChIJ1W2LqFUFdkgRzTBBGlZQvCA": {"geometry": {"location": {"lat": 51.51256559999999, "lng": -0.1873867}, "viewport": {"northeast": {"lat": 51.5139145802915, "lng": -0.1860377197084979}, "southwest": {"lat": 51.5112166197085, "lng": -0.188735680291502}}}, "name": "Burger King", "place_id": "ChIJ1W2LqFUFdkgRzTBBGlZQvCA", "types": ["restaurant", "food", "point_of_interest", "establishment"], "rating": 2.9, "user_ratings_total": 745}, "ChIJ-4BeclUFdkgR9dtZrCpiYs4": {"geometry": {"location": {"lat": 51.5127303, "lng": -0.186844}, "viewport": {"northeast": {"lat": 51.5141123802915, "lng": -0.185338269708498}, "southwest": {"lat": 51.5114144197085, "lng": -0.188036230291502}}}, "name": "Dean Court", "place_id": "ChIJ-4BeclUFdkgR9dtZrCpiYs4", "types": ["lodging", "point_of_interest", "establishment"], "rating": 2.9, "user_ratings_total": 121}, "ChIJOz03LtMadkgRZt2yOUkorGw": {"geometry": {"location": {"lat": 51.5126184, "lng": -0.187111}, "viewport": {"northeast": {"lat": 51.5139660802915, "lng": -0.185784619708498}, "southwest": {"lat": 51.5112681197085, "lng": -0.188482580291502}}}, "name": "The Incorporated Society Of Musicians", "place_id": "ChIJOz03LtMadkgRZt2yOUkorGw", "types": ["point_of_interest", "establishment"], "rating": 5, "user_ratings_total": 2}, "ChIJ-8ESdlUFdkgR1dh3UR9kh34": {"geometry": {"location": {"lat": 51.5123439, "lng": -0.1869143}, "viewport": {"northeast": {"lat": 51.51361833029149, "lng": -0.185551769708498}, "southwest": {"lat": 51.5109203697085, "lng": -0.188249730291502}}}, "name": "Mouth and Foot Painting Artists", "place_id": "ChIJ-8ESdlUFdkgR1dh3UR9kh34", "types": ["point_of_interest", "establishment"], "rating": 4.5, "user_ratings_total": 14}, "ChIJwytfd1UFdkgRJoF5OcBjpq4": {"geometry": {"location": {"lat": 51.512473, "lng": -0.1872614}, "viewport": {"northeast": {"lat": 51.5138325802915, "lng": -0.185860669708498}, "southwest": {"lat": 51.5111346197085, "lng": -0.188558630291502}}}, "name": "Kalamaras", "place_id": "ChIJwytfd1UFdkgRJoF5OcBjpq4", "types": ["restaurant", "food", "point_of_interest", "establishment"], "rating": 4.6, "user_ratings_total": 380}, "ChIJbQ9PdlUFdkgROEPMCalDTow": {"geometry": {"location": {"lat": 51.512342, "lng": -0.1870721}, "viewport": {"northeast": {"lat": 51.5136912302915, "lng": -0.185751919708498}, "southwest": {"lat": 51.5109932697085, "lng": -0.188449880291502}}}, "name": "ISM Trust", "place_id": "ChIJbQ9PdlUFdkgROEPMCalDTow", "types": ["point_of_interest", "establishment"]}, "ChIJzwFneVUFdkgRwqwvmk35zbc": {"geometry": {"location": {"lat": 51.5125384, "lng": -0.1873181}, "viewport": {"northeast": {"lat": 51.51388053029149, "lng": -0.186089369708498}, "southwest": {"lat": 51.5111825697085, "lng": -0.188787330291502}}}, "name": "Legal Comfort Solicitors", "place_id": "ChIJzwFneVUFdkgRwqwvmk35zbc", "types": ["point_of_interest", "establishment"]}, "ChIJ3261c1UFdkgR_puoLYpb_T4": {"geometry": {"location": {"lat": 51.5126934, "lng": -0.1868278}, "viewport": {"northeast": {"lat": 51.5140566302915, "lng": -0.185320619708498}, "southwest": {"lat": 51.5113586697085, "lng": -0.188018580291502}}}, "name": "Mayfair Inns", "place_id": "ChIJ3261c1UFdkgR_puoLYpb_T4", "types": ["point_of_interest", "establishment"]}, "ChIJD2-1c1UFdkgRA8JYPqah20Q": {"geometry": {"location": {"lat": 51.5127025, "lng": -0.1868356}, "viewport": {"northeast": {"lat": 51.5140660302915, "lng": -0.185325669708498}, "southwest": {"lat": 51.5113680697085, "lng": -0.1880236302915021}}}, "name": "Hyde Park Superior Apartments", "place_id": "ChIJD2-1c1UFdkgRA8JYPqah20Q", "types": ["lodging", "point_of_interest", "establishment"], "rating": 3.1, "user_ratings_total": 156}, "ChIJD2-1c1UFdkgRfjQEhc0EZmw": {"geometry": {"location": {"lat": 51.51271699999999, "lng": -0.186833}, "viewport": {"northeast": {"lat": 51.5140802302915, "lng": -0.185325969708498}, "southwest": {"lat": 51.5113822697085, "lng": -0.188023930291502}}}, "name": "Western Aparts Ltd", "place_id": "ChIJD2-1c1UFdkgRfjQEhc0EZmw", "types": ["real_estate_agency", "lodging", "point_of_interest", "establishment"], "rating": 2.1, "user_ratings_total": 11}, "ChIJ5V-JelUFdkgR1DU3cNCnVzA": {"geometry": {"location": {"lat": 51.5127386, "lng": -0.1873652}, "viewport": {"northeast": {"lat": 51.5140795802915, "lng": -0.1861282697084979}, "southwest": {"lat": 51.5113816197085, "lng": -0.1888262302915019}}}, "name": "J-MOBILE & Vapes", "place_id": "ChIJ5V-JelUFdkgR1DU3cNCnVzA", "types": ["point_of_interest", "store", "establishment"], "rating": 3.6, "user_ratings_total": 16}, "ChIJnUsaZVUFdkgR4CPvflbpSW4": {"geometry": {"location": {"lat": 51.5120893, "lng": -0.1873408}, "viewport": {"northeast": {"lat": 51.5134759302915, "lng": -0.185997419708498}, "southwest": {"lat": 51.5107779697085, "lng": -0.188695380291502}}}, "name": "Western Union", "place_id": "ChIJnUsaZVUFdkgR4CPvflbpSW4", "types": ["finance", "point_of_interest", "establishment"], "rating": 1, "user_ratings_total": 2}, "ChIJ8aICelUFdkgROeS_O1tBiqs": {"geometry": {"location": {"lat": 51.5128064, "lng": -0.1874137}, "viewport": {"northeast": {"lat": 51.5141587802915, "lng": -0.186158769708498}, "southwest": {"lat": 51.5114608197085, "lng": -0.188856730291502}}}, "name": "Pappa Roti", "place_id": "ChIJ8aICelUFdkgROeS_O1tBiqs", "types": ["restaurant", "food", "point_of_interest", "establishment"], "rating": 4.6, "user_ratings_total": 5}, "ChIJq6p-waoadkgRnmiQvm5nrbg": {"geometry": {"location": {"lat": 51.5123545, "lng": -0.1877315}, "viewport": {"northeast": {"lat": 51.5137091302915, "lng": -0.1862843197084979}, "southwest": {"lat": 51.5110111697085, "lng": -0.188982280291502}}}, "name": "Bayswater MiniCabs", "place_id": "ChIJq6p-waoadkgRnmiQvm5nrbg", "types": ["taxi_stand", "point_of_interest", "establishment"], "rating": 5, "user_ratings_total": 1}, "ChIJV-bfelUFdkgRvKfMo2hzLw8": {"geometry": {"location": {"lat": 51.51280699999999, "lng": -0.187476}, "viewport": {"northeast": {"lat": 51.51416408029149, "lng": -0.186191319708498}, "southwest": {"lat": 51.51146611970849, "lng": -0.188889280291502}}}, "name": "Polish Me Pretty", "place_id": "ChIJV-bfelUFdkgRvKfMo2hzLw8", "types": ["beauty_salon", "point_of_interest", "establishment"], "rating": 3.8, "user_ratings_total": 131}, "ChIJKZyRf1UFdkgR3epMaeDsjto": {"geometry": {"location": {"lat": 51.51235250000001, "lng": -0.1877694}, "viewport": {"northeast": {"lat": 51.5137096802915, "lng": -0.186303519708498}, "southwest": {"lat": 51.5110117197085, "lng": -0.189001480291502}}}, "name": "Bayswater", "place_id": "ChIJKZyRf1UFdkgR3epMaeDsjto", "types": ["subway_station", "transit_station", "point_of_interest", "establishment"], "rating": 4.3, "user_ratings_total": 129}, "ChIJ8aICelUFdkgRbch3XCfVPTE": {"geometry": {"location": {"lat": 51.51292410000001, "lng": -0.1874418}, "viewport": {"northeast": {"lat": 51.5142684302915, "lng": -0.186180919708498}, "southwest": {"lat": 51.5115704697085, "lng": -0.188878880291502}}}, "name": "Queensway Dental Practice", "place_id": "ChIJ8aICelUFdkgRbch3XCfVPTE", "types": ["dentist", "health", "point_of_interest", "establishment"], "rating": 4.4, "user_ratings_total": 83}, "ChIJV9MrfFUFdkgRm3pK2zSvcMs": {"geometry": {"location": {"lat": 51.5125992, "lng": -0.1878014}, "viewport": {"northeast": {"lat": 51.5140114802915, "lng": -0.186477319708498}, "southwest": {"lat": 51.5113135197085, "lng": -0.189175280291502}}}, "name": "CMFashionAddict", "place_id": "ChIJV9MrfFUFdkgRm3pK2zSvcMs", "types": ["point_of_interest", "store", "establishment"]}, "ChIJ8aICelUFdkgRFaIqCafwCHw": {"geometry": {"location": {"lat": 51.5125395, "lng": -0.187332}, "viewport": {"northeast": {"lat": 51.5138884802915, "lng": -0.185983019708498}, "southwest": {"lat": 51.5111905197085, "lng": -0.188680980291502}}}, "name": "La Brasserie Ristorante Italiano", "place_id": "ChIJ8aICelUFdkgRFaIqCafwCHw", "types": ["meal_takeaway", "restaurant", "food", "point_of_interest", "establishment"], "rating": 3.7, "user_ratings_total": 277}, "ChIJBRKGUryo2EcRzwWl8Df7pT8": {"geometry": {"location": {"lat": 51.5124323, "lng": -0.1867661}, "viewport": {"northeast": {"lat": 51.51379573029149, "lng": -0.185259619708498}, "southwest": {"lat": 51.5110977697085, "lng": -0.187957580291502}}}, "name": "Hyde Park Towers Hotel", "place_id": "ChIJBRKGUryo2EcRzwWl8Df7pT8", "types": ["lodging", "point_of_interest", "establishment"], "rating": 2.8, "user_ratings_total": 4}, "ChIJq5O_f1UFdkgRFMOCuroF6q8": {"geometry": {"location": {"lat": 51.5123216, "lng": -0.1878537}, "viewport": {"northeast": {"lat": 51.5137426802915, "lng": -0.186598069708498}, "southwest": {"lat": 51.5110447197085, "lng": -0.189296030291502}}}, "name": "Bayswater", "place_id": "ChIJq5O_f1UFdkgRFMOCuroF6q8", "types": ["transit_station", "point_of_interest", "establishment"]}, "ChIJUQ6TdFUFdkgR4mU1OKqpsTA": {"geometry": {"location": {"lat": 51.5125187, "lng": -0.186789}, "viewport": {"northeast": {"lat": 51.5138820302915, "lng": -0.185280919708498}, "southwest": {"lat": 51.5111840697085, "lng": -0.187978880291502}}}, "name": "Concierge Direct Limited", "place_id": "ChIJUQ6TdFUFdkgR4mU1OKqpsTA", "types": ["point_of_interest", "establishment"], "rating": 5, "user_ratings_total": 1}, "ChIJcyBFgFUFdkgRqaku6ouE6MU": {"geometry": {"location": {"lat": 51.51258170000001, "lng": -0.1878136}, "viewport": {"northeast": {"lat": 51.51400463029151, "lng": -0.186465669708498}, "southwest": {"lat": 51.51130666970851, "lng": -0.189163630291502}}}, "name": "Bayswater Arms", "place_id": "ChIJcyBFgFUFdkgRqaku6ouE6MU", "types": ["bar", "point_of_interest", "establishment"], "rating": 4, "user_ratings_total": 1548}, "ChIJZQc_dlUFdkgRSKjNIURcNxw": {"geometry": {"location": {"lat": 51.51232539999999, "lng": -0.1869145}, "viewport": {"northeast": {"lat": 51.5136089302915, "lng": -0.185553619708498}, "southwest": {"lat": 51.5109109697085, "lng": -0.188251580291502}}}, "name": "Fine Art Distribution Company Ltd", "place_id": "ChIJZQc_dlUFdkgRSKjNIURcNxw", "types": ["art_gallery", "point_of_interest", "establishment"]}, "ChIJ8aICelUFdkgR1otzryHBro0": {"geometry": {"location": {"lat": 51.51248830000001, "lng": -0.1873847}, "viewport": {"northeast": {"lat": 51.5138372802915, "lng": -0.1860357197084979}, "southwest": {"lat": 51.51113931970851, "lng": -0.188733680291502}}}, "name": "Subway", "place_id": "ChIJ8aICelUFdkgR1otzryHBro0", "types": ["meal_takeaway", "restaurant", "food", "point_of_interest", "establishment"], "rating": 3.3, "user_ratings_total": 361}, "ChIJVdMrfFUFdkgRJOO6WHlrrZo": {"geometry": {"location": {"lat": 51.5125774, "lng": -0.1877903}, "viewport": {"northeast": {"lat": 51.5138800802915, "lng": -0.186323169708498}, "southwest": {"lat": 51.5111821197085, "lng": -0.189021130291502}}}, "name": "Barclays Bank", "place_id": "ChIJVdMrfFUFdkgRJOO6WHlrrZo", "types": ["bank", "atm", "finance", "point_of_interest", "establishment"], "rating": 2.3, "user_ratings_total": 26}, "ChIJcyBFgFUFdkgR8KLSeIliqOw": {"geometry": {"location": {"lat": 51.5122061, "lng": -0.1876593}, "viewport": {"northeast": {"lat": 51.5135590302915, "lng": -0.186235369708498}, "southwest": {"lat": 51.5108610697085, "lng": -0.1889333302915021}}}, "name": "Grosvenor Casino, Golden Horseshoe", "place_id": "ChIJcyBFgFUFdkgR8KLSeIliqOw", "types": ["casino", "point_of_interest", "establishment"], "rating": 4, "user_ratings_total": 223}, "ChIJU4w8d1UFdkgRhbuLD75nbS0": {"geometry": {"location": {"lat": 51.5124898, "lng": -0.187221}, "viewport": {"northeast": {"lat": 51.5138389802915, "lng": -0.1858679197084979}, "southwest": {"lat": 51.5111410197085, "lng": -0.188565880291502}}}, "name": "NoshDetox cuisini", "place_id": "ChIJU4w8d1UFdkgRhbuLD75nbS0", "types": ["restaurant", "food", "point_of_interest", "establishment"]}, "ChIJx_SiKU8FdkgRUImJ6zbWHLA": {"geometry": {"location": {"lat": 51.51233360000001, "lng": -0.1869947}, "viewport": {"northeast": {"lat": 51.51361033029151, "lng": -0.185632569708498}, "southwest": {"lat": 51.51091236970851, "lng": -0.188330530291502}}}, "name": "Discreet Investigations", "place_id": "ChIJx_SiKU8FdkgRUImJ6zbWHLA", "types": ["point_of_interest", "establishment"]}, "ChIJAzcbFygFdkgRwy1unnMBI5M": {"geometry": {"location": {"lat": 51.51262019999999, "lng": -0.1871031}, "viewport": {"northeast": {"lat": 51.51396748029151, "lng": -0.185784819708498}, "southwest": {"lat": 51.51126951970851, "lng": -0.188482780291502}}}, "name": "Pilates4you Studio", "place_id": "ChIJAzcbFygFdkgRwy1unnMBI5M", "types": ["gym", "health", "point_of_interest", "establishment"], "rating": 5, "user_ratings_total": 22}, "ChIJvVfkc1oFdkgRTc89FU6RXIw": {"geometry": {"location": {"lat": 51.51262019999999, "lng": -0.1871031}, "viewport": {"northeast": {"lat": 51.51396748029151, "lng": -0.185784819708498}, "southwest": {"lat": 51.51126951970851, "lng": -0.188482780291502}}}, "name": "Sprint Physiotherapy", "place_id": "ChIJvVfkc1oFdkgRTc89FU6RXIw", "types": ["health", "point_of_interest", "establishment"]}, "ChIJ2-bZxZwFdkgRbcb6d7aPC4s": {"geometry": {"location": {"lat": 51.5124323, "lng": -0.1867661}, "viewport": {"northeast": {"lat": 51.51379573029149, "lng": -0.185259619708498}, "southwest": {"lat": 51.5110977697085, "lng": -0.187957580291502}}}, "name": "Caf\u00e9 Forty One", "place_id": "ChIJ2-bZxZwFdkgRbcb6d7aPC4s", "types": ["restaurant", "food", "point_of_interest", "establishment"], "rating": 4.4, "user_ratings_total": 95}, "ChIJ57oGRkoFdkgRbz87_nhDv2A": {"geometry": {"location": {"lat": 51.51257870000001, "lng": -0.1873839}, "viewport": {"northeast": {"lat": 51.5139225302915, "lng": -0.1861255197084979}, "southwest": {"lat": 51.5112245697085, "lng": -0.188823480291502}}}, "name": "Queensway Roofing", "place_id": "ChIJ57oGRkoFdkgRbz87_nhDv2A", "types": ["roofing_contractor", "point_of_interest", "establishment"], "rating": 5, "user_ratings_total": 5}, "ChIJV5j7eFUFdkgRQjgbCm0gYMg": {"geometry": {"location": {"lat": 51.5122551, "lng": -0.1872828}, "viewport": {"northeast": {"lat": 51.5135611802915, "lng": -0.185975669708498}, "southwest": {"lat": 51.5108632197085, "lng": -0.188673630291502}}}, "name": "London Mobile Gadget", "place_id": "ChIJV5j7eFUFdkgRQjgbCm0gYMg", "types": ["point_of_interest", "establishment"], "rating": 4.2, "user_ratings_total": 30}, "ChIJ2zUQeFUFdkgRJaXJrYZVLuY": {"geometry": {"location": {"lat": 51.51227610000001, "lng": -0.1873495}, "viewport": {"northeast": {"lat": 51.51359708029151, "lng": -0.186084919708498}, "southwest": {"lat": 51.51089911970852, "lng": -0.188782880291502}}}, "name": "Miningcenter Ltd", "place_id": "ChIJ2zUQeFUFdkgRJaXJrYZVLuY", "types": ["point_of_interest", "establishment"], "rating": 1.3, "user_ratings_total": 3}, "ChIJMVWic1UFdkgR463O88sCN0A": {"geometry": {"location": {"lat": 51.512652, "lng": -0.1867779}, "viewport": {"northeast": {"lat": 51.51401363029151, "lng": -0.185291119708498}, "southwest": {"lat": 51.51131566970851, "lng": -0.187989080291502}}}, "name": "IL CUCCHIAIO DI LEGNO", "place_id": "ChIJMVWic1UFdkgR463O88sCN0A", "types": ["restaurant", "food", "point_of_interest", "establishment"]}, "ChIJmWxlelUFdkgRIQH3ryY1Pxc": {"geometry": {"location": {"lat": 51.5126868, "lng": -0.1873494}, "viewport": {"northeast": {"lat": 51.5140291802915, "lng": -0.186115969708498}, "southwest": {"lat": 51.5113312197085, "lng": -0.188813930291502}}}, "name": "Albanian Translation Service", "place_id": "ChIJmWxlelUFdkgRIQH3ryY1Pxc", "types": ["point_of_interest", "establishment"]}, "ChIJ8aICelUFdkgRwYJcpNudV-o": {"geometry": {"location": {"lat": 51.5126868, "lng": -0.1873564}, "viewport": {"northeast": {"lat": 51.5140293802915, "lng": -0.186119519708498}, "southwest": {"lat": 51.5113314197085, "lng": -0.188817480291502}}}, "name": "Lomer Translations & Interpreting Ltd", "place_id": "ChIJ8aICelUFdkgRwYJcpNudV-o", "types": ["point_of_interest", "establishment"], "rating": 5, "user_ratings_total": 1}, "ChIJ2zUQeFUFdkgR6G-bHJ97JOU": {"geometry": {"location": {"lat": 51.512244, "lng": -0.1873961}, "viewport": {"northeast": {"lat": 51.5135527302915, "lng": -0.186034519708498}, "southwest": {"lat": 51.5108547697085, "lng": -0.1887324802915021}}}, "name": "The Waffle Factory", "place_id": "ChIJ2zUQeFUFdkgR6G-bHJ97JOU", "types": ["cafe", "food", "point_of_interest", "store", "establishment"], "rating": 4.3, "user_ratings_total": 149}, "ChIJiU5hqvoFdkgRp_aT9cvTUfY": {"geometry": {"location": {"lat": 51.51268990000001, "lng": -0.1868199}, "viewport": {"northeast": {"lat": 51.5140528302915, "lng": -0.185316219708498}, "southwest": {"lat": 51.51135486970851, "lng": -0.188014180291502}}}, "name": "New Kent Hotel", "place_id": "ChIJiU5hqvoFdkgRp_aT9cvTUfY", "types": ["lodging", "point_of_interest", "establishment"], "rating": 4, "user_ratings_total": 4}, "ChIJrclOmFUFdkgR4wG3Eg-NgS0": {"geometry": {"location": {"lat": 51.5126617, "lng": -0.1867309}, "viewport": {"northeast": {"lat": 51.5140210802915, "lng": -0.185268219708498}, "southwest": {"lat": 51.5113231197085, "lng": -0.1879661802915021}}}, "name": "Gallery Hyde Park", "place_id": "ChIJrclOmFUFdkgR4wG3Eg-NgS0", "types": ["lodging", "point_of_interest", "establishment"], "rating": 3.2, "user_ratings_total": 471}, "ChIJ3261c1UFdkgR1MYi8FkYg48": {"geometry": {"location": {"lat": 51.51271370000001, "lng": -0.1868248}, "viewport": {"northeast": {"lat": 51.5140766302915, "lng": -0.185321419708498}, "southwest": {"lat": 51.5113786697085, "lng": -0.1880193802915021}}}, "name": "Taaly Ltd", "place_id": "ChIJ3261c1UFdkgR1MYi8FkYg48", "types": ["point_of_interest", "establishment"]}, "ChIJ8YFTelUFdkgRPn7TKw0riaQ": {"geometry": {"location": {"lat": 51.5127386, "lng": -0.1873652}, "viewport": {"northeast": {"lat": 51.5140875802915, "lng": -0.1860162197084979}, "southwest": {"lat": 51.5113896197085, "lng": -0.188714180291502}}}, "name": "J.Mobile", "place_id": "ChIJ8YFTelUFdkgRPn7TKw0riaQ", "types": ["point_of_interest", "establishment"], "rating": 4.1, "user_ratings_total": 13}, "ChIJK4EYg1UFdkgRcsL0j8zRifc": {"geometry": {"location": {"lat": 51.51206320000001, "lng": -0.1873382}, "viewport": {"northeast": {"lat": 51.51340913029151, "lng": -0.186064519708498}, "southwest": {"lat": 51.51071116970851, "lng": -0.188762480291502}}}, "name": "Executive Classic Cars", "place_id": "ChIJK4EYg1UFdkgRcsL0j8zRifc", "types": ["point_of_interest", "establishment"], "rating": 3.8, "user_ratings_total": 9}, "ChIJ12dzp7kFdkgRgbhTn7Xgo6Q": {"geometry": {"location": {"lat": 51.5120971, "lng": -0.1871886}, "viewport": {"northeast": {"lat": 51.51343998029149, "lng": -0.1859911697084979}, "southwest": {"lat": 51.51074201970849, "lng": -0.188689130291502}}}, "name": "Tealive Bayswater", "place_id": "ChIJ12dzp7kFdkgRgbhTn7Xgo6Q", "types": ["cafe", "food", "point_of_interest", "establishment"], "rating": 4.3, "user_ratings_total": 21}, "ChIJq6otnVUFdkgRHp397PKaGZA": {"geometry": {"location": {"lat": 51.512097, "lng": -0.1872806}, "viewport": {"northeast": {"lat": 51.5134417302915, "lng": -0.186037369708498}, "southwest": {"lat": 51.51074376970851, "lng": -0.188735330291502}}}, "name": "SPG", "place_id": "ChIJq6otnVUFdkgRHp397PKaGZA", "types": ["point_of_interest", "establishment"]}, "ChIJzf7MglUFdkgR3RzOuLYPE1k": {"geometry": {"location": {"lat": 51.512095, "lng": -0.1872887}, "viewport": {"northeast": {"lat": 51.5134398802915, "lng": -0.186041319708498}, "southwest": {"lat": 51.5107419197085, "lng": -0.188739280291502}}}, "name": "Calver John B", "place_id": "ChIJzf7MglUFdkgR3RzOuLYPE1k", "types": ["lawyer", "point_of_interest", "establishment"]}, "ChIJ4bQJfFUFdkgRIruhvA0eSgQ": {"geometry": {"location": {"lat": 51.512604, "lng": -0.187656}, "viewport": {"northeast": {"lat": 51.5139507302915, "lng": -0.186264019708498}, "southwest": {"lat": 51.5112527697085, "lng": -0.188961980291502}}}, "name": "Bayswater (Stop P)", "place_id": "ChIJ4bQJfFUFdkgRIruhvA0eSgQ", "types": ["transit_station", "point_of_interest", "establishment"], "rating": 3.5, "user_ratings_total": 2}, "ChIJLxfTnFUFdkgR0iYAmvXjI5Y": {"geometry": {"location": {"lat": 51.512082, "lng": -0.1872939}, "viewport": {"northeast": {"lat": 51.5134270302915, "lng": -0.186043269708498}, "southwest": {"lat": 51.5107290697085, "lng": -0.188741230291502}}}, "name": "ATM", "place_id": "ChIJLxfTnFUFdkgR0iYAmvXjI5Y", "types": ["atm", "finance", "point_of_interest", "establishment"]}, "ChIJlQnKnFUFdkgR6OAjAbQU10Y": {"geometry": {"location": {"lat": 51.5120812, "lng": -0.1873359}, "viewport": {"northeast": {"lat": 51.5134304802915, "lng": -0.186086319708498}, "southwest": {"lat": 51.51073251970851, "lng": -0.188784280291502}}}, "name": "ICE - International Currency Exchange", "place_id": "ChIJlQnKnFUFdkgR6OAjAbQU10Y", "types": ["finance", "point_of_interest", "establishment"], "rating": 1.9, "user_ratings_total": 13}, "ChIJA69lC1UFdkgR6ZeIUrVUMVY": {"geometry": {"location": {"lat": 51.5125275, "lng": -0.1864346}, "viewport": {"northeast": {"lat": 51.5138782302915, "lng": -0.185066419708498}, "southwest": {"lat": 51.5111802697085, "lng": -0.187764380291502}}}, "name": "Zipcar", "place_id": "ChIJA69lC1UFdkgR6ZeIUrVUMVY", "types": ["car_rental", "point_of_interest", "establishment"]}, "ChIJJ4nzMt4FdkgRvvUl5lXIddM": {"geometry": {"location": {"lat": 51.5125845, "lng": -0.1877197}, "viewport": {"northeast": {"lat": 51.5138879302915, "lng": -0.186295219708498}, "southwest": {"lat": 51.5111899697085, "lng": -0.188993180291502}}}, "name": "Barclays ATM", "place_id": "ChIJJ4nzMt4FdkgRvvUl5lXIddM", "types": ["atm", "finance", "point_of_interest", "establishment"], "rating": 2, "user_ratings_total": 2}, "ChIJz9Xi7FUFdkgRgzp5Oy22fxg": {"geometry": {"location": {"lat": 51.5110833500009, "lng": -0.1871907999886533}, "viewport": {"northeast": {"lat": 51.5124323302915, "lng": -0.185841819708498}, "southwest": {"lat": 51.5097343697085, "lng": -0.188539780291502}}}, "name": "26 Queensway", "place_id": "ChIJz9Xi7FUFdkgRgzp5Oy22fxg", "types": ["route"]}, "ChIJ7ZvciFUFdkgRXwQT9HcqMMg": {"geometry": {"location": {"lat": 51.51088349999999, "lng": -0.187393}, "viewport": {"northeast": {"lat": 51.5122550802915, "lng": -0.185911519708498}, "southwest": {"lat": 51.5095571197085, "lng": -0.188609480291502}}}, "name": "QUEENS skate \u2022 dine \u2022 bowl", "place_id": "ChIJ7ZvciFUFdkgRXwQT9HcqMMg", "types": ["bowling_alley", "bar", "restaurant", "food", "point_of_interest", "establishment"], "rating": 4.2, "user_ratings_total": 2211}, "ChIJ7ZvciFUFdkgRWPhgBLXLnpY": {"geometry": {"location": {"lat": 51.5112086, "lng": -0.1873727}, "viewport": {"northeast": {"lat": 51.5125825802915, "lng": -0.185965419708498}, "southwest": {"lat": 51.50988461970851, "lng": -0.188663380291502}}}, "name": "Queensway Food & Wine", "place_id": "ChIJ7ZvciFUFdkgRWPhgBLXLnpY", "types": ["convenience_store", "food", "point_of_interest", "store", "establishment"], "rating": 2.8, "user_ratings_total": 5}, "ChIJ8--Gu1UFdkgRsp9F9SxCq68": {"geometry": {"location": {"lat": 51.5113169, "lng": -0.1863884}, "viewport": {"northeast": {"lat": 51.5126801302915, "lng": -0.184927369708498}, "southwest": {"lat": 51.5099821697085, "lng": -0.187625330291502}}}, "name": "Hyde Park Economy Apartments London", "place_id": "ChIJ8--Gu1UFdkgRsp9F9SxCq68", "types": ["real_estate_agency", "lodging", "point_of_interest", "establishment"], "rating": 2.9, "user_ratings_total": 267}, "ChIJ7ZvciFUFdkgRbyLvw6RoSyg": {"geometry": {"location": {"lat": 51.5110853, "lng": -0.1874362}, "viewport": {"northeast": {"lat": 51.5124248802915, "lng": -0.185965119708498}, "southwest": {"lat": 51.50972691970851, "lng": -0.188663080291502}}}, "name": "Queensway Market", "place_id": "ChIJ7ZvciFUFdkgRbyLvw6RoSyg", "types": ["beauty_salon", "hair_care", "electronics_store", "bar", "food", "point_of_interest", "store", "establishment"], "rating": 3.9, "user_ratings_total": 158}, "ChIJw_vBc1UFdkgRmnyVsTkuuUM": {"geometry": {"location": {"lat": 51.51108300000001, "lng": -0.186899}, "viewport": {"northeast": {"lat": 51.51244913029149, "lng": -0.185552769708498}, "southwest": {"lat": 51.50975116970849, "lng": -0.188250730291502}}}, "name": "Q-Park Queensway", "place_id": "ChIJw_vBc1UFdkgRmnyVsTkuuUM", "types": ["parking", "storage", "point_of_interest", "establishment"], "rating": 3.5, "user_ratings_total": 95}, "ChIJm_XR7FUFdkgRxH25txfe0fU": {"geometry": {"location": {"lat": 51.5114686, "lng": -0.1870384}, "viewport": {"northeast": {"lat": 51.51279588029149, "lng": -0.185828419708498}, "southwest": {"lat": 51.51009791970849, "lng": -0.188526380291502}}}, "name": "STL - Business Training (Bayswater venue)", "place_id": "ChIJm_XR7FUFdkgRxH25txfe0fU", "types": ["point_of_interest", "establishment"]}, "ChIJmQ0RsLUadkgRZusae9D9ZaQ": {"geometry": {"location": {"lat": 51.5112288, "lng": -0.186998}, "viewport": {"northeast": {"lat": 51.5125616802915, "lng": -0.185766419708498}, "southwest": {"lat": 51.5098637197085, "lng": -0.188464380291502}}}, "name": "EN Translation", "place_id": "ChIJmQ0RsLUadkgRZusae9D9ZaQ", "types": ["point_of_interest", "establishment"], "rating": 5, "user_ratings_total": 12}, "ChIJaxB57VUFdkgRH_yVsVuraCA": {"geometry": {"location": {"lat": 51.51138029999999, "lng": -0.1875515}, "viewport": {"northeast": {"lat": 51.5126870302915, "lng": -0.186083419708498}, "southwest": {"lat": 51.5099890697085, "lng": -0.188781380291502}}}, "name": "Aza Top", "place_id": "ChIJaxB57VUFdkgRH_yVsVuraCA", "types": ["home_goods_store", "point_of_interest", "store", "establishment"], "rating": 2, "user_ratings_total": 1}, "ChIJ75vciFUFdkgR5ZJyTWUPdIo": {"geometry": {"location": {"lat": 51.5113541, "lng": -0.1875015}, "viewport": {"northeast": {"lat": 51.51267103029151, "lng": -0.186051969708498}, "southwest": {"lat": 51.50997306970851, "lng": -0.188749930291502}}}, "name": "Archival Publications International Ltd", "place_id": "ChIJ75vciFUFdkgR5ZJyTWUPdIo", "types": ["point_of_interest", "establishment"]}, "ChIJEU4fTHSo2EcRS4Q7XMDjAJk": {"geometry": {"location": {"lat": 51.5112865, "lng": -0.1870381}, "viewport": {"northeast": {"lat": 51.51262068029149, "lng": -0.1857971197084979}, "southwest": {"lat": 51.50992271970849, "lng": -0.188495080291502}}}, "name": "BIZARREKA Architecture Ltd", "place_id": "ChIJEU4fTHSo2EcRS4Q7XMDjAJk", "types": ["general_contractor", "point_of_interest", "establishment"], "rating": 5, "user_ratings_total": 1}, "ChIJM2RQk1UFdkgRf1XH7xiPJ8g": {"geometry": {"location": {"lat": 51.5112794, "lng": -0.1870108}, "viewport": {"northeast": {"lat": 51.5126119802915, "lng": -0.185781619708498}, "southwest": {"lat": 51.5099140197085, "lng": -0.188479580291502}}}, "name": "Clinton Lettings", "place_id": "ChIJM2RQk1UFdkgRf1XH7xiPJ8g", "types": ["real_estate_agency", "point_of_interest", "establishment"]}, "ChIJM2RQk1UFdkgRudFyrhpF7Z0": {"geometry": {"location": {"lat": 51.5112794, "lng": -0.1870108}, "viewport": {"northeast": {"lat": 51.5126119802915, "lng": -0.185781619708498}, "southwest": {"lat": 51.5099140197085, "lng": -0.188479580291502}}}, "name": "Maclean Services Ltd", "place_id": "ChIJM2RQk1UFdkgRudFyrhpF7Z0", "types": ["point_of_interest", "establishment"], "rating": 1, "user_ratings_total": 2}, "ChIJ04lnkVUFdkgRw9jhIKoMRCI": {"geometry": {"location": {"lat": 51.5112794, "lng": -0.1870108}, "viewport": {"northeast": {"lat": 51.5126119802915, "lng": -0.185781619708498}, "southwest": {"lat": 51.5099140197085, "lng": -0.188479580291502}}}, "name": "Forefront", "place_id": "ChIJ04lnkVUFdkgRw9jhIKoMRCI", "types": ["point_of_interest", "establishment"]}, "ChIJLzuzkVUFdkgR6-89rJ6SoJ4": {"geometry": {"location": {"lat": 51.5114147, "lng": -0.1869773}, "viewport": {"northeast": {"lat": 51.5127405302915, "lng": -0.185786419708498}, "southwest": {"lat": 51.5100425697085, "lng": -0.188484380291502}}}, "name": "Deliver360", "place_id": "ChIJLzuzkVUFdkgR6-89rJ6SoJ4", "types": ["point_of_interest", "establishment"], "rating": 5, "user_ratings_total": 4}, "ChIJSYTTj1UFdkgRfAsaEtILs14": {"geometry": {"location": {"lat": 51.5114301, "lng": -0.1869887}, "viewport": {"northeast": {"lat": 51.5127548302915, "lng": -0.185794769708498}, "southwest": {"lat": 51.5100568697085, "lng": -0.188492730291502}}}, "name": "Anico Financial Services Ltd", "place_id": "ChIJSYTTj1UFdkgRfAsaEtILs14", "types": ["finance", "point_of_interest", "establishment"], "rating": 3.7, "user_ratings_total": 6}, "ChIJm5vfmVUFdkgRbp2DBJsjDoE": {"geometry": {"location": {"lat": 51.5113838, "lng": -0.1868225}, "viewport": {"northeast": {"lat": 51.51270168029149, "lng": -0.185700719708498}, "southwest": {"lat": 51.5100037197085, "lng": -0.188398680291502}}}, "name": "W2 Residentials", "place_id": "ChIJm5vfmVUFdkgRbp2DBJsjDoE", "types": ["real_estate_agency", "point_of_interest", "establishment"], "rating": 4.3, "user_ratings_total": 60}, "ChIJn0RokFUFdkgRX7D8QQ8nr08": {"geometry": {"location": {"lat": 51.51114370000001, "lng": -0.1870213}, "viewport": {"northeast": {"lat": 51.5124783302915, "lng": -0.185763519708498}, "southwest": {"lat": 51.5097803697085, "lng": -0.188461480291502}}}, "name": "Fat Tire Tours", "place_id": "ChIJn0RokFUFdkgRX7D8QQ8nr08", "types": ["travel_agency", "point_of_interest", "establishment"], "rating": 4.5, "user_ratings_total": 42}, "ChIJeRfjllUFdkgRmf7-GOMumjc": {"geometry": {"location": {"lat": 51.5113892, "lng": -0.186785}, "viewport": {"northeast": {"lat": 51.5127044802915, "lng": -0.185682019708498}, "southwest": {"lat": 51.5100065197085, "lng": -0.188379980291502}}}, "name": "Khaymans Express Ltd", "place_id": "ChIJeRfjllUFdkgRmf7-GOMumjc", "types": ["point_of_interest", "establishment"]}, "ChIJ75vciFUFdkgRVWJHDIAdy9g": {"geometry": {"location": {"lat": 51.51114010000001, "lng": -0.1870201}, "viewport": {"northeast": {"lat": 51.5124747302915, "lng": -0.185762169708498}, "southwest": {"lat": 51.5097767697085, "lng": -0.188460130291502}}}, "name": "Arni Media", "place_id": "ChIJ75vciFUFdkgRVWJHDIAdy9g", "types": ["point_of_interest", "establishment"]}, "ChIJYR4JjVUFdkgRjEWo_0kXT_8": {"geometry": {"location": {"lat": 51.51142600000001, "lng": -0.187508}, "viewport": {"northeast": {"lat": 51.5127053302915, "lng": -0.186069069708498}, "southwest": {"lat": 51.51000736970851, "lng": -0.188767030291502}}}, "name": "Laptop Spares & Repairs LTD", "place_id": "ChIJYR4JjVUFdkgRjEWo_0kXT_8", "types": ["electronics_store", "point_of_interest", "store", "establishment"], "rating": 4.5, "user_ratings_total": 11}, "ChIJYR0JmYwPdkgRchCJlAawGoY": {"geometry": {"location": {"lat": 51.51123699999999, "lng": -0.187503}, "viewport": {"northeast": {"lat": 51.5126026802915, "lng": -0.186031969708498}, "southwest": {"lat": 51.5099047197085, "lng": -0.188729930291502}}}, "name": "Bescraft", "place_id": "ChIJYR0JmYwPdkgRchCJlAawGoY", "types": ["point_of_interest", "establishment"]}, "ChIJ_a0pjFUFdkgRVSV2ZvV-pKg": {"geometry": {"location": {"lat": 51.5112367, "lng": -0.1875034}, "viewport": {"northeast": {"lat": 51.5126024302915, "lng": -0.186032119708498}, "southwest": {"lat": 51.5099044697085, "lng": -0.188730080291502}}}, "name": "GVC Good Value Computer", "place_id": "ChIJ_a0pjFUFdkgRVSV2ZvV-pKg", "types": ["electronics_store", "point_of_interest", "store", "establishment"], "rating": 4.8, "user_ratings_total": 128}, "ChIJ6WjueFUFdkgR7RezZhmqK54": {"geometry": {"location": {"lat": 51.5112367, "lng": -0.1875034}, "viewport": {"northeast": {"lat": 51.5126024302915, "lng": -0.186032119708498}, "southwest": {"lat": 51.5099044697085, "lng": -0.188730080291502}}}, "name": "EXtreme Computers", "place_id": "ChIJ6WjueFUFdkgR7RezZhmqK54", "types": ["electronics_store", "point_of_interest", "store", "establishment"], "rating": 3.8, "user_ratings_total": 5}, "ChIJ75vciFUFdkgRQxmYMY0y9es": {"geometry": {"location": {"lat": 51.5110875, "lng": -0.1874582}, "viewport": {"northeast": {"lat": 51.5124427802915, "lng": -0.185983319708498}, "southwest": {"lat": 51.5097448197085, "lng": -0.188681280291502}}}, "name": "Study-In-Cambridge", "place_id": "ChIJ75vciFUFdkgRQxmYMY0y9es", "types": ["point_of_interest", "establishment"], "rating": 4.4, "user_ratings_total": 5}, "ChIJpR8JjVUFdkgRwXOD9x4_Ptc": {"geometry": {"location": {"lat": 51.5111232, "lng": -0.18735}, "viewport": {"northeast": {"lat": 51.51248628029149, "lng": -0.185933019708498}, "southwest": {"lat": 51.5097883197085, "lng": -0.188630980291502}}}, "name": "k.c.c Kensington computer Callout .co.uk", "place_id": "ChIJpR8JjVUFdkgRwXOD9x4_Ptc", "types": ["point_of_interest", "establishment"]}, "ChIJx0BxmlUFdkgRqkoOQyyjoCg": {"geometry": {"location": {"lat": 51.51155370000001, "lng": -0.1867596}, "viewport": {"northeast": {"lat": 51.5128579302915, "lng": -0.185696919708498}, "southwest": {"lat": 51.5101599697085, "lng": -0.188394880291502}}}, "name": "LEZ cycles", "place_id": "ChIJx0BxmlUFdkgRqkoOQyyjoCg", "types": ["point_of_interest", "establishment"], "rating": 4.9, "user_ratings_total": 148}, "ChIJWeB2mVUFdkgRpAvLI6hUCTc": {"geometry": {"location": {"lat": 51.51155370000001, "lng": -0.1867596}, "viewport": {"northeast": {"lat": 51.5129363802915, "lng": -0.185158969708498}, "southwest": {"lat": 51.5102384197085, "lng": -0.1878569302915021}}}, "name": "Wise Yeti", "place_id": "ChIJWeB2mVUFdkgRpAvLI6hUCTc", "types": ["point_of_interest", "establishment"]}, "ChIJ__97l1UFdkgR8A59HIhqQSo": {"geometry": {"location": {"lat": 51.51155370000001, "lng": -0.1867596}, "viewport": {"northeast": {"lat": 51.5129363802915, "lng": -0.185158969708498}, "southwest": {"lat": 51.5102384197085, "lng": -0.1878569302915021}}}, "name": "Knowles Construction", "place_id": "ChIJ__97l1UFdkgR8A59HIhqQSo", "types": ["general_contractor", "point_of_interest", "establishment"], "rating": 5, "user_ratings_total": 3}, "ChIJLREB7VUFdkgRbUEwJ9GTDvc": {"geometry": {"location": {"lat": 51.51108989999999, "lng": -0.1873966}, "viewport": {"northeast": {"lat": 51.5124408302915, "lng": -0.185951769708498}, "southwest": {"lat": 51.5097428697085, "lng": -0.188649730291502}}}, "name": "Master Transfer", "place_id": "ChIJLREB7VUFdkgRbUEwJ9GTDvc", "types": ["finance", "point_of_interest", "establishment"], "rating": 5, "user_ratings_total": 6}, "ChIJt_eqjVUFdkgR6-DIcybwRUM": {"geometry": {"location": {"lat": 51.51108800000001, "lng": -0.187458}, "viewport": {"northeast": {"lat": 51.5124429802915, "lng": -0.185983269708498}, "southwest": {"lat": 51.5097450197085, "lng": -0.188681230291502}}}, "name": "Apple Tech Centre", "place_id": "ChIJt_eqjVUFdkgR6-DIcybwRUM", "types": ["point_of_interest", "establishment"], "rating": 5, "user_ratings_total": 9}, "ChIJt_eqjVUFdkgRP-uom_bdCgs": {"geometry": {"location": {"lat": 51.5110875, "lng": -0.1874582}, "viewport": {"northeast": {"lat": 51.5124427802915, "lng": -0.185983319708498}, "southwest": {"lat": 51.5097448197085, "lng": -0.188681280291502}}}, "name": "Critical Solutions", "place_id": "ChIJt_eqjVUFdkgRP-uom_bdCgs", "types": ["point_of_interest", "establishment"], "rating": 3, "user_ratings_total": 2}, "ChIJe1PfjVUFdkgRzptvFlN4yoI": {"geometry": {"location": {"lat": 51.5110875, "lng": -0.1874582}, "viewport": {"northeast": {"lat": 51.5124427802915, "lng": -0.185983319708498}, "southwest": {"lat": 51.5097448197085, "lng": -0.188681280291502}}}, "name": "Hajj Travel Ltd", "place_id": "ChIJe1PfjVUFdkgRzptvFlN4yoI", "types": ["travel_agency", "point_of_interest", "establishment"], "rating": 4.7, "user_ratings_total": 23}, "ChIJt_eqjVUFdkgRNU8JktKupF4": {"geometry": {"location": {"lat": 51.5110875, "lng": -0.1874582}, "viewport": {"northeast": {"lat": 51.5124427802915, "lng": -0.185983319708498}, "southwest": {"lat": 51.5097448197085, "lng": -0.188681280291502}}}, "name": "Sunset Sunrise", "place_id": "ChIJt_eqjVUFdkgRNU8JktKupF4", "types": ["point_of_interest", "store", "establishment"], "rating": 4.5, "user_ratings_total": 2}, "ChIJ75vciFUFdkgRrMCYRKIcNsk": {"geometry": {"location": {"lat": 51.5110478, "lng": -0.18736}, "viewport": {"northeast": {"lat": 51.5124103802915, "lng": -0.185924719708498}, "southwest": {"lat": 51.50971241970851, "lng": -0.188622680291502}}}, "name": "Fredericktailoring.com", "place_id": "ChIJ75vciFUFdkgRrMCYRKIcNsk", "types": ["point_of_interest", "establishment"], "rating": 4.6, "user_ratings_total": 41}, "ChIJXwzPklUFdkgRQupwZmsYNUc": {"geometry": {"location": {"lat": 51.51102050000001, "lng": -0.187332}, "viewport": {"northeast": {"lat": 51.5123920302915, "lng": -0.185904669708498}, "southwest": {"lat": 51.5096940697085, "lng": -0.188602630291502}}}, "name": "Queensway Lettings", "place_id": "ChIJXwzPklUFdkgRQupwZmsYNUc", "types": ["real_estate_agency", "point_of_interest", "establishment"]}, "ChIJ75vciFUFdkgRaWyySTL9W94": {"geometry": {"location": {"lat": 51.511439, "lng": -0.1876754}, "viewport": {"northeast": {"lat": 51.5127237802915, "lng": -0.186160169708498}, "southwest": {"lat": 51.5100258197085, "lng": -0.188858130291502}}}, "name": "Healthy Natured", "place_id": "ChIJ75vciFUFdkgRaWyySTL9W94", "types": ["health", "point_of_interest", "establishment"]}, "ChIJgzMCjVUFdkgRpaZ83IZqt3U": {"geometry": {"location": {"lat": 51.5110561, "lng": -0.1874584}, "viewport": {"northeast": {"lat": 51.5124257302915, "lng": -0.185978469708498}, "southwest": {"lat": 51.5097277697085, "lng": -0.188676430291502}}}, "name": "Blink2Transfer", "place_id": "ChIJgzMCjVUFdkgRpaZ83IZqt3U", "types": ["finance", "point_of_interest", "establishment"], "rating": 1, "user_ratings_total": 3}, "ChIJ9_K1l1UFdkgRHK7vMMTAVSA": {"geometry": {"location": {"lat": 51.51133250000001, "lng": -0.1865316}, "viewport": {"northeast": {"lat": 51.5127054802915, "lng": -0.185003369708498}, "southwest": {"lat": 51.5100075197085, "lng": -0.187701330291502}}}, "name": "Travezi Ltd", "place_id": "ChIJ9_K1l1UFdkgRHK7vMMTAVSA", "types": ["travel_agency", "point_of_interest", "establishment"]}, "ChIJ75vciFUFdkgR_XPS6hWxcTo": {"geometry": {"location": {"lat": 51.5109585, "lng": -0.1874251}, "viewport": {"northeast": {"lat": 51.5123610302915, "lng": -0.185942169708498}, "southwest": {"lat": 51.5096630697085, "lng": -0.188640130291502}}}, "name": "Sohay Link Services Ltd", "place_id": "ChIJ75vciFUFdkgR_XPS6hWxcTo", "types": ["finance", "point_of_interest", "establishment"]}, "ChIJ6bPqj1UFdkgRzT6eyiVyHLw": {"geometry": {"location": {"lat": 51.510924, "lng": -0.187358}, "viewport": {"northeast": {"lat": 51.5123437802915, "lng": -0.185900019708498}, "southwest": {"lat": 51.5096458197085, "lng": -0.188597980291502}}}, "name": "iSmart Apple Specialists", "place_id": "ChIJ6bPqj1UFdkgRzT6eyiVyHLw", "types": ["point_of_interest", "establishment"], "rating": 4.5, "user_ratings_total": 606}, "ChIJMXJXkFUFdkgRKsW-U_REX88": {"geometry": {"location": {"lat": 51.511442, "lng": -0.1870795}, "viewport": {"northeast": {"lat": 51.5127909802915, "lng": -0.1857305197084979}, "southwest": {"lat": 51.5100930197085, "lng": -0.188428480291502}}}, "name": "Holland & Barrett", "place_id": "ChIJMXJXkFUFdkgRKsW-U_REX88", "types": ["food", "health", "point_of_interest", "store", "establishment"], "rating": 3.6, "user_ratings_total": 28}, "ChIJF1QphFUFdkgRJNKev9t6SBY": {"geometry": {"location": {"lat": 51.5117586, "lng": -0.187636}, "viewport": {"northeast": {"lat": 51.51303573029151, "lng": -0.186267969708498}, "southwest": {"lat": 51.51033776970851, "lng": -0.188965930291502}}}, "name": "Taste of India", "place_id": "ChIJF1QphFUFdkgRJNKev9t6SBY", "types": ["bar", "restaurant", "food", "point_of_interest", "establishment"], "rating": 4.3, "user_ratings_total": 1963}, "ChIJMWRQk1UFdkgReLyFO82Hjes": {"geometry": {"location": {"lat": 51.5114558, "lng": -0.1870335}, "viewport": {"northeast": {"lat": 51.5127830802915, "lng": -0.185823419708498}, "southwest": {"lat": 51.51008511970851, "lng": -0.188521380291502}}}, "name": "Queensway Dental Care", "place_id": "ChIJMWRQk1UFdkgReLyFO82Hjes", "types": ["dentist", "health", "point_of_interest", "establishment"], "rating": 4.8, "user_ratings_total": 174}, "ChIJoQGb71UFdkgRqXoKr4KUick": {"geometry": {"location": {"lat": 51.511681, "lng": -0.187569}, "viewport": {"northeast": {"lat": 51.51299953029149, "lng": -0.186211969708498}, "southwest": {"lat": 51.5103015697085, "lng": -0.188909930291502}}}, "name": "Starbucks Coffee", "place_id": "ChIJoQGb71UFdkgRqXoKr4KUick", "types": ["cafe", "restaurant", "food", "point_of_interest", "store", "establishment"], "rating": 4, "user_ratings_total": 874}, "ChIJ7ZvciFUFdkgRD4QcpjXzSoc": {"geometry": {"location": {"lat": 51.5111243, "lng": -0.187626}, "viewport": {"northeast": {"lat": 51.51250063029151, "lng": -0.186077269708498}, "southwest": {"lat": 51.50980266970851, "lng": -0.188775230291502}}}, "name": "Kalinka", "place_id": "ChIJ7ZvciFUFdkgRD4QcpjXzSoc", "types": ["grocery_or_supermarket", "supermarket", "food", "point_of_interest", "store", "establishment"], "rating": 4, "user_ratings_total": 159}, "ChIJHTvBX1UFdkgRVy5a4RRJHy8": {"geometry": {"location": {"lat": 51.5118281, "lng": -0.1871912}, "viewport": {"northeast": {"lat": 51.51316523029149, "lng": -0.185965569708498}, "southwest": {"lat": 51.5104672697085, "lng": -0.188663530291502}}}, "name": "Our Lady, Queen of Heaven Catholic Church", "place_id": "ChIJHTvBX1UFdkgRVy5a4RRJHy8", "types": ["church", "place_of_worship", "point_of_interest", "establishment"], "rating": 4.6, "user_ratings_total": 42}, "ChIJ7ZvciFUFdkgRCmcyGQgnkuI": {"geometry": {"location": {"lat": 51.5110561, "lng": -0.1874584}, "viewport": {"northeast": {"lat": 51.5124257302915, "lng": -0.185978469708498}, "southwest": {"lat": 51.5097277697085, "lng": -0.188676430291502}}}, "name": "Evas", "place_id": "ChIJ7ZvciFUFdkgRCmcyGQgnkuI", "types": ["beauty_salon", "hair_care", "point_of_interest", "establishment"], "rating": 4.6, "user_ratings_total": 9}, "ChIJhWZQk1UFdkgRGLD8CpEg9Hs": {"geometry": {"location": {"lat": 51.5112794, "lng": -0.1870108}, "viewport": {"northeast": {"lat": 51.5126119802915, "lng": -0.185781619708498}, "southwest": {"lat": 51.5099140197085, "lng": -0.188479580291502}}}, "name": "English Courses in London with Educamia", "place_id": "ChIJhWZQk1UFdkgRGLD8CpEg9Hs", "types": ["point_of_interest", "establishment"]}, "ChIJLfaGAysbdkgRxuIxCk3T_N8": {"geometry": {"location": {"lat": 51.5112794, "lng": -0.1870108}, "viewport": {"northeast": {"lat": 51.5126119802915, "lng": -0.185781619708498}, "southwest": {"lat": 51.5099140197085, "lng": -0.188479580291502}}}, "name": "LondonHelp4U", "place_id": "ChIJLfaGAysbdkgRxuIxCk3T_N8", "types": ["lawyer", "finance", "point_of_interest", "establishment"], "rating": 4.4, "user_ratings_total": 43}, "ChIJ7ZvciFUFdkgRy_zw0QoLaR4": {"geometry": {"location": {"lat": 51.51131110000001, "lng": -0.1875583}, "viewport": {"northeast": {"lat": 51.5126524302915, "lng": -0.1860733697084979}, "southwest": {"lat": 51.5099544697085, "lng": -0.188771330291502}}}, "name": "Taza Takeaway Kebab House", "place_id": "ChIJ7ZvciFUFdkgRy_zw0QoLaR4", "types": ["restaurant", "food", "point_of_interest", "establishment"], "rating": 4, "user_ratings_total": 673}, "ChIJX6fJOboEdkgRQ80hvx4KvNc": {"geometry": {"location": {"lat": 51.5114301, "lng": -0.1869887}, "viewport": {"northeast": {"lat": 51.5127790802915, "lng": -0.185639719708498}, "southwest": {"lat": 51.5100811197085, "lng": -0.188337680291502}}}, "name": "Bourne Capital", "place_id": "ChIJX6fJOboEdkgRQ80hvx4KvNc", "types": ["general_contractor", "point_of_interest", "establishment"]}, "ChIJ7ZvciFUFdkgR2MhY0KTdvC0": {"geometry": {"location": {"lat": 51.5114765, "lng": -0.1874981}, "viewport": {"northeast": {"lat": 51.51272838029151, "lng": -0.186073419708498}, "southwest": {"lat": 51.51003041970851, "lng": -0.188771380291502}}}, "name": "Clear Answer Medical Publishing", "place_id": "ChIJ7ZvciFUFdkgR2MhY0KTdvC0", "types": ["point_of_interest", "establishment"]}, "ChIJm69pkVUFdkgRE2LB082wrPo": {"geometry": {"location": {"lat": 51.51129900000001, "lng": -0.18702}, "viewport": {"northeast": {"lat": 51.5125272302915, "lng": -0.185710569708498}, "southwest": {"lat": 51.5098292697085, "lng": -0.188408530291502}}}, "name": "Chargemaster Charging Station", "place_id": "ChIJm69pkVUFdkgRE2LB082wrPo", "types": ["point_of_interest", "establishment"], "rating": 1, "user_ratings_total": 1}, "ChIJDUHGTe0FdkgRX6lk1s6eVo0": {"geometry": {"location": {"lat": 51.51126519999999, "lng": -0.1870555}, "viewport": {"northeast": {"lat": 51.51260103029149, "lng": -0.185802619708498}, "southwest": {"lat": 51.5099030697085, "lng": -0.188500580291502}}}, "name": "Ridbox", "place_id": "ChIJDUHGTe0FdkgRX6lk1s6eVo0", "types": ["point_of_interest", "establishment"]}, "ChIJ04lnkVUFdkgR8aHWXgsQ4cc": {"geometry": {"location": {"lat": 51.5112794, "lng": -0.1870108}, "viewport": {"northeast": {"lat": 51.5126119802915, "lng": -0.185781619708498}, "southwest": {"lat": 51.5099140197085, "lng": -0.188479580291502}}}, "name": "Axentin Limited", "place_id": "ChIJ04lnkVUFdkgR8aHWXgsQ4cc", "types": ["point_of_interest", "establishment"]}, "ChIJ04lnkVUFdkgRcIcgS6b6AaE": {"geometry": {"location": {"lat": 51.5112794, "lng": -0.1870108}, "viewport": {"northeast": {"lat": 51.5126119802915, "lng": -0.185781619708498}, "southwest": {"lat": 51.5099140197085, "lng": -0.188479580291502}}}, "name": "Great Way Holding", "place_id": "ChIJ04lnkVUFdkgRcIcgS6b6AaE", "types": ["accounting", "finance", "point_of_interest", "establishment"]}, "ChIJ04lnkVUFdkgRXkWTAC_-IUc": {"geometry": {"location": {"lat": 51.5112794, "lng": -0.1870108}, "viewport": {"northeast": {"lat": 51.5126119802915, "lng": -0.185781619708498}, "southwest": {"lat": 51.5099140197085, "lng": -0.188479580291502}}}, "name": "FTL Management", "place_id": "ChIJ04lnkVUFdkgRXkWTAC_-IUc", "types": ["finance", "point_of_interest", "establishment"], "rating": 1, "user_ratings_total": 1}, "ChIJ04lnkVUFdkgRb9V2DmHNrcs": {"geometry": {"location": {"lat": 51.5112794, "lng": -0.1870108}, "viewport": {"northeast": {"lat": 51.5126119802915, "lng": -0.185781619708498}, "southwest": {"lat": 51.5099140197085, "lng": -0.188479580291502}}}, "name": "Billionaires Row Ltd", "place_id": "ChIJ04lnkVUFdkgRb9V2DmHNrcs", "types": ["point_of_interest", "establishment"]}, "ChIJj0yA6_8PdkgREBTeV3akWL0": {"geometry": {"location": {"lat": 51.51370390002543, "lng": -0.189221150011207}, "viewport": {"northeast": {"lat": 51.5150528802915, "lng": -0.187872169708498}, "southwest": {"lat": 51.5123549197085, "lng": -0.190570130291502}}}, "name": "Kensington Gardens Square", "place_id": "ChIJj0yA6_8PdkgREBTeV3akWL0", "types": ["route"]}, "ChIJM4st6_8PdkgRQpVzHMGv8So": {"geometry": {"location": {"lat": 51.5135252, "lng": -0.1894457}, "viewport": {"northeast": {"lat": 51.51493663029149, "lng": -0.188136119708498}, "southwest": {"lat": 51.5122386697085, "lng": -0.190834080291502}}}, "name": "Phoenix Hotel", "place_id": "ChIJM4st6_8PdkgRQpVzHMGv8So", "types": ["lodging", "point_of_interest", "establishment"], "rating": 4.1, "user_ratings_total": 771}, "ChIJUaxChf8PdkgRIC0zkfRwahw": {"geometry": {"location": {"lat": 51.51328650000001, "lng": -0.1884893}, "viewport": {"northeast": {"lat": 51.51460193029151, "lng": -0.187313169708498}, "southwest": {"lat": 51.51190396970851, "lng": -0.1900111302915021}}}, "name": "Eclectica Asset Management LLP", "place_id": "ChIJUaxChf8PdkgRIC0zkfRwahw", "types": ["finance", "point_of_interest", "establishment"]}, "ChIJWSiBligQdkgRg4cCbkiTKvc": {"geometry": {"location": {"lat": 51.5132091, "lng": -0.1889512}, "viewport": {"northeast": {"lat": 51.51460153029151, "lng": -0.187585169708498}, "southwest": {"lat": 51.51190356970851, "lng": -0.190283130291502}}}, "name": "Rundell Associates", "place_id": "ChIJWSiBligQdkgRg4cCbkiTKvc", "types": ["general_contractor", "point_of_interest", "establishment"], "rating": 5, "user_ratings_total": 1}, "ChIJhUrGjP8PdkgRZW3vuxC7gNs": {"geometry": {"location": {"lat": 51.5134713, "lng": -0.1886666}, "viewport": {"northeast": {"lat": 51.51478833029149, "lng": -0.187305519708498}, "southwest": {"lat": 51.5120903697085, "lng": -0.190003480291502}}}, "name": "Toreagle Ltd", "place_id": "ChIJhUrGjP8PdkgRZW3vuxC7gNs", "types": ["general_contractor", "point_of_interest", "establishment"]}, "ChIJhUrGjP8PdkgRsh2rEWhZ4jU": {"geometry": {"location": {"lat": 51.51345899999999, "lng": -0.1886884}, "viewport": {"northeast": {"lat": 51.5147834302915, "lng": -0.1873301197084979}, "southwest": {"lat": 51.5120854697085, "lng": -0.190028080291502}}}, "name": "Bakproco", "place_id": "ChIJhUrGjP8PdkgRsh2rEWhZ4jU", "types": ["point_of_interest", "establishment"]}, "ChIJ0W4Ek_8PdkgRRH6tr-bnn1o": {"geometry": {"location": {"lat": 51.513429, "lng": -0.1889485}, "viewport": {"northeast": {"lat": 51.51477383029149, "lng": -0.187622119708498}, "southwest": {"lat": 51.5120758697085, "lng": -0.190320080291502}}}, "name": "Laughton Scott", "place_id": "ChIJ0W4Ek_8PdkgRRH6tr-bnn1o", "types": ["point_of_interest", "establishment"]}, "ChIJPf2Phf8PdkgRUgQQmIesnw0": {"geometry": {"location": {"lat": 51.5132948, "lng": -0.1884418}, "viewport": {"northeast": {"lat": 51.51460563029151, "lng": -0.187289169708498}, "southwest": {"lat": 51.51190766970851, "lng": -0.189987130291502}}}, "name": "Romelle Swire", "place_id": "ChIJPf2Phf8PdkgRUgQQmIesnw0", "types": ["point_of_interest", "establishment"], "rating": 5, "user_ratings_total": 3}, "ChIJTW-eZLcCdkgR3NmY9KjN904": {"geometry": {"location": {"lat": 51.5132589, "lng": -0.1884249}, "viewport": {"northeast": {"lat": 51.5145698302915, "lng": -0.187271769708498}, "southwest": {"lat": 51.5118718697085, "lng": -0.189969730291502}}}, "name": "Address Intelligence", "place_id": "ChIJTW-eZLcCdkgR3NmY9KjN904", "types": ["point_of_interest", "establishment"]}, "ChIJM4st6_8PdkgR5UBcQW8FXs8": {"geometry": {"location": {"lat": 51.5135618, "lng": -0.1893029}, "viewport": {"northeast": {"lat": 51.51497133029149, "lng": -0.187986369708498}, "southwest": {"lat": 51.5122733697085, "lng": -0.1906843302915021}}}, "name": "wazwireless", "place_id": "ChIJM4st6_8PdkgR5UBcQW8FXs8", "types": ["point_of_interest", "establishment"]}, "ChIJNQLykf8PdkgRR2S73KrExrg": {"geometry": {"location": {"lat": 51.5132227, "lng": -0.1889581}, "viewport": {"northeast": {"lat": 51.5146410302915, "lng": -0.187611369708498}, "southwest": {"lat": 51.5119430697085, "lng": -0.190309330291502}}}, "name": "Meritas Court", "place_id": "ChIJNQLykf8PdkgRR2S73KrExrg", "types": ["point_of_interest", "establishment"], "rating": 4.3, "user_ratings_total": 3}, "ChIJuTTu9P8PdkgRRNaVduD_b_c": {"geometry": {"location": {"lat": 51.51368120000001, "lng": -0.1882005}, "viewport": {"northeast": {"lat": 51.51507383029151, "lng": -0.186859569708498}, "southwest": {"lat": 51.51237586970851, "lng": -0.189557530291502}}}, "name": "Porchester Dental Practice", "place_id": "ChIJuTTu9P8PdkgRRNaVduD_b_c", "types": ["dentist", "health", "point_of_interest", "establishment"], "rating": 3.7, "user_ratings_total": 15}, "ChIJdTCo6_8PdkgREeDOQSwYbMo": {"geometry": {"location": {"lat": 51.5137085, "lng": -0.1892895}, "viewport": {"northeast": {"lat": 51.51507848029149, "lng": -0.187945069708498}, "southwest": {"lat": 51.5123805197085, "lng": -0.190643030291502}}}, "name": "Pacific-West Consults & Associates Inc", "place_id": "ChIJdTCo6_8PdkgREeDOQSwYbMo", "types": ["point_of_interest", "establishment"], "rating": 4, "user_ratings_total": 1}, "ChIJSwoVjP8PdkgRu9KGjaxl9tY": {"geometry": {"location": {"lat": 51.51316979999999, "lng": -0.1886817}, "viewport": {"northeast": {"lat": 51.51450743029149, "lng": -0.1873912197084979}, "southwest": {"lat": 51.5118094697085, "lng": -0.190089180291502}}}, "name": "The Rug Company", "place_id": "ChIJSwoVjP8PdkgRu9KGjaxl9tY", "types": ["home_goods_store", "point_of_interest", "store", "establishment"], "rating": 4, "user_ratings_total": 2}, "ChIJW17E8WMPdkgR9h0-r5Q3gXk": {"geometry": {"location": {"lat": 51.5132589, "lng": -0.1884249}, "viewport": {"northeast": {"lat": 51.5145698302915, "lng": -0.187271769708498}, "southwest": {"lat": 51.5118718697085, "lng": -0.189969730291502}}}, "name": "Chapel Davies", "place_id": "ChIJW17E8WMPdkgR9h0-r5Q3gXk", "types": ["real_estate_agency", "point_of_interest", "establishment"]}, "ChIJO7EIjP8PdkgRukg9FrLJv9o": {"geometry": {"location": {"lat": 51.5132589, "lng": -0.1884249}, "viewport": {"northeast": {"lat": 51.5145698302915, "lng": -0.187271769708498}, "southwest": {"lat": 51.5118718697085, "lng": -0.189969730291502}}}, "name": "Caa-Gbg", "place_id": "ChIJO7EIjP8PdkgRukg9FrLJv9o", "types": ["point_of_interest", "establishment"]}, "ChIJx7pc7DMDdkgR128gZMyo_Lw": {"geometry": {"location": {"lat": 51.5132589, "lng": -0.1884249}, "viewport": {"northeast": {"lat": 51.5145698302915, "lng": -0.187271769708498}, "southwest": {"lat": 51.5118718697085, "lng": -0.189969730291502}}}, "name": "Homesearch", "place_id": "ChIJx7pc7DMDdkgR128gZMyo_Lw", "types": ["point_of_interest", "establishment"], "rating": 5, "user_ratings_total": 135}, "ChIJa_J0YykFdkgRZujZxOzR9b4": {"geometry": {"location": {"lat": 51.5132589, "lng": -0.1884249}, "viewport": {"northeast": {"lat": 51.5145698302915, "lng": -0.187271769708498}, "southwest": {"lat": 51.5118718697085, "lng": -0.189969730291502}}}, "name": "Luxury London", "place_id": "ChIJa_J0YykFdkgRZujZxOzR9b4", "types": ["point_of_interest", "establishment"], "rating": 4.2, "user_ratings_total": 6}, "ChIJe_oXjv8PdkgR-umkdErTk-M": {"geometry": {"location": {"lat": 51.51313400000001, "lng": -0.1887230000000001}, "viewport": {"northeast": {"lat": 51.51448018029151, "lng": -0.187388719708498}, "southwest": {"lat": 51.51178221970851, "lng": -0.190086680291502}}}, "name": "ubitricity Charging Station", "place_id": "ChIJe_oXjv8PdkgR-umkdErTk-M", "types": ["point_of_interest", "establishment"]}, "ChIJR7wuyLkFdkgR502Nqd0zm90": {"geometry": {"location": {"lat": 51.51313099999999, "lng": -0.1890469}, "viewport": {"northeast": {"lat": 51.5145624802915, "lng": -0.187614869708498}, "southwest": {"lat": 51.5118645197085, "lng": -0.190312830291502}}}, "name": "Design Your Dream Home", "place_id": "ChIJR7wuyLkFdkgR502Nqd0zm90", "types": ["general_contractor", "point_of_interest", "establishment"]}, "ChIJJWX46v8PdkgR5bcRS59s_bs": {"geometry": {"location": {"lat": 51.5137773, "lng": -0.1893618}, "viewport": {"northeast": {"lat": 51.51508388029149, "lng": -0.187992669708498}, "southwest": {"lat": 51.5123859197085, "lng": -0.190690630291502}}}, "name": "Orfali and Orfali - Architecture and Interior Design", "place_id": "ChIJJWX46v8PdkgR5bcRS59s_bs", "types": ["general_contractor", "point_of_interest", "establishment"], "rating": 5, "user_ratings_total": 6}, "ChIJGUoP6P8PdkgRlvB77z4Q_AE": {"geometry": {"location": {"lat": 51.5137773, "lng": -0.1893618}, "viewport": {"northeast": {"lat": 51.5150843802915, "lng": -0.1879903697084979}, "southwest": {"lat": 51.5123864197085, "lng": -0.190688330291502}}}, "name": "Virus Removal", "place_id": "ChIJGUoP6P8PdkgRlvB77z4Q_AE", "types": ["point_of_interest", "establishment"], "rating": 5, "user_ratings_total": 3}, "ChIJGUoP6P8PdkgRr7xD1jhBC8Q": {"geometry": {"location": {"lat": 51.5137773, "lng": -0.1893618}, "viewport": {"northeast": {"lat": 51.5150843802915, "lng": -0.1879903697084979}, "southwest": {"lat": 51.5123864197085, "lng": -0.190688330291502}}}, "name": "Home Plus", "place_id": "ChIJGUoP6P8PdkgRr7xD1jhBC8Q", "types": ["real_estate_agency", "point_of_interest", "establishment"], "rating": 5, "user_ratings_total": 1}, "ChIJT1ocwP8PdkgRcMjPOtCeoFA": {"geometry": {"location": {"lat": 51.513594, "lng": -0.189525}, "viewport": {"northeast": {"lat": 51.5149621802915, "lng": -0.188188119708498}, "southwest": {"lat": 51.5122642197085, "lng": -0.190886080291502}}}, "name": "ubitricity Charging Station", "place_id": "ChIJT1ocwP8PdkgRcMjPOtCeoFA", "types": ["point_of_interest", "establishment"]}, "ChIJg-AdJrYPdkgRy8RY24Hz_ZU": {"geometry": {"location": {"lat": 51.5137991, "lng": -0.1894554}, "viewport": {"northeast": {"lat": 51.5151405802915, "lng": -0.188160869708498}, "southwest": {"lat": 51.5124426197085, "lng": -0.190858830291502}}}, "name": "Kensington Gardens Apartments", "place_id": "ChIJg-AdJrYPdkgRy8RY24Hz_ZU", "types": ["lodging", "point_of_interest", "establishment"], "rating": 3.1, "user_ratings_total": 33}, "ChIJ4WSDX1UFdkgR8x1EzoNKsPY": {"geometry": {"location": {"lat": 51.513685, "lng": -0.1880946}, "viewport": {"northeast": {"lat": 51.5150795802915, "lng": -0.186752119708498}, "southwest": {"lat": 51.5123816197085, "lng": -0.189450080291502}}}, "name": "Amber Marsh STUDENT ACCOMMODATION", "place_id": "ChIJ4WSDX1UFdkgR8x1EzoNKsPY", "types": ["point_of_interest", "establishment"], "rating": 4.9, "user_ratings_total": 119}, "ChIJ11EU9P8PdkgRDyKPUD-yH_4": {"geometry": {"location": {"lat": 51.5138232, "lng": -0.1882376}, "viewport": {"northeast": {"lat": 51.5151472302915, "lng": -0.186884369708498}, "southwest": {"lat": 51.51244926970851, "lng": -0.189582330291502}}}, "name": "Whiteleys (Stop N)", "place_id": "ChIJ11EU9P8PdkgRDyKPUD-yH_4", "types": ["bus_station", "transit_station", "point_of_interest", "establishment"]}, "ChIJs5oz6f8PdkgRSi0Sc327rvU": {"geometry": {"location": {"lat": 51.5139753, "lng": -0.1891588}, "viewport": {"northeast": {"lat": 51.5152306302915, "lng": -0.1872017697084979}, "southwest": {"lat": 51.5125326697085, "lng": -0.189899730291502}}}, "name": "il Nostro Hotel a Londra", "place_id": "ChIJs5oz6f8PdkgRSi0Sc327rvU", "types": ["lodging", "point_of_interest", "establishment"]}, "ChIJZarY0soPdkgRozIDIemdSPU": {"geometry": {"location": {"lat": 51.5136659, "lng": -0.1896117}, "viewport": {"northeast": {"lat": 51.5150121802915, "lng": -0.1882611697084979}, "southwest": {"lat": 51.5123142197085, "lng": -0.190959130291502}}}, "name": "Recycling bins", "place_id": "ChIJZarY0soPdkgRozIDIemdSPU", "types": ["point_of_interest", "establishment"]}, "ChIJAQD3X1UFdkgRRxowfS6ePCA": {"geometry": {"location": {"lat": 51.5135946, "lng": -0.1880266}, "viewport": {"northeast": {"lat": 51.51495323029149, "lng": -0.1865269197084979}, "southwest": {"lat": 51.51225526970849, "lng": -0.189224880291502}}}, "name": "Fired Up", "place_id": "ChIJAQD3X1UFdkgRRxowfS6ePCA", "types": ["point_of_interest", "establishment"]}, "ChIJcSJKPGMPdkgRCz7fLGqXj4E": {"geometry": {"location": {"lat": 51.51346540000001, "lng": -0.1879919}, "viewport": {"northeast": {"lat": 51.51482508029151, "lng": -0.186498369708498}, "southwest": {"lat": 51.51212711970851, "lng": -0.1891963302915021}}}, "name": "William-Star-Massage", "place_id": "ChIJcSJKPGMPdkgRCz7fLGqXj4E", "types": ["health", "point_of_interest", "establishment"], "rating": 5, "user_ratings_total": 2}, "ChIJjX1Hn_8PdkgRELVA-hMA8YQ": {"geometry": {"location": {"lat": 51.51253345004052, "lng": -0.1891848500286167}, "viewport": {"northeast": {"lat": 51.5138824302915, "lng": -0.1878358697084979}, "southwest": {"lat": 51.5111844697085, "lng": -0.190533830291502}}}, "name": "Moscow Road", "place_id": "ChIJjX1Hn_8PdkgRELVA-hMA8YQ", "types": ["route"]}, "ChIJ7WF9nv8PdkgRrynFdr9AC7A": {"geometry": {"location": {"lat": 51.51241350000001, "lng": -0.1891314}, "viewport": {"northeast": {"lat": 51.51382318029151, "lng": -0.187803869708498}, "southwest": {"lat": 51.51112521970851, "lng": -0.190501830291502}}}, "name": "Kings Head", "place_id": "ChIJ7WF9nv8PdkgRrynFdr9AC7A", "types": ["bar", "point_of_interest", "establishment"], "rating": 4.3, "user_ratings_total": 620}, "ChIJz3k2hP8PdkgR2a5TwlsEgDs": {"geometry": {"location": {"lat": 51.5127108, "lng": -0.1884947}, "viewport": {"northeast": {"lat": 51.5140705802915, "lng": -0.187187869708498}, "southwest": {"lat": 51.5113726197085, "lng": -0.189885830291502}}}, "name": "Athenian Grocery", "place_id": "ChIJz3k2hP8PdkgR2a5TwlsEgDs", "types": ["grocery_or_supermarket", "supermarket", "food", "point_of_interest", "store", "establishment"], "rating": 4.7, "user_ratings_total": 167}, "ChIJeUB8lv8PdkgRVJlur3gSU2M": {"geometry": {"location": {"lat": 51.51225049999999, "lng": -0.1888695}, "viewport": {"northeast": {"lat": 51.5136672302915, "lng": -0.186850519708498}, "southwest": {"lat": 51.5109692697085, "lng": -0.189548480291502}}}, "name": "Hertz Dream Collection", "place_id": "ChIJeUB8lv8PdkgRVJlur3gSU2M", "types": ["car_rental", "point_of_interest", "establishment"], "rating": 4.1, "user_ratings_total": 59}, "ChIJUz2hoAEFdkgRpziW19lADaQ": {"geometry": {"location": {"lat": 51.5121864, "lng": -0.1889494}, "viewport": {"northeast": {"lat": 51.5135296802915, "lng": -0.187654469708498}, "southwest": {"lat": 51.5108317197085, "lng": -0.190352430291502}}}, "name": "Smart City Weddings", "place_id": "ChIJUz2hoAEFdkgRpziW19lADaQ", "types": ["point_of_interest", "establishment"], "rating": 5, "user_ratings_total": 10}, "ChIJWzo3mv8PdkgRJGjma0ORAQE": {"geometry": {"location": {"lat": 51.5127545, "lng": -0.189064}, "viewport": {"northeast": {"lat": 51.5140062802915, "lng": -0.187679569708498}, "southwest": {"lat": 51.5113083197085, "lng": -0.1903775302915021}}}, "name": "Eshvi", "place_id": "ChIJWzo3mv8PdkgRJGjma0ORAQE", "types": ["point_of_interest", "store", "establishment"], "rating": 3.5, "user_ratings_total": 2}, "ChIJv-7Nof8PdkgR9n_OcV_S5fs": {"geometry": {"location": {"lat": 51.5123707, "lng": -0.1894328}, "viewport": {"northeast": {"lat": 51.5137768302915, "lng": -0.188211319708498}, "southwest": {"lat": 51.51107886970851, "lng": -0.190909280291502}}}, "name": "Wedding in the City", "place_id": "ChIJv-7Nof8PdkgR9n_OcV_S5fs", "types": ["point_of_interest", "establishment"]}, "ChIJ7WF9nv8PdkgR0FyDDiBGhHk": {"geometry": {"location": {"lat": 51.512394, "lng": -0.189457}, "viewport": {"northeast": {"lat": 51.5137757802915, "lng": -0.188223419708498}, "southwest": {"lat": 51.5110778197085, "lng": -0.190921380291502}}}, "name": "Harley Street Aesthetics Ltd", "place_id": "ChIJ7WF9nv8PdkgR0FyDDiBGhHk", "types": ["health", "point_of_interest", "establishment"], "rating": 3.8, "user_ratings_total": 11}, "ChIJ7WF9nv8PdkgRT5gGwrQmvMw": {"geometry": {"location": {"lat": 51.5123734, "lng": -0.1894594}, "viewport": {"northeast": {"lat": 51.5137751802915, "lng": -0.188224619708498}, "southwest": {"lat": 51.5110772197085, "lng": -0.1909225802915021}}}, "name": "Boston International Training Academy Limited", "place_id": "ChIJ7WF9nv8PdkgRT5gGwrQmvMw", "types": ["point_of_interest", "establishment"]}, "ChIJ11icSiYbdkgRpKAWWORZDio": {"geometry": {"location": {"lat": 51.51236799999999, "lng": -0.189619}, "viewport": {"northeast": {"lat": 51.51370823029149, "lng": -0.1883403697084979}, "southwest": {"lat": 51.51101026970849, "lng": -0.191038330291502}}}, "name": "Cocoro Bayswater", "place_id": "ChIJ11icSiYbdkgRpKAWWORZDio", "types": ["restaurant", "food", "point_of_interest", "establishment"], "rating": 4.4, "user_ratings_total": 33}, "ChIJfY15hv8PdkgRqXe2P0SvmQY": {"geometry": {"location": {"lat": 51.5127622, "lng": -0.1882006}, "viewport": {"northeast": {"lat": 51.5140700802915, "lng": -0.186836319708498}, "southwest": {"lat": 51.5113721197085, "lng": -0.1895342802915021}}}, "name": "Warda Cleaning Services", "place_id": "ChIJfY15hv8PdkgRqXe2P0SvmQY", "types": ["point_of_interest", "establishment"]}, "ChIJ70-vh_8PdkgR8xEWRpBlErM": {"geometry": {"location": {"lat": 51.5127833, "lng": -0.1881936}, "viewport": {"northeast": {"lat": 51.51408163029149, "lng": -0.186825769708498}, "southwest": {"lat": 51.51138366970849, "lng": -0.189523730291502}}}, "name": "Gybe Media & Technology", "place_id": "ChIJ70-vh_8PdkgR8xEWRpBlErM", "types": ["point_of_interest", "establishment"]}, "ChIJa81vj_8PdkgR1LdtNivu0lY": {"geometry": {"location": {"lat": 51.51293640000001, "lng": -0.1885365000000001}, "viewport": {"northeast": {"lat": 51.51427183029151, "lng": -0.187259469708498}, "southwest": {"lat": 51.51157386970851, "lng": -0.1899574302915021}}}, "name": "Jade Rose - Therapist", "place_id": "ChIJa81vj_8PdkgR1LdtNivu0lY", "types": ["health", "point_of_interest", "establishment"]}, "ChIJpXyKhv8PdkgRoOG5lqb6tEI": {"geometry": {"location": {"lat": 51.5127627, "lng": -0.1882625}, "viewport": {"northeast": {"lat": 51.5141116802915, "lng": -0.186913519708498}, "southwest": {"lat": 51.5114137197085, "lng": -0.189611480291502}}}, "name": "Santorini Restaurant", "place_id": "ChIJpXyKhv8PdkgRoOG5lqb6tEI", "types": ["restaurant", "food", "point_of_interest", "establishment"], "rating": 4.3, "user_ratings_total": 836}, "ChIJQaJlsP8PdkgRWf6KKkOixw8": {"geometry": {"location": {"lat": 51.5124323, "lng": -0.1892292}, "viewport": {"northeast": {"lat": 51.51379153029151, "lng": -0.188109519708498}, "southwest": {"lat": 51.51109356970851, "lng": -0.190807480291502}}}, "name": "Omphysio Bayswater", "place_id": "ChIJQaJlsP8PdkgRWf6KKkOixw8", "types": ["physiotherapist", "gym", "health", "point_of_interest", "establishment"], "rating": 4.7, "user_ratings_total": 77}, "ChIJqbTGnP8PdkgRPUIcZ01Vjk0": {"geometry": {"location": {"lat": 51.51245770000001, "lng": -0.1888353}, "viewport": {"northeast": {"lat": 51.51377258029151, "lng": -0.187475019708498}, "southwest": {"lat": 51.51107461970851, "lng": -0.1901729802915021}}}, "name": "Mr Pointing", "place_id": "ChIJqbTGnP8PdkgRPUIcZ01Vjk0", "types": ["general_contractor", "point_of_interest", "establishment"]}, "ChIJp7TGnP8PdkgRsker0BQ6eK8": {"geometry": {"location": {"lat": 51.51245770000001, "lng": -0.1888352}, "viewport": {"northeast": {"lat": 51.51377258029151, "lng": -0.187474919708498}, "southwest": {"lat": 51.51107461970851, "lng": -0.190172880291502}}}, "name": "Nisha's beauty", "place_id": "ChIJp7TGnP8PdkgRsker0BQ6eK8", "types": ["beauty_salon", "point_of_interest", "establishment"], "rating": 5, "user_ratings_total": 1}, "ChIJ7WF9nv8PdkgRKV4gOKPzU7E": {"geometry": {"location": {"lat": 51.5125, "lng": -0.1888889}, "viewport": {"northeast": {"lat": 51.5138845802915, "lng": -0.187552919708498}, "southwest": {"lat": 51.5111866197085, "lng": -0.190250880291502}}}, "name": "Emile Hair & Beauty", "place_id": "ChIJ7WF9nv8PdkgRKV4gOKPzU7E", "types": ["beauty_salon", "hair_care", "point_of_interest", "establishment"], "rating": 4.4, "user_ratings_total": 25}, "ChIJ_17onP8PdkgR068m8bsosDI": {"geometry": {"location": {"lat": 51.51247679999999, "lng": -0.1887351}, "viewport": {"northeast": {"lat": 51.5138818802915, "lng": -0.187412919708498}, "southwest": {"lat": 51.5111839197085, "lng": -0.190110880291502}}}, "name": "4 U R Convenience", "place_id": "ChIJ_17onP8PdkgR068m8bsosDI", "types": ["convenience_store", "food", "point_of_interest", "store", "establishment"], "rating": 2, "user_ratings_total": 4}, "ChIJZd7MhDEPdkgRfLZ5cHi4WoA": {"geometry": {"location": {"lat": 51.5124884, "lng": -0.1886343}, "viewport": {"northeast": {"lat": 51.5138955802915, "lng": -0.187351119708498}, "southwest": {"lat": 51.5111976197085, "lng": -0.190049080291502}}}, "name": "DPD Parcel Shop Location", "place_id": "ChIJZd7MhDEPdkgRfLZ5cHi4WoA", "types": ["point_of_interest", "establishment"], "rating": 1, "user_ratings_total": 1}, "ChIJ-zDkhP8PdkgRQBgGO4xpIZ8": {"geometry": {"location": {"lat": 51.512528, "lng": -0.1886331}, "viewport": {"northeast": {"lat": 51.51391643029149, "lng": -0.187298519708498}, "southwest": {"lat": 51.5112184697085, "lng": -0.189996480291502}}}, "name": "Zipcar", "place_id": "ChIJ-zDkhP8PdkgRQBgGO4xpIZ8", "types": ["car_rental", "point_of_interest", "establishment"]}, "ChIJdcE4-v4PdkgRSkPTpezbINI": {"geometry": {"location": {"lat": 51.51242429999999, "lng": -0.1891116}, "viewport": {"northeast": {"lat": 51.5137770802915, "lng": -0.187735219708498}, "southwest": {"lat": 51.5110791197085, "lng": -0.1904331802915021}}}, "name": "Lingumi", "place_id": "ChIJdcE4-v4PdkgRSkPTpezbINI", "types": ["point_of_interest", "establishment"]}, "ChIJmR93ZYkPdkgR-BSYBz67SEA": {"geometry": {"location": {"lat": 51.5124486, "lng": -0.188355}, "viewport": {"northeast": {"lat": 51.51389408029149, "lng": -0.187034569708498}, "southwest": {"lat": 51.51119611970849, "lng": -0.189732530291502}}}, "name": "THE REAL NIGHT CLUB", "place_id": "ChIJmR93ZYkPdkgR-BSYBz67SEA", "types": ["night_club", "point_of_interest", "establishment"]}, "ChIJ7WF9nv8PdkgRoFmozpprjMg": {"geometry": {"location": {"lat": 51.5124222, "lng": -0.1893277}, "viewport": {"northeast": {"lat": 51.5137848802915, "lng": -0.188158769708498}, "southwest": {"lat": 51.5110869197085, "lng": -0.190856730291502}}}, "name": "ERGON SYNERGY LTD", "place_id": "ChIJ7WF9nv8PdkgRoFmozpprjMg", "types": ["point_of_interest", "establishment"]}, "ChIJsSGB9OgPdkgRNdRJlvr7xtc": {"geometry": {"location": {"lat": 51.51276149999999, "lng": -0.1889984}, "viewport": {"northeast": {"lat": 51.51401438029149, "lng": -0.187614319708498}, "southwest": {"lat": 51.51131641970849, "lng": -0.190312280291502}}}, "name": "PilateStance Private Pilates Sessions", "place_id": "ChIJsSGB9OgPdkgRNdRJlvr7xtc", "types": ["gym", "health", "point_of_interest", "establishment"]}, "ChIJAQBQmv8PdkgR5D4eS4cXp48": {"geometry": {"location": {"lat": 51.51276149999999, "lng": -0.1889984}, "viewport": {"northeast": {"lat": 51.51401438029149, "lng": -0.187614319708498}, "southwest": {"lat": 51.51131641970849, "lng": -0.190312280291502}}}, "name": "Universal Assuretech", "place_id": "ChIJAQBQmv8PdkgR5D4eS4cXp48", "types": ["insurance_agency", "point_of_interest", "establishment"]}, "ChIJicB7qGYPdkgRV5R2w6Aaqd8": {"geometry": {"location": {"lat": 51.51276149999999, "lng": -0.1889984}, "viewport": {"northeast": {"lat": 51.51401438029149, "lng": -0.187614319708498}, "southwest": {"lat": 51.51131641970849, "lng": -0.190312280291502}}}, "name": "Cultural Traffic and The Mott Collection", "place_id": "ChIJicB7qGYPdkgRV5R2w6Aaqd8", "types": ["book_store", "point_of_interest", "store", "establishment"]}, "ChIJqapamv8PdkgRfycWurtLGQA": {"geometry": {"location": {"lat": 51.5127616, "lng": -0.1889983}, "viewport": {"northeast": {"lat": 51.5140144302915, "lng": -0.187614219708498}, "southwest": {"lat": 51.5113164697085, "lng": -0.190312180291502}}}, "name": "Project Mosaic", "place_id": "ChIJqapamv8PdkgRfycWurtLGQA", "types": ["point_of_interest", "establishment"]}, "ChIJaQ3Qhv8PdkgR9zazR9FY0zg": {"geometry": {"location": {"lat": 51.5125428, "lng": -0.1883037}, "viewport": {"northeast": {"lat": 51.51394673029149, "lng": -0.186981219708498}, "southwest": {"lat": 51.51124876970849, "lng": -0.189679180291502}}}, "name": "Alexandra Court Bayswater", "place_id": "ChIJaQ3Qhv8PdkgR9zazR9FY0zg", "types": ["point_of_interest", "establishment"], "rating": 4, "user_ratings_total": 1}, "ChIJi9wyhP8PdkgRchg1x-HAyy4": {"geometry": {"location": {"lat": 51.512701, "lng": -0.1883971}, "viewport": {"northeast": {"lat": 51.51403078029149, "lng": -0.187032919708498}, "southwest": {"lat": 51.51133281970849, "lng": -0.189730880291502}}}, "name": "Archie Foodstore", "place_id": "ChIJi9wyhP8PdkgRchg1x-HAyy4", "types": ["grocery_or_supermarket", "food", "point_of_interest", "store", "establishment"], "rating": 5, "user_ratings_total": 1}, "ChIJP-1Idy4PdkgRCTibaX0vgRU": {"geometry": {"location": {"lat": 51.51235819999999, "lng": -0.1894497}, "viewport": {"northeast": {"lat": 51.5137734802915, "lng": -0.188219769708498}, "southwest": {"lat": 51.51107551970851, "lng": -0.190917730291502}}}, "name": "Boston Medical UK Ltd.", "place_id": "ChIJP-1Idy4PdkgRCTibaX0vgRU", "types": ["health", "point_of_interest", "establishment"]}, "ChIJQV98n_8PdkgRpKhfMpB9Vv0": {"geometry": {"location": {"lat": 51.51235819999999, "lng": -0.1894497}, "viewport": {"northeast": {"lat": 51.5137734802915, "lng": -0.188219769708498}, "southwest": {"lat": 51.51107551970851, "lng": -0.190917730291502}}}, "name": "Boston Aesthetics Clinic", "place_id": "ChIJQV98n_8PdkgRpKhfMpB9Vv0", "types": ["health", "point_of_interest", "establishment"], "rating": 5, "user_ratings_total": 4}, "ChIJizU_3e4PdkgRzcTGYzFyRUk": {"geometry": {"location": {"lat": 51.512399, "lng": -0.1894683}, "viewport": {"northeast": {"lat": 51.5137751802915, "lng": -0.188229069708498}, "southwest": {"lat": 51.5110772197085, "lng": -0.190927030291502}}}, "name": "DIM Electrical Services", "place_id": "ChIJizU_3e4PdkgRzcTGYzFyRUk", "types": ["electrician", "point_of_interest", "establishment"], "rating": 5, "user_ratings_total": 2}, "ChIJ-zF4hf8PdkgRi5ex2MeMvwE": {"geometry": {"location": {"lat": 51.512847, "lng": -0.188595}, "viewport": {"northeast": {"lat": 51.5144647802915, "lng": -0.187347769708498}, "southwest": {"lat": 51.5117668197085, "lng": -0.190045730291502}}}, "name": "Finding your Voice", "place_id": "ChIJ-zF4hf8PdkgRi5ex2MeMvwE", "types": ["point_of_interest", "establishment"], "rating": 5, "user_ratings_total": 1}, "ChIJ7U0toP8PdkgRtOQSGxhKnW4": {"geometry": {"location": {"lat": 51.512331, "lng": -0.1895153}, "viewport": {"northeast": {"lat": 51.5137549802915, "lng": -0.188252569708498}, "southwest": {"lat": 51.51105701970851, "lng": -0.190950530291502}}}, "name": "Chenies House", "place_id": "ChIJ7U0toP8PdkgRtOQSGxhKnW4", "types": ["point_of_interest", "establishment"], "rating": 3, "user_ratings_total": 1}, "ChIJe9sloP8PdkgRhPGoEJGp3z0": {"geometry": {"location": {"lat": 51.5123435, "lng": -0.1895269}, "viewport": {"northeast": {"lat": 51.51376078029149, "lng": -0.188258369708498},