{"E00024064": {"ChIJB9JrAeEEdkgRpaf-tHzxAT4": {"geometry": {"location": {"lat": 51.49102920002511, "lng": -0.1376291501029953}, "viewport": {"northeast": {"lat": 51.4923781802915, "lng": -0.136280169708498}, "southwest": {"lat": 51.4896802197085, "lng": -0.138978130291502}}}, "name": "18-20 Charlwood St", "place_id": "ChIJB9JrAeEEdkgRpaf-tHzxAT4", "types": ["route"]}, "ChIJSSxMAuEEdkgR5tG9FenV-mM": {"geometry": {"location": {"lat": 51.4911333, "lng": -0.1373472}, "viewport": {"northeast": {"lat": 51.4924919802915, "lng": -0.136084869708498}, "southwest": {"lat": 51.4897940197085, "lng": -0.138782830291502}}}, "name": "Cask Pub & Kitchen", "place_id": "ChIJSSxMAuEEdkgR5tG9FenV-mM", "types": ["bar", "point_of_interest", "establishment"], "rating": 4.5, "user_ratings_total": 1881}, "ChIJhRYxHyEFdkgRboPQ5gZTCXQ": {"geometry": {"location": {"lat": 51.4911047, "lng": -0.1377921}, "viewport": {"northeast": {"lat": 51.4924844302915, "lng": -0.136358919708498}, "southwest": {"lat": 51.4897864697085, "lng": -0.139056880291502}}}, "name": "Fine Architecture", "place_id": "ChIJhRYxHyEFdkgRboPQ5gZTCXQ", "types": ["point_of_interest", "establishment"]}, "ChIJzQ_uAOEEdkgRFfJlO05vtiw": {"geometry": {"location": {"lat": 51.4910708, "lng": -0.137795}, "viewport": {"northeast": {"lat": 51.4923869302915, "lng": -0.136378269708498}, "southwest": {"lat": 51.48968896970851, "lng": -0.139076230291502}}}, "name": "Radio Napoli", "place_id": "ChIJzQ_uAOEEdkgRFfJlO05vtiw", "types": ["point_of_interest", "establishment"]}, "ChIJFbZ4COEEdkgREuWHUGZAOBk": {"geometry": {"location": {"lat": 51.49089170000001, "lng": -0.1375861}, "viewport": {"northeast": {"lat": 51.4922406802915, "lng": -0.136237119708498}, "southwest": {"lat": 51.48954271970851, "lng": -0.1389350802915021}}}, "name": "Pimlico Thai", "place_id": "ChIJFbZ4COEEdkgREuWHUGZAOBk", "types": ["restaurant", "food", "point_of_interest", "establishment"], "rating": 4.1, "user_ratings_total": 251}, "ChIJ0X7tB-EEdkgROnCalatq7yM": {"geometry": {"location": {"lat": 51.4906805, "lng": -0.1377593}, "viewport": {"northeast": {"lat": 51.4920657302915, "lng": -0.136497869708498}, "southwest": {"lat": 51.4893677697085, "lng": -0.139195830291502}}}, "name": "C C A Management", "place_id": "ChIJ0X7tB-EEdkgROnCalatq7yM", "types": ["point_of_interest", "establishment"]}, "ChIJNdfzV-AEdkgRiBoUCrcs2nQ": {"geometry": {"location": {"lat": 51.4913879, "lng": -0.137594}, "viewport": {"northeast": {"lat": 51.49269288029149, "lng": -0.136112469708498}, "southwest": {"lat": 51.48999491970849, "lng": -0.138810430291502}}}, "name": "Tachbrook Village - Nisa Local", "place_id": "ChIJNdfzV-AEdkgRiBoUCrcs2nQ", "types": ["convenience_store", "bakery", "supermarket", "grocery_or_supermarket", "food", "point_of_interest", "store", "establishment"], "rating": 4.4, "user_ratings_total": 7}, "ChIJryUOfZAFdkgRs-qqJKztzUk": {"geometry": {"location": {"lat": 51.4911001, "lng": -0.1377641}, "viewport": {"northeast": {"lat": 51.4924765802915, "lng": -0.136339719708498}, "southwest": {"lat": 51.4897786197085, "lng": -0.139037680291502}}}, "name": "EvoShave", "place_id": "ChIJryUOfZAFdkgRs-qqJKztzUk", "types": ["point_of_interest", "establishment"]}, "ChIJGzdAVqkFdkgRVaMd1thl-jM": {"geometry": {"location": {"lat": 51.4913434, "lng": -0.1375802}, "viewport": {"northeast": {"lat": 51.4926996802915, "lng": -0.136092369708498}, "southwest": {"lat": 51.4900017197085, "lng": -0.138790330291502}}}, "name": "Nisa local", "place_id": "ChIJGzdAVqkFdkgRVaMd1thl-jM", "types": ["grocery_or_supermarket", "food", "point_of_interest", "store", "establishment"], "rating": 3.9, "user_ratings_total": 7}, "ChIJAWC-Aa8FdkgRwj_eRuiujd4": {"geometry": {"location": {"lat": 51.491348, "lng": -0.137515}, "viewport": {"northeast": {"lat": 51.4926691302915, "lng": -0.136083869708498}, "southwest": {"lat": 51.4899711697085, "lng": -0.138781830291502}}}, "name": "CitySpareSpace Luggage Storage London Victoria", "place_id": "ChIJAWC-Aa8FdkgRwj_eRuiujd4", "types": ["storage", "point_of_interest", "establishment"]}, "ChIJX9sI6lwFdkgRIZMTafmtKc8": {"geometry": {"location": {"lat": 51.4908391, "lng": -0.1376448}, "viewport": {"northeast": {"lat": 51.4922163802915, "lng": -0.136364769708498}, "southwest": {"lat": 51.4895184197085, "lng": -0.139062730291502}}}, "name": "Thai Studio Pimlico", "place_id": "ChIJX9sI6lwFdkgRIZMTafmtKc8", "types": ["health", "point_of_interest", "establishment"], "rating": 4.7, "user_ratings_total": 43}, "ChIJKWpW_eAEdkgRka2C9xNdESM": {"geometry": {"location": {"lat": 51.4912843, "lng": -0.1372021}, "viewport": {"northeast": {"lat": 51.4926540302915, "lng": -0.135902419708498}, "southwest": {"lat": 51.4899560697085, "lng": -0.138600380291502}}}, "name": "Central London Rescue and Repair Ltd", "place_id": "ChIJKWpW_eAEdkgRka2C9xNdESM", "types": ["car_repair", "point_of_interest", "establishment"]}, "ChIJjbMm4-AEdkgRiYuYPEXYZa0": {"geometry": {"location": {"lat": 51.49132969999999, "lng": -0.1372346}, "viewport": {"northeast": {"lat": 51.49268923029149, "lng": -0.135912019708498}, "southwest": {"lat": 51.48999126970849, "lng": -0.138609980291502}}}, "name": "Chargemaster Charging Station", "place_id": "ChIJjbMm4-AEdkgRiYuYPEXYZa0", "types": ["point_of_interest", "establishment"], "rating": 4, "user_ratings_total": 2}, "ChIJZXq0qeEEdkgRbY88AVK2P8Q": {"geometry": {"location": {"lat": 51.490797, "lng": -0.138019}, "viewport": {"northeast": {"lat": 51.4921796302915, "lng": -0.136629269708498}, "southwest": {"lat": 51.4894816697085, "lng": -0.139327230291502}}}, "name": "ubitricity Charging Station", "place_id": "ChIJZXq0qeEEdkgRbY88AVK2P8Q", "types": ["point_of_interest", "establishment"]}, "ChIJfzL5btgFdkgRomMf6WU4UoM": {"geometry": {"location": {"lat": 51.4911706, "lng": -0.1370179}, "viewport": {"northeast": {"lat": 51.4925847802915, "lng": -0.135823769708498}, "southwest": {"lat": 51.4898868197085, "lng": -0.138521730291502}}}, "name": "Dr. mehmet M. normina, DDS", "place_id": "ChIJfzL5btgFdkgRomMf6WU4UoM", "types": ["doctor", "health", "point_of_interest", "establishment"]}, "ChIJ__80reEEdkgRbl_6Qp_c4-Y": {"geometry": {"location": {"lat": 51.4912651, "lng": -0.1384654}, "viewport": {"northeast": {"lat": 51.4925654302915, "lng": -0.1371754197084979}, "southwest": {"lat": 51.4898674697085, "lng": -0.139873380291502}}}, "name": "Cordelia Sayers", "place_id": "ChIJ__80reEEdkgRbl_6Qp_c4-Y", "types": ["point_of_interest", "establishment"]}, "ChIJ74PScuEEdkgRyXOKoq-NcCI": {"geometry": {"location": {"lat": 51.48995572374795, "lng": -0.1372996612879731}, "viewport": {"northeast": {"lat": 51.4913031302915, "lng": -0.1353148}, "southwest": {"lat": 51.48860516970851, "lng": -0.1392884}}}, "name": "59-111 Belgrave Rd", "place_id": "ChIJ74PScuEEdkgRyXOKoq-NcCI", "types": ["route"]}, "ChIJG-orDOEEdkgRkseU3eZSq6E": {"geometry": {"location": {"lat": 51.49039639999999, "lng": -0.1377961}, "viewport": {"northeast": {"lat": 51.49165368029149, "lng": -0.1364737197084979}, "southwest": {"lat": 51.48895571970849, "lng": -0.139171680291502}}}, "name": "Victoria Inn", "place_id": "ChIJG-orDOEEdkgRkseU3eZSq6E", "types": ["lodging", "point_of_interest", "establishment"], "rating": 3.6, "user_ratings_total": 436}, "ChIJuWuyFOEEdkgR9UQjXb9u2aU": {"geometry": {"location": {"lat": 51.48999549999999, "lng": -0.1369828}, "viewport": {"northeast": {"lat": 51.4912885802915, "lng": -0.135717469708498}, "southwest": {"lat": 51.4885906197085, "lng": -0.138415430291502}}}, "name": "Best Western Corona Hotel", "place_id": "ChIJuWuyFOEEdkgR9UQjXb9u2aU", "types": ["lodging", "point_of_interest", "establishment"], "rating": 3.8, "user_ratings_total": 429}, "ChIJc3mpbeEEdkgRDHvM7nQpHwk": {"geometry": {"location": {"lat": 51.4897076, "lng": -0.1372359}, "viewport": {"northeast": {"lat": 51.4911197802915, "lng": -0.135791169708498}, "southwest": {"lat": 51.4884218197085, "lng": -0.1384891302915021}}}, "name": "Holiday Inn Express London - Victoria, an IHG Hotel", "place_id": "ChIJc3mpbeEEdkgRDHvM7nQpHwk", "types": ["lodging", "point_of_interest", "establishment"], "rating": 3.7, "user_ratings_total": 392}, "ChIJ8bpHdeEEdkgRV4_mamfZEjA": {"geometry": {"location": {"lat": 51.4901024, "lng": -0.1381361}, "viewport": {"northeast": {"lat": 51.4915298302915, "lng": -0.136692169708498}, "southwest": {"lat": 51.4888318697085, "lng": -0.139390130291502}}}, "name": "The Belgrave", "place_id": "ChIJ8bpHdeEEdkgRV4_mamfZEjA", "types": ["lodging", "point_of_interest", "establishment"], "rating": 4.4, "user_ratings_total": 503}, "ChIJ8bpHdeEEdkgRp4mltdw8lNQ": {"geometry": {"location": {"lat": 51.490069, "lng": -0.1378307}, "viewport": {"northeast": {"lat": 51.49146158029149, "lng": -0.136429069708498}, "southwest": {"lat": 51.48876361970849, "lng": -0.139127030291502}}}, "name": "CARLTON HOTEL", "place_id": "ChIJ8bpHdeEEdkgRp4mltdw8lNQ", "types": ["lodging", "point_of_interest", "establishment"], "rating": 3.2, "user_ratings_total": 254}, "ChIJp-twC-EEdkgRHFYfqUrRmL4": {"geometry": {"location": {"lat": 51.4902658, "lng": -0.1375795}, "viewport": {"northeast": {"lat": 51.4915567302915, "lng": -0.136298119708498}, "southwest": {"lat": 51.4888587697085, "lng": -0.138996080291502}}}, "name": "Astor Victoria Hostel", "place_id": "ChIJp-twC-EEdkgRHFYfqUrRmL4", "types": ["lodging", "point_of_interest", "establishment"], "rating": 3.8, "user_ratings_total": 840}, "ChIJlf__b7UEdkgRaekf8LyV5Eg": {"geometry": {"location": {"lat": 51.4901202, "lng": -0.1372793}, "viewport": {"northeast": {"lat": 51.4914142302915, "lng": -0.135997819708498}, "southwest": {"lat": 51.4887162697085, "lng": -0.138695780291502}}}, "name": "Melbourne House Hotel", "place_id": "ChIJlf__b7UEdkgRaekf8LyV5Eg", "types": ["lodging", "point_of_interest", "establishment"], "rating": 3.7, "user_ratings_total": 156}, "ChIJG-orDOEEdkgRekBzk2_fu_Q": {"geometry": {"location": {"lat": 51.49028209999999, "lng": -0.1375019}, "viewport": {"northeast": {"lat": 51.49155743029149, "lng": -0.136241869708498}, "southwest": {"lat": 51.48885946970849, "lng": -0.138939830291502}}}, "name": "Eco Valeting Express.co.uk", "place_id": "ChIJG-orDOEEdkgRekBzk2_fu_Q", "types": ["point_of_interest", "establishment"]}, "ChIJ8bpHdeEEdkgRUiuJsvT1sjk": {"geometry": {"location": {"lat": 51.48983319999999, "lng": -0.1374522}, "viewport": {"northeast": {"lat": 51.49124378029149, "lng": -0.136027619708498}, "southwest": {"lat": 51.48854581970849, "lng": -0.138725580291502}}}, "name": "Majestic Limousines Limited", "place_id": "ChIJ8bpHdeEEdkgRUiuJsvT1sjk", "types": ["point_of_interest", "establishment"]}, "ChIJ50iGq7IFdkgRXfoNUAM5Oi0": {"geometry": {"location": {"lat": 51.4901199, "lng": -0.1377304}, "viewport": {"northeast": {"lat": 51.4914684302915, "lng": -0.136382019708498}, "southwest": {"lat": 51.4887704697085, "lng": -0.139079980291502}}}, "name": "\u0425\u043e\u0441\u0442\u0435\u043b", "place_id": "ChIJ50iGq7IFdkgRXfoNUAM5Oi0", "types": ["lodging", "point_of_interest", "establishment"]}, "ChIJub6mCuEEdkgRTrjrZ583MP0": {"geometry": {"location": {"lat": 51.49002100000001, "lng": -0.137884}, "viewport": {"northeast": {"lat": 51.4914368802915, "lng": -0.136454269708498}, "southwest": {"lat": 51.4887389197085, "lng": -0.1391522302915021}}}, "name": "\u30ab\u30fc\u30eb\u30c8\u30f3 \u30db\u30c6\u30eb", "place_id": "ChIJub6mCuEEdkgRTrjrZ583MP0", "types": ["lodging", "point_of_interest", "establishment"]}, "ChIJub6mCuEEdkgR2pVpSLW3fic": {"geometry": {"location": {"lat": 51.49002100000001, "lng": -0.137884}, "viewport": {"northeast": {"lat": 51.4914368802915, "lng": -0.136454269708498}, "southwest": {"lat": 51.4887389197085, "lng": -0.1391522302915021}}}, "name": "London hospedaje", "place_id": "ChIJub6mCuEEdkgR2pVpSLW3fic", "types": ["lodging", "point_of_interest", "establishment"]}, "ChIJv-8sdeEEdkgRgpcWdz7IHTk": {"geometry": {"location": {"lat": 51.4899563, "lng": -0.1377496}, "viewport": {"northeast": {"lat": 51.49137273029149, "lng": -0.136319169708498}, "southwest": {"lat": 51.4886747697085, "lng": -0.139017130291502}}}, "name": "Alessandra Borghi Hypnotherapy", "place_id": "ChIJv-8sdeEEdkgRgpcWdz7IHTk", "types": ["health", "point_of_interest", "establishment"]}, "ChIJAXlc4BQFdkgRzXYrGCMwva4": {"geometry": {"location": {"lat": 51.4900573, "lng": -0.1379495}, "viewport": {"northeast": {"lat": 51.4914713802915, "lng": -0.136521919708498}, "southwest": {"lat": 51.4887734197085, "lng": -0.139219880291502}}}, "name": "Archetype Copywriting", "place_id": "ChIJAXlc4BQFdkgRzXYrGCMwva4", "types": ["point_of_interest", "establishment"]}, "ChIJSyJsoOEEdkgRvNKo5xklJVc": {"geometry": {"location": {"lat": 51.49006439999999, "lng": -0.137965}, "viewport": {"northeast": {"lat": 51.49147808029149, "lng": -0.136536369708498}, "southwest": {"lat": 51.48878011970849, "lng": -0.1392343302915021}}}, "name": "Laxford Property Limited", "place_id": "ChIJSyJsoOEEdkgRvNKo5xklJVc", "types": ["point_of_interest", "establishment"]}, "ChIJ7TH3iOgFdkgRmdgkgbpTgT8": {"geometry": {"location": {"lat": 51.4901504, "lng": -0.1374574}, "viewport": {"northeast": {"lat": 51.4914611302915, "lng": -0.136154569708498}, "southwest": {"lat": 51.4887631697085, "lng": -0.138852530291502}}}, "name": "KOYAN BARBERS", "place_id": "ChIJ7TH3iOgFdkgRmdgkgbpTgT8", "types": ["hair_care", "health", "point_of_interest", "establishment"]}, "ChIJT0IH0Y8FdkgRtD6tzvcssUE": {"geometry": {"location": {"lat": 51.4898865, "lng": -0.1376068}, "viewport": {"northeast": {"lat": 51.49130348029149, "lng": -0.136174369708498}, "southwest": {"lat": 51.48860551970849, "lng": -0.138872330291502}}}, "name": "Brokers SouthEast Limited", "place_id": "ChIJT0IH0Y8FdkgRtD6tzvcssUE", "types": ["real_estate_agency", "point_of_interest", "establishment"], "rating": 5, "user_ratings_total": 1}, "ChIJb6_yEjUFdkgRYeAIgkqdRpk": {"geometry": {"location": {"lat": 51.4902658, "lng": -0.1375795}, "viewport": {"northeast": {"lat": 51.4915579302915, "lng": -0.136299169708498}, "southwest": {"lat": 51.4888599697085, "lng": -0.138997130291502}}}, "name": "RESOURCE.ME LTD", "place_id": "ChIJb6_yEjUFdkgRYeAIgkqdRpk", "types": ["point_of_interest", "establishment"], "rating": 5, "user_ratings_total": 1}, "ChIJeV1jCeEEdkgRCwvWOSSoStk": {"geometry": {"location": {"lat": 51.4903107, "lng": -0.1376686}, "viewport": {"northeast": {"lat": 51.4916022802915, "lng": -0.136390319708498}, "southwest": {"lat": 51.4889043197085, "lng": -0.139088280291502}}}, "name": "Aston Victoria", "place_id": "ChIJeV1jCeEEdkgRCwvWOSSoStk", "types": ["lodging", "point_of_interest", "establishment"]}, "ChIJYb1kwJoFdkgROyMI0QlakvU": {"geometry": {"location": {"lat": 51.48983319999999, "lng": -0.1374522}, "viewport": {"northeast": {"lat": 51.49124378029149, "lng": -0.136027619708498}, "southwest": {"lat": 51.48854581970849, "lng": -0.138725580291502}}}, "name": "London Luxury Escorts - Bentley Models", "place_id": "ChIJYb1kwJoFdkgROyMI0QlakvU", "types": ["point_of_interest", "establishment"], "rating": 5, "user_ratings_total": 1}, "ChIJofByc-EEdkgRE23YQfBV8Pw": {"geometry": {"location": {"lat": 51.4898332, "lng": -0.1374521}, "viewport": {"northeast": {"lat": 51.4912437302915, "lng": -0.136027519708498}, "southwest": {"lat": 51.4885457697085, "lng": -0.138725480291502}}}, "name": "Stanway Partners", "place_id": "ChIJofByc-EEdkgRE23YQfBV8Pw", "types": ["point_of_interest", "establishment"]}, "ChIJlz-oc-EEdkgR_8MafZuSm9o": {"geometry": {"location": {"lat": 51.489795, "lng": -0.13739}, "viewport": {"northeast": {"lat": 51.4912082802915, "lng": -0.1359620697084979}, "southwest": {"lat": 51.4885103197085, "lng": -0.138660030291502}}}, "name": "Moorhen and Drake", "place_id": "ChIJlz-oc-EEdkgR_8MafZuSm9o", "types": ["point_of_interest", "store", "establishment"]}, "ChIJ3b9yQ9wFdkgRgUsXQzvIYRY": {"geometry": {"location": {"lat": 51.49022410000001, "lng": -0.138329}, "viewport": {"northeast": {"lat": 51.4916423802915, "lng": -0.136895719708498}, "southwest": {"lat": 51.4889444197085, "lng": -0.139593680291502}}}, "name": "Domenica Marland", "place_id": "ChIJ3b9yQ9wFdkgRgUsXQzvIYRY", "types": ["point_of_interest", "establishment"]}, "ChIJGx_po-EEdkgRAGkfapdrjeQ": {"geometry": {"location": {"lat": 51.49022410000001, "lng": -0.138329}, "viewport": {"northeast": {"lat": 51.4916423802915, "lng": -0.136895719708498}, "southwest": {"lat": 51.4889444197085, "lng": -0.139593680291502}}}, "name": "Herriot Limited", "place_id": "ChIJGx_po-EEdkgRAGkfapdrjeQ", "types": ["point_of_interest", "establishment"]}, "ChIJP5ac8FQFdkgRS9MJcu8JAQc": {"geometry": {"location": {"lat": 51.4897529, "lng": -0.1371527}, "viewport": {"northeast": {"lat": 51.49114383029151, "lng": -0.135752219708498}, "southwest": {"lat": 51.48844586970851, "lng": -0.138450180291502}}}, "name": "Hotel victoria londres", "place_id": "ChIJP5ac8FQFdkgRS9MJcu8JAQc", "types": ["lodging", "point_of_interest", "establishment"]}, "ChIJ93wseeEEdkgRSMJ8Xby9-T8": {"geometry": {"location": {"lat": 51.4890983001441, "lng": -0.1377640989024968}, "viewport": {"northeast": {"lat": 51.4904472802915, "lng": -0.136415119708498}, "southwest": {"lat": 51.4877493197085, "lng": -0.139113080291502}}}, "name": "11-35 Moreton Terrace", "place_id": "ChIJ93wseeEEdkgRSMJ8Xby9-T8", "types": ["route"]}, "ChIJcViTfOEEdkgRpavzoA7wSz4": {"geometry": {"location": {"lat": 51.48889129999999, "lng": -0.1371379}, "viewport": {"northeast": {"lat": 51.4901970302915, "lng": -0.135728369708498}, "southwest": {"lat": 51.4874990697085, "lng": -0.138426330291502}}}, "name": "Pizza Express", "place_id": "ChIJcViTfOEEdkgRpavzoA7wSz4", "types": ["meal_takeaway", "restaurant", "food", "point_of_interest", "establishment"], "rating": 4, "user_ratings_total": 365}, "ChIJ3QhufeEEdkgRNhFr9YHd89g": {"geometry": {"location": {"lat": 51.48875990000001, "lng": -0.1373009}, "viewport": {"northeast": {"lat": 51.4900748302915, "lng": -0.135889969708498}, "southwest": {"lat": 51.4873768697085, "lng": -0.138587930291502}}}, "name": "Fry & Co", "place_id": "ChIJ3QhufeEEdkgRNhFr9YHd89g", "types": ["point_of_interest", "establishment"], "rating": 5, "user_ratings_total": 4}, "ChIJeyVrY-EEdkgRRqwqQ1j_c6o": {"geometry": {"location": {"lat": 51.4888127, "lng": -0.1371756}, "viewport": {"northeast": {"lat": 51.4901354302915, "lng": -0.135778869708498}, "southwest": {"lat": 51.4874374697085, "lng": -0.138476830291502}}}, "name": "Modes & More", "place_id": "ChIJeyVrY-EEdkgRRqwqQ1j_c6o", "types": ["point_of_interest", "clothing_store", "store", "establishment"]}, "ChIJD6KTfOEEdkgRyFXs7omAr24": {"geometry": {"location": {"lat": 51.4889599, "lng": -0.1370235}, "viewport": {"northeast": {"lat": 51.4902738802915, "lng": -0.135610869708498}, "southwest": {"lat": 51.4875759197085, "lng": -0.138308830291502}}}, "name": "Peta Smyth Antique Textiles", "place_id": "ChIJD6KTfOEEdkgRyFXs7omAr24", "types": ["home_goods_store", "point_of_interest", "store", "establishment"]}, "ChIJHxkkyuEEdkgRFZPDtZHrpZk": {"geometry": {"location": {"lat": 51.48896730000001, "lng": -0.1384825}, "viewport": {"northeast": {"lat": 51.4903009302915, "lng": -0.137232469708498}, "southwest": {"lat": 51.4876029697085, "lng": -0.139930430291502}}}, "name": "ixPocket mobile", "place_id": "ChIJHxkkyuEEdkgRFZPDtZHrpZk", "types": ["point_of_interest", "establishment"]}, "ChIJNejl1OMEdkgR_-ba5K7K9OI": {"geometry": {"location": {"lat": 51.4884496, "lng": -0.1377763}, "viewport": {"northeast": {"lat": 51.48970988029149, "lng": -0.136387969708498}, "southwest": {"lat": 51.48701191970849, "lng": -0.139085930291502}}}, "name": "Dr S Neogi - Pimlico Health @ the Marven", "place_id": "ChIJNejl1OMEdkgR_-ba5K7K9OI", "types": ["doctor", "health", "point_of_interest", "establishment"]}, "ChIJS-5yZOEEdkgRRFM_9hPaKoY": {"geometry": {"location": {"lat": 51.4890188, "lng": -0.1369172}, "viewport": {"northeast": {"lat": 51.4903363302915, "lng": -0.135510969708498}, "southwest": {"lat": 51.4876383697085, "lng": -0.138208930291502}}}, "name": "Pimlico Tandoori Restaurant", "place_id": "ChIJS-5yZOEEdkgRRFM_9hPaKoY", "types": ["restaurant", "food", "point_of_interest", "establishment"], "rating": 3.8, "user_ratings_total": 194}, "ChIJOV3UfuEEdkgRiiRT-jT_qhA": {"geometry": {"location": {"lat": 51.4889772, "lng": -0.1378021}, "viewport": {"northeast": {"lat": 51.4903395802915, "lng": -0.136402169708498}, "southwest": {"lat": 51.4876416197085, "lng": -0.139100130291502}}}, "name": "Mark Gutteridge", "place_id": "ChIJOV3UfuEEdkgRiiRT-jT_qhA", "types": ["electronics_store", "home_goods_store", "school", "point_of_interest", "store", "establishment"], "rating": 5, "user_ratings_total": 9}, "ChIJfTJjsxkFdkgRFCYWFeYdPJk": {"geometry": {"location": {"lat": 51.489076, "lng": -0.137944}, "viewport": {"northeast": {"lat": 51.49044673029151, "lng": -0.136512219708498}, "southwest": {"lat": 51.48774876970851, "lng": -0.139210180291502}}}, "name": "SightMill Ltd", "place_id": "ChIJfTJjsxkFdkgRFCYWFeYdPJk", "types": ["point_of_interest", "establishment"]}, "ChIJczZ0tBkFdkgRQHGihShGgAg": {"geometry": {"location": {"lat": 51.4891486, "lng": -0.1376627}, "viewport": {"northeast": {"lat": 51.49048248029149, "lng": -0.136371219708498}, "southwest": {"lat": 51.48778451970849, "lng": -0.139069180291502}}}, "name": "Crypto Gold Stake Ltd", "place_id": "ChIJczZ0tBkFdkgRQHGihShGgAg", "types": ["finance", "point_of_interest", "establishment"], "rating": 3, "user_ratings_total": 2}, "ChIJHY-0r6scdkgR7CoVzeSz-rI": {"geometry": {"location": {"lat": 51.48918940000001, "lng": -0.1376947}, "viewport": {"northeast": {"lat": 51.49052378029151, "lng": -0.136401369708498}, "southwest": {"lat": 51.48782581970851, "lng": -0.139099330291502}}}, "name": "Minerva Tutors", "place_id": "ChIJHY-0r6scdkgR7CoVzeSz-rI", "types": ["point_of_interest", "establishment"], "rating": 5, "user_ratings_total": 8}, "ChIJ82I3d-MEdkgRX15_-lEAaCI": {"geometry": {"location": {"lat": 51.48886400000001, "lng": -0.137231}, "viewport": {"northeast": {"lat": 51.49016693029151, "lng": -0.135798269708498}, "southwest": {"lat": 51.48746896970851, "lng": -0.138496230291502}}}, "name": "Not Just A Gallery", "place_id": "ChIJ82I3d-MEdkgRX15_-lEAaCI", "types": ["art_gallery", "point_of_interest", "establishment"]}, "ChIJ72qafeEEdkgR4wpOV-HrC3M": {"geometry": {"location": {"lat": 51.48870650000001, "lng": -0.1373856}, "viewport": {"northeast": {"lat": 51.4900200302915, "lng": -0.135972169708498}, "southwest": {"lat": 51.4873220697085, "lng": -0.138670130291502}}}, "name": "Buck Farm Management Ltd", "place_id": "ChIJ72qafeEEdkgR4wpOV-HrC3M", "types": ["point_of_interest", "establishment"]}, "ChIJQQYOfeEEdkgRNCWzgzs8FGk": {"geometry": {"location": {"lat": 51.4887541, "lng": -0.1373018}, "viewport": {"northeast": {"lat": 51.4900701802915, "lng": -0.135892919708498}, "southwest": {"lat": 51.4873722197085, "lng": -0.1385908802915021}}}, "name": "Pimlico Cleaner", "place_id": "ChIJQQYOfeEEdkgRNCWzgzs8FGk", "types": ["point_of_interest", "establishment"]}, "ChIJQQYOfeEEdkgRyJDszwDGAsU": {"geometry": {"location": {"lat": 51.4887541, "lng": -0.1373018}, "viewport": {"northeast": {"lat": 51.4900701802915, "lng": -0.135892919708498}, "southwest": {"lat": 51.4873722197085, "lng": -0.1385908802915021}}}, "name": "Robin Court (Pimlico) Limited", "place_id": "ChIJQQYOfeEEdkgRyJDszwDGAsU", "types": ["point_of_interest", "establishment"]}, "ChIJAQAbfeEEdkgRfOeXEazy6yk": {"geometry": {"location": {"lat": 51.4887952, "lng": -0.1372561}, "viewport": {"northeast": {"lat": 51.4901093302915, "lng": -0.135843719708498}, "southwest": {"lat": 51.4874113697085, "lng": -0.138541680291502}}}, "name": "Carbara Limited", "place_id": "ChIJAQAbfeEEdkgRfOeXEazy6yk", "types": ["point_of_interest", "establishment"]}, "ChIJB5HmeuEEdkgRZ3YzpL4_i5M": {"geometry": {"location": {"lat": 51.4891707, "lng": -0.1372747}, "viewport": {"northeast": {"lat": 51.4905625302915, "lng": -0.135873219708498}, "southwest": {"lat": 51.48786456970851, "lng": -0.138571180291502}}}, "name": "Gilbert & Cooke", "place_id": "ChIJB5HmeuEEdkgRZ3YzpL4_i5M", "types": ["point_of_interest", "establishment"]}, "ChIJrZYqfeEEdkgRSAQdcuNF3no": {"geometry": {"location": {"lat": 51.48881120000001, "lng": -0.137169}, "viewport": {"northeast": {"lat": 51.4901352802915, "lng": -0.135774719708498}, "southwest": {"lat": 51.4874373197085, "lng": -0.138472680291502}}}, "name": "Rubbish Clearance Pimlico Ltd", "place_id": "ChIJrZYqfeEEdkgRSAQdcuNF3no", "types": ["point_of_interest", "establishment"]}, "ChIJ1c6AY-EEdkgR4U_BVJHDwLM": {"geometry": {"location": {"lat": 51.4889811, "lng": -0.1369973}, "viewport": {"northeast": {"lat": 51.4902944802915, "lng": -0.1355835697084979}, "southwest": {"lat": 51.4875965197085, "lng": -0.138281530291502}}}, "name": "Moreton Place Beauty & Wellbeing", "place_id": "ChIJ1c6AY-EEdkgR4U_BVJHDwLM", "types": ["beauty_salon", "hair_care", "spa", "health", "point_of_interest", "establishment"], "rating": 5, "user_ratings_total": 62}, "ChIJiWKRzzEFdkgRCmu-Us7phE4": {"geometry": {"location": {"lat": 51.48900080000001, "lng": -0.1369816}, "viewport": {"northeast": {"lat": 51.49031233029151, "lng": -0.135564419708498}, "southwest": {"lat": 51.48761436970851, "lng": -0.1382623802915021}}}, "name": "WM Semi Permanent Make Up", "place_id": "ChIJiWKRzzEFdkgRCmu-Us7phE4", "types": ["beauty_salon", "point_of_interest", "establishment"], "rating": 5, "user_ratings_total": 6}, "ChIJ_Q8ZLOIEdkgRGCCriENGXj4": {"geometry": {"location": {"lat": 51.4884496, "lng": -0.1377763}, "viewport": {"northeast": {"lat": 51.48970988029149, "lng": -0.136387969708498}, "southwest": {"lat": 51.48701191970849, "lng": -0.139085930291502}}}, "name": "Jerjian Dr J C", "place_id": "ChIJ_Q8ZLOIEdkgRGCCriENGXj4", "types": ["doctor", "health", "point_of_interest", "establishment"]}, "ChIJZ3ugYuEEdkgRmmsv7RqivKU": {"geometry": {"location": {"lat": 51.48866140000001, "lng": -0.1370618}, "viewport": {"northeast": {"lat": 51.49001038029151, "lng": -0.135712819708498}, "southwest": {"lat": 51.48731241970852, "lng": -0.138410780291502}}}, "name": "Swish Salon", "place_id": "ChIJZ3ugYuEEdkgRmmsv7RqivKU", "types": ["hair_care", "point_of_interest", "establishment"], "rating": 4, "user_ratings_total": 12}, "ChIJWyxfYuEEdkgRO6w1TTG528c": {"geometry": {"location": {"lat": 51.4887085, "lng": -0.1369901}, "viewport": {"northeast": {"lat": 51.4900574802915, "lng": -0.135641119708498}, "southwest": {"lat": 51.48735951970851, "lng": -0.138339080291502}}}, "name": "Royal Dry Cleaners", "place_id": "ChIJWyxfYuEEdkgRO6w1TTG528c", "types": ["laundry", "point_of_interest", "establishment"], "rating": 4.4, "user_ratings_total": 41}, "ChIJp1B04i8FdkgR-S3OnrzZb8M": {"geometry": {"location": {"lat": 51.4884413, "lng": -0.1375319}, "viewport": {"northeast": {"lat": 51.48979028029149, "lng": -0.136182919708498}, "southwest": {"lat": 51.48709231970849, "lng": -0.138880880291502}}}, "name": "\u0416\u04b1\u043b\u0434\u044b\u0437-\u0410\u0439", "place_id": "ChIJp1B04i8FdkgR-S3OnrzZb8M", "types": ["point_of_interest", "establishment"]}, "ChIJj1ErnB0FdkgRyqd3CJaEkI0": {"geometry": {"location": {"lat": 51.4884413, "lng": -0.1375319}, "viewport": {"northeast": {"lat": 51.48979028029149, "lng": -0.136182919708498}, "southwest": {"lat": 51.48709231970849, "lng": -0.138880880291502}}}, "name": "Juldyz-Ay, kazakh language lessons", "place_id": "ChIJj1ErnB0FdkgRyqd3CJaEkI0", "types": ["point_of_interest", "establishment"]}, "ChIJZTVaK-IEdkgReCeJbcAczpY": {"geometry": {"location": {"lat": 51.4883469, "lng": -0.137951}, "viewport": {"northeast": {"lat": 51.4896458802915, "lng": -0.136549069708498}, "southwest": {"lat": 51.4869479197085, "lng": -0.139247030291502}}}, "name": "Paxall Pharmacy", "place_id": "ChIJZTVaK-IEdkgReCeJbcAczpY", "types": ["pharmacy", "health", "point_of_interest", "store", "establishment"], "rating": 3.6, "user_ratings_total": 15}, "ChIJU6g5K-IEdkgRkc0EKkhtOvM": {"geometry": {"location": {"lat": 51.48838300000001, "lng": -0.1379631}, "viewport": {"northeast": {"lat": 51.48965938029151, "lng": -0.136579769708498}, "southwest": {"lat": 51.48696141970851, "lng": -0.1392777302915021}}}, "name": "Gray Fulton Ltd", "place_id": "ChIJU6g5K-IEdkgRkc0EKkhtOvM", "types": ["point_of_interest", "establishment"]}, "ChIJrV6L1OMEdkgR6mGQZsqdghY": {"geometry": {"location": {"lat": 51.4883999, "lng": -0.1377324}, "viewport": {"northeast": {"lat": 51.4896867802915, "lng": -0.136355869708498}, "southwest": {"lat": 51.4869888197085, "lng": -0.139053830291502}}}, "name": "Poppy Design ltd", "place_id": "ChIJrV6L1OMEdkgR6mGQZsqdghY", "types": ["point_of_interest", "establishment"]}, "ChIJy8eNzOEEdkgRVH0IJ1ugLII": {"geometry": {"location": {"lat": 51.4911442500867, "lng": -0.1398183997881003}, "viewport": {"northeast": {"lat": 51.4924932302915, "lng": -0.138469419708498}, "southwest": {"lat": 51.4897952697085, "lng": -0.141167380291502}}}, "name": "31 Belgrave Rd", "place_id": "ChIJy8eNzOEEdkgRVH0IJ1ugLII", "types": ["route"]}, "ChIJW-zrseEEdkgRUrNWa6ny1Tw": {"geometry": {"location": {"lat": 51.49087170000001, "lng": -0.138789}, "viewport": {"northeast": {"lat": 51.49215883029149, "lng": -0.1375311197084979}, "southwest": {"lat": 51.48946086970849, "lng": -0.140229080291502}}}, "name": "Lidos Hotel", "place_id": "ChIJW-zrseEEdkgRUrNWa6ny1Tw", "types": ["lodging", "point_of_interest", "establishment"], "rating": 3.9, "user_ratings_total": 359}, "ChIJg7VNseEEdkgRlVQOcZaNB50": {"geometry": {"location": {"lat": 51.4909392, "lng": -0.1389268}, "viewport": {"northeast": {"lat": 51.4922284302915, "lng": -0.137677769708498}, "southwest": {"lat": 51.48953046970851, "lng": -0.140375730291502}}}, "name": "Comfort Inn London - Westminster", "place_id": "ChIJg7VNseEEdkgRlVQOcZaNB50", "types": ["lodging", "point_of_interest", "establishment"], "rating": 3.2, "user_ratings_total": 503}, "ChIJ6b0RS-AEdkgRNH53w1dDO38": {"geometry": {"location": {"lat": 51.491347, "lng": -0.139192}, "viewport": {"northeast": {"lat": 51.4926729302915, "lng": -0.137762019708498}, "southwest": {"lat": 51.4899749697085, "lng": -0.140459980291502}}}, "name": "Constitution", "place_id": "ChIJ6b0RS-AEdkgRNH53w1dDO38", "types": ["bar", "point_of_interest", "establishment"], "rating": 4.3, "user_ratings_total": 437}, "ChIJ89djS-AEdkgRtWnPTYubRvU": {"geometry": {"location": {"lat": 51.4914062, "lng": -0.1391251}, "viewport": {"northeast": {"lat": 51.4927345302915, "lng": -0.137704969708498}, "southwest": {"lat": 51.49003656970851, "lng": -0.140402930291502}}}, "name": "Grays of Westminster", "place_id": "ChIJ89djS-AEdkgRtWnPTYubRvU", "types": ["electronics_store", "home_goods_store", "point_of_interest", "store", "establishment"], "rating": 4.7, "user_ratings_total": 162}, "ChIJ_SKgtOEEdkgRjevuIPd525k": {"geometry": {"location": {"lat": 51.4911782, "lng": -0.138975}, "viewport": {"northeast": {"lat": 51.4925282302915, "lng": -0.137693069708498}, "southwest": {"lat": 51.4898302697085, "lng": -0.140391030291502}}}, "name": "Grumbles", "place_id": "ChIJ_SKgtOEEdkgRjevuIPd525k", "types": ["bar", "restaurant", "food", "point_of_interest", "establishment"], "rating": 4.4, "user_ratings_total": 440}, "ChIJx-mvtuEEdkgRgFEd-4SE5ug": {"geometry": {"location": {"lat": 51.4909574, "lng": -0.1391419}, "viewport": {"northeast": {"lat": 51.4923063802915, "lng": -0.137792919708498}, "southwest": {"lat": 51.4896084197085, "lng": -0.140490880291502}}}, "name": "O'Sole Mio", "place_id": "ChIJx-mvtuEEdkgRgFEd-4SE5ug", "types": ["restaurant", "food", "point_of_interest", "establishment"], "rating": 4.4, "user_ratings_total": 703}, "ChIJz815NuAEdkgRA9yk6-Aa7og": {"geometry": {"location": {"lat": 51.491576, "lng": -0.1395579}, "viewport": {"northeast": {"lat": 51.4929249802915, "lng": -0.138208919708498}, "southwest": {"lat": 51.4902270197085, "lng": -0.1409068802915021}}}, "name": "Yum Yum (Pimlico)", "place_id": "ChIJz815NuAEdkgRA9yk6-Aa7og", "types": ["meal_delivery", "meal_takeaway", "restaurant", "food", "point_of_interest", "establishment"], "rating": 2.5, "user_ratings_total": 202}, "ChIJMdaGf94EdkgRizn6x95udNM": {"geometry": {"location": {"lat": 51.49121, "lng": -0.1394350000000001}, "viewport": {"northeast": {"lat": 51.4925589802915, "lng": -0.1380860197084981}, "southwest": {"lat": 51.4898610197085, "lng": -0.1407839802915021}}}, "name": "Dexters", "place_id": "ChIJMdaGf94EdkgRizn6x95udNM", "types": ["finance", "real_estate_agency", "point_of_interest", "establishment"], "rating": 4.9, "user_ratings_total": 51}, "ChIJL1V3teEEdkgRIQz8Ru6pX8w": {"geometry": {"location": {"lat": 51.4911488, "lng": -0.1393944}, "viewport": {"northeast": {"lat": 51.4924680302915, "lng": -0.137940919708498}, "southwest": {"lat": 51.48977006970851, "lng": -0.140638880291502}}}, "name": "Dexters Pimlico Estate Agents", "place_id": "ChIJL1V3teEEdkgRIQz8Ru6pX8w", "types": ["finance", "real_estate_agency", "point_of_interest", "establishment"], "rating": 4.9, "user_ratings_total": 178}, "ChIJMWC8yuEEdkgRBCzHh3njDME": {"geometry": {"location": {"lat": 51.4912091, "lng": -0.1394351}, "viewport": {"northeast": {"lat": 51.4925595802915, "lng": -0.138165569708498}, "southwest": {"lat": 51.4898616197085, "lng": -0.140863530291502}}}, "name": "Westminster Carpets", "place_id": "ChIJMWC8yuEEdkgRBCzHh3njDME", "types": ["home_goods_store", "point_of_interest", "store", "establishment"]}, "ChIJWRvAtOEEdkgRcLHx71X25Lc": {"geometry": {"location": {"lat": 51.4911949, "lng": -0.139105}, "viewport": {"northeast": {"lat": 51.4925314802915, "lng": -0.137712319708498}, "southwest": {"lat": 51.4898335197085, "lng": -0.140410280291502}}}, "name": "Gold Plating Services", "place_id": "ChIJWRvAtOEEdkgRcLHx71X25Lc", "types": ["jewelry_store", "point_of_interest", "store", "establishment"], "rating": 4.6, "user_ratings_total": 11}, "ChIJWeBmyeEEdkgRATeYvStm3dI": {"geometry": {"location": {"lat": 51.4909205, "lng": -0.1396394}, "viewport": {"northeast": {"lat": 51.4923138302915, "lng": -0.138236719708498}, "southwest": {"lat": 51.4896158697085, "lng": -0.140934680291502}}}, "name": "ZweRo Ltd", "place_id": "ChIJWeBmyeEEdkgRATeYvStm3dI", "types": ["point_of_interest", "establishment"]}, "ChIJFVWEtOEEdkgR2rLASJDUPR4": {"geometry": {"location": {"lat": 51.49111049999999, "lng": -0.1389574}, "viewport": {"northeast": {"lat": 51.49248448029149, "lng": -0.137696219708498}, "southwest": {"lat": 51.4897865197085, "lng": -0.140394180291502}}}, "name": "Stealth Defence", "place_id": "ChIJFVWEtOEEdkgR2rLASJDUPR4", "types": ["point_of_interest", "establishment"]}, "ChIJFVWEtOEEdkgRzwhxl1EuY1A": {"geometry": {"location": {"lat": 51.4911528, "lng": -0.1389272}, "viewport": {"northeast": {"lat": 51.4925266802915, "lng": -0.137665669708498}, "southwest": {"lat": 51.4898287197085, "lng": -0.140363630291502}}}, "name": "B L Pattern & Foundry", "place_id": "ChIJFVWEtOEEdkgRzwhxl1EuY1A", "types": ["point_of_interest", "establishment"]}, "ChIJt3NKs-EEdkgRlbeXS_KmZCE": {"geometry": {"location": {"lat": 51.4912032, "lng": -0.1388897}, "viewport": {"northeast": {"lat": 51.4925771302915, "lng": -0.137628369708498}, "southwest": {"lat": 51.4898791697085, "lng": -0.140326330291502}}}, "name": "Pimlico Dozen Ltd", "place_id": "ChIJt3NKs-EEdkgRlbeXS_KmZCE", "types": ["point_of_interest", "establishment"], "rating": 5, "user_ratings_total": 1}, "ChIJ80_eMuAEdkgRdu6sIoFC6Zs": {"geometry": {"location": {"lat": 51.4913494, "lng": -0.1399434}, "viewport": {"northeast": {"lat": 51.4926510302915, "lng": -0.138655769708498}, "southwest": {"lat": 51.48995306970851, "lng": -0.141353730291502}}}, "name": "D&G Investment Management Limited", "place_id": "ChIJ80_eMuAEdkgRdu6sIoFC6Zs", "types": ["finance", "point_of_interest", "establishment"]}, "ChIJ_YJ3S-AEdkgRx9YR2Jo00mg": {"geometry": {"location": {"lat": 51.49143309999999, "lng": -0.1390691}, "viewport": {"northeast": {"lat": 51.4927656802915, "lng": -0.137663719708498}, "southwest": {"lat": 51.4900677197085, "lng": -0.140361680291502}}}, "name": "Property IS Consulting", "place_id": "ChIJ_YJ3S-AEdkgRx9YR2Jo00mg", "types": ["point_of_interest", "establishment"]}, "ChIJ7RYYSuAEdkgRGEVVBUUdV-Y": {"geometry": {"location": {"lat": 51.4915664, "lng": -0.1392922}, "viewport": {"northeast": {"lat": 51.4929716802915, "lng": -0.137896519708498}, "southwest": {"lat": 51.4902737197085, "lng": -0.140594480291502}}}, "name": "Triggerfish Communications Ltd", "place_id": "ChIJ7RYYSuAEdkgRGEVVBUUdV-Y", "types": ["point_of_interest", "establishment"]}, "ChIJ8UDwtOEEdkgRYuh1cBxDWPs": {"geometry": {"location": {"lat": 51.4915082, "lng": -0.1390414}, "viewport": {"northeast": {"lat": 51.4928373802915, "lng": -0.1376242697084979}, "southwest": {"lat": 51.4901394197085, "lng": -0.140322230291502}}}, "name": "Goldgenie", "place_id": "ChIJ8UDwtOEEdkgRYuh1cBxDWPs", "types": ["point_of_interest", "store", "establishment"]}, "ChIJL8_CTOAEdkgRBetnQFdOWw8": {"geometry": {"location": {"lat": 51.4913767, "lng": -0.1388015}, "viewport": {"northeast": {"lat": 51.49274623029151, "lng": -0.137523369708498}, "southwest": {"lat": 51.49004826970851, "lng": -0.140221330291502}}}, "name": "The Roasting", "place_id": "ChIJL8_CTOAEdkgRBetnQFdOWw8", "types": ["cafe", "food", "point_of_interest", "store", "establishment"], "rating": 4.5, "user_ratings_total": 342}, "ChIJf1SCNuAEdkgRYtV0Nmpx6ig": {"geometry": {"location": {"lat": 51.4916131, "lng": -0.1395962}, "viewport": {"northeast": {"lat": 51.49296208029151, "lng": -0.138247219708498}, "southwest": {"lat": 51.49026411970851, "lng": -0.140945180291502}}}, "name": "Linkfx Coe Solutions", "place_id": "ChIJf1SCNuAEdkgRYtV0Nmpx6ig", "types": ["finance", "point_of_interest", "establishment"]}, "ChIJQauFtOEEdkgR3_ay2JzQsdI": {"geometry": {"location": {"lat": 51.49111049999999, "lng": -0.1389574}, "viewport": {"northeast": {"lat": 51.49248593029149, "lng": -0.137695169708498}, "southwest": {"lat": 51.48978796970849, "lng": -0.140393130291502}}}, "name": "Levy B & Co (Patterns) Ltd", "place_id": "ChIJQauFtOEEdkgR3_ay2JzQsdI", "types": ["general_contractor", "point_of_interest", "establishment"]}, "ChIJ2dVASuAEdkgRzI3zh6ylkoU": {"geometry": {"location": {"lat": 51.4912753, "lng": -0.1392719}, "viewport": {"northeast": {"lat": 51.4925979802915, "lng": -0.137830619708498}, "southwest": {"lat": 51.4899000197085, "lng": -0.140528580291502}}}, "name": "Warwick Electrical Wholesalers Ltd", "place_id": "ChIJ2dVASuAEdkgRzI3zh6ylkoU", "types": ["point_of_interest", "establishment"], "rating": 4.6, "user_ratings_total": 5}, "ChIJW840NOAEdkgRBQpGc-qgU9w": {"geometry": {"location": {"lat": 51.49152119999999, "lng": -0.1395637}, "viewport": {"northeast": {"lat": 51.4928701802915, "lng": -0.138214719708498}, "southwest": {"lat": 51.4901722197085, "lng": -0.140912680291502}}}, "name": "Volpe", "place_id": "ChIJW840NOAEdkgRBQpGc-qgU9w", "types": ["point_of_interest", "establishment"], "rating": 5, "user_ratings_total": 6}, "ChIJj6V9teEEdkgRgCO0AdCBmoc": {"geometry": {"location": {"lat": 51.4911402, "lng": -0.1393687}, "viewport": {"northeast": {"lat": 51.49246318029149, "lng": -0.137928419708498}, "southwest": {"lat": 51.4897652197085, "lng": -0.140626380291502}}}, "name": "DIAMOND INTERNATIONAL OVERSEAS LTD", "place_id": "ChIJj6V9teEEdkgRgCO0AdCBmoc", "types": ["point_of_interest", "establishment"]}, "ChIJx6SWyuEEdkgRQ0uQflkXLbI": {"geometry": {"location": {"lat": 51.491206, "lng": -0.1394232}, "viewport": {"northeast": {"lat": 51.4924759302915, "lng": -0.138169869708498}, "southwest": {"lat": 51.48977796970851, "lng": -0.140867830291502}}}, "name": "Denbigh Food & Wine", "place_id": "ChIJx6SWyuEEdkgRQ0uQflkXLbI", "types": ["convenience_store", "food", "point_of_interest", "store", "establishment"], "rating": 3, "user_ratings_total": 2}, "ChIJn7tGteEEdkgRtn_7EYJVTxo": {"geometry": {"location": {"lat": 51.4912174, "lng": -0.139305}, "viewport": {"northeast": {"lat": 51.4925412302915, "lng": -0.137867619708498}, "southwest": {"lat": 51.4898432697085, "lng": -0.140565580291502}}}, "name": "Cacio&Pepe", "place_id": "ChIJn7tGteEEdkgRtn_7EYJVTxo", "types": ["restaurant", "food", "point_of_interest", "establishment"], "rating": 4.4, "user_ratings_total": 298}, "ChIJI10ntOEEdkgRFe9eEK-xUWA": {"geometry": {"location": {"lat": 51.4910107, "lng": -0.1390725}, "viewport": {"northeast": {"lat": 51.4922900802915, "lng": -0.1378052197084979}, "southwest": {"lat": 51.4895921197085, "lng": -0.140503180291502}}}, "name": "Villa Medici", "place_id": "ChIJI10ntOEEdkgRFe9eEK-xUWA", "types": ["restaurant", "food", "point_of_interest", "establishment"], "rating": 4.4, "user_ratings_total": 5}, "ChIJAd_n9ooFdkgRutsnoRUiv9E": {"geometry": {"location": {"lat": 51.4911093, "lng": -0.1390132}, "viewport": {"northeast": {"lat": 51.4924768302915, "lng": -0.137729319708498}, "southwest": {"lat": 51.4897788697085, "lng": -0.140427280291502}}}, "name": "Beauty Therapy By Carla", "place_id": "ChIJAd_n9ooFdkgRutsnoRUiv9E", "types": ["health", "point_of_interest", "establishment"], "rating": 5, "user_ratings_total": 10}, "ChIJrwILX6UFdkgRUhT_XYN3ZcQ": {"geometry": {"location": {"lat": 51.49109439999999, "lng": -0.1389609}, "viewport": {"northeast": {"lat": 51.4924693802915, "lng": -0.137703169708498}, "southwest": {"lat": 51.4897714197085, "lng": -0.140401130291502}}}, "name": "Petite Nail Bar", "place_id": "ChIJrwILX6UFdkgRUhT_XYN3ZcQ", "types": ["beauty_salon", "point_of_interest", "establishment"], "rating": 4.8, "user_ratings_total": 110}, "ChIJt3NKs-EEdkgRgNOYH6ioJnA": {"geometry": {"location": {"lat": 51.49119289999999, "lng": -0.1389333}, "viewport": {"northeast": {"lat": 51.4925625802915, "lng": -0.137657069708498}, "southwest": {"lat": 51.4898646197085, "lng": -0.140355030291502}}}, "name": "Vintage Cellars", "place_id": "ChIJt3NKs-EEdkgRgNOYH6ioJnA", "types": ["food", "point_of_interest", "establishment"], "rating": 5, "user_ratings_total": 6}, "ChIJaV8BS-AEdkgRuj0_sz22Mzk": {"geometry": {"location": {"lat": 51.49141950000001, "lng": -0.1391766}, "viewport": {"northeast": {"lat": 51.4927404802915, "lng": -0.137731219708498}, "southwest": {"lat": 51.4900425197085, "lng": -0.140429180291502}}}, "name": "Nine Stars Limited", "place_id": "ChIJaV8BS-AEdkgRuj0_sz22Mzk", "types": ["point_of_interest", "establishment"]}, "ChIJAWwVOzQFdkgRCWBTVxO3sLc": {"geometry": {"location": {"lat": 51.4909372, "lng": -0.1389744}, "viewport": {"northeast": {"lat": 51.49222628029151, "lng": -0.137696769708498}, "southwest": {"lat": 51.48952831970851, "lng": -0.140394730291502}}}, "name": "Komfort Inn", "place_id": "ChIJAWwVOzQFdkgRCWBTVxO3sLc", "types": ["lodging", "point_of_interest", "establishment"]}, "ChIJC47GdUMFdkgRIa3z2HZgylo": {"geometry": {"location": {"lat": 51.49135649999999, "lng": -0.1389891}, "viewport": {"northeast": {"lat": 51.4927054802915, "lng": -0.137640119708498}, "southwest": {"lat": 51.4900075197085, "lng": -0.140338080291502}}}, "name": "JTF Comedy Club", "place_id": "ChIJC47GdUMFdkgRIa3z2HZgylo", "types": ["point_of_interest", "establishment"]}, "ChIJM3tKB1MFdkgRJTJz7vySIfQ": {"geometry": {"location": {"lat": 51.4913213, "lng": -0.138923}, "viewport": {"northeast": {"lat": 51.4926974802915, "lng": -0.137540719708498}, "southwest": {"lat": 51.4899995197085, "lng": -0.140238680291502}}}, "name": "WUS Charlwood Place", "place_id": "ChIJM3tKB1MFdkgRJTJz7vySIfQ", "types": ["school", "point_of_interest", "establishment"]}, "ChIJ31S_5KoHdkgRRQ1-J7ma_f0": {"geometry": {"location": {"lat": 51.4912582, "lng": -0.1401193}, "viewport": {"northeast": {"lat": 51.49259668029149, "lng": -0.138783869708498}, "southwest": {"lat": 51.4898987197085, "lng": -0.141481830291502}}}, "name": "QELECTRIC LTD", "place_id": "ChIJ31S_5KoHdkgRRQ1-J7ma_f0", "types": ["electrician", "point_of_interest", "establishment"], "rating": 5, "user_ratings_total": 29}, "ChIJPzQXTOAEdkgR2LvMvGjhjeQ": {"geometry": {"location": {"lat": 51.4915038, "lng": -0.13906}, "viewport": {"northeast": {"lat": 51.4928311802915, "lng": -0.137636569708498}, "southwest": {"lat": 51.4901332197085, "lng": -0.140334530291502}}}, "name": "St George's Conservative Club", "place_id": "ChIJPzQXTOAEdkgR2LvMvGjhjeQ", "types": ["point_of_interest", "establishment"], "rating": 4.3, "user_ratings_total": 3}, "ChIJRejnnY4FdkgRLh-Tlo-OWvk": {"geometry": {"location": {"lat": 51.4915664, "lng": -0.1392922}, "viewport": {"northeast": {"lat": 51.4929716802915, "lng": -0.137896519708498}, "southwest": {"lat": 51.4902737197085, "lng": -0.140594480291502}}}, "name": "Heeran Construction Ltd", "place_id": "ChIJRejnnY4FdkgRLh-Tlo-OWvk", "types": ["general_contractor", "point_of_interest", "establishment"]}, "ChIJtyJqx3AFdkgRMFuz7SYq2zg": {"geometry": {"location": {"lat": 51.49157559999999, "lng": -0.1395575}, "viewport": {"northeast": {"lat": 51.4929148302915, "lng": -0.138279619708498}, "southwest": {"lat": 51.4902168697085, "lng": -0.140977580291502}}}, "name": "Noodle House", "place_id": "ChIJtyJqx3AFdkgRMFuz7SYq2zg", "types": ["meal_delivery", "meal_takeaway", "restaurant", "food", "point_of_interest", "establishment"], "rating": 2.1, "user_ratings_total": 9}, "ChIJB_0bnwcFdkgR1QfWRQFECiI": {"geometry": {"location": {"lat": 51.4915243, "lng": -0.1390461}, "viewport": {"northeast": {"lat": 51.49285148029151, "lng": -0.137622069708498}, "southwest": {"lat": 51.49015351970851, "lng": -0.1403200302915021}}}, "name": "Golden Butterfly", "place_id": "ChIJB_0bnwcFdkgR1QfWRQFECiI", "types": ["beauty_salon", "point_of_interest", "establishment"], "rating": 4.3, "user_ratings_total": 71}, "ChIJszH71ysddkgR43xp7GDwp_o": {"geometry": {"location": {"lat": 51.491574, "lng": -0.1398544}, "viewport": {"northeast": {"lat": 51.49293383029149, "lng": -0.138435469708498}, "southwest": {"lat": 51.4902358697085, "lng": -0.141133430291502}}}, "name": "Interior Fox Ltd.", "place_id": "ChIJszH71ysddkgR43xp7GDwp_o", "types": ["general_contractor", "point_of_interest", "establishment"], "rating": 5, "user_ratings_total": 8}, "ChIJVRmCyOEEdkgRzH9zd-qkbKc": {"geometry": {"location": {"lat": 51.4906222, "lng": -0.1395826}, "viewport": {"northeast": {"lat": 51.4919919302915, "lng": -0.138278219708498}, "southwest": {"lat": 51.4892939697085, "lng": -0.140976180291502}}}, "name": "Golden Quill Literary Agency", "place_id": "ChIJVRmCyOEEdkgRzH9zd-qkbKc", "types": ["book_store", "point_of_interest", "store", "establishment"]}, "ChIJbV4PTeAEdkgRH5ybJ_tJGhM": {"geometry": {"location": {"lat": 51.4914181, "lng": -0.1387342}, "viewport": {"northeast": {"lat": 51.49279198029149, "lng": -0.137470969708498}, "southwest": {"lat": 51.4900940197085, "lng": -0.140168930291502}}}, "name": "Herb Clinic", "place_id": "ChIJbV4PTeAEdkgRH5ybJ_tJGhM", "types": ["beauty_salon", "spa", "health", "point_of_interest", "establishment"], "rating": 4.6, "user_ratings_total": 18}, "ChIJb9mJveEEdkgRgp_eRI9EmPY": {"geometry": {"location": {"lat": 51.48992534708079, "lng": -0.1388424279896616}, "viewport": {"northeast": {"lat": 51.4912967302915, "lng": -0.137515319708498}, "southwest": {"lat": 51.4885987697085, "lng": -0.140213280291502}}}, "name": "44-50 Charlwood St", "place_id": "ChIJb9mJveEEdkgRgp_eRI9EmPY", "types": ["route"]}, "ChIJC7v6vOEEdkgRMzUB4sDDpCI": {"geometry": {"location": {"lat": 51.4901947, "lng": -0.1387737000000001}, "viewport": {"northeast": {"lat": 51.4915109802915, "lng": -0.137344819708498}, "southwest": {"lat": 51.4888130197085, "lng": -0.1400427802915021}}}, "name": "The Melita, London", "place_id": "ChIJC7v6vOEEdkgRMzUB4sDDpCI", "types": ["lodging", "point_of_interest", "establishment"], "rating": 3.8, "user_ratings_total": 127}, "ChIJq7zowOEEdkgRd1RPg11Kc9Y": {"geometry": {"location": {"lat": 51.4902181, "lng": -0.1395677}, "viewport": {"northeast": {"lat": 51.4915161302915, "lng": -0.138136669708498}, "southwest": {"lat": 51.48881816970851, "lng": -0.140834630291502}}}, "name": "Area16 Marketing", "place_id": "ChIJq7zowOEEdkgRd1RPg11Kc9Y", "types": ["point_of_interest", "establishment"]}, "ChIJOwGs7uEEdkgR501TvMBxIb0": {"geometry": {"location": {"lat": 51.49000640000001, "lng": -0.1394048}, "viewport": {"northeast": {"lat": 51.4913778302915, "lng": -0.138101869708498}, "southwest": {"lat": 51.48867986970851, "lng": -0.140799830291502}}}, "name": "Shel-fit", "place_id": "ChIJOwGs7uEEdkgR501TvMBxIb0", "types": ["painter", "point_of_interest", "establishment"]}, "ChIJ7f__v-EEdkgRNYawPKYPAQk": {"geometry": {"location": {"lat": 51.4900422, "lng": -0.1391993}, "viewport": {"northeast": {"lat": 51.4913938802915, "lng": -0.137833719708498}, "southwest": {"lat": 51.4886959197085, "lng": -0.140531680291502}}}, "name": "Egypt Day tours", "place_id": "ChIJ7f__v-EEdkgRNYawPKYPAQk", "types": ["travel_agency", "point_of_interest", "establishment"], "rating": 5, "user_ratings_total": 2}, "ChIJk-UileEEdkgRoNwcYXorVVc": {"geometry": {"location": {"lat": 51.48983190000001, "lng": -0.1392876}, "viewport": {"northeast": {"lat": 51.4912282302915, "lng": -0.137827069708498}, "southwest": {"lat": 51.48853026970851, "lng": -0.140525030291502}}}, "name": "Ebuk Limited", "place_id": "ChIJk-UileEEdkgRoNwcYXorVVc", "types": ["point_of_interest", "establishment"]}, "ChIJxQHPRmgFdkgRgAn2MUwX4uE": {"geometry": {"location": {"lat": 51.4898292, "lng": -0.139642}, "viewport": {"northeast": {"lat": 51.4911947802915, "lng": -0.138331869708498}, "southwest": {"lat": 51.4884968197085, "lng": -0.141029830291502}}}, "name": "S", "place_id": "ChIJxQHPRmgFdkgRgAn2MUwX4uE", "types": ["finance", "point_of_interest", "establishment"]}, "ChIJqxHHvuEEdkgRlf_wDoTng8s": {"geometry": {"location": {"lat": 51.490236, "lng": -0.139105}, "viewport": {"northeast": {"lat": 51.49157828029149, "lng": -0.137804669708498}, "southwest": {"lat": 51.48888031970849, "lng": -0.140502630291502}}}, "name": "ubitricity Charging Station", "place_id": "ChIJqxHHvuEEdkgRlf_wDoTng8s", "types": ["point_of_interest", "establishment"]}, "ChIJiav1uOEEdkgRJ7nhgSdCFaU": {"geometry": {"location": {"lat": 51.4904642, "lng": -0.1393651}, "viewport": {"northeast": {"lat": 51.4918188802915, "lng": -0.137982469708498}, "southwest": {"lat": 51.4891209197085, "lng": -0.140680430291502}}}, "name": "ubitricity Charging Station", "place_id": "ChIJiav1uOEEdkgRJ7nhgSdCFaU", "types": ["point_of_interest", "establishment"]}, "ChIJ6XVEKLwFdkgRWTWctkx3xJ0": {"geometry": {"location": {"lat": 51.4899381, "lng": -0.1388249}, "viewport": {"northeast": {"lat": 51.4912677302915, "lng": -0.137435969708498}, "southwest": {"lat": 51.4885697697085, "lng": -0.140133930291502}}}, "name": "Alpha Plumbing Services", "place_id": "ChIJ6XVEKLwFdkgRWTWctkx3xJ0", "types": ["plumber", "point_of_interest", "establishment"]}, "ChIJn6SFxOEEdkgRooB554pHqfY": {"geometry": {"location": {"lat": 51.49032109999999, "lng": -0.1399497}, "viewport": {"northeast": {"lat": 51.4916903302915, "lng": -0.138643969708498}, "southwest": {"lat": 51.4889923697085, "lng": -0.141341930291502}}}, "name": "OYO Gloucester St. Studios", "place_id": "ChIJn6SFxOEEdkgRooB554pHqfY", "types": ["lodging", "point_of_interest", "establishment"], "rating": 3.7, "user_ratings_total": 15}, "ChIJLxKql-EEdkgRRqc5p2-U6ik": {"geometry": {"location": {"lat": 51.4898013, "lng": -0.138801}, "viewport": {"northeast": {"lat": 51.4911973802915, "lng": -0.137516119708498}, "southwest": {"lat": 51.4884994197085, "lng": -0.140214080291502}}}, "name": "Lejligheden i London", "place_id": "ChIJLxKql-EEdkgRRqc5p2-U6ik", "types": ["lodging", "point_of_interest", "establishment"], "rating": 5, "user_ratings_total": 1}, "ChIJ-QnmjDAFdkgRG_tBruGRV5g": {"geometry": {"location": {"lat": 51.4902733, "lng": -0.1401387}, "viewport": {"northeast": {"lat": 51.4916418802915, "lng": -0.138831519708498}, "southwest": {"lat": 51.4889439197085, "lng": -0.1415294802915021}}}, "name": "Crptogold Investment", "place_id": "ChIJ-QnmjDAFdkgRG_tBruGRV5g", "types": ["finance", "point_of_interest", "establishment"], "rating": 5, "user_ratings_total": 2}, "ChIJe6B93eEEdkgR0swz4y1vkgA": {"geometry": {"location": {"lat": 51.4899663, "lng": -0.1402552}, "viewport": {"northeast": {"lat": 51.49135383029149, "lng": -0.1389888197084979}, "southwest": {"lat": 51.4886558697085, "lng": -0.141686780291502}}}, "name": "Zenith Partners Limited", "place_id": "ChIJe6B93eEEdkgR0swz4y1vkgA", "types": ["point_of_interest", "establishment"]}, "ChIJXxfPWiUEdkgRFiWc9rYOECs": {"geometry": {"location": {"lat": 51.4899663, "lng": -0.1402552}, "viewport": {"northeast": {"lat": 51.4913537802915, "lng": -0.138988769708498}, "southwest": {"lat": 51.4886558197085, "lng": -0.141686730291502}}}, "name": "TOTTENHAM & CO", "place_id": "ChIJXxfPWiUEdkgRFiWc9rYOECs", "types": ["point_of_interest", "establishment"]}, "ChIJVVWA5-EEdkgRBu-KGlYTK5M": {"geometry": {"location": {"lat": 51.4899504, "lng": -0.140278}, "viewport": {"northeast": {"lat": 51.49133738029149, "lng": -0.139010469708498}, "southwest": {"lat": 51.48863941970849, "lng": -0.141708430291502}}}, "name": "Antler Capital Partners Llp", "place_id": "ChIJVVWA5-EEdkgRBu-KGlYTK5M", "types": ["point_of_interest", "establishment"]}, "ChIJv2NpkeEEdkgRCC37oeGQNGA": {"geometry": {"location": {"lat": 51.4896451, "lng": -0.1389091}, "viewport": {"northeast": {"lat": 51.49096953029151, "lng": -0.137592869708498}, "southwest": {"lat": 51.48827156970851, "lng": -0.140290830291502}}}, "name": "ubitricity Charging Station", "place_id": "ChIJv2NpkeEEdkgRCC37oeGQNGA", "types": ["point_of_interest", "establishment"]}, "ChIJ60OeiuEEdkgRLGpEcsGM2uA": {"geometry": {"location": {"lat": 51.48866578435486, "lng": -0.1392491894360779}, "viewport": {"northeast": {"lat": 51.4900144802915, "lng": -0.137900369708498}, "southwest": {"lat": 51.4873165197085, "lng": -0.140598330291502}}}, "name": "129-99 St George's Dr", "place_id": "ChIJ60OeiuEEdkgRLGpEcsGM2uA", "types": ["route"]}, "ChIJjaSE9eEEdkgR-b2VthQEfJE": {"geometry": {"location": {"lat": 51.4885476, "lng": -0.1393448}, "viewport": {"northeast": {"lat": 51.48994883029149, "lng": -0.137933319708498}, "southwest": {"lat": 51.4872508697085, "lng": -0.140631280291502}}}, "name": "OYO St George Hotel", "place_id": "ChIJjaSE9eEEdkgR-b2VthQEfJE", "types": ["lodging", "point_of_interest", "establishment"], "rating": 3.5, "user_ratings_total": 361}, "ChIJ0WmZ8-EEdkgRtIinyT6fzLw": {"geometry": {"location": {"lat": 51.4890412, "lng": -0.1395791}, "viewport": {"northeast": {"lat": 51.4904205302915, "lng": -0.138299569708498}, "southwest": {"lat": 51.4877225697085, "lng": -0.140997530291502}}}, "name": "Wolfson Energy Limited", "place_id": "ChIJ0WmZ8-EEdkgRtIinyT6fzLw", "types": ["point_of_interest", "establishment"]}, "ChIJ_SxtRCIFdkgR1vZjCIkDUxA": {"geometry": {"location": {"lat": 51.48896, "lng": -0.13989}, "viewport": {"northeast": {"lat": 51.4902887802915, "lng": -0.138568019708498}, "southwest": {"lat": 51.4875908197085, "lng": -0.141265980291502}}}, "name": "ARF Private Investigator Pimlico", "place_id": "ChIJ_SxtRCIFdkgR1vZjCIkDUxA", "types": ["point_of_interest", "establishment"]}, "ChIJA919zqsFdkgRvawtjLfNWkA": {"geometry": {"location": {"lat": 51.4886262, "lng": -0.1393943}, "viewport": {"northeast": {"lat": 51.49000953029149, "lng": -0.138004219708498}, "southwest": {"lat": 51.4873115697085, "lng": -0.140702180291502}}}, "name": "Childminder for early year", "place_id": "ChIJA919zqsFdkgRvawtjLfNWkA", "types": ["point_of_interest", "establishment"]}, "ChIJG4TGjuEEdkgRtKL45qgDpXE": {"geometry": {"location": {"lat": 51.4890298, "lng": -0.1388862}, "viewport": {"northeast": {"lat": 51.4903910802915, "lng": -0.137457919708498}, "southwest": {"lat": 51.4876931197085, "lng": -0.1401558802915021}}}, "name": "ZEITBTC", "place_id": "ChIJG4TGjuEEdkgRtKL45qgDpXE", "types": ["point_of_interest", "establishment"]}, "ChIJvd0SBJAFdkgRmScL5_vhZ7E": {"geometry": {"location": {"lat": 51.4889986, "lng": -0.1401221}, "viewport": {"northeast": {"lat": 51.4903731802915, "lng": -0.138742119708498}, "southwest": {"lat": 51.4876752197085, "lng": -0.141440080291502}}}, "name": "Green Cab Shelter", "place_id": "ChIJvd0SBJAFdkgRmScL5_vhZ7E", "types": ["point_of_interest", "establishment"]}, "ChIJ4RMX7eEEdkgRXmK_Nf7kZsQ": {"geometry": {"location": {"lat": 51.4894216, "lng": -0.1394758}, "viewport": {"northeast": {"lat": 51.4907573302915, "lng": -0.138095119708498}, "southwest": {"lat": 51.4880593697085, "lng": -0.140793080291502}}}, "name": "Milestone Installation Ltd", "place_id": "ChIJ4RMX7eEEdkgRXmK_Nf7kZsQ", "types": ["point_of_interest", "establishment"]}, "ChIJmaMf-uEEdkgRiq5B0L_1SlQ": {"geometry": {"location": {"lat": 51.488984, "lng": -0.1401859}, "viewport": {"northeast": {"lat": 51.49037278029149, "lng": -0.138788719708498}, "southwest": {"lat": 51.4876748197085, "lng": -0.141486680291502}}}, "name": "Martin Mrzena", "place_id": "ChIJmaMf-uEEdkgRiq5B0L_1SlQ", "types": ["health", "point_of_interest", "establishment"]}, "ChIJg4M6-uEEdkgRnKNP79Rl88M": {"geometry": {"location": {"lat": 51.4890249, "lng": -0.1402376}, "viewport": {"northeast": {"lat": 51.49040838029151, "lng": -0.138846819708498}, "southwest": {"lat": 51.48771041970851, "lng": -0.141544780291502}}}, "name": "Pimlico Advisory Ltd", "place_id": "ChIJg4M6-uEEdkgRnKNP79Rl88M", "types": ["point_of_interest", "establishment"]}, "ChIJ-2l5JOIEdkgRGUX-cInf6PA": {"geometry": {"location": {"lat": 51.48833800000001, "lng": -0.1389815}, "viewport": {"northeast": {"lat": 51.4897513802915, "lng": -0.137553919708498}, "southwest": {"lat": 51.48705341970851, "lng": -0.140251880291502}}}, "name": "Mayfair Aesthetics Laser & Skin Clinic - Pimlico", "place_id": "ChIJ-2l5JOIEdkgRGUX-cInf6PA", "types": ["beauty_salon", "hair_care", "health", "point_of_interest", "establishment"], "rating": 4.8, "user_ratings_total": 25}, "ChIJo4uLLOAEdkgRHMee_65KFjw": {"geometry": {"location": {"lat": 51.49141875017212, "lng": -0.1404049995809541}, "viewport": {"northeast": {"lat": 51.49276773029149, "lng": -0.139056019708498}, "southwest": {"lat": 51.49006976970849, "lng": -0.141753980291502}}}, "name": "52 Belgrave Rd", "place_id": "ChIJo4uLLOAEdkgRHMee_65KFjw", "types": ["route"]}, "ChIJuZIdzh8FdkgR0D7ObAPz_Qw": {"geometry": {"location": {"lat": 51.4916126, "lng": -0.1415696}, "viewport": {"northeast": {"lat": 51.49301903029149, "lng": -0.140251169708498}, "southwest": {"lat": 51.4903210697085, "lng": -0.142949130291502}}}, "name": "Best Western Victoria Palace", "place_id": "ChIJuZIdzh8FdkgR0D7ObAPz_Qw", "types": ["lodging", "point_of_interest", "establishment"], "rating": 3.8, "user_ratings_total": 674}, "ChIJJeM-Lx4FdkgRUrmGYz_0Wfw": {"geometry": {"location": {"lat": 51.4907808, "lng": -0.1410283}, "viewport": {"northeast": {"lat": 51.49206743029149, "lng": -0.139548469708498}, "southwest": {"lat": 51.4893694697085, "lng": -0.142246430291502}}}, "name": "Warwick Square", "place_id": "ChIJJeM-Lx4FdkgRUrmGYz_0Wfw", "types": ["park", "point_of_interest", "establishment"], "rating": 4.2, "user_ratings_total": 118}, "ChIJP_1FzR8FdkgRMRp-35IRlrM": {"geometry": {"location": {"lat": 51.4909854, "lng": -0.1417593}, "viewport": {"northeast": {"lat": 51.4922906302915, "lng": -0.140317069708498}, "southwest": {"lat": 51.4895926697085, "lng": -0.143015030291502}}}, "name": "The Rank Foundation", "place_id": "ChIJP_1FzR8FdkgRMRp-35IRlrM", "types": ["point_of_interest", "establishment"], "rating": 5, "user_ratings_total": 3}, "ChIJTdIJzR8FdkgR9oM4K6n8X8Y": {"geometry": {"location": {"lat": 51.49129109999999, "lng": -0.1419454}, "viewport": {"northeast": {"lat": 51.4926389302915, "lng": -0.140593919708498}, "southwest": {"lat": 51.4899409697085, "lng": -0.143291880291502}}}, "name": "CV+", "place_id": "ChIJTdIJzR8FdkgR9oM4K6n8X8Y", "types": ["point_of_interest", "establishment"]}, "ChIJn3dS0x8FdkgRq4lwIVa3s00": {"geometry": {"location": {"lat": 51.4912862, "lng": -0.1412597}, "viewport": {"northeast": {"lat": 51.4926116802915, "lng": -0.1398606697084979}, "southwest": {"lat": 51.4899137197085, "lng": -0.142558630291502}}}, "name": "Dunblending", "place_id": "ChIJn3dS0x8FdkgRq4lwIVa3s00", "types": ["point_of_interest", "establishment"]}, "ChIJtxO5LR4FdkgRyvKdDlzW6FM": {"geometry": {"location": {"lat": 51.491041, "lng": -0.141458}, "viewport": {"northeast": {"lat": 51.4923914302915, "lng": -0.140112219708498}, "southwest": {"lat": 51.4896934697085, "lng": -0.142810180291502}}}, "name": "ubitricity Charging Station", "place_id": "ChIJtxO5LR4FdkgRyvKdDlzW6FM", "types": ["point_of_interest", "establishment"]}, "ChIJP_1FzR8FdkgRAw2f3OZ8pbM": {"geometry": {"location": {"lat": 51.49112909999999, "lng": -0.141558}, "viewport": {"northeast": {"lat": 51.49243843029149, "lng": -0.1401245197084979}, "southwest": {"lat": 51.48974046970849, "lng": -0.142822480291502}}}, "name": "Halstead Designs International", "place_id": "ChIJP_1FzR8FdkgRAw2f3OZ8pbM", "types": ["general_contractor", "point_of_interest", "establishment"]}, "ChIJR1VMLB4FdkgRY4a4Ar2zkps": {"geometry": {"location": {"lat": 51.4913913, "lng": -0.1412598}, "viewport": {"northeast": {"lat": 51.4926977302915, "lng": -0.139820169708498}, "southwest": {"lat": 51.4899997697085, "lng": -0.142518130291502}}}, "name": "Michelet Architects", "place_id": "ChIJR1VMLB4FdkgRY4a4Ar2zkps", "types": ["point_of_interest", "establishment"]}, "ChIJt2N01R8FdkgR-OV8O7qWj88": {"geometry": {"location": {"lat": 51.49142069999999, "lng": -0.1409273}, "viewport": {"northeast": {"lat": 51.49275453029151, "lng": -0.139545919708498}, "southwest": {"lat": 51.49005656970851, "lng": -0.142243880291502}}}, "name": "Motorcycle Parking Bay", "place_id": "ChIJt2N01R8FdkgR-OV8O7qWj88", "types": ["parking", "point_of_interest", "establishment"]}, "ChIJuzUiKuAEdkgRJixyXB2Dp4Q": {"geometry": {"location": {"lat": 51.4915769, "lng": -0.1407462}, "viewport": {"northeast": {"lat": 51.4929258802915, "lng": -0.139397219708498}, "southwest": {"lat": 51.4902279197085, "lng": -0.142095180291502}}}, "name": "archangel", "place_id": "ChIJuzUiKuAEdkgRJixyXB2Dp4Q", "types": ["point_of_interest", "establishment"]}, "ChIJuzUiKuAEdkgRAIFxs0UQe5o": {"geometry": {"location": {"lat": 51.4915769, "lng": -0.1407462}, "viewport": {"northeast": {"lat": 51.4929258802915, "lng": -0.139397219708498}, "southwest": {"lat": 51.4902279197085, "lng": -0.142095180291502}}}, "name": "Walton Estates", "place_id": "ChIJuzUiKuAEdkgRAIFxs0UQe5o", "types": ["point_of_interest", "establishment"]}, "ChIJuzUiKuAEdkgRQMN02gHC3lM": {"geometry": {"location": {"lat": 51.4915769, "lng": -0.1407462}, "viewport": {"northeast": {"lat": 51.4929258802915, "lng": -0.139397219708498}, "southwest": {"lat": 51.4902279197085, "lng": -0.142095180291502}}}, "name": "Addax Petroleum Uk Ltd", "place_id": "ChIJuzUiKuAEdkgRQMN02gHC3lM", "types": ["point_of_interest", "establishment"]}, "ChIJqe8nqjMFdkgRGZ8dcjWk-1A": {"geometry": {"location": {"lat": 51.4915769, "lng": -0.1407462}, "viewport": {"northeast": {"lat": 51.4929258802915, "lng": -0.139397219708498}, "southwest": {"lat": 51.4902279197085, "lng": -0.142095180291502}}}, "name": "Normandy Memorial Trust", "place_id": "ChIJqe8nqjMFdkgRGZ8dcjWk-1A", "types": ["point_of_interest", "establishment"]}, "ChIJK_cG0uEEdkgRGwQhffRL8zQ": {"geometry": {"location": {"lat": 51.4915769, "lng": -0.1407462}, "viewport": {"northeast": {"lat": 51.4929258802915, "lng": -0.139397219708498}, "southwest": {"lat": 51.4902279197085, "lng": -0.142095180291502}}}, "name": "Eynesbury Estates Limited", "place_id": "ChIJK_cG0uEEdkgRGwQhffRL8zQ", "types": ["real_estate_agency", "point_of_interest", "establishment"]}, "ChIJiRZcyR8FdkgRtrvJcPd1P9s": {"geometry": {"location": {"lat": 51.4916176, "lng": -0.1415543}, "viewport": {"northeast": {"lat": 51.49302083029149, "lng": -0.140245869708498}, "southwest": {"lat": 51.4903228697085, "lng": -0.142943830291502}}}, "name": "Hotel en londres", "place_id": "ChIJiRZcyR8FdkgRtrvJcPd1P9s", "types": ["lodging", "point_of_interest", "establishment"], "rating": 4, "user_ratings_total": 1}, "ChIJ2_-DGR4FdkgRmPkRoVXGSKo": {"geometry": {"location": {"lat": 51.48966115039333, "lng": -0.1413551490677102}, "viewport": {"northeast": {"lat": 51.4910101302915, "lng": -0.140006169708498}, "southwest": {"lat": 51.4883121697085, "lng": -0.142704130291502}}}, "name": "42-46 St George's Dr", "place_id": "ChIJ2_-DGR4FdkgRmPkRoVXGSKo", "types": ["route"]}, "ChIJDScXJx4FdkgRDvbtTj-rAU4": {"geometry": {"location": {"lat": 51.49026780000001, "lng": -0.1409109}, "viewport": {"northeast": {"lat": 51.4916647302915, "lng": -0.139661919708498}, "southwest": {"lat": 51.4889667697085, "lng": -0.142359880291502}}}, "name": "LTD Design Consultants", "place_id": "ChIJDScXJx4FdkgRDvbtTj-rAU4", "types": ["point_of_interest", "establishment"], "rating": 5, "user_ratings_total": 1}, "ChIJDScXJx4FdkgR-h5dsuKdhuQ": {"geometry": {"location": {"lat": 51.4903397, "lng": -0.1408768}, "viewport": {"northeast": {"lat": 51.49172848029149, "lng": -0.139614269708498}, "southwest": {"lat": 51.4890305197085, "lng": -0.142312230291502}}}, "name": "Stancliffe & Glover", "place_id": "ChIJDScXJx4FdkgR-h5dsuKdhuQ", "types": ["point_of_interest", "establishment"]}, "ChIJT3Y23-EEdkgRM-EJ3LM6WEU": {"geometry": {"location": {"lat": 51.4903711, "lng": -0.1406466}, "viewport": {"northeast": {"lat": 51.4917886302915, "lng": -0.139446369708498}, "southwest": {"lat": 51.4890906697085, "lng": -0.142144330291502}}}, "name": "Aldine Honey Ltd", "place_id": "ChIJT3Y23-EEdkgRM-EJ3LM6WEU", "types": ["real_estate_agency", "point_of_interest", "establishment"]}, "ChIJ3yy928IEdkgRs9Twns6fca8": {"geometry": {"location": {"lat": 51.4901542, "lng": -0.1404256}, "viewport": {"northeast": {"lat": 51.49148248029149, "lng": -0.139032269708498}, "southwest": {"lat": 51.4887845197085, "lng": -0.141730230291502}}}, "name": "St. George Valuations", "place_id": "ChIJ3yy928IEdkgRs9Twns6fca8", "types": ["point_of_interest", "establishment"]}, "ChIJK0FdIR4FdkgR6O5AYesb5KQ": {"geometry": {"location": {"lat": 51.49014450000001, "lng": -0.1410021}, "viewport": {"northeast": {"lat": 51.4915518802915, "lng": -0.139770919708498}, "southwest": {"lat": 51.4888539197085, "lng": -0.1424688802915021}}}, "name": "Association Of Inner Wheel Clubs In Great Britain & Ireland", "place_id": "ChIJK0FdIR4FdkgR6O5AYesb5KQ", "types": ["point_of_interest", "establishment"], "rating": 4, "user_ratings_total": 2}, "ChIJZ2H7Ih4FdkgRsvuMUswwR7s": {"geometry": {"location": {"lat": 51.490102, "lng": -0.141431}, "viewport": {"northeast": {"lat": 51.4914443302915, "lng": -0.140071419708498}, "southwest": {"lat": 51.4887463697085, "lng": -0.142769380291502}}}, "name": "ubitricity Charging Station", "place_id": "ChIJZ2H7Ih4FdkgRsvuMUswwR7s", "types": ["point_of_interest", "establishment"]}, "ChIJmTw2IR4FdkgRSO8fHm86ANs": {"geometry": {"location": {"lat": 51.49026120000001, "lng": -0.1411142}, "viewport": {"northeast": {"lat": 51.4916281802915, "lng": -0.1398026197084979}, "southwest": {"lat": 51.4889302197085, "lng": -0.142500580291502}}}, "name": "Tokenspin Limited", "place_id": "ChIJmTw2IR4FdkgRSO8fHm86ANs", "types": ["point_of_interest", "establishment"]}, "ChIJgcS5AfEFdkgR6N8xKNk3KhE": {"geometry": {"location": {"lat": 51.4900037, "lng": -0.1407237}, "viewport": {"northeast": {"lat": 51.4913144802915, "lng": -0.139292819708498}, "southwest": {"lat": 51.4886165197085, "lng": -0.141990780291502}}}, "name": "Steve", "place_id": "ChIJgcS5AfEFdkgR6N8xKNk3KhE", "types": ["point_of_interest", "establishment"]}, "ChIJ200L1akFdkgR5ir3Mvi-74c": {"geometry": {"location": {"lat": 51.48980840000001, "lng": -0.1408498}, "viewport": {"northeast": {"lat": 51.49113543029151, "lng": -0.139453819708498}, "southwest": {"lat": 51.48843746970851, "lng": -0.142151780291502}}}, "name": "My Crypto Profits", "place_id": "ChIJ200L1akFdkgR5ir3Mvi-74c", "types": ["finance", "point_of_interest", "establishment"]}, "ChIJiZ_6Jh4FdkgR3nwoJt4Cv3w": {"geometry": {"location": {"lat": 51.49036779999999, "lng": -0.1409814}, "viewport": {"northeast": {"lat": 51.4917360802915, "lng": -0.139674269708498}, "southwest": {"lat": 51.4890381197085, "lng": -0.142372230291502}}}, "name": "Cmc Partnership Uk Ltd", "place_id": "ChIJiZ_6Jh4FdkgR3nwoJt4Cv3w", "types": ["point_of_interest", "establishment"]}, "ChIJZ8v6Jh4FdkgR4Gqir9rdN6Q": {"geometry": {"location": {"lat": 51.4903731, "lng": -0.1409911}, "viewport": {"northeast": {"lat": 51.4917354802915, "lng": -0.139669919708498}, "southwest": {"lat": 51.4890375197085, "lng": -0.142367880291502}}}, "name": "Chaos Fashion Styling & Consultancy", "place_id": "ChIJZ8v6Jh4FdkgR4Gqir9rdN6Q", "types": ["point_of_interest", "establishment"], "rating": 5, "user_ratings_total": 1}, "ChIJZ8v6Jh4FdkgRk_QGsjCD3ZM": {"geometry": {"location": {"lat": 51.4903731, "lng": -0.1409911}, "viewport": {"northeast": {"lat": 51.4917354802915, "lng": -0.139669919708498}, "southwest": {"lat": 51.4890375197085, "lng": -0.142367880291502}}}, "name": "The Heritage Bureau", "place_id": "ChIJZ8v6Jh4FdkgRk_QGsjCD3ZM", "types": ["point_of_interest", "establishment"]}, "ChIJ27lBJx4FdkgRLH-KNuhN-XY": {"geometry": {"location": {"lat": 51.4903644, "lng": -0.1409198}, "viewport": {"northeast": {"lat": 51.4917420302915, "lng": -0.139630569708498}, "southwest": {"lat": 51.4890440697085, "lng": -0.142328530291502}}}, "name": "Tfc Investment Management Llp", "place_id": "ChIJ27lBJx4FdkgRLH-KNuhN-XY", "types": ["finance", "point_of_interest", "establishment"]}, "ChIJsSxZ43YFdkgRdWuELG-r1kg": {"geometry": {"location": {"lat": 51.49007240000001, "lng": -0.140536}, "viewport": {"northeast": {"lat": 51.49139888029151, "lng": -0.139138819708498}, "southwest": {"lat": 51.48870091970851, "lng": -0.1418367802915021}}}, "name": "Accountant in Pimlico", "place_id": "ChIJsSxZ43YFdkgRdWuELG-r1kg", "types": ["accounting", "finance", "point_of_interest", "establishment"]}, "ChIJr7GExPoFdkgRLTJ6B_ZAWPE": {"geometry": {"location": {"lat": 51.49037939999999, "lng": -0.1407608}, "viewport": {"northeast": {"lat": 51.4917784302915, "lng": -0.139520519708498}, "southwest": {"lat": 51.4890804697085, "lng": -0.142218480291502}}}, "name": "Wema pharmaceutical", "place_id": "ChIJr7GExPoFdkgRLTJ6B_ZAWPE", "types": ["health", "point_of_interest", "establishment"]}, "ChIJtcQ83OEEdkgRowPuWjTdeZQ": {"geometry": {"location": {"lat": 51.4902375, "lng": -0.1404401}, "viewport": {"northeast": {"lat": 51.4915485302915, "lng": -0.1390101197084979}, "southwest": {"lat": 51.4888505697085, "lng": -0.141708080291502}}}, "name": "Powder Puffs", "place_id": "ChIJtcQ83OEEdkgRowPuWjTdeZQ", "types": ["point_of_interest", "establishment"]}, "ChIJsR152OEEdkgRMY7eYjReVq0": {"geometry": {"location": {"lat": 51.4904322, "lng": -0.1407281}, "viewport": {"northeast": {"lat": 51.4918267802915, "lng": -0.139478069708498}, "southwest": {"lat": 51.4891288197085, "lng": -0.142176030291502}}}, "name": "Sky Events", "place_id": "ChIJsR152OEEdkgRMY7eYjReVq0", "types": ["point_of_interest", "establishment"]}, "ChIJZzh3GB8FdkgRs0KE--ZpB5w": {"geometry": {"location": {"lat": 51.4904319, "lng": -0.1407261}, "viewport": {"northeast": {"lat": 51.49182683029149, "lng": -0.139476869708498}, "southwest": {"lat": 51.48912886970849, "lng": -0.142174830291502}}}, "name": "Mountain Leap", "place_id": "ChIJZzh3GB8FdkgRs0KE--ZpB5w", "types": ["point_of_interest", "establishment"]}, "ChIJZ1QO4eEEdkgRtlwpxP9HG9U": {"geometry": {"location": {"lat": 51.48974390000001, "lng": -0.1406202}, "viewport": {"northeast": {"lat": 51.49111688029151, "lng": -0.139322669708498}, "southwest": {"lat": 51.48841891970851, "lng": -0.142020630291502}}}, "name": "Webster House", "place_id": "ChIJZ1QO4eEEdkgRtlwpxP9HG9U", "types": ["point_of_interest", "establishment"]}, "ChIJHdIx3OEEdkgRWaNmKOStZvc": {"geometry": {"location": {"lat": 51.4901542, "lng": -0.1404256}, "viewport": {"northeast": {"lat": 51.49148248029149, "lng": -0.139032269708498}, "southwest": {"lat": 51.4887845197085, "lng": -0.141730230291502}}}, "name": "Valuemystuff", "place_id": "ChIJHdIx3OEEdkgRWaNmKOStZvc", "types": ["point_of_interest", "establishment"]}, "ChIJA9Ix3OEEdkgR62YFDsHCjO4": {"geometry": {"location": {"lat": 51.4901542, "lng": -0.1404255}, "viewport": {"northeast": {"lat": 51.49148248029149, "lng": -0.139032169708498}, "southwest": {"lat": 51.4887845197085, "lng": -0.141730130291502}}}, "name": "Christian Art Today", "place_id": "ChIJA9Ix3OEEdkgR62YFDsHCjO4", "types": ["point_of_interest", "establishment"]}, "ChIJzWjLJx4FdkgRRoVbQyzjk2s": {"geometry": {"location": {"lat": 51.4905109, "lng": -0.1408725}, "viewport": {"northeast": {"lat": 51.4918686302915, "lng": -0.139540919708498}, "southwest": {"lat": 51.4891706697085, "lng": -0.1422388802915021}}}, "name": "ubitricity Charging Station", "place_id": "ChIJzWjLJx4FdkgRRoVbQyzjk2s", "types": ["point_of_interest", "establishment"]}, "ChIJWad2Fh4FdkgR4MFqe8WbG2I": {"geometry": {"location": {"lat": 51.489856, "lng": -0.141923}, "viewport": {"northeast": {"lat": 51.4912260802915, "lng": -0.140547219708498}, "southwest": {"lat": 51.4885281197085, "lng": -0.143245180291502}}}, "name": "Santander Cycles", "place_id": "ChIJWad2Fh4FdkgR4MFqe8WbG2I", "types": ["point_of_interest", "establishment"]}, "ChIJWad2Fh4FdkgRUWaba2enY5E": {"geometry": {"location": {"lat": 51.489856, "lng": -0.141923}, "viewport": {"northeast": {"lat": 51.4912260802915, "lng": -0.140547219708498}, "southwest": {"lat": 51.4885281197085, "lng": -0.143245180291502}}}, "name": "Santander Cycles", "place_id": "ChIJWad2Fh4FdkgRUWaba2enY5E", "types": ["point_of_interest", "establishment"]}, "ChIJh_oP3OEEdkgRfkdc0NZUA34": {"geometry": {"location": {"lat": 51.4902503, "lng": -0.1404265}, "viewport": {"northeast": {"lat": 51.4915609802915, "lng": -0.138995919708498}, "southwest": {"lat": 51.4888630197085, "lng": -0.141693880291502}}}, "name": "4 Zeros", "place_id": "ChIJh_oP3OEEdkgRfkdc0NZUA34", "types": ["point_of_interest", "establishment"]}, "ChIJa6e84uEEdkgRFnYsAc8FF5Q": {"geometry": {"location": {"lat": 51.48937124988093, "lng": -0.1407568161003326}, "viewport": {"northeast": {"lat": 51.49072578029151, "lng": -0.139400819708498}, "southwest": {"lat": 51.48802781970851, "lng": -0.142098780291502}}}, "name": "83-67 St George's Dr", "place_id": "ChIJa6e84uEEdkgRFnYsAc8FF5Q", "types": ["route"]}, "ChIJfSZu_eEEdkgR5W_YVZEjJss": {"geometry": {"location": {"lat": 51.4891813, "lng": -0.1407756}, "viewport": {"northeast": {"lat": 51.49059543029149, "lng": -0.139349119708498}, "southwest": {"lat": 51.4878974697085, "lng": -0.142047080291502}}}, "name": "Stylish Apartment in Victoria", "place_id": "ChIJfSZu_eEEdkgR5W_YVZEjJss", "types": ["lodging", "point_of_interest", "establishment"], "rating": 1.5, "user_ratings_total": 8}, "ChIJ3--bBx4FdkgRG3nM081thIA": {"geometry": {"location": {"lat": 51.48870429999999, "lng": -0.1414109}, "viewport": {"northeast": {"lat": 51.4899624802915, "lng": -0.140172519708498}, "southwest": {"lat": 51.4872645197085, "lng": -0.142870480291502}}}, "name": "Invisible Midwives", "place_id": "ChIJ3--bBx4FdkgRG3nM081thIA", "types": ["health", "point_of_interest", "establishment"]}, "ChIJVSvrHNYEdkgRY06czfoHQHg": {"geometry": {"location": {"lat": 51.4892676, "lng": -0.1407704}, "viewport": {"northeast": {"lat": 51.4906530802915, "lng": -0.139377969708498}, "southwest": {"lat": 51.4879551197085, "lng": -0.142075930291502}}}, "name": "William Thuillier Fine Art", "place_id": "ChIJVSvrHNYEdkgRY06czfoHQHg", "types": ["art_gallery", "point_of_interest", "establishment"], "rating": 5, "user_ratings_total": 4}, "ChIJVxek_eEEdkgRFOiB0aWbYuE": {"geometry": {"location": {"lat": 51.48904710000001, "lng": -0.1404571}, "viewport": {"northeast": {"lat": 51.4904563802915, "lng": -0.139035119708498}, "southwest": {"lat": 51.4877584197085, "lng": -0.141733080291502}}}, "name": "Japan Neko UK office", "place_id": "ChIJVxek_eEEdkgRFOiB0aWbYuE", "types": ["point_of_interest", "establishment"]}, "ChIJXdtwGx4FdkgRX4z2v2yQR00": {"geometry": {"location": {"lat": 51.4894426, "lng": -0.14126}, "viewport": {"northeast": {"lat": 51.49084818029149, "lng": -0.139843969708498}, "southwest": {"lat": 51.48815021970849, "lng": -0.142541930291502}}}, "name": "Blue Plaque: Swami Vivekananda", "place_id": "ChIJXdtwGx4FdkgRX4z2v2yQR00", "types": ["point_of_interest", "establishment"], "rating": 4.1, "user_ratings_total": 19}, "ChIJWayCAR4FdkgRyPstq__ZP80": {"geometry": {"location": {"lat": 51.488985, "lng": -0.140985}, "viewport": {"northeast": {"lat": 51.49028578029149, "lng": -0.139694219708498}, "southwest": {"lat": 51.48758781970849, "lng": -0.142392180291502}}}, "name": "Psytherapy Private Practice", "place_id": "ChIJWayCAR4FdkgRyPstq__ZP80", "types": ["health", "point_of_interest", "establishment"], "rating": 5, "user_ratings_total": 3}, "ChIJrxrxAR4FdkgRI2DobqTRjgk": {"geometry": {"location": {"lat": 51.48894660000001, "lng": -0.1408955}, "viewport": {"northeast": {"lat": 51.49024628029151, "lng": -0.139606069708498}, "southwest": {"lat": 51.48754831970851, "lng": -0.142304030291502}}}, "name": "WOLKEMINING LTD", "place_id": "ChIJrxrxAR4FdkgRI2DobqTRjgk", "types": ["finance", "point_of_interest", "establishment"]}, "ChIJA48zB0kFdkgRv8RKy6nFBt4": {"geometry": {"location": {"lat": 51.48910469999999, "lng": -0.1413334}, "viewport": {"northeast": {"lat": 51.49048628029149, "lng": -0.140054569708498}, "southwest": {"lat": 51.48778831970849, "lng": -0.142752530291502}}}, "name": "Skip Hire Pimlico", "place_id": "ChIJA48zB0kFdkgRv8RKy6nFBt4", "types": ["point_of_interest", "establishment"]}, "ChIJHSpQCB4FdkgRcqJmZzOw6h4": {"geometry": {"location": {"lat": 51.48876869999999, "lng": -0.1417169}, "viewport": {"northeast": {"lat": 51.49015393029149, "lng": -0.140444569708498}, "southwest": {"lat": 51.48745596970849, "lng": -0.143142530291502}}}, "name": "Nala Developments Limited", "place_id": "ChIJHSpQCB4FdkgRcqJmZzOw6h4", "types": ["point_of_interest", "establishment"]}, "ChIJW6wQGgcFdkgROAKLmqjYg80": {"geometry": {"location": {"lat": 51.4892676, "lng": -0.1407704}, "viewport": {"northeast": {"lat": 51.4906530802915, "lng": -0.139377969708498}, "southwest": {"lat": 51.4879551197085, "lng": -0.142075930291502}}}, "name": "St. Farra\u2019s Drive", "place_id": "ChIJW6wQGgcFdkgROAKLmqjYg80", "types": ["night_club", "point_of_interest", "establishment"]}, "ChIJz0Gf--EEdkgRpDnacxbC2WY": {"geometry": {"location": {"lat": 51.48912389999999, "lng": -0.140382}, "viewport": {"northeast": {"lat": 51.4904958302915, "lng": -0.138999919708498}, "southwest": {"lat": 51.4877978697085, "lng": -0.141697880291502}}}, "name": "ubitricity Charging Station", "place_id": "ChIJz0Gf--EEdkgRpDnacxbC2WY", "types": ["point_of_interest", "establishment"]}, "ChIJAQC1Ch4FdkgRufw88rh5ITM": {"geometry": {"location": {"lat": 51.4887165, "lng": -0.1422919}, "viewport": {"northeast": {"lat": 51.49002598029149, "lng": -0.140857869708498}, "southwest": {"lat": 51.48732801970849, "lng": -0.143555830291502}}}, "name": "Viable Limited", "place_id": "ChIJAQC1Ch4FdkgRufw88rh5ITM", "types": ["point_of_interest", "establishment"]}, "ChIJ58z3EOEEdkgRgQifhm1_wzA": {"geometry": {"location": {"lat": 51.4905081, "lng": -0.1369828}, "viewport": {"northeast": {"lat": 51.49185378029149, "lng": -0.135640219708498}, "southwest": {"lat": 51.48915581970849, "lng": -0.138338180291502}}}, "name": "Bespoke Photography", "place_id": "ChIJ58z3EOEEdkgRgQifhm1_wzA", "types": ["point_of_interest", "establishment"]}, "ChIJ_6Y4BeEEdkgRU6W2osb0Yjs": {"geometry": {"location": {"lat": 51.49048430000001, "lng": -0.1371716}, "viewport": {"northeast": {"lat": 51.49187413029151, "lng": -0.135737869708498}, "southwest": {"lat": 51.48917616970851, "lng": -0.138435830291502}}}, "name": "A to B London", "place_id": "ChIJ_6Y4BeEEdkgRU6W2osb0Yjs", "types": ["point_of_interest", "establishment"]}, "ChIJme1xTeEEdkgREWK9-VaXYNE": {"geometry": {"location": {"lat": 51.4905102, "lng": -0.1369305}, "viewport": {"northeast": {"lat": 51.49187938029149, "lng": -0.135542769708498}, "southwest": {"lat": 51.4891814197085, "lng": -0.138240730291502}}}, "name": "Savill Damp Proofing Limited", "place_id": "ChIJme1xTeEEdkgREWK9-VaXYNE", "types": ["general_contractor", "point_of_interest", "establishment"], "rating": 5, "user_ratings_total": 4}, "ChIJ9x2Jb-EEdkgR1qjlEc04EFo": {"geometry": {"location": {"lat": 51.4893216, "lng": -0.1370382}, "viewport": {"northeast": {"lat": 51.4906302302915, "lng": -0.135738669708498}, "southwest": {"lat": 51.4879322697085, "lng": -0.138436630291502}}}, "name": "B Huber Co Ltd", "place_id": "ChIJ9x2Jb-EEdkgR1qjlEc04EFo", "types": ["finance", "point_of_interest", "establishment"]}, "ChIJH-bl1OMEdkgRbt5353omVss": {"geometry": {"location": {"lat": 51.4884222, "lng": -0.1374917}, "viewport": {"northeast": {"lat": 51.4897183302915, "lng": -0.136116819708498}, "southwest": {"lat": 51.4870203697085, "lng": -0.138814780291502}}}, "name": "Goya", "place_id": "ChIJH-bl1OMEdkgRbt5353omVss", "types": ["restaurant", "food", "point_of_interest", "establishment"], "rating": 4.2, "user_ratings_total": 449}, "ChIJxyzR2eMEdkgRbSZyNpOd9JQ": {"geometry": {"location": {"lat": 51.4885226, "lng": -0.13709}, "viewport": {"northeast": {"lat": 51.4898056302915, "lng": -0.135709769708498}, "southwest": {"lat": 51.4871076697085, "lng": -0.138407730291502}}}, "name": "Ringrose Kindergarten", "place_id": "ChIJxyzR2eMEdkgRbSZyNpOd9JQ", "types": ["school", "point_of_interest", "establishment"]}, "ChIJG4EIs2MddkgR_TXo0hgeVBw": {"geometry": {"location": {"lat": 51.4884936, "lng": -0.1368608}, "viewport": {"northeast": {"lat": 51.48980933029149, "lng": -0.135496069708498}, "southwest": {"lat": 51.48711136970849, "lng": -0.138194030291502}}}, "name": "ALFA Serviced Apartments", "place_id": "ChIJG4EIs2MddkgR_TXo0hgeVBw", "types": ["lodging", "point_of_interest", "establishment"], "rating": 5, "user_ratings_total": 2}, "ChIJ36T2ncAFdkgRIFI_UKHf854": {"geometry": {"location": {"lat": 51.4885026, "lng": -0.1371347}, "viewport": {"northeast": {"lat": 51.48979103029149, "lng": -0.135757069708498}, "southwest": {"lat": 51.48709306970849, "lng": -0.138455030291502}}}, "name": "Eaton Square School Nursery (Pimlico)", "place_id": "ChIJ36T2ncAFdkgRIFI_UKHf854", "types": ["school", "point_of_interest", "establishment"]}, "ChIJXaxcFWEFdkgRO4ldWU4QXaU": {"geometry": {"location": {"lat": 51.48871260000001, "lng": -0.136863}, "viewport": {"northeast": {"lat": 51.4901055302915, "lng": -0.135593969708498}, "southwest": {"lat": 51.4874075697085, "lng": -0.138291930291502}}}, "name": "La Maison du Chat", "place_id": "ChIJXaxcFWEFdkgRO4ldWU4QXaU", "types": ["cafe", "food", "point_of_interest", "store", "establishment"], "rating": 4.4, "user_ratings_total": 21}, "ChIJw5HZ0-MEdkgR3h_dTWGqkF8": {"geometry": {"location": {"lat": 51.4884267, "lng": -0.1375633}, "viewport": {"northeast": {"lat": 51.4897146302915, "lng": -0.136187269708498}, "southwest": {"lat": 51.4870166697085, "lng": -0.138885230291502}}}, "name": "Mercadillo", "place_id": "ChIJw5HZ0-MEdkgR3h_dTWGqkF8", "types": ["clothing_store", "point_of_interest", "store", "establishment"]}, "ChIJSTHRVeAEdkgRP9GOiOj_69E": {"geometry": {"location": {"lat": 51.49160470757857, "lng": -0.138029615687868}, "viewport": {"northeast": {"lat": 51.4929321802915, "lng": -0.136714519708498}, "southwest": {"lat": 51.4902342197085, "lng": -0.139412480291502}}}, "name": "74-46 Tachbrook St", "place_id": "ChIJSTHRVeAEdkgRP9GOiOj_69E", "types": ["route"]}, "ChIJ2dVASuAEdkgRa3YvCz9Gizs": {"geometry": {"location": {"lat": 51.4916144, "lng": -0.1390466}, "viewport": {"northeast": {"lat": 51.49293348029151, "lng": -0.137594669708498}, "southwest": {"lat": 51.49023551970851, "lng": -0.140292630291502}}}, "name": "The Latin Traveller Limited", "place_id": "ChIJ2dVASuAEdkgRa3YvCz9Gizs", "types": ["real_estate_agency", "lodging", "travel_agency", "point_of_interest", "establishment"]}, "ChIJZ3os6j4xcEERMwWeNjpYMzM": {"geometry": {"location": {"lat": 51.4914674, "lng": -0.1387275}, "viewport": {"northeast": {"lat": 51.4928376802915, "lng": -0.137451819708498}, "southwest": {"lat": 51.4901397197085, "lng": -0.140149780291502}}}, "name": "Rodrigo Oliveira Stylist", "place_id": "ChIJZ3os6j4xcEERMwWeNjpYMzM", "types": ["hair_care", "point_of_interest", "establishment"], "rating": 3.9, "user_ratings_total": 33}, "ChIJickXUuAEdkgRrp2Co9oa7LI": {"geometry": {"location": {"lat": 51.4916119, "lng": -0.13866}, "viewport": {"northeast": {"lat": 51.49297728029151, "lng": -0.137367619708498}, "southwest": {"lat": 51.49027931970851, "lng": -0.140065580291502}}}, "name": "McKennell Dental Practice", "place_id": "ChIJickXUuAEdkgRrp2Co9oa7LI", "types": ["dentist", "health", "point_of_interest", "establishment"], "rating": 4.3, "user_ratings_total": 23}, "ChIJickXUuAEdkgR7FdiNXP3EJw": {"geometry": {"location": {"lat": 51.4915366, "lng": -0.1386393}, "viewport": {"northeast": {"lat": 51.4929112302915, "lng": -0.137378569708498}, "southwest": {"lat": 51.4902132697085, "lng": -0.140076530291502}}}, "name": "Dovers Flowers", "place_id": "ChIJickXUuAEdkgR7FdiNXP3EJw", "types": ["florist", "point_of_interest", "store", "establishment"], "rating": 4.8, "user_ratings_total": 32}, "ChIJOR7G6vAEdkgRDP6B-yfdBD8": {"geometry": {"location": {"lat": 51.4915024, "lng": -0.1386578}, "viewport": {"northeast": {"lat": 51.4928778802915, "lng": -0.137399969708498}, "southwest": {"lat": 51.4901799197085, "lng": -0.140097930291502}}}, "name": "All London Fire Extinguishers", "place_id": "ChIJOR7G6vAEdkgRDP6B-yfdBD8", "types": ["point_of_interest", "establishment"], "rating": 5, "user_ratings_total": 4}, "ChIJVVXwUeAEdkgRduFXPUbbZDY": {"geometry": {"location": {"lat": 51.49163550000001, "lng": -0.1385876}, "viewport": {"northeast": {"lat": 51.49300743029151, "lng": -0.137317669708498}, "southwest": {"lat": 51.49030946970851, "lng": -0.140015630291502}}}, "name": "Crusaid", "place_id": "ChIJVVXwUeAEdkgRduFXPUbbZDY", "types": ["point_of_interest", "establishment"]}, "ChIJickXUuAEdkgRCDiL_BMYuWo": {"geometry": {"location": {"lat": 51.4916305, "lng": -0.138586}, "viewport": {"northeast": {"lat": 51.49300308029149, "lng": -0.137318269708498}, "southwest": {"lat": 51.49030511970849, "lng": -0.140016230291502}}}, "name": "Boutique - Terrence Higgins Trust Charity Shop", "place_id": "ChIJickXUuAEdkgRCDiL_BMYuWo", "types": ["point_of_interest", "clothing_store", "store", "establishment"], "rating": 4.9, "user_ratings_total": 27}, "ChIJE0BqqSEFdkgRHr_2NEiWNgU": {"geometry": {"location": {"lat": 51.4914597, "lng": -0.1386913}, "viewport": {"northeast": {"lat": 51.4928338302915, "lng": -0.137433719708498}, "southwest": {"lat": 51.4901358697085, "lng": -0.140131680291502}}}, "name": "Victoria Hair Studio", "place_id": "ChIJE0BqqSEFdkgRHr_2NEiWNgU", "types": ["hair_care", "point_of_interest", "establishment"], "rating": 4.9, "user_ratings_total": 84}, "ChIJh51ITOAEdkgRNxg0e2UDLNE": {"geometry": {"location": {"lat": 51.4914593, "lng": -0.1387567}, "viewport": {"northeast": {"lat": 51.49282683029149, "lng": -0.137471519708498}, "southwest": {"lat": 51.49012886970849, "lng": -0.140169480291502}}}, "name": "Pimlico Apartment", "place_id": "ChIJh51ITOAEdkgRNxg0e2UDLNE", "types": ["point_of_interest", "establishment"], "rating": 5, "user_ratings_total": 1}, "ChIJA_OyTuAEdkgRpNuWSwqhRrA": {"geometry": {"location": {"lat": 51.4916509, "lng": -0.139003}, "viewport": {"northeast": {"lat": 51.4929719302915, "lng": -0.137557719708498}, "southwest": {"lat": 51.4902739697085, "lng": -0.140255680291502}}}, "name": "Virgilio Seo", "place_id": "ChIJA_OyTuAEdkgRpNuWSwqhRrA", "types": ["point_of_interest", "establishment"]}, "ChIJM3v_S-AEdkgRcqAPCH2zzRk": {"geometry": {"location": {"lat": 51.4916215, "lng": -0.1390073}, "viewport": {"northeast": {"lat": 51.4929446302915, "lng": -0.137569319708498}, "southwest": {"lat": 51.4902466697085, "lng": -0.140267280291502}}}, "name": "Westminster Web Limited", "place_id": "ChIJM3v_S-AEdkgRcqAPCH2zzRk", "types": ["point_of_interest", "establishment"]}, "ChIJ02T_S-AEdkgRw_pAIjXqX5E": {"geometry": {"location": {"lat": 51.4916215, "lng": -0.1390073}, "viewport": {"northeast": {"lat": 51.4929446302915, "lng": -0.137569319708498}, "southwest": {"lat": 51.4902466697085, "lng": -0.140267280291502}}}, "name": "Latin Squares", "place_id": "ChIJ02T_S-AEdkgRw_pAIjXqX5E", "types": ["general_contractor", "point_of_interest", "establishment"], "rating": 3.3, "user_ratings_total": 7}, "ChIJgQ-1UuAEdkgR3QHAA1IcbwQ": {"geometry": {"location": {"lat": 51.49128460000001, "lng": -0.13856}, "viewport": {"northeast": {"lat": 51.4925928802915, "lng": -0.1372603697084979}, "southwest": {"lat": 51.4898949197085, "lng": -0.139958330291502}}}, "name": "Wealden Contracts Limited", "place_id": "ChIJgQ-1UuAEdkgR3QHAA1IcbwQ", "types": ["point_of_interest", "establishment"]}, "ChIJixsKsOEEdkgRMUo94D648qY": {"geometry": {"location": {"lat": 51.49062155071631, "lng": -0.1387054482412669}, "viewport": {"northeast": {"lat": 51.4919705302915, "lng": -0.137356469708498}, "southwest": {"lat": 51.4892725697085, "lng": -0.140054430291502}}}, "name": "76-58 Belgrave Rd", "place_id": "ChIJixsKsOEEdkgRMUo94D648qY", "types": ["route"]}, "ChIJW-zrseEEdkgRlEFG2yb-wtc": {"geometry": {"location": {"lat": 51.49065979999999, "lng": -0.1383784}, "viewport": {"northeast": {"lat": 51.49195898029149, "lng": -0.136999269708498}, "southwest": {"lat": 51.48926101970849, "lng": -0.139697230291502}}}, "name": "OYO Flagship Huttons", "place_id": "ChIJW-zrseEEdkgRlEFG2yb-wtc", "types": ["lodging", "point_of_interest", "establishment"], "rating": 3.4, "user_ratings_total": 806}, "ChIJrUfuueEEdkgR6joeORsbYVw": {"geometry": {"location": {"lat": 51.4904777, "lng": -0.1388339}, "viewport": {"northeast": {"lat": 51.49174463029151, "lng": -0.137288819708498}, "southwest": {"lat": 51.48904666970851, "lng": -0.139986780291502}}}, "name": "Sidney Hotel London - Budget Hotels In Central London Near Victoria Station, Hotel Near Queen Elisabeth Conference Centre, Breakfast, Free WI-FI, Restaurant", "place_id": "ChIJrUfuueEEdkgR6joeORsbYVw", "types": ["lodging", "point_of_interest", "establishment"], "rating": 3.8, "user_ratings_total": 771}, "ChIJpQsosOEEdkgREqV9sGqfASQ": {"geometry": {"location": {"lat": 51.49079379999999, "lng": -0.1386982}, "viewport": {"northeast": {"lat": 51.49208733029149, "lng": -0.137417269708498}, "southwest": {"lat": 51.4893893697085, "lng": -0.140115230291502}}}, "name": "Luna Simone Hotel", "place_id": "ChIJpQsosOEEdkgREqV9sGqfASQ", "types": ["lodging", "point_of_interest", "establishment"], "rating": 4.4, "user_ratings_total": 288}, "ChIJp-HBr-EEdkgRVW4t9zfJmoo": {"geometry": {"location": {"lat": 51.4907215, "lng": -0.1385217}, "viewport": {"northeast": {"lat": 51.4920113302915, "lng": -0.137245319708498}, "southwest": {"lat": 51.4893133697085, "lng": -0.139943280291502}}}, "name": "The Victor Hotel London Victoria", "place_id": "ChIJp-HBr-EEdkgRVW4t9zfJmoo", "types": ["lodging", "point_of_interest", "establishment"], "rating": 3.8, "user_ratings_total": 223}, "ChIJPUqpvOEEdkgRs02tpbei7YA": {"geometry": {"location": {"lat": 51.4902778, "lng": -0.1386111}, "viewport": {"northeast": {"lat": 51.4916053302915, "lng": -0.137208319708498}, "southwest": {"lat": 51.4889073697085, "lng": -0.139906280291502}}}, "name": "Romanos Hotel London", "place_id": "ChIJPUqpvOEEdkgRs02tpbei7YA", "types": ["lodging", "point_of_interest", "establishment"], "rating": 3, "user_ratings_total": 241}, "ChIJ48-8N5EFdkgRxuNpjiVv1vg": {"geometry": {"location": {"lat": 51.49059380000001, "lng": -0.1390614}, "viewport": {"northeast": {"lat": 51.4920049802915, "lng": -0.137636019708498}, "southwest": {"lat": 51.48930701970851, "lng": -0.140333980291502}}}, "name": "The Park Hotel", "place_id": "ChIJ48-8N5EFdkgRxuNpjiVv1vg", "types": ["lodging", "point_of_interest", "establishment"], "rating": 2.2, "user_ratings_total": 354}, "ChIJtY0KsOEEdkgR4Y5GSgAjofQ": {"geometry": {"location": {"lat": 51.4906235, "lng": -0.1387225}, "viewport": {"northeast": {"lat": 51.49199943029149, "lng": -0.1373404197084979}, "southwest": {"lat": 51.48930146970849, "lng": -0.140038380291502}}}, "name": "Belgrave Road", "place_id": "ChIJtY0KsOEEdkgR4Y5GSgAjofQ", "types": ["transit_station", "point_of_interest", "establishment"]}, "ChIJdyAtpeEEdkgRF4tMPP345I4": {"geometry": {"location": {"lat": 51.490486, "lng": -0.138634}, "viewport": {"northeast": {"lat": 51.49186703029149, "lng": -0.137245669708498}, "southwest": {"lat": 51.4891690697085, "lng": -0.139943630291502}}}, "name": "Belgrave Road (Stop S)", "place_id": "ChIJdyAtpeEEdkgRF4tMPP345I4", "types": ["transit_station", "point_of_interest", "establishment"], "rating": 5, "user_ratings_total": 1}, "ChIJ4708hgcFdkgRKQroOc0EW5Y": {"geometry": {"location": {"lat": 51.49062139999999, "lng": -0.1383806}, "viewport": {"northeast": {"lat": 51.49192163029151, "lng": -0.137091469708498}, "southwest": {"lat": 51.48922366970851, "lng": -0.139789430291502}}}, "name": "Six20Two", "place_id": "ChIJ4708hgcFdkgRKQroOc0EW5Y", "types": ["point_of_interest", "establishment"]}, "ChIJiUxhr-EEdkgR_B1q8UUaB8E": {"geometry": {"location": {"lat": 51.49062139999999, "lng": -0.1383806}, "viewport": {"northeast": {"lat": 51.49192163029151, "lng": -0.137091469708498}, "southwest": {"lat": 51.48922366970851, "lng": -0.139789430291502}}}, "name": "\u30cf\u30c3\u30c8\u30f3 \u30db\u30c6\u30eb", "place_id": "ChIJiUxhr-EEdkgR_B1q8UUaB8E", "types": ["lodging", "point_of_interest", "establishment"]}, "ChIJPUuyZkgFdkgRK4ls11YVN1s": {"geometry": {"location": {"lat": 51.4904777, "lng": -0.1388339}, "viewport": {"northeast": {"lat": 51.49189138029149, "lng": -0.137405519708498}, "southwest": {"lat": 51.48919341970849, "lng": -0.140103480291502}}}, "name": "HAQEL ALMADINA TEXTILE TRAINING", "place_id": "ChIJPUuyZkgFdkgRK4ls11YVN1s", "types": ["store", "point_of_interest", "establishment"]}, "ChIJS4RWsOEEdkgRbyRldG6bDaA": {"geometry": {"location": {"lat": 51.490761, "lng": -0.138811}, "viewport": {"northeast": {"lat": 51.4920749302915, "lng": -0.137482769708498}, "southwest": {"lat": 51.4893769697085, "lng": -0.140180730291502}}}, "name": "Belgrave Road (Stop R)", "place_id": "ChIJS4RWsOEEdkgRbyRldG6bDaA", "types": ["bus_station", "transit_station", "point_of_interest", "establishment"], "rating": 1, "user_ratings_total": 1}, "ChIJIYPAThIFdkgR4cAZZZWgK-w": {"geometry": {"location": {"lat": 51.49081779999999, "lng": -0.1384077}, "viewport": {"northeast": {"lat": 51.49225193029149, "lng": -0.136955419708498}, "southwest": {"lat": 51.4895539697085, "lng": -0.139653380291502}}}, "name": "HOTEL", "place_id": "ChIJIYPAThIFdkgR4cAZZZWgK-w", "types": ["lodging", "point_of_interest", "establishment"]}, "ChIJVVXhueEEdkgR0B_Z0ka4dKI": {"geometry": {"location": {"lat": 51.490603, "lng": -0.1390369}, "viewport": {"northeast": {"lat": 51.4920076302915, "lng": -0.137619619708498}, "southwest": {"lat": 51.4893096697085, "lng": -0.140317580291502}}}, "name": "\u30b6 \u30d1\u30fc\u30af \u30db\u30c6\u30eb (The Park Hotel)", "place_id": "ChIJVVXhueEEdkgR0B_Z0ka4dKI", "types": ["lodging", "point_of_interest", "establishment"]}, "ChIJA6sGkOEEdkgRS27Ix1EXRIM": {"geometry": {"location": {"lat": 51.4893268, "lng": -0.1386557}, "viewport": {"northeast": {"lat": 51.49066253029149, "lng": -0.137391919708498}, "southwest": {"lat": 51.4879645697085, "lng": -0.140089880291502}}}, "name": "Exxpedition C.i.c.", "place_id": "ChIJA6sGkOEEdkgRS27Ix1EXRIM", "types": ["point_of_interest", "establishment"]}, "ChIJT0WzaA0FdkgRXEOlv7HctJM": {"geometry": {"location": {"lat": 51.4896244, "lng": -0.1383252}, "viewport": {"northeast": {"lat": 51.4909747302915, "lng": -0.136828969708498}, "southwest": {"lat": 51.4882767697085, "lng": -0.139526930291502}}}, "name": "CREMATION LOW COST DIRECT", "place_id": "ChIJT0WzaA0FdkgRXEOlv7HctJM", "types": ["point_of_interest", "establishment"], "rating": 5, "user_ratings_total": 7}, "ChIJU_5XmeEEdkgR8RAYgBbdTNw": {"geometry": {"location": {"lat": 51.48963509999999, "lng": -0.1383129}, "viewport": {"northeast": {"lat": 51.4909853802915, "lng": -0.136822969708498}, "southwest": {"lat": 51.4882874197085, "lng": -0.139520930291502}}}, "name": "Cremation Low Cost Direct", "place_id": "ChIJU_5XmeEEdkgR8RAYgBbdTNw", "types": ["point_of_interest", "establishment"]}, "ChIJP5O2k-EEdkgRAfImoDDOjdw": {"geometry": {"location": {"lat": 51.4894948, "lng": -0.1391088}, "viewport": {"northeast": {"lat": 51.4908626302915, "lng": -0.137665369708498}, "southwest": {"lat": 51.4881646697085, "lng": -0.140363330291502}}}, "name": "PULMINING LTD.", "place_id": "ChIJP5O2k-EEdkgRAfImoDDOjdw", "types": ["point_of_interest", "establishment"]}, "ChIJQeiaKOIEdkgRFmtlXE6mRTQ": {"geometry": {"location": {"lat": 51.4885586, "lng": -0.1386866}, "viewport": {"northeast": {"lat": 51.4899123802915, "lng": -0.137263419708498}, "southwest": {"lat": 51.4872144197085, "lng": -0.139961380291502}}}, "name": "Thomas Cubitt Statue", "place_id": "ChIJQeiaKOIEdkgRFmtlXE6mRTQ", "types": ["point_of_interest", "establishment"], "rating": 4.1, "user_ratings_total": 7}, "ChIJm6SYKeIEdkgRKktR_IXzuGc": {"geometry": {"location": {"lat": 51.48850940000001, "lng": -0.1383516}, "viewport": {"northeast": {"lat": 51.4898635302915, "lng": -0.137092119708498}, "southwest": {"lat": 51.4871655697085, "lng": -0.1397900802915021}}}, "name": "Resource Guru", "place_id": "ChIJm6SYKeIEdkgRKktR_IXzuGc", "types": ["point_of_interest", "establishment"]}, "ChIJIfgDVzMDdkgRi1qfqEjeZL0": {"geometry": {"location": {"lat": 51.4884249, "lng": -0.139171}, "viewport": {"northeast": {"lat": 51.4898391302915, "lng": -0.137743119708498}, "southwest": {"lat": 51.4871411697085, "lng": -0.140441080291502}}}, "name": "We Trade Forex", "place_id": "ChIJIfgDVzMDdkgRi1qfqEjeZL0", "types": ["finance", "point_of_interest", "establishment"]}, "ChIJ9-O7JCkEdkgRuiWbV7WM0sA": {"geometry": {"location": {"lat": 51.4915887, "lng": -0.1403722}, "viewport": {"northeast": {"lat": 51.4929868302915, "lng": -0.138937969708498}, "southwest": {"lat": 51.4902888697085, "lng": -0.141635930291502}}}, "name": "Black Daisy Events", "place_id": "ChIJ9-O7JCkEdkgRuiWbV7WM0sA", "types": ["point_of_interest", "establishment"]}, "ChIJeegFLuAEdkgRxqY_YaXA2tM": {"geometry": {"location": {"lat": 51.491626, "lng": -0.140155}, "viewport": {"northeast": {"lat": 51.49297473029149, "lng": -0.138806269708498}, "southwest": {"lat": 51.49027676970849, "lng": -0.141504230291502}}}, "name": "D2E International VT Consultants Ltd", "place_id": "ChIJeegFLuAEdkgRxqY_YaXA2tM", "types": ["point_of_interest", "establishment"], "rating": 4, "user_ratings_total": 4}, "ChIJf8_gMeAEdkgR3XD2O09whyw": {"geometry": {"location": {"lat": 51.491649, "lng": -0.1399207}, "viewport": {"northeast": {"lat": 51.4930105802915, "lng": -0.138483669708498}, "southwest": {"lat": 51.4903126197085, "lng": -0.141181630291502}}}, "name": "Anthony Simon", "place_id": "ChIJf8_gMeAEdkgR3XD2O09whyw", "types": ["hair_care", "point_of_interest", "establishment"], "rating": 4.8, "user_ratings_total": 13}, "ChIJDSOKEw4FdkgRiH-X2-TbJJc": {"geometry": {"location": {"lat": 51.4916333, "lng": -0.1404471}, "viewport": {"northeast": {"lat": 51.4929204802915, "lng": -0.139173369708498}, "southwest": {"lat": 51.4902225197085, "lng": -0.141871330291502}}}, "name": "Car Recovery Breakdown Tow Truck Pimlico", "place_id": "ChIJDSOKEw4FdkgRiH-X2-TbJJc", "types": ["point_of_interest", "establishment"]}, "ChIJeegFLuAEdkgRkfw06D0EczA": {"geometry": {"location": {"lat": 51.491626, "lng": -0.140155}, "viewport": {"northeast": {"lat": 51.49297473029149, "lng": -0.138806269708498}, "southwest": {"lat": 51.49027676970849, "lng": -0.141504230291502}}}, "name": "Aura Fire Ltd", "place_id": "ChIJeegFLuAEdkgRkfw06D0EczA", "types": ["point_of_interest", "establishment"]}, "ChIJf2KpLeAEdkgRAlIVObxIICs": {"geometry": {"location": {"lat": 51.49145199999999, "lng": -0.140274}, "viewport": {"northeast": {"lat": 51.49277078029149, "lng": -0.1389617697084979}, "southwest": {"lat": 51.49007281970849, "lng": -0.141659730291502}}}, "name": "Ubitricity Charging Station", "place_id": "ChIJf2KpLeAEdkgRAlIVObxIICs", "types": ["point_of_interest", "establishment"]}, "ChIJUcs2MOAEdkgRSINZK0r4Z3E": {"geometry": {"location": {"lat": 51.4916467, "lng": -0.1399389}, "viewport": {"northeast": {"lat": 51.49300958029149, "lng": -0.138492819708498}, "southwest": {"lat": 51.4903116197085, "lng": -0.141190780291502}}},