{"E00024071": {"ChIJDS66Vx4FdkgROkxmNH2QZ1s": {"geometry": {"location": {"lat": 51.49073654042576, "lng": -0.1436299486896771}, "viewport": {"northeast": {"lat": 51.4920928302915, "lng": -0.142270869708498}, "southwest": {"lat": 51.48939486970851, "lng": -0.144968830291502}}}, "name": "20-38 St George's Dr", "place_id": "ChIJDS66Vx4FdkgROkxmNH2QZ1s", "types": ["route"]}, "ChIJswBRjc4EdkgRDD78Mnrt7B8": {"geometry": {"location": {"lat": 51.49053589999999, "lng": -0.1437503}, "viewport": {"northeast": {"lat": 51.4920753302915, "lng": -0.142565569708498}, "southwest": {"lat": 51.4893773697085, "lng": -0.145263530291502}}}, "name": "The 29 London ( FKA- Airways Hotel Victoria london)", "place_id": "ChIJswBRjc4EdkgRDD78Mnrt7B8", "types": ["lodging", "point_of_interest", "establishment"], "rating": 3.7, "user_ratings_total": 485}, "ChIJc6IoVx4FdkgR-302Jiv1ZxQ": {"geometry": {"location": {"lat": 51.4909648, "lng": -0.1437599}, "viewport": {"northeast": {"lat": 51.4922635302915, "lng": -0.142481369708498}, "southwest": {"lat": 51.4895655697085, "lng": -0.145179330291502}}}, "name": "OYO Townhouse New England Victoria", "place_id": "ChIJc6IoVx4FdkgR-302Jiv1ZxQ", "types": ["lodging", "point_of_interest", "establishment"], "rating": 2.9, "user_ratings_total": 175}, "ChIJG7dp-B4FdkgRdetG5aiJ49s": {"geometry": {"location": {"lat": 51.4906952, "lng": -0.1438746}, "viewport": {"northeast": {"lat": 51.4920798302915, "lng": -0.142443269708498}, "southwest": {"lat": 51.4893818697085, "lng": -0.145141230291502}}}, "name": "Georgian House Hotel", "place_id": "ChIJG7dp-B4FdkgRdetG5aiJ49s", "types": ["lodging", "point_of_interest", "establishment"], "rating": 4.4, "user_ratings_total": 941}, "ChIJUQESUx4FdkgRDoSrGahVSsc": {"geometry": {"location": {"lat": 51.49113389999999, "lng": -0.143293}, "viewport": {"northeast": {"lat": 51.49252248029149, "lng": -0.141974019708498}, "southwest": {"lat": 51.48982451970849, "lng": -0.144671980291502}}}, "name": "OYO Vegas Hotel", "place_id": "ChIJUQESUx4FdkgRDoSrGahVSsc", "types": ["lodging", "point_of_interest", "establishment"], "rating": 3, "user_ratings_total": 258}, "ChIJc6IoVx4FdkgRunGGgxIP3_Y": {"geometry": {"location": {"lat": 51.4907698, "lng": -0.1433714}, "viewport": {"northeast": {"lat": 51.4920694802915, "lng": -0.142082419708498}, "southwest": {"lat": 51.4893715197085, "lng": -0.144780380291502}}}, "name": "The Portico Hotel London ( FKA- Hanover Hotel London)", "place_id": "ChIJc6IoVx4FdkgRunGGgxIP3_Y", "types": ["lodging", "point_of_interest", "establishment"], "rating": 3.2, "user_ratings_total": 491}, "ChIJUQESUx4FdkgRHIzfxhnHL2s": {"geometry": {"location": {"lat": 51.491055, "lng": -0.1433599}, "viewport": {"northeast": {"lat": 51.4924679302915, "lng": -0.142059069708498}, "southwest": {"lat": 51.4897699697085, "lng": -0.144757030291502}}}, "name": "Mystery Customer Evaluations", "place_id": "ChIJUQESUx4FdkgRHIzfxhnHL2s", "types": ["point_of_interest", "establishment"]}, "ChIJ7UaU--EEdkgR5L9xA3vwW_0": {"geometry": {"location": {"lat": 51.49096219999999, "lng": -0.1437612}, "viewport": {"northeast": {"lat": 51.4922580302915, "lng": -0.142476619708498}, "southwest": {"lat": 51.4895600697085, "lng": -0.145174580291502}}}, "name": "E A L Productions", "place_id": "ChIJ7UaU--EEdkgR5L9xA3vwW_0", "types": ["point_of_interest", "establishment"]}, "ChIJGzV6WR4FdkgR0pEM7_P-CRo": {"geometry": {"location": {"lat": 51.49042430000001, "lng": -0.143449}, "viewport": {"northeast": {"lat": 51.4918447302915, "lng": -0.142013369708498}, "southwest": {"lat": 51.4891467697085, "lng": -0.144711330291502}}}, "name": "Qualified Cancer Care Ltd", "place_id": "ChIJGzV6WR4FdkgR0pEM7_P-CRo", "types": ["health", "point_of_interest", "establishment"]}, "ChIJGzV6WR4FdkgRKYQv4NFt1Ng": {"geometry": {"location": {"lat": 51.49042430000001, "lng": -0.143449}, "viewport": {"northeast": {"lat": 51.4918447302915, "lng": -0.142013369708498}, "southwest": {"lat": 51.4891467697085, "lng": -0.144711330291502}}}, "name": "Q C C Nursing Agency", "place_id": "ChIJGzV6WR4FdkgRKYQv4NFt1Ng", "types": ["health", "point_of_interest", "establishment"]}, "ChIJ-XBfVB4FdkgRfRfa_9OMtGo": {"geometry": {"location": {"lat": 51.4911031, "lng": -0.143523}, "viewport": {"northeast": {"lat": 51.4924729802915, "lng": -0.142189719708498}, "southwest": {"lat": 51.4897750197085, "lng": -0.144887680291502}}}, "name": "Baden-Powell Associates Ltd", "place_id": "ChIJ-XBfVB4FdkgRfRfa_9OMtGo", "types": ["point_of_interest", "establishment"]}, "ChIJFT3UXh4FdkgRnHdZ-gJMCcE": {"geometry": {"location": {"lat": 51.4902675, "lng": -0.1435801}, "viewport": {"northeast": {"lat": 51.4915874802915, "lng": -0.142168869708498}, "southwest": {"lat": 51.4888895197085, "lng": -0.144866830291502}}}, "name": "AJs Mobile Tyres", "place_id": "ChIJFT3UXh4FdkgRnHdZ-gJMCcE", "types": ["car_repair", "point_of_interest", "store", "establishment"], "rating": 5, "user_ratings_total": 1}, "ChIJVVXWXh4FdkgRfpF1Xsku0yY": {"geometry": {"location": {"lat": 51.4902543, "lng": -0.1435854}, "viewport": {"northeast": {"lat": 51.4915748802915, "lng": -0.142176919708498}, "southwest": {"lat": 51.4888769197085, "lng": -0.144874880291502}}}, "name": "Boars Head Properties", "place_id": "ChIJVVXWXh4FdkgRfpF1Xsku0yY", "types": ["real_estate_agency", "point_of_interest", "establishment"]}, "ChIJI9XXXh4FdkgRKSfiEtXgASk": {"geometry": {"location": {"lat": 51.49025400000001, "lng": -0.1435963}, "viewport": {"northeast": {"lat": 51.4915729802915, "lng": -0.142184519708498}, "southwest": {"lat": 51.48887501970851, "lng": -0.1448824802915021}}}, "name": "Motorsport Worldwide Limited", "place_id": "ChIJI9XXXh4FdkgRKSfiEtXgASk", "types": ["point_of_interest", "establishment"]}, "ChIJc245Xx4FdkgRz0r8IN4U2cM": {"geometry": {"location": {"lat": 51.49025400000001, "lng": -0.1435963}, "viewport": {"northeast": {"lat": 51.4915729802915, "lng": -0.142184519708498}, "southwest": {"lat": 51.48887501970851, "lng": -0.1448824802915021}}}, "name": "Ortho-trauma International LLP", "place_id": "ChIJc245Xx4FdkgRz0r8IN4U2cM", "types": ["health", "point_of_interest", "store", "establishment"]}, "ChIJxbbdUB4FdkgRi-h9MTpjCy0": {"geometry": {"location": {"lat": 51.4907512, "lng": -0.1433335}, "viewport": {"northeast": {"lat": 51.49205023029149, "lng": -0.142045069708498}, "southwest": {"lat": 51.48935226970849, "lng": -0.144743030291502}}}, "name": "Greysby Ltd", "place_id": "ChIJxbbdUB4FdkgRi-h9MTpjCy0", "types": ["lodging", "point_of_interest", "establishment"]}, "ChIJOZDH1-wFdkgRBfcFDGqti_M": {"geometry": {"location": {"lat": 51.4907957, "lng": -0.1433964}, "viewport": {"northeast": {"lat": 51.4920899802915, "lng": -0.142113769708498}, "southwest": {"lat": 51.4893920197085, "lng": -0.144811730291502}}}, "name": "Repono Storage UK Ltd", "place_id": "ChIJOZDH1-wFdkgRBfcFDGqti_M", "types": ["storage", "point_of_interest", "store", "establishment"], "rating": 4.8, "user_ratings_total": 19}, "ChIJK71HVx4FdkgROnX7mqZyia0": {"geometry": {"location": {"lat": 51.49069000000001, "lng": -0.1434699}, "viewport": {"northeast": {"lat": 51.49204183029149, "lng": -0.142111719708498}, "southwest": {"lat": 51.48934386970849, "lng": -0.144809680291502}}}, "name": "ubitricity Charging Station", "place_id": "ChIJK71HVx4FdkgROnX7mqZyia0", "types": ["point_of_interest", "establishment"]}, "ChIJeaFLVh4FdkgRykBxMkT1Wgw": {"geometry": {"location": {"lat": 51.4907519, "lng": -0.1434967}, "viewport": {"northeast": {"lat": 51.4920758302915, "lng": -0.142177569708498}, "southwest": {"lat": 51.4893778697085, "lng": -0.144875530291502}}}, "name": "ubitricity Charging Station", "place_id": "ChIJeaFLVh4FdkgRykBxMkT1Wgw", "types": ["point_of_interest", "establishment"]}, "ChIJjXRzRR4FdkgRBS08Nkzywtc": {"geometry": {"location": {"lat": 51.4905415, "lng": -0.1428918}, "viewport": {"northeast": {"lat": 51.4918411802915, "lng": -0.141601969708498}, "southwest": {"lat": 51.4891432197085, "lng": -0.144299930291502}}}, "name": "Benjamin Milton Reflexology", "place_id": "ChIJjXRzRR4FdkgRBS08Nkzywtc", "types": ["health", "point_of_interest", "establishment"]}, "ChIJnRZoNLMFdkgRFuIEJk8FkfY": {"geometry": {"location": {"lat": 51.4909385, "lng": -0.1427689}, "viewport": {"northeast": {"lat": 51.4923032302915, "lng": -0.141376119708498}, "southwest": {"lat": 51.4896052697085, "lng": -0.144074080291502}}}, "name": "TravelWorld UK", "place_id": "ChIJnRZoNLMFdkgRFuIEJk8FkfY", "types": ["travel_agency", "point_of_interest", "establishment"]}, "ChIJ5U3vrtgEdkgRxgXizLWlQ0I": {"geometry": {"location": {"lat": 51.49066449999999, "lng": -0.1439899}, "viewport": {"northeast": {"lat": 51.4920894302915, "lng": -0.142548869708498}, "southwest": {"lat": 51.4893914697085, "lng": -0.145246830291502}}}, "name": "Embassy of Albania", "place_id": "ChIJ5U3vrtgEdkgRxgXizLWlQ0I", "types": ["embassy", "point_of_interest", "establishment"], "rating": 3.3, "user_ratings_total": 163}, "ChIJCwblOGgFdkgR0ruR4yVX84w": {"geometry": {"location": {"lat": 51.4911298, "lng": -0.1433751}, "viewport": {"northeast": {"lat": 51.4925102302915, "lng": -0.1420498197084979}, "southwest": {"lat": 51.4898122697085, "lng": -0.144747780291502}}}, "name": "Samuel Smith", "place_id": "ChIJCwblOGgFdkgR0ruR4yVX84w", "types": ["point_of_interest", "establishment"]}, "ChIJNe1BCNAZdkgRGnJug8XuE1Y": {"geometry": {"location": {"lat": 51.4906466, "lng": -0.1439202}, "viewport": {"northeast": {"lat": 51.49206678029149, "lng": -0.142484919708498}, "southwest": {"lat": 51.4893688197085, "lng": -0.145182880291502}}}, "name": "gREGORIES HOTEL", "place_id": "ChIJNe1BCNAZdkgRGnJug8XuE1Y", "types": ["lodging", "point_of_interest", "establishment"], "rating": 5, "user_ratings_total": 1}, "ChIJi8ilTR4FdkgRi88F1tRMPsk": {"geometry": {"location": {"lat": 51.4910819, "lng": -0.1429213}, "viewport": {"northeast": {"lat": 51.4924274802915, "lng": -0.141584069708498}, "southwest": {"lat": 51.4897295197085, "lng": -0.1442820302915021}}}, "name": "Westminster Tree Trust", "place_id": "ChIJi8ilTR4FdkgRi88F1tRMPsk", "types": ["point_of_interest", "establishment"]}, "ChIJH0lRlTcFdkgRXUXkXfg21Kc": {"geometry": {"location": {"lat": 51.4910206, "lng": -0.1437387}, "viewport": {"northeast": {"lat": 51.4922956302915, "lng": -0.142479669708498}, "southwest": {"lat": 51.4895976697085, "lng": -0.145177630291502}}}, "name": "Warwick Way Serviced Apartment", "place_id": "ChIJH0lRlTcFdkgRXUXkXfg21Kc", "types": ["lodging", "point_of_interest", "establishment"]}, "ChIJe3NDRB4FdkgRK93-CJ4YqQ4": {"geometry": {"location": {"lat": 51.490384, "lng": -0.142807}, "viewport": {"northeast": {"lat": 51.49173543029149, "lng": -0.1414551697084979}, "southwest": {"lat": 51.48903746970849, "lng": -0.144153130291502}}}, "name": "ubitricity Charging Station", "place_id": "ChIJe3NDRB4FdkgRK93-CJ4YqQ4", "types": ["point_of_interest", "establishment"]}, "ChIJaefmJCgFdkgRUWLWar2G-vQ": {"geometry": {"location": {"lat": 51.49086980000001, "lng": -0.1439293}, "viewport": {"northeast": {"lat": 51.4922463802915, "lng": -0.142546719708498}, "southwest": {"lat": 51.4895484197085, "lng": -0.1452446802915021}}}, "name": "St George Drive", "place_id": "ChIJaefmJCgFdkgRUWLWar2G-vQ", "types": ["lodging", "point_of_interest", "establishment"]}, "ChIJR4eySR4FdkgRgAoxrS7MKyw": {"geometry": {"location": {"lat": 51.4908534, "lng": -0.1425333}, "viewport": {"northeast": {"lat": 51.49222483029151, "lng": -0.141228519708498}, "southwest": {"lat": 51.48952686970851, "lng": -0.143926480291502}}}, "name": "Wired Back Limited", "place_id": "ChIJR4eySR4FdkgRgAoxrS7MKyw", "types": ["point_of_interest", "establishment"]}, "ChIJu6iK-B4FdkgRK2Tg6m7mx1k": {"geometry": {"location": {"lat": 51.4906842, "lng": -0.1440152}, "viewport": {"northeast": {"lat": 51.4921066302915, "lng": -0.142577169708498}, "southwest": {"lat": 51.4894086697085, "lng": -0.145275130291502}}}, "name": "Ambasada e Shqip\u00ebris\u00eb Lond\u00ebr", "place_id": "ChIJu6iK-B4FdkgRK2Tg6m7mx1k", "types": ["point_of_interest", "establishment"], "rating": 3.1, "user_ratings_total": 61}, "ChIJw6XYXh4FdkgRCmRjYqofTVo": {"geometry": {"location": {"lat": 51.4902543, "lng": -0.1435854}, "viewport": {"northeast": {"lat": 51.4915748802915, "lng": -0.142176919708498}, "southwest": {"lat": 51.4888769197085, "lng": -0.144874880291502}}}, "name": "Edge Global", "place_id": "ChIJw6XYXh4FdkgRCmRjYqofTVo", "types": ["point_of_interest", "store", "establishment"]}, "ChIJVVXWXh4FdkgR71cwIRprGKM": {"geometry": {"location": {"lat": 51.4902543, "lng": -0.1435854}, "viewport": {"northeast": {"lat": 51.4915748802915, "lng": -0.142176919708498}, "southwest": {"lat": 51.4888769197085, "lng": -0.144874880291502}}}, "name": "EMMANUEL GOBILLOT LIMITED", "place_id": "ChIJVVXWXh4FdkgR71cwIRprGKM", "types": ["point_of_interest", "establishment"]}, "ChIJE6OWMoUFdkgRBEY59pY_ogc": {"geometry": {"location": {"lat": 51.4902543, "lng": -0.1435854}, "viewport": {"northeast": {"lat": 51.4915748802915, "lng": -0.142176919708498}, "southwest": {"lat": 51.4888769197085, "lng": -0.144874880291502}}}, "name": "SILK LENGTHS", "place_id": "ChIJE6OWMoUFdkgRBEY59pY_ogc", "types": ["hair_care", "point_of_interest", "establishment"], "rating": 5, "user_ratings_total": 15}, "ChIJVVXWXh4FdkgROKCsoCpePE0": {"geometry": {"location": {"lat": 51.4902543, "lng": -0.1435854}, "viewport": {"northeast": {"lat": 51.4915748802915, "lng": -0.142176919708498}, "southwest": {"lat": 51.4888769197085, "lng": -0.144874880291502}}}, "name": "Roka Construction Limited", "place_id": "ChIJVVXWXh4FdkgROKCsoCpePE0", "types": ["general_contractor", "point_of_interest", "establishment"], "rating": 5, "user_ratings_total": 1}, "ChIJVVXWXh4FdkgRBJXlfFF7Z_I": {"geometry": {"location": {"lat": 51.4902543, "lng": -0.1435854}, "viewport": {"northeast": {"lat": 51.4915748802915, "lng": -0.142176919708498}, "southwest": {"lat": 51.4888769197085, "lng": -0.144874880291502}}}, "name": "Ash Contracting Limited", "place_id": "ChIJVVXWXh4FdkgRBJXlfFF7Z_I", "types": ["point_of_interest", "establishment"]}, "ChIJVVXWXh4FdkgRPb5orQUtD8E": {"geometry": {"location": {"lat": 51.4902543, "lng": -0.1435854}, "viewport": {"northeast": {"lat": 51.4915748802915, "lng": -0.142176919708498}, "southwest": {"lat": 51.4888769197085, "lng": -0.144874880291502}}}, "name": "Universal Advanced Technology Limited", "place_id": "ChIJVVXWXh4FdkgRPb5orQUtD8E", "types": ["point_of_interest", "establishment"]}, "ChIJVVXWXh4FdkgR1ikmWI2jIKs": {"geometry": {"location": {"lat": 51.4902543, "lng": -0.1435854}, "viewport": {"northeast": {"lat": 51.4915748802915, "lng": -0.142176919708498}, "southwest": {"lat": 51.4888769197085, "lng": -0.144874880291502}}}, "name": "No Limits Hospitality Ltd", "place_id": "ChIJVVXWXh4FdkgR1ikmWI2jIKs", "types": ["point_of_interest", "establishment"]}, "ChIJVVXWXh4FdkgRtRGmGQq_RqA": {"geometry": {"location": {"lat": 51.4902543, "lng": -0.1435854}, "viewport": {"northeast": {"lat": 51.4915748802915, "lng": -0.142176919708498}, "southwest": {"lat": 51.4888769197085, "lng": -0.144874880291502}}}, "name": "Brand Hatch Ltd", "place_id": "ChIJVVXWXh4FdkgRtRGmGQq_RqA", "types": ["point_of_interest", "establishment"], "rating": 5, "user_ratings_total": 22}, "ChIJVVXWXh4FdkgR0aPUQs4_bdw": {"geometry": {"location": {"lat": 51.4902543, "lng": -0.1435854}, "viewport": {"northeast": {"lat": 51.4915748802915, "lng": -0.142176919708498}, "southwest": {"lat": 51.4888769197085, "lng": -0.144874880291502}}}, "name": "Mecserflex Manufacturing Company Limited", "place_id": "ChIJVVXWXh4FdkgR0aPUQs4_bdw", "types": ["point_of_interest", "establishment"]}, "ChIJVVXWXh4FdkgR1TuPFSVH8a0": {"geometry": {"location": {"lat": 51.4902543, "lng": -0.1435854}, "viewport": {"northeast": {"lat": 51.4915748802915, "lng": -0.142176919708498}, "southwest": {"lat": 51.4888769197085, "lng": -0.144874880291502}}}, "name": "Loudwater Systems Management Ltd", "place_id": "ChIJVVXWXh4FdkgR1TuPFSVH8a0", "types": ["point_of_interest", "establishment"]}, "ChIJVVXWXh4FdkgRjI_aHizaOvc": {"geometry": {"location": {"lat": 51.4902543, "lng": -0.1435854}, "viewport": {"northeast": {"lat": 51.4915748802915, "lng": -0.142176919708498}, "southwest": {"lat": 51.4888769197085, "lng": -0.144874880291502}}}, "name": "VIA Consulting Ltd - commercial event and content growth consulting", "place_id": "ChIJVVXWXh4FdkgRjI_aHizaOvc", "types": ["point_of_interest", "establishment"]}, "ChIJFZSiZx4FdkgR5WF0Sh9jtyQ": {"geometry": {"location": {"lat": 51.48987090038534, "lng": -0.1431885490643292}, "viewport": {"northeast": {"lat": 51.4912198802915, "lng": -0.141839569708498}, "southwest": {"lat": 51.4885219197085, "lng": -0.144537530291502}}}, "name": "106-90 Cambridge St", "place_id": "ChIJFZSiZx4FdkgR5WF0Sh9jtyQ", "types": ["route"]}, "ChIJf9HxiB4FdkgRbE-1BJQ-0lg": {"geometry": {"location": {"lat": 51.4894138, "lng": -0.1439119}, "viewport": {"northeast": {"lat": 51.4908259802915, "lng": -0.142485069708498}, "southwest": {"lat": 51.4881280197085, "lng": -0.145183030291502}}}, "name": "Jamie Mills Ltd", "place_id": "ChIJf9HxiB4FdkgRbE-1BJQ-0lg", "types": ["store", "point_of_interest", "establishment"]}, "ChIJf8wSZh4FdkgR9-BWhsXbYV8": {"geometry": {"location": {"lat": 51.48967630000001, "lng": -0.143134}, "viewport": {"northeast": {"lat": 51.49107903029149, "lng": -0.141719769708498}, "southwest": {"lat": 51.4883810697085, "lng": -0.1444177302915021}}}, "name": "Dickens Brothers Limited", "place_id": "ChIJf8wSZh4FdkgR9-BWhsXbYV8", "types": ["point_of_interest", "establishment"]}, "ChIJy-ECZh4FdkgR97_1hU9CnCE": {"geometry": {"location": {"lat": 51.4896641, "lng": -0.143054}, "viewport": {"northeast": {"lat": 51.4910587302915, "lng": -0.141649619708498}, "southwest": {"lat": 51.4883607697085, "lng": -0.144347580291502}}}, "name": "Ski 2 Freedom Foundation", "place_id": "ChIJy-ECZh4FdkgR97_1hU9CnCE", "types": ["point_of_interest", "establishment"]}, "ChIJAQDcZh4FdkgRP3H32v6HWRo": {"geometry": {"location": {"lat": 51.4897722, "lng": -0.1433418}, "viewport": {"northeast": {"lat": 51.49117553029149, "lng": -0.141926819708498}, "southwest": {"lat": 51.4884775697085, "lng": -0.144624780291502}}}, "name": "Riverside Mental Health Trust", "place_id": "ChIJAQDcZh4FdkgRP3H32v6HWRo", "types": ["health", "point_of_interest", "establishment"]}, "ChIJMSEFNAoFdkgRvIuWoMgdXaM": {"geometry": {"location": {"lat": 51.48987090000001, "lng": -0.1431886}, "viewport": {"northeast": {"lat": 51.4911947302915, "lng": -0.141870119708498}, "southwest": {"lat": 51.4884967697085, "lng": -0.1445680802915021}}}, "name": "Jomo Kenyatta Blue Plaque", "place_id": "ChIJMSEFNAoFdkgRvIuWoMgdXaM", "types": ["point_of_interest", "establishment"], "rating": 4, "user_ratings_total": 2}, "ChIJ8cUUBJEFdkgRcubx4Jk-Bu4": {"geometry": {"location": {"lat": 51.4897292, "lng": -0.1428875}, "viewport": {"northeast": {"lat": 51.4910781802915, "lng": -0.141538519708498}, "southwest": {"lat": 51.4883802197085, "lng": -0.144236480291502}}}, "name": "Mathematical Bridge", "place_id": "ChIJ8cUUBJEFdkgRcubx4Jk-Bu4", "types": ["point_of_interest", "establishment"]}, "ChIJI206z9sFdkgRMNeGISV1i4E": {"geometry": {"location": {"lat": 51.4897292, "lng": -0.1428875}, "viewport": {"northeast": {"lat": 51.4910781802915, "lng": -0.141538519708498}, "southwest": {"lat": 51.4883802197085, "lng": -0.144236480291502}}}, "name": "Smith may solicitors", "place_id": "ChIJI206z9sFdkgRMNeGISV1i4E", "types": ["point_of_interest", "establishment"]}, "ChIJGRahZB4FdkgRPOQ9TUT02CI": {"geometry": {"location": {"lat": 51.4893669, "lng": -0.1433932}, "viewport": {"northeast": {"lat": 51.4907158802915, "lng": -0.142044219708498}, "southwest": {"lat": 51.4880179197085, "lng": -0.144742180291502}}}, "name": "Short Let Management Ltd", "place_id": "ChIJGRahZB4FdkgRPOQ9TUT02CI", "types": ["point_of_interest", "establishment"]}, "ChIJK7rbax4FdkgRLqUmxPZLvS4": {"geometry": {"location": {"lat": 51.4897391, "lng": -0.1426456}, "viewport": {"northeast": {"lat": 51.49110698029149, "lng": -0.141337069708498}, "southwest": {"lat": 51.48840901970849, "lng": -0.144035030291502}}}, "name": "Grosvenor School Of Modern Art", "place_id": "ChIJK7rbax4FdkgRLqUmxPZLvS4", "types": ["point_of_interest", "establishment"]}, "ChIJNWTHYy0FdkgRP2fTiOSB9R4": {"geometry": {"location": {"lat": 51.48928619999999, "lng": -0.143543}, "viewport": {"northeast": {"lat": 51.49059783029149, "lng": -0.142118919708498}, "southwest": {"lat": 51.48789986970849, "lng": -0.144816880291502}}}, "name": "Belly Dance Academy London", "place_id": "ChIJNWTHYy0FdkgRP2fTiOSB9R4", "types": ["point_of_interest", "establishment"]}, "ChIJgV4kah4FdkgRnAKTLcK3PNc": {"geometry": {"location": {"lat": 51.4898494, "lng": -0.1426434}, "viewport": {"northeast": {"lat": 51.4911800802915, "lng": -0.141253469708498}, "southwest": {"lat": 51.4884821197085, "lng": -0.143951430291502}}}, "name": "Pimlico Musical Foundation", "place_id": "ChIJgV4kah4FdkgRnAKTLcK3PNc", "types": ["point_of_interest", "establishment"]}, "ChIJp8FhVYYFdkgR1ddRWZsSMbU": {"geometry": {"location": {"lat": 51.4892645, "lng": -0.142903}, "viewport": {"northeast": {"lat": 51.49057258029151, "lng": -0.141604269708498}, "southwest": {"lat": 51.48787461970851, "lng": -0.144302230291502}}}, "name": "TR Corp", "place_id": "ChIJp8FhVYYFdkgR1ddRWZsSMbU", "types": ["point_of_interest", "establishment"]}, "ChIJnSd2iR4FdkgRF12cc1Vu2Lk": {"geometry": {"location": {"lat": 51.4895733, "lng": -0.1439609}, "viewport": {"northeast": {"lat": 51.4909380302915, "lng": -0.142592519708498}, "southwest": {"lat": 51.4882400697085, "lng": -0.145290480291502}}}, "name": "Zipcar", "place_id": "ChIJnSd2iR4FdkgRF12cc1Vu2Lk", "types": ["car_rental", "point_of_interest", "establishment"]}, "ChIJrW9z-tgFdkgRysP5tgwVfjA": {"geometry": {"location": {"lat": 51.4895733, "lng": -0.1439609}, "viewport": {"northeast": {"lat": 51.49093798029149, "lng": -0.142592519708498}, "southwest": {"lat": 51.48824001970849, "lng": -0.145290480291502}}}, "name": "Zipcar", "place_id": "ChIJrW9z-tgFdkgRysP5tgwVfjA", "types": ["point_of_interest", "establishment"]}, "ChIJTeF6RB4FdkgRdDtgRh_w4H4": {"geometry": {"location": {"lat": 51.4901524, "lng": -0.142942}, "viewport": {"northeast": {"lat": 51.4915844302915, "lng": -0.141493369708498}, "southwest": {"lat": 51.4888864697085, "lng": -0.144191330291502}}}, "name": "Brompton House", "place_id": "ChIJTeF6RB4FdkgRdDtgRh_w4H4", "types": ["lodging", "point_of_interest", "establishment"]}, "ChIJ1-lS4LsFdkgRPlpGLG6FagU": {"geometry": {"location": {"lat": 51.4901472, "lng": -0.1433689}, "viewport": {"northeast": {"lat": 51.49152033029149, "lng": -0.142071719708498}, "southwest": {"lat": 51.4888223697085, "lng": -0.144769680291502}}}, "name": "Laura Ashley Plaque", "place_id": "ChIJ1-lS4LsFdkgRPlpGLG6FagU", "types": ["tourist_attraction", "point_of_interest", "establishment"], "rating": 3, "user_ratings_total": 1}, "ChIJm-Y6Qh4FdkgR9mXyyFTCxKs": {"geometry": {"location": {"lat": 51.49007229999999, "lng": -0.1427306}, "viewport": {"northeast": {"lat": 51.4914984802915, "lng": -0.141288969708498}, "southwest": {"lat": 51.4888005197085, "lng": -0.143986930291502}}}, "name": "As Energy Ltd", "place_id": "ChIJm-Y6Qh4FdkgR9mXyyFTCxKs", "types": ["point_of_interest", "establishment"]}, "ChIJTwYKeB4FdkgRE3VWsSmbpks": {"geometry": {"location": {"lat": 51.48864440105872, "lng": -0.1431088974170973}, "viewport": {"northeast": {"lat": 51.48999338029149, "lng": -0.141759919708498}, "southwest": {"lat": 51.4872954197085, "lng": -0.144457880291502}}}, "name": "43-23 Winchester St", "place_id": "ChIJTwYKeB4FdkgRE3VWsSmbpks", "types": ["route"]}, "ChIJYcGsKhwFdkgRQwiJKoA5gPo": {"geometry": {"location": {"lat": 51.48867509999999, "lng": -0.1439002}, "viewport": {"northeast": {"lat": 51.4900473802915, "lng": -0.142601319708498}, "southwest": {"lat": 51.4873494197085, "lng": -0.145299280291502}}}, "name": "Minibus Hire London", "place_id": "ChIJYcGsKhwFdkgRQwiJKoA5gPo", "types": ["point_of_interest", "establishment"], "rating": 5, "user_ratings_total": 5}, "ChIJa5jd0B0FdkgR0eAIGCUZeFE": {"geometry": {"location": {"lat": 51.4882134, "lng": -0.143202}, "viewport": {"northeast": {"lat": 51.4895301302915, "lng": -0.141892169708498}, "southwest": {"lat": 51.48683216970851, "lng": -0.144590130291502}}}, "name": "New Ways", "place_id": "ChIJa5jd0B0FdkgR0eAIGCUZeFE", "types": ["point_of_interest", "establishment"]}, "ChIJa5jd0B0FdkgRYfA8Iji3nSU": {"geometry": {"location": {"lat": 51.4884726, "lng": -0.143332}, "viewport": {"northeast": {"lat": 51.4897262302915, "lng": -0.142098619708498}, "southwest": {"lat": 51.4870282697085, "lng": -0.144796580291502}}}, "name": "Pe\u00f1a Flamenca de Londres", "place_id": "ChIJa5jd0B0FdkgRYfA8Iji3nSU", "types": ["point_of_interest", "establishment"], "rating": 4.6, "user_ratings_total": 8}, "ChIJa5jd0B0FdkgRFYYb8xx0kUE": {"geometry": {"location": {"lat": 51.4884099, "lng": -0.1432637}, "viewport": {"northeast": {"lat": 51.48967328029151, "lng": -0.142018519708498}, "southwest": {"lat": 51.48697531970851, "lng": -0.1447164802915021}}}, "name": "Perform Pimlico", "place_id": "ChIJa5jd0B0FdkgRFYYb8xx0kUE", "types": ["university", "point_of_interest", "establishment"]}, "ChIJmQ0RsLUadkgRaTOyv3KBynM": {"geometry": {"location": {"lat": 51.488428, "lng": -0.1436354}, "viewport": {"northeast": {"lat": 51.48974123029149, "lng": -0.1423297197084979}, "southwest": {"lat": 51.48704326970849, "lng": -0.145027680291502}}}, "name": "Carters Solicitors", "place_id": "ChIJmQ0RsLUadkgRaTOyv3KBynM", "types": ["point_of_interest", "establishment"], "rating": 5, "user_ratings_total": 3}, "ChIJZ8GsKhwFdkgRgCzXInuP1kk": {"geometry": {"location": {"lat": 51.48866330000001, "lng": -0.1438412}, "viewport": {"northeast": {"lat": 51.49004653029151, "lng": -0.142565769708498}, "southwest": {"lat": 51.48734856970851, "lng": -0.145263730291502}}}, "name": "Sugar K Ltd", "place_id": "ChIJZ8GsKhwFdkgRgCzXInuP1kk", "types": ["point_of_interest", "establishment"]}, "ChIJ6518KhwFdkgR81y4cKU5ww0": {"geometry": {"location": {"lat": 51.4886082, "lng": -0.1439784}, "viewport": {"northeast": {"lat": 51.4899808302915, "lng": -0.142680169708498}, "southwest": {"lat": 51.4872828697085, "lng": -0.145378130291502}}}, "name": "Olimpicars", "place_id": "ChIJ6518KhwFdkgR81y4cKU5ww0", "types": ["point_of_interest", "establishment"], "rating": 4.3, "user_ratings_total": 4}, "ChIJLeteKxwFdkgRAY0RDyJFNJY": {"geometry": {"location": {"lat": 51.4882994, "lng": -0.1439006}, "viewport": {"northeast": {"lat": 51.4896933302915, "lng": -0.142497119708498}, "southwest": {"lat": 51.4869953697085, "lng": -0.145195080291502}}}, "name": "NATURE MEDICAL LTD-DOM", "place_id": "ChIJLeteKxwFdkgRAY0RDyJFNJY", "types": ["point_of_interest", "establishment"], "rating": 5, "user_ratings_total": 1}, "ChIJO2HT1R0FdkgRItOxxB-WO_Y": {"geometry": {"location": {"lat": 51.4885242, "lng": -0.1433389}, "viewport": {"northeast": {"lat": 51.4897624302915, "lng": -0.142124219708498}, "southwest": {"lat": 51.4870644697085, "lng": -0.1448221802915021}}}, "name": "Holy Apostles Church", "place_id": "ChIJO2HT1R0FdkgRItOxxB-WO_Y", "types": ["church", "place_of_worship", "point_of_interest", "establishment"], "rating": 4.6, "user_ratings_total": 76}, "ChIJ_UzFeB4FdkgR8dZB5gl_Abs": {"geometry": {"location": {"lat": 51.48876600000001, "lng": -0.143356}, "viewport": {"northeast": {"lat": 51.4900883802915, "lng": -0.142039469708498}, "southwest": {"lat": 51.4873904197085, "lng": -0.144737430291502}}}, "name": "ubitricity Charging Station", "place_id": "ChIJ_UzFeB4FdkgR8dZB5gl_Abs", "types": ["point_of_interest", "establishment"]}, "ChIJ1SY7ij8FdkgR7t7Fr-UeHOM": {"geometry": {"location": {"lat": 51.4887615, "lng": -0.1430959}, "viewport": {"northeast": {"lat": 51.4900713802915, "lng": -0.141794569708498}, "southwest": {"lat": 51.4873734197085, "lng": -0.144492530291502}}}, "name": "paul connected massage", "place_id": "ChIJ1SY7ij8FdkgR7t7Fr-UeHOM", "types": ["point_of_interest", "establishment"], "rating": 5, "user_ratings_total": 46}, "ChIJeSWO2B0FdkgRuMN1qXkoodk": {"geometry": {"location": {"lat": 51.48859, "lng": -0.14281}, "viewport": {"northeast": {"lat": 51.4899114302915, "lng": -0.1414946697084979}, "southwest": {"lat": 51.4872134697085, "lng": -0.144192630291502}}}, "name": "Spacious Loft With Balcony in Central London", "place_id": "ChIJeSWO2B0FdkgRuMN1qXkoodk", "types": ["lodging", "point_of_interest", "establishment"], "rating": 3, "user_ratings_total": 3}, "ChIJq6ozdh4FdkgRe356He-3OdM": {"geometry": {"location": {"lat": 51.4886953, "lng": -0.1428427}, "viewport": {"northeast": {"lat": 51.48998823029149, "lng": -0.141562119708498}, "southwest": {"lat": 51.4872902697085, "lng": -0.144260080291502}}}, "name": "Perfect mines", "place_id": "ChIJq6ozdh4FdkgRe356He-3OdM", "types": ["finance", "point_of_interest", "establishment"]}, "ChIJa5jd0B0FdkgRPSmeANDxcO0": {"geometry": {"location": {"lat": 51.4885099, "lng": -0.1438073}, "viewport": {"northeast": {"lat": 51.4898227802915, "lng": -0.142502069708498}, "southwest": {"lat": 51.4871248197085, "lng": -0.145200030291502}}}, "name": "Monkey Music Pimlico", "place_id": "ChIJa5jd0B0FdkgRPSmeANDxcO0", "types": ["point_of_interest", "establishment"]}, "ChIJfcOofh4FdkgRATQ6GLomHAc": {"geometry": {"location": {"lat": 51.4889056, "lng": -0.1433307}, "viewport": {"northeast": {"lat": 51.4902050302915, "lng": -0.142042169708498}, "southwest": {"lat": 51.4875070697085, "lng": -0.144740130291502}}}, "name": "Sussex St Children Centre", "place_id": "ChIJfcOofh4FdkgRATQ6GLomHAc", "types": ["point_of_interest", "establishment"]}, "ChIJAQCTKhwFdkgRDAUSy59JepQ": {"geometry": {"location": {"lat": 51.48857959999999, "lng": -0.1438927}, "viewport": {"northeast": {"lat": 51.4899701302915, "lng": -0.142632969708498}, "southwest": {"lat": 51.4872721697085, "lng": -0.145330930291502}}}, "name": "Zach Knightons", "place_id": "ChIJAQCTKhwFdkgRDAUSy59JepQ", "types": ["point_of_interest", "establishment"]}, "ChIJYTz2yZQFdkgR8JVdBEOoTjk": {"geometry": {"location": {"lat": 51.48857959999999, "lng": -0.1438927}, "viewport": {"northeast": {"lat": 51.4899701302915, "lng": -0.142632969708498}, "southwest": {"lat": 51.4872721697085, "lng": -0.145330930291502}}}, "name": "My Removal Man Ltd", "place_id": "ChIJYTz2yZQFdkgR8JVdBEOoTjk", "types": ["moving_company", "point_of_interest", "establishment"]}, "ChIJcZ-1P5QFdkgR-9CvKv7v9zM": {"geometry": {"location": {"lat": 51.48857959999999, "lng": -0.1438927}, "viewport": {"northeast": {"lat": 51.4899701302915, "lng": -0.142632969708498}, "southwest": {"lat": 51.4872721697085, "lng": -0.145330930291502}}}, "name": "HUBDEN", "place_id": "ChIJcZ-1P5QFdkgR-9CvKv7v9zM", "types": ["point_of_interest", "establishment"]}, "ChIJAQCTKhwFdkgRoA7YEpncEYs": {"geometry": {"location": {"lat": 51.48857959999999, "lng": -0.1438927}, "viewport": {"northeast": {"lat": 51.4899701302915, "lng": -0.142632969708498}, "southwest": {"lat": 51.4872721697085, "lng": -0.145330930291502}}}, "name": "Bestin Build Ltd", "place_id": "ChIJAQCTKhwFdkgRoA7YEpncEYs", "types": ["point_of_interest", "establishment"]}, "ChIJq-tViB4FdkgR2Zw5_bTp22g": {"geometry": {"location": {"lat": 51.488569, "lng": -0.1438955}, "viewport": {"northeast": {"lat": 51.4899610302915, "lng": -0.142638969708498}, "southwest": {"lat": 51.4872630697085, "lng": -0.145336930291502}}}, "name": "InPimlico Properties", "place_id": "ChIJq-tViB4FdkgR2Zw5_bTp22g", "types": ["real_estate_agency", "point_of_interest", "establishment"], "rating": 5, "user_ratings_total": 1}, "ChIJh2WCKhwFdkgRSnn8XDURu1s": {"geometry": {"location": {"lat": 51.4886393, "lng": -0.1439243}, "viewport": {"northeast": {"lat": 51.4900144302915, "lng": -0.142631469708498}, "southwest": {"lat": 51.4873164697085, "lng": -0.145329430291502}}}, "name": "Opium Dry Cleaners", "place_id": "ChIJh2WCKhwFdkgRSnn8XDURu1s", "types": ["laundry", "point_of_interest", "establishment"], "rating": 4.9, "user_ratings_total": 54}, "ChIJ90B0G-IFdkgRdVDcjiBBmHQ": {"geometry": {"location": {"lat": 51.48866270000001, "lng": -0.1439151}, "viewport": {"northeast": {"lat": 51.4900349802915, "lng": -0.142616219708498}, "southwest": {"lat": 51.48733701970851, "lng": -0.145314180291502}}}, "name": "Drugs and Me", "place_id": "ChIJ90B0G-IFdkgRdVDcjiBBmHQ", "types": ["point_of_interest", "establishment"], "rating": 5, "user_ratings_total": 1}, "ChIJt5tY3x0FdkgRf9w8mF5R7J4": {"geometry": {"location": {"lat": 51.4885113, "lng": -0.1425372}, "viewport": {"northeast": {"lat": 51.4898202802915, "lng": -0.141104169708498}, "southwest": {"lat": 51.4871223197085, "lng": -0.143802130291502}}}, "name": "Stanley Fyffe Associates", "place_id": "ChIJt5tY3x0FdkgRf9w8mF5R7J4", "types": ["point_of_interest", "establishment"]}, "ChIJIVClPrcFdkgRiThHhVvVNMs": {"geometry": {"location": {"lat": 51.48858949999999, "lng": -0.143951}, "viewport": {"northeast": {"lat": 51.4899695802915, "lng": -0.142668769708498}, "southwest": {"lat": 51.4872716197085, "lng": -0.145366730291502}}}, "name": "Red Laser Scanning", "place_id": "ChIJIVClPrcFdkgRiThHhVvVNMs", "types": ["point_of_interest", "establishment"], "rating": 5, "user_ratings_total": 11}, "ChIJNVsV0JkFdkgRS2XF1Ohpvkc": {"geometry": {"location": {"lat": 51.48858949999999, "lng": -0.143951}, "viewport": {"northeast": {"lat": 51.4899695802915, "lng": -0.142668769708498}, "southwest": {"lat": 51.4872716197085, "lng": -0.145366730291502}}}, "name": "The Good Painter", "place_id": "ChIJNVsV0JkFdkgRS2XF1Ohpvkc", "types": ["painter", "point_of_interest", "establishment"], "rating": 4.7, "user_ratings_total": 14}, "ChIJHV-dKhwFdkgRjearCjAFTGA": {"geometry": {"location": {"lat": 51.4886513, "lng": -0.1439359}, "viewport": {"northeast": {"lat": 51.4900225302915, "lng": -0.142634719708498}, "southwest": {"lat": 51.4873245697085, "lng": -0.1453326802915021}}}, "name": "Sara", "place_id": "ChIJHV-dKhwFdkgRjearCjAFTGA", "types": ["laundry", "point_of_interest", "establishment"], "rating": 5, "user_ratings_total": 5}, "ChIJ1Z18KhwFdkgRd916LFSjcLo": {"geometry": {"location": {"lat": 51.488608, "lng": -0.143978}, "viewport": {"northeast": {"lat": 51.4899807302915, "lng": -0.1426799697084979}, "southwest": {"lat": 51.4872827697085, "lng": -0.145377930291502}}}, "name": "TEMZA \u2013 Interior Design and Build Studio", "place_id": "ChIJ1Z18KhwFdkgRd916LFSjcLo", "types": ["general_contractor", "point_of_interest", "establishment"], "rating": 5, "user_ratings_total": 14}, "ChIJ6518KhwFdkgRmka5H3yqbLE": {"geometry": {"location": {"lat": 51.4886082, "lng": -0.1439784}, "viewport": {"northeast": {"lat": 51.4899808302915, "lng": -0.142680169708498}, "southwest": {"lat": 51.4872828697085, "lng": -0.145378130291502}}}, "name": "Installog Ltd", "place_id": "ChIJ6518KhwFdkgRmka5H3yqbLE", "types": ["point_of_interest", "establishment"]}, "ChIJlbA2KhwFdkgR8v4ga5Zhm5A": {"geometry": {"location": {"lat": 51.488321, "lng": -0.1439816}, "viewport": {"northeast": {"lat": 51.48972018029149, "lng": -0.142571769708498}, "southwest": {"lat": 51.48702221970849, "lng": -0.145269730291502}}}, "name": "London Vault & Basement Solutions", "place_id": "ChIJlbA2KhwFdkgR8v4ga5Zhm5A", "types": ["point_of_interest", "establishment"]}, "ChIJbYKnZQEFdkgRKWZtoSXAztw": {"geometry": {"location": {"lat": 51.489, "lng": -0.1428284}, "viewport": {"northeast": {"lat": 51.4903803802915, "lng": -0.141441119708498}, "southwest": {"lat": 51.4876824197085, "lng": -0.144139080291502}}}, "name": "RegenAlift PDO Threads", "place_id": "ChIJbYKnZQEFdkgRKWZtoSXAztw", "types": ["health", "point_of_interest", "establishment"]}, "ChIJ21t85h4FdkgR0N9hyvO9YEQ": {"geometry": {"location": {"lat": 51.49076235003466, "lng": -0.144918900054766}, "viewport": {"northeast": {"lat": 51.49211133029149, "lng": -0.143569919708498}, "southwest": {"lat": 51.48941336970849, "lng": -0.146267880291502}}}, "name": "128 Warwick Way", "place_id": "ChIJ21t85h4FdkgR0N9hyvO9YEQ", "types": ["route"]}, "ChIJ4xSR5h4FdkgRXIKQhFHsXnU": {"geometry": {"location": {"lat": 51.4908497, "lng": -0.1450323}, "viewport": {"northeast": {"lat": 51.4921622802915, "lng": -0.143602919708498}, "southwest": {"lat": 51.4894643197085, "lng": -0.146300880291502}}}, "name": "Grapevine Hotel", "place_id": "ChIJ4xSR5h4FdkgRXIKQhFHsXnU", "types": ["lodging", "point_of_interest", "establishment"], "rating": 2, "user_ratings_total": 270}, "ChIJ4xSR5h4FdkgRP1V9dAA66BE": {"geometry": {"location": {"lat": 51.490877, "lng": -0.144846}, "viewport": {"northeast": {"lat": 51.49222598029149, "lng": -0.143497019708498}, "southwest": {"lat": 51.4895280197085, "lng": -0.146194980291502}}}, "name": "Sheriff Hotel", "place_id": "ChIJ4xSR5h4FdkgRP1V9dAA66BE", "types": ["lodging", "point_of_interest", "establishment"], "rating": 3.1, "user_ratings_total": 329}, "ChIJr03UCB8FdkgRHpR3jU4GdWI": {"geometry": {"location": {"lat": 51.4911924, "lng": -0.1449474}, "viewport": {"northeast": {"lat": 51.4925707302915, "lng": -0.143530519708498}, "southwest": {"lat": 51.4898727697085, "lng": -0.146228480291502}}}, "name": "Eccleston Square Hotel", "place_id": "ChIJr03UCB8FdkgRHpR3jU4GdWI", "types": ["lodging", "point_of_interest", "establishment"], "rating": 4.3, "user_ratings_total": 357}, "ChIJUaUg5R4FdkgRZbumgAHJqE8": {"geometry": {"location": {"lat": 51.4907566, "lng": -0.1445887}, "viewport": {"northeast": {"lat": 51.4921492802915, "lng": -0.1432740697084979}, "southwest": {"lat": 51.4894513197085, "lng": -0.145972030291502}}}, "name": "OYO Bakers Hotel", "place_id": "ChIJUaUg5R4FdkgRZbumgAHJqE8", "types": ["lodging", "point_of_interest", "establishment"], "rating": 3.5, "user_ratings_total": 193}, "ChIJxd5j4R4FdkgRjuEHvok71zQ": {"geometry": {"location": {"lat": 51.4911101, "lng": -0.1446826}, "viewport": {"northeast": {"lat": 51.4924842302915, "lng": -0.143304119708498}, "southwest": {"lat": 51.4897862697085, "lng": -0.146002080291502}}}, "name": "Catholic Education Service", "place_id": "ChIJxd5j4R4FdkgRjuEHvok71zQ", "types": ["point_of_interest", "establishment"]}, "ChIJD6344R4FdkgRvqfG2AUsxI0": {"geometry": {"location": {"lat": 51.4910345, "lng": -0.1447919}, "viewport": {"northeast": {"lat": 51.4924496302915, "lng": -0.143365419708498}, "southwest": {"lat": 51.4897516697085, "lng": -0.146063380291502}}}, "name": "Catholic Bishops' Conference of England and Wales", "place_id": "ChIJD6344R4FdkgRvqfG2AUsxI0", "types": ["point_of_interest", "establishment"], "rating": 2.3, "user_ratings_total": 3}, "ChIJp7027x4FdkgRZNgVl2LWR_A": {"geometry": {"location": {"lat": 51.4905194, "lng": -0.1448806}, "viewport": {"northeast": {"lat": 51.4919196802915, "lng": -0.143467519708498}, "southwest": {"lat": 51.4892217197085, "lng": -0.146165480291502}}}, "name": "Artist Residence Clubhouse", "place_id": "ChIJp7027x4FdkgRZNgVl2LWR_A", "types": ["restaurant", "cafe", "lodging", "bar", "food", "point_of_interest", "establishment"], "rating": 4.4, "user_ratings_total": 722}, "ChIJo0Jlp1oxcEERcU8UMsuOPIo": {"geometry": {"location": {"lat": 51.49102550000001, "lng": -0.1448285000000001}, "viewport": {"northeast": {"lat": 51.4924479302915, "lng": -0.143389569708498}, "southwest": {"lat": 51.48974996970851, "lng": -0.146087530291502}}}, "name": "Apostleship Of The Sea", "place_id": "ChIJo0Jlp1oxcEERcU8UMsuOPIo", "types": ["point_of_interest", "establishment"]}, "ChIJjeLA4h4FdkgRimjaZAQ-nwY": {"geometry": {"location": {"lat": 51.4910611, "lng": -0.1447963}, "viewport": {"northeast": {"lat": 51.4924674302915, "lng": -0.143377069708498}, "southwest": {"lat": 51.4897694697085, "lng": -0.146075030291502}}}, "name": "Mental Health Project", "place_id": "ChIJjeLA4h4FdkgRimjaZAQ-nwY", "types": ["point_of_interest", "establishment"]}, "ChIJ2XL-4h4FdkgR-PCpadD-FQc": {"geometry": {"location": {"lat": 51.4911101, "lng": -0.1446826}, "viewport": {"northeast": {"lat": 51.4924842302915, "lng": -0.143304119708498}, "southwest": {"lat": 51.4897862697085, "lng": -0.146002080291502}}}, "name": "National Justice & Peace Network", "place_id": "ChIJ2XL-4h4FdkgR-PCpadD-FQc", "types": ["point_of_interest", "establishment"]}, "ChIJ2XL-4h4FdkgRUAcrnShA4NU": {"geometry": {"location": {"lat": 51.4911101, "lng": -0.1446826}, "viewport": {"northeast": {"lat": 51.4924842302915, "lng": -0.143304119708498}, "southwest": {"lat": 51.4897862697085, "lng": -0.146002080291502}}}, "name": "Catholic Agency to Support Evangelisation", "place_id": "ChIJ2XL-4h4FdkgRUAcrnShA4NU", "types": ["point_of_interest", "establishment"]}, "ChIJRTC34h4FdkgRqudAbpM-i1Y": {"geometry": {"location": {"lat": 51.49111079999999, "lng": -0.1446727}, "viewport": {"northeast": {"lat": 51.49248153029149, "lng": -0.143298219708498}, "southwest": {"lat": 51.48978356970849, "lng": -0.145996180291502}}}, "name": "Catholic Faith", "place_id": "ChIJRTC34h4FdkgRqudAbpM-i1Y", "types": ["church", "place_of_worship", "point_of_interest", "establishment"], "rating": 3, "user_ratings_total": 1}, "ChIJjeLA4h4FdkgRWlj9Ka1ZVAs": {"geometry": {"location": {"lat": 51.491112, "lng": -0.1446756}, "viewport": {"northeast": {"lat": 51.4924807802915, "lng": -0.1433033197084979}, "southwest": {"lat": 51.4897828197085, "lng": -0.146001280291502}}}, "name": "The National Office for Vocation", "place_id": "ChIJjeLA4h4FdkgRWlj9Ka1ZVAs", "types": ["point_of_interest", "establishment"]}, "ChIJoxXZ3h4FdkgRzxUKBXHICgs": {"geometry": {"location": {"lat": 51.491166, "lng": -0.1449562}, "viewport": {"northeast": {"lat": 51.49256303029151, "lng": -0.143546069708498}, "southwest": {"lat": 51.48986506970851, "lng": -0.146244030291502}}}, "name": "The Catholic Medical Association", "place_id": "ChIJoxXZ3h4FdkgRzxUKBXHICgs", "types": ["point_of_interest", "establishment"], "rating": 5, "user_ratings_total": 1}, "ChIJMRU-8h4FdkgRzOEBpQtB-BE": {"geometry": {"location": {"lat": 51.4905694, "lng": -0.1449278}, "viewport": {"northeast": {"lat": 51.49196303029151, "lng": -0.143529969708498}, "southwest": {"lat": 51.48926506970851, "lng": -0.146227930291502}}}, "name": "Artist Residence London", "place_id": "ChIJMRU-8h4FdkgRzOEBpQtB-BE", "types": ["lodging", "point_of_interest", "establishment"], "rating": 4.4, "user_ratings_total": 129}, "ChIJtQPB8B4FdkgRGjfaBEt9CR0": {"geometry": {"location": {"lat": 51.4905196, "lng": -0.1442278}, "viewport": {"northeast": {"lat": 51.4918213302915, "lng": -0.142937869708498}, "southwest": {"lat": 51.4891233697085, "lng": -0.145635830291502}}}, "name": "Robert Plane", "place_id": "ChIJtQPB8B4FdkgRGjfaBEt9CR0", "types": ["point_of_interest", "establishment"]}, "ChIJMRU-8h4FdkgRIPlFyUIebh8": {"geometry": {"location": {"lat": 51.4903006, "lng": -0.1444661}, "viewport": {"northeast": {"lat": 51.49170598029149, "lng": -0.143047169708498}, "southwest": {"lat": 51.4890080197085, "lng": -0.145745130291502}}}, "name": "Elm Therapists", "place_id": "ChIJMRU-8h4FdkgRIPlFyUIebh8", "types": ["health", "point_of_interest", "establishment"]}, "ChIJn89m5R4FdkgRYe6VaNEAuLY": {"geometry": {"location": {"lat": 51.4905365, "lng": -0.1443208}, "viewport": {"northeast": {"lat": 51.49184698029149, "lng": -0.143019919708498}, "southwest": {"lat": 51.48914901970849, "lng": -0.145717880291502}}}, "name": "Classic Bindings Ltd", "place_id": "ChIJn89m5R4FdkgRYe6VaNEAuLY", "types": ["book_store", "home_goods_store", "point_of_interest", "store", "establishment"], "rating": 4.5, "user_ratings_total": 2}, "ChIJU8SU5h4FdkgRm98hA4cUIGw": {"geometry": {"location": {"lat": 51.490862, "lng": -0.1449706}, "viewport": {"northeast": {"lat": 51.4921642802915, "lng": -0.143585069708498}, "southwest": {"lat": 51.48946631970851, "lng": -0.146283030291502}}}, "name": "Sw1 Hotels Limited", "place_id": "ChIJU8SU5h4FdkgRm98hA4cUIGw", "types": ["lodging", "point_of_interest", "establishment"]}, "ChIJpc0s9jEFdkgR19NaQV1X4HE": {"geometry": {"location": {"lat": 51.490862, "lng": -0.1449706}, "viewport": {"northeast": {"lat": 51.4921642802915, "lng": -0.143585069708498}, "southwest": {"lat": 51.48946631970851, "lng": -0.146283030291502}}}, "name": "metropoliten university", "place_id": "ChIJpc0s9jEFdkgR19NaQV1X4HE", "types": ["school", "point_of_interest", "establishment"]}, "ChIJB_Yp5x4FdkgRWaCGl9lXiSw": {"geometry": {"location": {"lat": 51.49091939999999, "lng": -0.1450739}, "viewport": {"northeast": {"lat": 51.49221953029149, "lng": -0.143784519708498}, "southwest": {"lat": 51.48952156970849, "lng": -0.146482480291502}}}, "name": "Bower House", "place_id": "ChIJB_Yp5x4FdkgRWaCGl9lXiSw", "types": ["lodging", "point_of_interest", "establishment"]}, "ChIJBQVtcn0FdkgRvgv1A8tT4l4": {"geometry": {"location": {"lat": 51.49089590000001, "lng": -0.1451987}, "viewport": {"northeast": {"lat": 51.4922253802915, "lng": -0.143873719708498}, "southwest": {"lat": 51.48952741970851, "lng": -0.146571680291502}}}, "name": "Hotel Georgian House", "place_id": "ChIJBQVtcn0FdkgRvgv1A8tT4l4", "types": ["lodging", "point_of_interest", "establishment"]}, "ChIJVVV55B4FdkgRgTugMWtNYGE": {"geometry": {"location": {"lat": 51.49092, "lng": -0.1447253}, "viewport": {"northeast": {"lat": 51.4922298802915, "lng": -0.143345469708498}, "southwest": {"lat": 51.4895319197085, "lng": -0.146043430291502}}}, "name": "Investor & Occupier Limited", "place_id": "ChIJVVV55B4FdkgRgTugMWtNYGE", "types": ["point_of_interest", "establishment"]}, "ChIJVVWs-x4FdkgRI9aKsNAMG2o": {"geometry": {"location": {"lat": 51.49078710000001, "lng": -0.1442999}, "viewport": {"northeast": {"lat": 51.4922025302915, "lng": -0.143001019708498}, "southwest": {"lat": 51.4895045697085, "lng": -0.145698980291502}}}, "name": "Royal Ballet School", "place_id": "ChIJVVWs-x4FdkgRI9aKsNAMG2o", "types": ["point_of_interest", "establishment"]}, "ChIJxXL-4h4FdkgRQRTArgzI8_c": {"geometry": {"location": {"lat": 51.4911101, "lng": -0.1446827}, "viewport": {"northeast": {"lat": 51.4924821802915, "lng": -0.143306519708498}, "southwest": {"lat": 51.4897842197085, "lng": -0.146004480291502}}}, "name": "MARRIAGE & FAMILY LIFE", "place_id": "ChIJxXL-4h4FdkgRQRTArgzI8_c", "types": ["point_of_interest", "establishment"]}, "ChIJxXL-4h4FdkgRw1mbJyy4kT8": {"geometry": {"location": {"lat": 51.4911101, "lng": -0.1446827}, "viewport": {"northeast": {"lat": 51.4924842302915, "lng": -0.143304219708498}, "southwest": {"lat": 51.4897862697085, "lng": -0.146002180291502}}}, "name": "Stella Maris", "place_id": "ChIJxXL-4h4FdkgRw1mbJyy4kT8", "types": ["lodging", "point_of_interest", "establishment"]}, "ChIJGaJ7IcgFdkgRS4LysWzNklc": {"geometry": {"location": {"lat": 51.4911101, "lng": -0.1446827}, "viewport": {"northeast": {"lat": 51.4924842302915, "lng": -0.143304219708498}, "southwest": {"lat": 51.4897862697085, "lng": -0.146002180291502}}}, "name": "Formatio", "place_id": "ChIJGaJ7IcgFdkgRS4LysWzNklc", "types": ["point_of_interest", "establishment"]}, "ChIJxXL-4h4FdkgRWx9xSfRetqc": {"geometry": {"location": {"lat": 51.4911101, "lng": -0.1446827}, "viewport": {"northeast": {"lat": 51.4924842302915, "lng": -0.143304219708498}, "southwest": {"lat": 51.4897862697085, "lng": -0.146002180291502}}}, "name": "Cbcew", "place_id": "ChIJxXL-4h4FdkgRWx9xSfRetqc", "types": ["point_of_interest", "establishment"]}, "ChIJ2XL-4h4FdkgR21C9jYNWRmY": {"geometry": {"location": {"lat": 51.4911101, "lng": -0.1446826}, "viewport": {"northeast": {"lat": 51.4924842302915, "lng": -0.143304119708498}, "southwest": {"lat": 51.4897862697085, "lng": -0.146002080291502}}}, "name": "Roman Missal", "place_id": "ChIJ2XL-4h4FdkgR21C9jYNWRmY", "types": ["point_of_interest", "establishment"]}, "ChIJ2XL-4h4FdkgRw8XP-uWPWqk": {"geometry": {"location": {"lat": 51.4911101, "lng": -0.1446826}, "viewport": {"northeast": {"lat": 51.4924842302915, "lng": -0.143304119708498}, "southwest": {"lat": 51.4897862697085, "lng": -0.146002080291502}}}, "name": "Home Mission", "place_id": "ChIJ2XL-4h4FdkgRw8XP-uWPWqk", "types": ["point_of_interest", "establishment"]}, "ChIJ2XL-4h4FdkgRfXhM5QF8AZ4": {"geometry": {"location": {"lat": 51.4911101, "lng": -0.1446826}, "viewport": {"northeast": {"lat": 51.4924842302915, "lng": -0.143304119708498}, "southwest": {"lat": 51.4897862697085, "lng": -0.146002080291502}}}, "name": "Catholic Historic Churches", "place_id": "ChIJ2XL-4h4FdkgRfXhM5QF8AZ4", "types": ["point_of_interest", "establishment"]}, "ChIJ2XL-4h4FdkgRWEFAZaYPqwo": {"geometry": {"location": {"lat": 51.4911101, "lng": -0.1446826}, "viewport": {"northeast": {"lat": 51.4924842302915, "lng": -0.143304119708498}, "southwest": {"lat": 51.4897862697085, "lng": -0.146002080291502}}}, "name": "Catholic Gap Year", "place_id": "ChIJ2XL-4h4FdkgRWEFAZaYPqwo", "types": ["church", "place_of_worship", "point_of_interest", "establishment"]}, "ChIJK96z4h4FdkgRkIytDG3-77Q": {"geometry": {"location": {"lat": 51.49110869999999, "lng": -0.1446684}, "viewport": {"northeast": {"lat": 51.4924784802915, "lng": -0.143292919708498}, "southwest": {"lat": 51.4897805197085, "lng": -0.145990880291502}}}, "name": "English Language Liturgical Consultation", "place_id": "ChIJK96z4h4FdkgRkIytDG3-77Q", "types": ["point_of_interest", "establishment"]}, "ChIJxd5j4R4FdkgRkU5YeZeR0ko": {"geometry": {"location": {"lat": 51.491166, "lng": -0.1449562}, "viewport": {"northeast": {"lat": 51.49256303029151, "lng": -0.143546069708498}, "southwest": {"lat": 51.48986506970851, "lng": -0.146244030291502}}}, "name": "Catholic Youth Service", "place_id": "ChIJxd5j4R4FdkgRkU5YeZeR0ko", "types": ["point_of_interest", "establishment"]}, "ChIJlzgE3B4FdkgR5NXrZOga_mM": {"geometry": {"location": {"lat": 51.4909121, "lng": -0.1455922}, "viewport": {"northeast": {"lat": 51.49229293029151, "lng": -0.144203969708498}, "southwest": {"lat": 51.48959496970851, "lng": -0.146901930291502}}}, "name": "Entertainment Portal Ltd", "place_id": "ChIJlzgE3B4FdkgR5NXrZOga_mM", "types": ["point_of_interest", "establishment"]}, "ChIJDZpOlMEFdkgRGQ7a6OEIj6Y": {"geometry": {"location": {"lat": 51.4911924, "lng": -0.1449474}, "viewport": {"northeast": {"lat": 51.4925799802915, "lng": -0.143549269708498}, "southwest": {"lat": 51.4898820197085, "lng": -0.1462472302915021}}}, "name": "Battersea Evolution - hotels", "place_id": "ChIJDZpOlMEFdkgRGQ7a6OEIj6Y", "types": ["lodging", "point_of_interest", "establishment"]}, "ChIJq6q58B4FdkgRVXuFu2BpbC8": {"geometry": {"location": {"lat": 51.4905409, "lng": -0.1442067}, "viewport": {"northeast": {"lat": 51.4918327802915, "lng": -0.1429290697084979}, "southwest": {"lat": 51.48913481970851, "lng": -0.145627030291502}}}, "name": "George Vass", "place_id": "ChIJq6q58B4FdkgRVXuFu2BpbC8", "types": ["point_of_interest", "establishment"]}, "ChIJ5QHl-x4FdkgRVTBZazbBugw": {"geometry": {"location": {"lat": 51.4908909, "lng": -0.1441857}, "viewport": {"northeast": {"lat": 51.49227378029151, "lng": -0.142781719708498}, "southwest": {"lat": 51.48957581970851, "lng": -0.145479680291502}}}, "name": "Aud Jebsen Hall", "place_id": "ChIJ5QHl-x4FdkgRVTBZazbBugw", "types": ["point_of_interest", "establishment"]}, "ChIJjeLA4h4FdkgRmPRdUcD6rkY": {"geometry": {"location": {"lat": 51.491177, "lng": -0.1445969}, "viewport": {"northeast": {"lat": 51.4925329302915, "lng": -0.143239719708498}, "southwest": {"lat": 51.4898349697085, "lng": -0.145937680291502}}}, "name": "The Charles Plater Trust", "place_id": "ChIJjeLA4h4FdkgRmPRdUcD6rkY", "types": ["point_of_interest", "establishment"]}, "ChIJ0fB66x4FdkgRlEabmcV_3mc": {"geometry": {"location": {"lat": 51.49008683550755, "lng": -0.1449199728703233}, "viewport": {"northeast": {"lat": 51.4914365802915, "lng": -0.14349915}, "southwest": {"lat": 51.4887386197085, "lng": -0.14633895}}}, "name": "76-28 Alderney St", "place_id": "ChIJ0fB66x4FdkgRlEabmcV_3mc", "types": ["route"]}, "ChIJ028SlB4FdkgR1PDt2p5VLHw": {"geometry": {"location": {"lat": 51.48963889999999, "lng": -0.1449475}, "viewport": {"northeast": {"lat": 51.49094823029149, "lng": -0.143646319708498}, "southwest": {"lat": 51.48825026970849, "lng": -0.146344280291502}}}, "name": "Pimlico Flats", "place_id": "ChIJ028SlB4FdkgR1PDt2p5VLHw", "types": ["real_estate_agency", "point_of_interest", "establishment"], "rating": 3, "user_ratings_total": 2}, "ChIJ502BmR4FdkgRX17dO9nr6rw": {"geometry": {"location": {"lat": 51.48915339999999, "lng": -0.1448966}, "viewport": {"northeast": {"lat": 51.49047953029149, "lng": -0.143499169708498}, "southwest": {"lat": 51.4877815697085, "lng": -0.1461971302915021}}}, "name": "4 BEDROOMS Finest elegant acomodation", "place_id": "ChIJ502BmR4FdkgRX17dO9nr6rw", "types": ["lodging", "point_of_interest", "establishment"]}, "ChIJo_tMkR4FdkgRHGxjvIW8YKw": {"geometry": {"location": {"lat": 51.489631, "lng": -0.1448241}, "viewport": {"northeast": {"lat": 51.4909243802915, "lng": -0.143542119708498}, "southwest": {"lat": 51.4882264197085, "lng": -0.146240080291502}}}, "name": "Alpha Active Investments Limited", "place_id": "ChIJo_tMkR4FdkgRHGxjvIW8YKw", "types": ["finance", "point_of_interest", "establishment"], "rating": 1, "user_ratings_total": 8}, "ChIJhT_ovR4FdkgRE9qfsiuO84c": {"geometry": {"location": {"lat": 51.4895794, "lng": -0.1453326}, "viewport": {"northeast": {"lat": 51.49096533029149, "lng": -0.143939069708498}, "southwest": {"lat": 51.4882673697085, "lng": -0.146637030291502}}}, "name": "Jeffrey Boone", "place_id": "ChIJhT_ovR4FdkgRE9qfsiuO84c", "types": ["travel_agency", "point_of_interest", "establishment"]}, "ChIJJ67Nlh4FdkgRfdaDssRo9Yk": {"geometry": {"location": {"lat": 51.4894589, "lng": -0.1447685}, "viewport": {"northeast": {"lat": 51.4907992802915, "lng": -0.143424319708498}, "southwest": {"lat": 51.4881013197085, "lng": -0.146122280291502}}}, "name": "ubitricity Charging Station", "place_id": "ChIJJ67Nlh4FdkgRfdaDssRo9Yk", "types": ["point_of_interest", "establishment"]}, "ChIJq3bffNwFdkgRg2Nu2pGNyTk": {"geometry": {"location": {"lat": 51.4895122, "lng": -0.1446234}, "viewport": {"northeast": {"lat": 51.4908135802915, "lng": -0.143331769708498}, "southwest": {"lat": 51.4881156197085, "lng": -0.146029730291502}}}, "name": "Marine Tailored Therapies", "place_id": "ChIJq3bffNwFdkgRg2Nu2pGNyTk", "types": ["point_of_interest", "establishment"], "rating": 5, "user_ratings_total": 19}, "ChIJ4-vW6h4FdkgR-H9mxExwgq4": {"geometry": {"location": {"lat": 51.48998169999999, "lng": -0.1450808}, "viewport": {"northeast": {"lat": 51.4913881802915, "lng": -0.143662869708498}, "southwest": {"lat": 51.4886902197085, "lng": -0.146360830291502}}}, "name": "Sol Synergy", "place_id": "ChIJ4-vW6h4FdkgR-H9mxExwgq4", "types": ["point_of_interest", "establishment"]}, "ChIJiV8Lmh4FdkgRaf64FUcmnZo": {"geometry": {"location": {"lat": 51.4892779, "lng": -0.1447909}, "viewport": {"northeast": {"lat": 51.4906792802915, "lng": -0.143378819708498}, "southwest": {"lat": 51.4879813197085, "lng": -0.146076780291502}}}, "name": "The Climate Crisis Foundation", "place_id": "ChIJiV8Lmh4FdkgRaf64FUcmnZo", "types": ["point_of_interest", "establishment"]}, "ChIJpSJ6vB4FdkgR2hvhgEEUNCQ": {"geometry": {"location": {"lat": 51.48949739999999, "lng": -0.1455877}, "viewport": {"northeast": {"lat": 51.49083598029149, "lng": -0.144288869708498}, "southwest": {"lat": 51.48813801970849, "lng": -0.146986830291502}}}, "name": "S P Research", "place_id": "ChIJpSJ6vB4FdkgR2hvhgEEUNCQ", "types": ["point_of_interest", "establishment"]}, "ChIJveTzux4FdkgRuvw-DsM-blk": {"geometry": {"location": {"lat": 51.4895627, "lng": -0.1456398}, "viewport": {"northeast": {"lat": 51.4909040302915, "lng": -0.1443276197084979}, "southwest": {"lat": 51.4882060697085, "lng": -0.147025580291502}}}, "name": "Q Park", "place_id": "ChIJveTzux4FdkgRuvw-DsM-blk", "types": ["parking", "point_of_interest", "establishment"], "rating": 5, "user_ratings_total": 1}, "ChIJWb0Wox4FdkgRrklXI5NKfSM": {"geometry": {"location": {"lat": 51.48925329999999, "lng": -0.145415}, "viewport": {"northeast": {"lat": 51.4905803802915, "lng": -0.144111719708498}, "southwest": {"lat": 51.48788241970851, "lng": -0.146809680291502}}}, "name": "Red Squirrel Survival Trust", "place_id": "ChIJWb0Wox4FdkgRrklXI5NKfSM", "types": ["point_of_interest", "establishment"], "rating": 5, "user_ratings_total": 2}, "ChIJmSm6K74FdkgRY9XadVvFCyw": {"geometry": {"location": {"lat": 51.4892306, "lng": -0.1453695}, "viewport": {"northeast": {"lat": 51.4905508302915, "lng": -0.1440545697084979}, "southwest": {"lat": 51.4878528697085, "lng": -0.146752530291502}}}, "name": "Matt Massage", "place_id": "ChIJmSm6K74FdkgRY9XadVvFCyw", "types": ["point_of_interest", "establishment"], "rating": 5, "user_ratings_total": 3}, "ChIJ3dU2wB4FdkgRwSx34gX-hoQ": {"geometry": {"location": {"lat": 51.49008829999999, "lng": -0.1453192}, "viewport": {"northeast": {"lat": 51.49149613029149, "lng": -0.143899619708498}, "southwest": {"lat": 51.4887981697085, "lng": -0.146597580291502}}}, "name": "London Languages Ltd", "place_id": "ChIJ3dU2wB4FdkgRwSx34gX-hoQ", "types": ["point_of_interest", "establishment"]}, "ChIJ3dU2wB4FdkgRnfqHMcwFvfg": {"geometry": {"location": {"lat": 51.49008829999999, "lng": -0.1453192}, "viewport": {"northeast": {"lat": 51.49149613029149, "lng": -0.143899619708498}, "southwest": {"lat": 51.4887981697085, "lng": -0.146597580291502}}}, "name": "Anthony James Management Training", "place_id": "ChIJ3dU2wB4FdkgRnfqHMcwFvfg", "types": ["point_of_interest", "establishment"]}, "ChIJVRnT8h4FdkgRTnHsUiI-Jgk": {"geometry": {"location": {"lat": 51.48996210000001, "lng": -0.144363}, "viewport": {"northeast": {"lat": 51.4912677802915, "lng": -0.143065969708498}, "southwest": {"lat": 51.48856981970851, "lng": -0.145763930291502}}}, "name": "M&H Web Store Limited", "place_id": "ChIJVRnT8h4FdkgRTnHsUiI-Jgk", "types": ["point_of_interest", "establishment"]}, "ChIJ4QDuDcoEdkgR4-47qUR-cec": {"geometry": {"location": {"lat": 51.48996210000001, "lng": -0.144363}, "viewport": {"northeast": {"lat": 51.4912677802915, "lng": -0.143065969708498}, "southwest": {"lat": 51.48856981970851, "lng": -0.145763930291502}}}, "name": "Presto Coffee HQ", "place_id": "ChIJ4QDuDcoEdkgR4-47qUR-cec", "types": ["cafe", "food", "point_of_interest", "store", "establishment"], "rating": 5, "user_ratings_total": 8}, "ChIJnUsyid8FdkgRZ9dXKazah14": {"geometry": {"location": {"lat": 51.4898818, "lng": -0.1457624}, "viewport": {"northeast": {"lat": 51.4912322802915, "lng": -0.144411419708498}, "southwest": {"lat": 51.4885343197085, "lng": -0.147109380291502}}}, "name": "Possible Apartment", "place_id": "ChIJnUsyid8FdkgRZ9dXKazah14", "types": ["lodging", "point_of_interest", "establishment"]}, "ChIJIal1IRwFdkgRiDjtWyRJb3Y": {"geometry": {"location": {"lat": 51.48838370021871, "lng": -0.1450470994707314}, "viewport": {"northeast": {"lat": 51.4897326802915, "lng": -0.1436981197084979}, "southwest": {"lat": 51.48703471970851, "lng": -0.146396080291502}}}, "name": "28-18 Sutherland St", "place_id": "ChIJIal1IRwFdkgRiDjtWyRJb3Y", "types": ["route"]}, "ChIJ65uxLhwFdkgRZRnebk-ZjD8": {"geometry": {"location": {"lat": 51.488367, "lng": -0.144385}, "viewport": {"northeast": {"lat": 51.4897118802915, "lng": -0.143027469708498}, "southwest": {"lat": 51.4870139197085, "lng": -0.145725430291502}}}, "name": "Cyclone Aerial", "place_id": "ChIJ65uxLhwFdkgRZRnebk-ZjD8", "types": ["point_of_interest", "establishment"]}, "ChIJ2ZTeSBkFdkgRFWfmTtzplmU": {"geometry": {"location": {"lat": 51.4883395, "lng": -0.1451835}, "viewport": {"northeast": {"lat": 51.4897229802915, "lng": -0.143792769708498}, "southwest": {"lat": 51.4870250197085, "lng": -0.146490730291502}}}, "name": "Finobo Ltd", "place_id": "ChIJ2ZTeSBkFdkgRFWfmTtzplmU", "types": ["point_of_interest", "establishment"]}, "ChIJcZ2vOY4FdkgRcWhuKVrgvtg": {"geometry": {"location": {"lat": 51.4883885, "lng": -0.1453346}, "viewport": {"northeast": {"lat": 51.4897789802915, "lng": -0.143935419708498}, "southwest": {"lat": 51.4870810197085, "lng": -0.1466333802915021}}}, "name": "Gastrohome", "place_id": "ChIJcZ2vOY4FdkgRcWhuKVrgvtg", "types": ["restaurant", "food", "point_of_interest", "establishment"], "rating": 5, "user_ratings_total": 2}, "ChIJM6PRzKgFdkgRw8eJZ8j_NCs": {"geometry": {"location": {"lat": 51.488653, "lng": -0.1456151}, "viewport": {"northeast": {"lat": 51.4900019802915, "lng": -0.144266119708498}, "southwest": {"lat": 51.4873040197085, "lng": -0.146964080291502}}}, "name": "Psychotherapy Partnership SW1", "place_id": "ChIJM6PRzKgFdkgRw8eJZ8j_NCs", "types": ["health", "point_of_interest", "establishment"]}, "ChIJLSAHSDwFdkgRD0u9lotHHBc": {"geometry": {"location": {"lat": 51.4886318, "lng": -0.1443171}, "viewport": {"northeast": {"lat": 51.4899807802915, "lng": -0.142968119708498}, "southwest": {"lat": 51.4872828197085, "lng": -0.1456660802915021}}}, "name": "ABC Rooters & Heating", "place_id": "ChIJLSAHSDwFdkgRD0u9lotHHBc", "types": ["plumber", "general_contractor", "point_of_interest", "establishment"]}, "ChIJZ2swHBwFdkgRTqBgwy6o_ik": {"geometry": {"location": {"lat": 51.48851939999999, "lng": -0.1456911}, "viewport": {"northeast": {"lat": 51.48985553029149, "lng": -0.144271869708498}, "southwest": {"lat": 51.48715756970849, "lng": -0.146969830291502}}}, "name": "Zipcar", "place_id": "ChIJZ2swHBwFdkgRTqBgwy6o_ik", "types": ["car_rental", "point_of_interest", "establishment"]}, "ChIJuUOsHRwFdkgRmCefNWJ54YM": {"geometry": {"location": {"lat": 51.4884899, "lng": -0.1457621}, "viewport": {"northeast": {"lat": 51.4898242802915, "lng": -0.144345019708498}, "southwest": {"lat": 51.4871263197085, "lng": -0.147042980291502}}}, "name": "Educators International", "place_id": "ChIJuUOsHRwFdkgRmCefNWJ54YM", "types": ["point_of_interest", "establishment"]}, "ChIJuRyDzB4FdkgRLK0QEvabyYM": {"geometry": {"location": {"lat": 51.49029220331623, "lng": -0.1465731346561068}, "viewport": {"northeast": {"lat": 51.4916416302915, "lng": -0.145224419708498}, "southwest": {"lat": 51.4889436697085, "lng": -0.147922380291502}}}, "name": "Warwick Way", "place_id": "ChIJuRyDzB4FdkgRLK0QEvabyYM", "types": ["route"]}, "ChIJW-1aMhkFdkgRwWV_-qwrBe0": {"geometry": {"location": {"lat": 51.49049249999999, "lng": -0.1469171}, "viewport": {"northeast": {"lat": 51.4917909802915, "lng": -0.145456569708498}, "southwest": {"lat": 51.48909301970851, "lng": -0.148154530291502}}}, "name": "Third Age Counselling", "place_id": "ChIJW-1aMhkFdkgRwWV_-qwrBe0", "types": ["point_of_interest", "establishment"], "rating": 3, "user_ratings_total": 1}, "ChIJv2vV1B4FdkgRNSfQnJ_maxY": {"geometry": {"location": {"lat": 51.491098, "lng": -0.146717}, "viewport": {"northeast": {"lat": 51.4924250302915, "lng": -0.1454014197084979}, "southwest": {"lat": 51.4897270697085, "lng": -0.148099380291502}}}, "name": "Pimlico - Alderney St", "place_id": "ChIJv2vV1B4FdkgRNSfQnJ_maxY", "types": ["car_rental", "point_of_interest", "establishment"]}, "ChIJTxNGIdYEdkgRHJoA_FnnoVE": {"geometry": {"location": {"lat": 51.491172, "lng": -0.147083}, "viewport": {"northeast": {"lat": 51.4924885302915, "lng": -0.145642669708498}, "southwest": {"lat": 51.4897905697085, "lng": -0.148340630291502}}}, "name": "Re10 Restructuring and Advisory Limited", "place_id": "ChIJTxNGIdYEdkgRHJoA_FnnoVE", "types": ["accounting", "finance", "point_of_interest", "establishment"], "rating": 3.9, "user_ratings_total": 8}, "ChIJOyB42KoFdkgRHxLwvS2s7rk": {"geometry": {"location": {"lat": 51.490769, "lng": -0.146813}, "viewport": {"northeast": {"lat": 51.4920597802915, "lng": -0.145494469708498}, "southwest": {"lat": 51.4893618197085, "lng": -0.148192430291502}}}, "name": "Abbots Manor Residents' Association", "place_id": "ChIJOyB42KoFdkgRHxLwvS2s7rk", "types": ["point_of_interest", "establishment"]}, "ChIJA7RZMhkFdkgR6eNzcLlQFdw": {"geometry": {"location": {"lat": 51.49049249999999, "lng": -0.1469171}, "viewport": {"northeast": {"lat": 51.4917909802915, "lng": -0.145456569708498}, "southwest": {"lat": 51.48909301970851, "lng": -0.148154530291502}}}, "name": "Coach Station Apartment", "place_id": "ChIJA7RZMhkFdkgR6eNzcLlQFdw", "types": ["lodging", "point_of_interest", "establishment"]}, "ChIJE9BeqWgFdkgRPB9_6ho_EtY": {"geometry": {"location": {"lat": 51.49102260000001, "lng": -0.1467906}, "viewport": {"northeast": {"lat": 51.49236673029149, "lng": -0.145447669708498}, "southwest": {"lat": 51.48966876970849, "lng": -0.148145630291502}}}, "name": "Metal gate", "place_id": "ChIJE9BeqWgFdkgRPB9_6ho_EtY", "types": ["point_of_interest", "establishment"]}, "ChIJhzhrKRkFdkgR-we8b5fkBJ0": {"geometry": {"location": {"lat": 51.4908759, "lng": -0.1471588}, "viewport": {"northeast": {"lat": 51.4922631802915, "lng": -0.1459176697084979}, "southwest": {"lat": 51.4895652197085, "lng": -0.148615630291502}}}, "name": "Memiada Ltd", "place_id": "ChIJhzhrKRkFdkgR-we8b5fkBJ0", "types": ["point_of_interest", "establishment"]}, "ChIJhzhrKRkFdkgRb1fu_e76t_E": {"geometry": {"location": {"lat": 51.490906, "lng": -0.147145}, "viewport": {"northeast": {"lat": 51.49229143029149, "lng": -0.145898669708498}, "southwest": {"lat": 51.4895934697085, "lng": -0.148596630291502}}}, "name": "Caxton Youth Organisation", "place_id": "ChIJhzhrKRkFdkgRb1fu_e76t_E", "types": ["point_of_interest", "establishment"], "rating": 4.5, "user_ratings_total": 4}, "ChIJs0gPBh4FdkgRDgeZ2R1KsIw": {"geometry": {"location": {"lat": 51.49089600000001, "lng": -0.1461783}, "viewport": {"northeast": {"lat": 51.4922019802915, "lng": -0.144880919708498}, "southwest": {"lat": 51.48950401970851, "lng": -0.147578880291502}}}, "name": "Eve White Literary Agency", "place_id": "ChIJs0gPBh4FdkgRDgeZ2R1KsIw", "types": ["point_of_interest", "establishment"]}, "ChIJ37Qn4_EFdkgRbQIk-Guq-bU": {"geometry": {"location": {"lat": 51.49062499999999, "lng": -0.1460996}, "viewport": {"northeast": {"lat": 51.4920061802915, "lng": -0.144711969708498}, "southwest": {"lat": 51.4893082197085, "lng": -0.147409930291502}}}, "name": "Westminster Bangladeshi Welfare Trust (WBWT)", "place_id": "ChIJ37Qn4_EFdkgRbQIk-Guq-bU", "types": ["mosque", "place_of_worship", "point_of_interest", "establishment"], "rating": 5, "user_ratings_total": 2}, "ChIJX3U9KhkFdkgRIZ6HcF-S_-A": {"geometry": {"location": {"lat": 51.4911791, "lng": -0.1470342}, "viewport": {"northeast": {"lat": 51.4924956802915, "lng": -0.1456140197084979}, "southwest": {"lat": 51.48979771970851, "lng": -0.148311980291502}}}, "name": "Plane Catering Limited", "place_id": "ChIJX3U9KhkFdkgRIZ6HcF-S_-A", "types": ["point_of_interest", "establishment"]}, "ChIJX3U9KhkFdkgRCD0PAv5vq6w": {"geometry": {"location": {"lat": 51.4911791, "lng": -0.1470342}, "viewport": {"northeast": {"lat": 51.4924956802915, "lng": -0.1456140197084979}, "southwest": {"lat": 51.48979771970851, "lng": -0.148311980291502}}}, "name": "Debt Help Central", "place_id": "ChIJX3U9KhkFdkgRCD0PAv5vq6w", "types": ["point_of_interest", "establishment"]}, "ChIJX3U9KhkFdkgRNzGLdd1XIcs": {"geometry": {"location": {"lat": 51.4911791, "lng": -0.1470342}, "viewport": {"northeast": {"lat": 51.4924952302915, "lng": -0.145614469708498}, "southwest": {"lat": 51.4897972697085, "lng": -0.148312430291502}}}, "name": "Assured Accounting Services", "place_id": "ChIJX3U9KhkFdkgRNzGLdd1XIcs", "types": ["accounting", "finance", "point_of_interest", "establishment"]}, "ChIJq6ojKhkFdkgRWkbqFDJEVIQ": {"geometry": {"location": {"lat": 51.4911736, "lng": -0.1470571}, "viewport": {"northeast": {"lat": 51.4924893302915, "lng": -0.145629719708498}, "southwest": {"lat": 51.4897913697085, "lng": -0.148327680291502}}}, "name": "Astrocyte Quant Limited", "place_id": "ChIJq6ojKhkFdkgRWkbqFDJEVIQ", "types": ["point_of_interest", "establishment"]}, "ChIJq6ojKhkFdkgREv5vteyTt68": {"geometry": {"location": {"lat": 51.4911736, "lng": -0.1470571}, "viewport": {"northeast": {"lat": 51.4924893302915, "lng": -0.145629719708498}, "southwest": {"lat": 51.4897913697085, "lng": -0.148327680291502}}}, "name": "Domo Direct Limited", "place_id": "ChIJq6ojKhkFdkgREv5vteyTt68", "types": ["point_of_interest", "establishment"]}, "ChIJq6ojKhkFdkgRu-_iKJG4BrM": {"geometry": {"location": {"lat": 51.4911736, "lng": -0.1470571}, "viewport": {"northeast": {"lat": 51.4924893302915, "lng": -0.145629719708498}, "southwest": {"lat": 51.4897913697085, "lng": -0.148327680291502}}}, "name": "V8 Gourmet Limited", "place_id": "ChIJq6ojKhkFdkgRu-_iKJG4BrM", "types": ["point_of_interest", "establishment"]}, "ChIJq6ojKhkFdkgR3iopV7WZdzQ": {"geometry": {"location": {"lat": 51.4911736, "lng": -0.1470571}, "viewport": {"northeast": {"lat": 51.4924893302915, "lng": -0.145629719708498}, "southwest": {"lat": 51.4897913697085, "lng": -0.148327680291502}}}, "name": "Apppay Umbrella Limited", "place_id": "ChIJq6ojKhkFdkgR3iopV7WZdzQ", "types": ["point_of_interest", "establishment"]}, "ChIJ9TwHLsMFdkgRUCblKonyppg": {"geometry": {"location": {"lat": 51.4911736, "lng": -0.1470571}, "viewport": {"northeast": {"lat": 51.4924893302915, "lng": -0.145629719708498}, "southwest": {"lat": 51.4897913697085, "lng": -0.148327680291502}}}, "name": "Gobest4windows Ltd", "place_id": "ChIJ9TwHLsMFdkgRUCblKonyppg", "types": ["general_contractor", "point_of_interest", "establishment"]}, "ChIJsWhJIdYEdkgRi7blhZdNKFM": {"geometry": {"location": {"lat": 51.4911736, "lng": -0.1470571}, "viewport": {"northeast": {"lat": 51.4924893302915, "lng": -0.145629719708498}, "southwest": {"lat": 51.4897913697085, "lng": -0.148327680291502}}}, "name": "The Mayfair Networking Club", "place_id": "ChIJsWhJIdYEdkgRi7blhZdNKFM", "types": ["point_of_interest", "establishment"], "rating": 4.5, "user_ratings_total": 2}, "ChIJq6ojKhkFdkgRNdglFT6IFAw": {"geometry": {"location": {"lat": 51.4911736, "lng": -0.1470571}, "viewport": {"northeast": {"lat": 51.4924893302915, "lng": -0.145629719708498}, "southwest": {"lat": 51.4897913697085, "lng": -0.148327680291502}}}, "name": "Enso Europe Limited", "place_id": "ChIJq6ojKhkFdkgRNdglFT6IFAw", "types": ["point_of_interest", "establishment"]}, "ChIJq6ojKhkFdkgRBf2807VgNlU": {"geometry": {"location": {"lat": 51.4911736, "lng": -0.1470571}, "viewport": {"northeast": {"lat": 51.4924893302915, "lng": -0.145629719708498}, "southwest": {"lat": 51.4897913697085, "lng": -0.148327680291502}}}, "name": "Nk Desserts Ltd", "place_id": "ChIJq6ojKhkFdkgRBf2807VgNlU", "types": ["store", "point_of_interest", "establishment"]}, "ChIJ5XjnzB4FdkgR-lZUBreW5ms": {"geometry": {"location": {"lat": 51.49042499999999, "lng": -0.1466054}, "viewport": {"northeast": {"lat": 51.49175974871803, "lng": -0.145283001260133}, "southwest": {"lat": 51.48906178813504, "lng": -0.1479809618431371}}}, "name": "Parking lot", "place_id": "ChIJ5XjnzB4FdkgR-lZUBreW5ms", "types": ["parking", "premise", "point_of_interest", "establishment"]}, "ChIJs8pGTxkFdkgRa6iKfANjtew": {"geometry": {"location": {"lat": 51.48941100004475, "lng": -0.1470922998622771}, "viewport": {"northeast": {"lat": 51.49075998029149, "lng": -0.145743319708498}, "southwest": {"lat": 51.48806201970849, "lng": -0.148441280291502}}}, "name": "Sutherland Street", "place_id": "ChIJs8pGTxkFdkgRa6iKfANjtew", "types": ["route"]}, "ChIJGy9vux4FdkgR7YnbSKwmbOQ": {"geometry": {"location": {"lat": 51.490134, "lng": -0.146518}, "viewport": {"northeast": {"lat": 51.49148383029149, "lng": -0.144958219708498}, "southwest": {"lat": 51.48878586970849, "lng": -0.147656180291502}}}, "name": "Q-Park Pimlico", "place_id": "ChIJGy9vux4FdkgR7YnbSKwmbOQ", "types": ["parking", "storage", "point_of_interest", "establishment"], "rating": 4.1, "user_ratings_total": 151}, "ChIJq6r2th4FdkgRgRdto_R3rLY": {"geometry": {"location": {"lat": 51.4897714, "lng": -0.1462648}, "viewport": {"northeast": {"lat": 51.4911685302915, "lng": -0.1447412697084979}, "southwest": {"lat": 51.48847056970851, "lng": -0.147439230291502}}}, "name": "Central London Rescue & Repair Limited", "place_id": "ChIJq6r2th4FdkgRgRdto_R3rLY", "types": ["car_dealer", "car_repair", "point_of_interest", "store", "establishment"], "rating": 5, "user_ratings_total": 6}, "ChIJxyjJHRwFdkgRO7Mnl6petk0": {"geometry": {"location": {"lat": 51.48935549999999, "lng": -0.1471938}, "viewport": {"northeast": {"lat": 51.49070448029149, "lng": -0.145844819708498}, "southwest": {"lat": 51.48800651970849, "lng": -0.148542780291502}}}, "name": "Sir Simon Milton Westminster UTC", "place_id": "ChIJxyjJHRwFdkgRO7Mnl6petk0", "types": ["university", "school", "point_of_interest", "establishment"], "rating": 3.6, "user_ratings_total": 23}, "ChIJ_Y4Gth4FdkgRT4Oq9gd75GM": {"geometry": {"location": {"lat": 51.48992399999999, "lng": -0.146331}, "viewport": {"northeast": {"lat": 51.4913729302915, "lng": -0.145033569708498}, "southwest": {"lat": 51.4886749697085, "lng": -0.147731530291502}}}, "name": "Law Carpentry And Bathrooms", "place_id": "ChIJ_Y4Gth4FdkgRT4Oq9gd75GM", "types": ["point_of_interest", "establishment"], "rating": 5, "user_ratings_total": 2}, "ChIJC78cSRkFdkgRcnTRl2BaM2A": {"geometry": {"location": {"lat": 51.4894495, "lng": -0.1466688}, "viewport": {"northeast": {"lat": 51.4907217302915, "lng": -0.145434719708498}, "southwest": {"lat": 51.48802376970851, "lng": -0.148132680291502}}}, "name": "Abbots Manor Pre-School", "place_id": "ChIJC78cSRkFdkgRcnTRl2BaM2A", "types": ["school", "point_of_interest", "establishment"], "rating": 5, "user_ratings_total": 3}, "ChIJ6Q3mNwUFdkgRfLPtmV7gKhE": {"geometry": {"location": {"lat": 51.4897687, "lng": -0.1462346}, "viewport": {"northeast": {"lat": 51.49104378029151, "lng": -0.144953419708498}, "southwest": {"lat": 51.48834581970851, "lng": -0.147651380291502}}}, "name": "Massage by Leona", "place_id": "ChIJ6Q3mNwUFdkgRfLPtmV7gKhE", "types": ["point_of_interest", "establishment"]}, "ChIJC03Zth4FdkgRMTHYklEmZNY": {"geometry": {"location": {"lat": 51.48968600000001, "lng": -0.146185}, "viewport": {"northeast": {"lat": 51.49099268029151, "lng": -0.144907469708498}, "southwest": {"lat": 51.48829471970851, "lng": -0.147605430291502}}}, "name": "WBWT Community & Prayer Centre", "place_id": "ChIJC03Zth4FdkgRMTHYklEmZNY", "types": ["mosque", "place_of_worship", "point_of_interest", "establishment"], "rating": 4.8, "user_ratings_total": 51}, "ChIJXfepGZUFdkgRjbRdzjvsUgE": {"geometry": {"location": {"lat": 51.4894864, "lng": -0.14714}, "viewport": {"northeast": {"lat": 51.4908336302915, "lng": -0.145793719708498}, "southwest": {"lat": 51.48813566970851, "lng": -0.148491680291502}}}, "name": "Melrose House", "place_id": "ChIJXfepGZUFdkgRjbRdzjvsUgE", "types": ["lodging", "point_of_interest", "establishment"]}, "ChIJFT1UTRkFdkgRG1JUHtWWhKk": {"geometry": {"location": {"lat": 51.48932660000001, "lng": -0.1468347}, "viewport": {"northeast": {"lat": 51.49065738029151, "lng": -0.145512669708498}, "southwest": {"lat": 51.48795941970851, "lng": -0.148210630291502}}}, "name": "Westmoreland Terrace Sutherland Row (Stop J)", "place_id": "ChIJFT1UTRkFdkgRG1JUHtWWhKk", "types": ["bus_station", "transit_station", "point_of_interest", "establishment"], "rating": 5, "user_ratings_total": 2}, "ChIJCdzLgdUFdkgR9rZr7fQQOBM": {"geometry": {"location": {"lat": 51.48969449999999, "lng": -0.1472804}, "viewport": {"northeast": {"lat": 51.4909931802915, "lng": -0.145999019708498}, "southwest": {"lat": 51.4882952197085, "lng": -0.148696980291502}}}, "name": "Ebury apartment", "place_id": "ChIJCdzLgdUFdkgR9rZr7fQQOBM", "types": ["point_of_interest", "establishment"]}, "ChIJ9902rR4FdkgRus_evfpUvxg": {"geometry": {"location": {"lat": 51.48919850000001, "lng": -0.1466810000000001}, "viewport": {"northeast": {"lat": 51.4905574802915, "lng": -0.145318069708498}, "southwest": {"lat": 51.48785951970851, "lng": -0.148016030291502}}}, "name": "Turpentine Lane", "place_id": "ChIJ9902rR4FdkgRus_evfpUvxg", "types": ["transit_station", "point_of_interest", "establishment"], "rating": 5, "user_ratings_total": 1}, "ChIJX2MvNRkFdkgRS7_RtPCD1s0": {"geometry": {"location": {"lat": 51.49008899999999, "lng": -0.146763}, "viewport": {"northeast": {"lat": 51.49148528029149, "lng": -0.145250319708498}, "southwest": {"lat": 51.48878731970849, "lng": -0.147948280291502}}}, "name": "Chargemaster Charging Station", "place_id": "ChIJX2MvNRkFdkgRS7_RtPCD1s0", "types": ["point_of_interest", "establishment"]}, "ChIJQcfSgkgFdkgRD1LvLNvlbW4": {"geometry": {"location": {"lat": 51.4899745, "lng": -0.1472423}, "viewport": {"northeast": {"lat": 51.49142803029149, "lng": -0.145489969708498}, "southwest": {"lat": 51.4887300697085, "lng": -0.148187930291502}}}, "name": "Abbots Manor Playground", "place_id": "ChIJQcfSgkgFdkgRD1LvLNvlbW4", "types": ["point_of_interest", "establishment"], "rating": 2, "user_ratings_total": 1}, "ChIJk3-w1FMFdkgR9T6fc5ll-fk": {"geometry": {"location": {"lat": 51.490035, "lng": -0.1471421}, "viewport": {"northeast": {"lat": 51.4914582802915, "lng": -0.145439869708498}, "southwest": {"lat": 51.4887603197085, "lng": -0.148137830291502}}}, "name": "Furness House", "place_id": "ChIJk3-w1FMFdkgR9T6fc5ll-fk", "types": ["point_of_interest", "establishment"]}, "ChIJg6CR4RIFdkgRfox3F9-8hjM": {"geometry": {"location": {"lat": 51.4901199, "lng": -0.1464399}, "viewport": {"northeast": {"lat": 51.4914422802915, "lng": -0.145074019708498}, "southwest": {"lat": 51.4887443197085, "lng": -0.147771980291502}}}, "name": "Q-park Pimlico", "place_id": "ChIJg6CR4RIFdkgRfox3F9-8hjM", "types": ["parking", "point_of_interest", "establishment"], "rating": 5, "user_ratings_total": 1}, "ChIJXw1_yR4FdkgR30CRdd2_4sk": {"geometry": {"location": {"lat": 51.49013879999999, "lng": -0.1465343}, "viewport": {"northeast": {"lat": 51.4914868302915, "lng": -0.145132369708498}, "southwest": {"lat": 51.4887888697085, "lng": -0.147830330291502}}}, "name": "Source London Charging Station", "place_id": "ChIJXw1_yR4FdkgR30CRdd2_4sk", "types": ["point_of_interest", "establishment"]}, "ChIJIVbHiTIFdkgRrJ8s3eQbsX0": {"geometry": {"location": {"lat": 51.4901384, "lng": -0.1464473}, "viewport": {"northeast": {"lat": 51.4915022802915, "lng": -0.1451034697084979}, "southwest": {"lat": 51.4888043197085, "lng": -0.147801430291502}}}, "name": "Easirent Car Hire Pimlico/Victoria Station", "place_id": "ChIJIVbHiTIFdkgRrJ8s3eQbsX0", "types": ["car_rental", "point_of_interest", "establishment"], "rating": 1.8, "user_ratings_total": 10}, "ChIJ37ssph4FdkgRSIxKi6ZcuBs": {"geometry": {"location": {"lat": 51.48881168979521, "lng": -0.1459438642151615}, "viewport": {"northeast": {"lat": 51.49015618029151, "lng": -0.144599969708498}, "southwest": {"lat": 51.48745821970851, "lng": -0.147297930291502}}}, "name": "12-2 Sutherland St", "place_id": "ChIJ37ssph4FdkgRSIxKi6ZcuBs", "types": ["route"]}, "ChIJHV_CrB4FdkgRQaTpWsgHYvc": {"geometry": {"location": {"lat": 51.4890708, "lng": -0.1467326}, "viewport": {"northeast": {"lat": 51.4904401302915, "lng": -0.145462419708498}, "southwest": {"lat": 51.4877421697085, "lng": -0.148160380291502}}}, "name": "The White Ferry, Victoria (PUBLOVE)", "place_id": "ChIJHV_CrB4FdkgRQaTpWsgHYvc", "types": ["lodging", "bar", "restaurant", "food", "point_of_interest", "establishment"], "rating": 3.8, "user_ratings_total": 733}, "ChIJ3Vp7rB4FdkgRIRe2l99NYUY": {"geometry": {"location": {"lat": 51.48890069999999, "lng": -0.1466525}, "viewport": {"northeast": {"lat": 51.4902484802915, "lng": -0.145161669708498}, "southwest": {"lat": 51.48755051970851, "lng": -0.147859630291502}}}, "name": "Pimlico Launderette", "place_id": "ChIJ3Vp7rB4FdkgRIRe2l99NYUY", "types": ["laundry", "point_of_interest", "establishment"], "rating": 3.9, "user_ratings_total": 110}, "ChIJ56Yy_BsFdkgROg2Hyjq87aA": {"geometry": {"location": {"lat": 51.4885361, "lng": -0.1471006}, "viewport": {"northeast": {"lat": 51.48990698029151, "lng": -0.145660119708498}, "southwest": {"lat": 51.48720901970851, "lng": -0.148358080291502}}}, "name": "3queens.co.uk", "place_id": "ChIJ56Yy_BsFdkgROg2Hyjq87aA", "types": ["food", "point_of_interest", "establishment"]}, "ChIJxY9HAhwFdkgRXGvThSriTnc": {"geometry": {"location": {"lat": 51.4884832, "lng": -0.1463937}, "viewport": {"northeast": {"lat": 51.48985313029149, "lng": -0.144951669708498}, "southwest": {"lat": 51.48715516970849, "lng": -0.147649630291502}}}, "name": "The Anglo-Belgian Society", "place_id": "ChIJxY9HAhwFdkgRXGvThSriTnc", "types": ["point_of_interest", "establishment"]}, "ChIJKzE2ABwFdkgRrcQbQv8Mgag": {"geometry": {"location": {"lat": 51.4888613, "lng": -0.1465385}, "viewport": {"northeast": {"lat": 51.4902048802915, "lng": -0.145109519708498}, "southwest": {"lat": 51.4875069197085, "lng": -0.147807480291502}}}, "name": "MHA Bella Best House - Retirement Apartments", "place_id": "ChIJKzE2ABwFdkgRrcQbQv8Mgag", "types": ["health", "point_of_interest", "establishment"], "rating": 4, "user_ratings_total": 1}, "ChIJPcOMAxwFdkgRr2Quka5wbF0": {"geometry": {"location": {"lat": 51.4883495, "lng": -0.1463253}, "viewport": {"northeast": {"lat": 51.4897226302915, "lng": -0.144880119708498}, "southwest": {"lat": 51.4870246697085, "lng": -0.147578080291502}}}, "name": "FSI Worldwide", "place_id": "ChIJPcOMAxwFdkgRr2Quka5wbF0", "types": ["point_of_interest", "establishment"]}, "ChIJ-SJNABwFdkgRv9eHFBcxmS0": {"geometry": {"location": {"lat": 51.488978, "lng": -0.146705}, "viewport": {"northeast": {"lat": 51.49039373029149, "lng": -0.145448619708498}, "southwest": {"lat": 51.4876957697085, "lng": -0.148146580291502}}}, "name": "Fidgens", "place_id": "ChIJ-SJNABwFdkgRv9eHFBcxmS0", "types": ["point_of_interest", "establishment"], "rating": 5, "user_ratings_total": 1}, "ChIJ-SJNABwFdkgR5bArGQmL3aA": {"geometry": {"location": {"lat": 51.48899269999999, "lng": -0.1466019}, "viewport": {"northeast": {"lat": 51.4904010802915, "lng": -0.145302969708498}, "southwest": {"lat": 51.4877031197085, "lng": -0.148000930291502}}}, "name": "H4 Group", "place_id": "ChIJ-SJNABwFdkgR5bArGQmL3aA", "types": ["point_of_interest", "establishment"], "rating": 4.5, "user_ratings_total": 2}, "ChIJKzE2ABwFdkgRzMWmF1OQo9E": {"geometry": {"location": {"lat": 51.4889671, "lng": -0.1467881}, "viewport": {"northeast": {"lat": 51.4903882802915, "lng": -0.145490169708498}, "southwest": {"lat": 51.48769031970851, "lng": -0.148188130291502}}}, "name": "S W 1 Surveyors", "place_id": "ChIJKzE2ABwFdkgRzMWmF1OQo9E", "types": ["point_of_interest", "establishment"], "rating": 4, "user_ratings_total": 1}, "ChIJVSo9UBkFdkgRHKFcH6mWATQ": {"geometry": {"location": {"lat": 51.48900859999999, "lng": -0.1467587}, "viewport": {"northeast": {"lat": 51.4904090302915, "lng": -0.145475469708498}, "southwest": {"lat": 51.4877110697085, "lng": -0.148173430291502}}}, "name": "Ebury Place - Taylor Wimpey Central London", "place_id": "ChIJVSo9UBkFdkgRHKFcH6mWATQ", "types": ["point_of_interest", "establishment"], "rating": 5, "user_ratings_total": 5}, "ChIJdw2bLc0adkgRg-hpUUgF26c": {"geometry": {"location": {"lat": 51.4881472, "lng": -0.1463012}, "viewport": {"northeast": {"lat": 51.4895324802915, "lng": -0.144809919708498}, "southwest": {"lat": 51.4868345197085, "lng": -0.147507880291502}}}, "name": "Brummells of London", "place_id": "ChIJdw2bLc0adkgRg-hpUUgF26c", "types": ["point_of_interest", "clothing_store", "store", "establishment"], "rating": 4.5, "user_ratings_total": 37}, "ChIJeUKM-MoFdkgR5hGftV1Sno0": {"geometry": {"location": {"lat": 51.48829929999999, "lng": -0.1467445}, "viewport": {"northeast": {"lat": 51.48963698029149, "lng": -0.145442719708498}, "southwest": {"lat": 51.48693901970849, "lng": -0.148140680291502}}}, "name": "Lovenhighlights", "place_id": "ChIJeUKM-MoFdkgR5hGftV1Sno0", "types": ["place_of_worship", "point_of_interest", "establishment"]}, "ChIJ54OXPUAFdkgROLbd676NnrI": {"geometry": {"location": {"lat": 51.48838860000001, "lng": -0.1462485}, "viewport": {"northeast": {"lat": 51.4897495302915, "lng": -0.144846369708498}, "southwest": {"lat": 51.48705156970851, "lng": -0.147544330291502}}}, "name": "SW1 & SW3 FRENCH TUTORS", "place_id": "ChIJ54OXPUAFdkgROLbd676NnrI", "types": ["point_of_interest", "establishment"], "rating": 5, "user_ratings_total": 2}, "ChIJFwT1wzwFdkgRKcCABTKGouA": {"geometry": {"location": {"lat": 51.48897789999999, "lng": -0.146705}, "viewport": {"northeast": {"lat": 51.4903936802915, "lng": -0.145448619708498}, "southwest": {"lat": 51.4876957197085, "lng": -0.148146580291502}}}, "name": "GRA architecture & interiors ltd", "place_id": "ChIJFwT1wzwFdkgRKcCABTKGouA", "types": ["point_of_interest", "establishment"], "rating": 4, "user_ratings_total": 1}, "ChIJfW5okqIFdkgRiT7h7uB_unY": {"geometry": {"location": {"lat": 51.488978, "lng": -0.146705}, "viewport": {"northeast": {"lat": 51.49039373029149, "lng": -0.145448619708498}, "southwest": {"lat": 51.4876957697085, "lng": -0.148146580291502}}}, "name": "Architect7", "place_id": "ChIJfW5okqIFdkgRiT7h7uB_unY", "types": ["point_of_interest", "establishment"], "rating": 4.8, "user_ratings_total": 11}, "ChIJ0RwaKh8FdkgRwDuBkRyrNpQ": {"geometry": {"location": {"lat": 51.488978, "lng": -0.146705}, "viewport": {"northeast": {"lat": 51.49039373029149, "lng": -0.145448619708498}, "southwest": {"lat": 51.4876957697085, "lng": -0.148146580291502}}}, "name": "GRA architecture & interiors ltd", "place_id": "ChIJ0RwaKh8FdkgRwDuBkRyrNpQ", "types": ["point_of_interest", "establishment"]}, "ChIJ0Z3qBnkFdkgRlknMye9sEr4": {"geometry": {"location": {"lat": 51.488978, "lng": -0.146705}, "viewport": {"northeast": {"lat": 51.49039373029149, "lng": -0.145448619708498}, "southwest": {"lat": 51.4876957697085, "lng": -0.148146580291502}}}, "name": "velocity.business ltd", "place_id": "ChIJ0Z3qBnkFdkgRlknMye9sEr4", "types": ["point_of_interest", "establishment"]}, "ChIJKddRRo4FdkgRtA6NsouQm6Y": {"geometry": {"location": {"lat": 51.48900859999999, "lng": -0.1467587}, "viewport": {"northeast": {"lat": 51.4904090302915, "lng": -0.145475469708498}, "southwest": {"lat": 51.4877110697085, "lng": -0.148173430291502}}}, "name": "LuggageHero", "place_id": "ChIJKddRRo4FdkgRtA6NsouQm6Y", "types": ["storage", "point_of_interest", "establishment"]}, "ChIJQYzAZ_cFdkgRQIbZ2QkzA6I": {"geometry": {"location": {"lat": 51.48900859999999, "lng": -0.1467587}, "viewport": {"northeast": {"lat": 51.4904090302915, "lng": -0.145475469708498}, "southwest": {"lat": 51.4877110697085, "lng": -0.148173430291502}}}, "name": "Mei Quan Tai Chi - Victoria Central", "place_id": "ChIJQYzAZ_cFdkgRQIbZ2QkzA6I", "types": ["health", "point_of_interest", "establishment"]}, "ChIJuedUpx4FdkgRk2S7Ixl2MJQ": {"geometry": {"location": {"lat": 51.4890291, "lng": -0.1467358}, "viewport": {"northeast": {"lat": 51.49043853029149, "lng": -0.145449419708498}, "southwest": {"lat": 51.4877405697085, "lng": -0.148147380291502}}}, "name": "White Ferry House", "place_id": "ChIJuedUpx4FdkgRk2S7Ixl2MJQ", "types": ["bar", "point_of_interest", "establishment"], "rating": 4.1, "user_ratings_total": 66}, "ChIJySL6BBwFdkgRzgirbhXtdGI": {"geometry": {"location": {"lat": 51.4881724, "lng": -0.1462158000000001}, "viewport": {"northeast": {"lat": 51.48954653029149, "lng": -0.144768169708498}, "southwest": {"lat": 51.48684856970849, "lng": -0.147466130291502}}}, "name": "www.glossLegal.co.uk", "place_id": "ChIJySL6BBwFdkgRzgirbhXtdGI", "types": ["point_of_interest", "establishment"], "rating": 3.7, "user_ratings_total": 3}, "ChIJx8HCrB4FdkgRJPLyqAQIvHk": {"geometry": {"location": {"lat": 51.489086, "lng": -0.146628}, "viewport": {"northeast": {"lat": 51.49044518029149, "lng": -0.145264669708498}, "southwest": {"lat": 51.4877472197085, "lng": -0.147962630291502}}}, "name": "Westmoreland Terrace Sutherland Row (Stop K)", "place_id": "ChIJx8HCrB4FdkgRJPLyqAQIvHk", "types": ["transit_station", "point_of_interest", "establishment"]}, "ChIJA9xovgEFdkgRwZvVnfPnjGU": {"geometry": {"location": {"lat": 51.48813699999999, "lng": -0.1461916}, "viewport": {"northeast": {"lat": 51.4895110302915, "lng": -0.144744369708498}, "southwest": {"lat": 51.4868130697085, "lng": -0.147442330291502}}}, "name": "24/7 Roadside Assistance Pimlico", "place_id": "ChIJA9xovgEFdkgRwZvVnfPnjGU", "types": ["point_of_interest", "establishment"]}, "ChIJAQDQTB4FdkgRiEOQ-nqTG9g": {"geometry": {"location": {"lat": 51.4912612, "lng": -0.1427885}, "viewport": {"northeast": {"lat": 51.4926625302915, "lng": -0.141478719708498}, "southwest": {"lat": 51.4899645697085, "lng": -0.144176680291502}}}, "name": "The Warwick by Aura Collection", "place_id": "ChIJAQDQTB4FdkgRiEOQ-nqTG9g", "types": ["lodging", "point_of_interest", "establishment"], "rating": 5, "user_ratings_total": 2}, "ChIJRxzjQB4FdkgRPRT8qdXwgbA": {"geometry": {"location": {"lat": 51.4901037, "lng": -0.1425575}, "viewport": {"northeast": {"lat": 51.49149458029149, "lng": -0.141160269708498}, "southwest": {"lat": 51.48879661970849, "lng": -0.143858230291502}}}, "name": "Dinsdales Of London", "place_id": "ChIJRxzjQB4FdkgRPRT8qdXwgbA", "types": ["storage", "point_of_interest", "establishment"], "rating": 5, "user_ratings_total": 22}, "ChIJa0rnRh4FdkgRuz8XDil-QkM": {"geometry": {"location": {"lat": 51.49037329999999, "lng": -0.1425195}, "viewport": {"northeast": {"lat": 51.4916756302915, "lng": -0.141071169708498}, "southwest": {"lat": 51.4889776697085, "lng": -0.143769130291502}}}, "name": "Vienso Ltd", "place_id": "ChIJa0rnRh4FdkgRuz8XDil-QkM", "types": ["store", "point_of_interest", "establishment"]}, "ChIJCdCXah4FdkgRnWC4t7l1n4U": {"geometry": {"location": {"lat": 51.4899093, "lng": -0.1424039}, "viewport": {"northeast": {"lat": 51.4912528302915, "lng": -0.141043369708498}, "southwest": {"lat": 51.4885548697085, "lng": -0.143741330291502}}}, "name": "Zipcar", "place_id": "ChIJCdCXah4FdkgRnWC4t7l1n4U", "types": ["car_rental", "point_of_interest", "establishment"]}, "ChIJreStcx4FdkgRj9nGuYnso2I": {"geometry": {"location": {"lat": 51.4891794, "lng": -0.1426368}, "viewport": {"northeast": {"lat": 51.49047433029151, "lng": -0.141354219708498}, "southwest": {"lat": 51.48777636970851, "lng": -0.144052180291502}}}, "name": "Donald Burke Decorations", "place_id": "ChIJreStcx4FdkgRj9nGuYnso2I", "types": ["painter", "point_of_interest", "establishment"], "rating": 5, "user_ratings_total": 1}, "ChIJvwV4dB4FdkgRIpXv6FsktQY": {"geometry": {"location": {"lat": 51.4889711, "lng": -0.1425318}, "viewport": {"northeast": {"lat": 51.4903368302915, "lng": -0.141162219708498}, "southwest": {"lat": 51.4876388697085, "lng": -0.143860180291502}}}, "name": "Outlook Care", "place_id": "ChIJvwV4dB4FdkgRIpXv6FsktQY", "types": ["point_of_interest", "establishment"]}, "ChIJXzEkWxkFdkgR7z3u3vMyPy4": {"geometry": {"location": {"lat": 51.48901979999999, "lng": -0.1423811}, "viewport": {"northeast": {"lat": 51.49032663029149, "lng": -0.141083869708498}, "southwest": {"lat": 51.48762866970849, "lng": -0.143781830291502}}}, "name": "Boca Pharm Store", "place_id": "ChIJXzEkWxkFdkgR7z3u3vMyPy4", "types": ["health", "point_of_interest", "store", "establishment"]}, "ChIJJzCTXBcFdkgRs4RMBvUhg_Q": {"geometry": {"location": {"lat": 51.48949349999999, "lng": -0.1423814}, "viewport": {"northeast": {"lat": 51.49086688029149, "lng": -0.141003969708498}, "southwest": {"lat": 51.4881689197085, "lng": -0.143701930291502}}}, "name": "Aubrey Beardsley Blue Plaque", "place_id": "ChIJJzCTXBcFdkgRs4RMBvUhg_Q", "types": ["tourist_attraction", "point_of_interest", "establishment"], "rating": 3, "user_ratings_total": 1}, "ChIJbXZa_B4FdkgRnZTJDi5QIcA": {"geometry": {"location": {"lat": 51.49107320009293, "lng": -0.1442745497463929}, "viewport": {"northeast": {"lat": 51.4924221802915, "lng": -0.142925569708498}, "southwest": {"lat": 51.4897242197085, "lng": -0.145623530291502}}}, "name": "53 St George's Dr", "place_id": "ChIJbXZa_B4FdkgRnZTJDi5QIcA", "types": ["route"]}, "ChIJCcA8qx8FdkgRq2zgPKSZIrE": {"geometry": {"location": {"lat": 51.4912395, "lng": -0.1435893}, "viewport": {"northeast": {"lat": 51.4925493302915, "lng": -0.142210819708498}, "southwest": {"lat": 51.4898513697085, "lng": -0.144908780291502}}}, "name": "Limegrove Hotel", "place_id": "ChIJCcA8qx8FdkgRq2zgPKSZIrE", "types": ["lodging", "point_of_interest", "establishment"], "rating": 3.3, "user_ratings_total": 138}, "ChIJXVgO8R4FdkgRnbEAS3Wh9mk": {"geometry": {"location": {"lat": 51.49039495121811, "lng": -0.1442877469786323}, "viewport": {"northeast": {"lat": 51.49174393029149, "lng": -0.142938769708498}, "southwest": {"lat": 51.4890459697085, "lng": -0.145636730291502}}}, "name": "86-52 Cambridge St", "place_id": "ChIJXVgO8R4FdkgRnbEAS3Wh9mk", "types": ["route"]}, "ChIJY-2W7R4FdkgReCQrZwVdl5o": {"geometry": {"location": {"lat": 51.4898574, "lng": -0.1441019}, "viewport": {"northeast": {"lat": 51.4911576802915, "lng": -0.142811269708498}, "southwest": {"lat": 51.4884597197085, "lng": -0.145509230291502}}}, "name": "Victoria Manser Ltd", "place_id": "ChIJY-2W7R4FdkgReCQrZwVdl5o", "types": ["point_of_interest", "establishment"]}, "ChIJw6XYXh4FdkgRYu5XJor5ybY": {"geometry": {"location": {"lat": 51.49019849999999, "lng": -0.1436449}, "viewport": {"northeast": {"lat": 51.49154443029149, "lng": -0.142220769708498}, "southwest": {"lat": 51.4888464697085, "lng": -0.144918730291502}}}, "name": "George Hay & Co", "place_id": "ChIJw6XYXh4FdkgRYu5XJor5ybY", "types": ["accounting", "finance", "point_of_interest", "establishment"], "rating": 5, "user_ratings_total": 1}, "ChIJaU_gcYQFdkgRvIH9UkhuJc0": {"geometry": {"location": {"lat": 51.49026019999999, "lng": -0.1441882}, "viewport": {"northeast": {"lat": 51.4916367302915, "lng": -0.142804819708498}, "southwest": {"lat": 51.4889387697085, "lng": -0.145502780291502}}}, "name": "SAG MINING LIMITED", "place_id": "ChIJaU_gcYQFdkgRvIH9UkhuJc0", "types": ["point_of_interest", "establishment"], "rating": 1, "user_ratings_total": 6}, "ChIJpXUe9R4FdkgRl9dIB1I6H7k": {"geometry": {"location": {"lat": 51.4900584, "lng": -0.1439566}, "viewport": {"northeast": {"lat": 51.49146283029149, "lng": -0.142538319708498}, "southwest": {"lat": 51.4887648697085, "lng": -0.145236280291502}}}, "name": "Benedictus", "place_id": "ChIJpXUe9R4FdkgRl9dIB1I6H7k", "types": ["point_of_interest", "establishment"]}, "ChIJMRU-8h4FdkgRdbqOnqk77Cc": {"geometry": {"location": {"lat": 51.4902328, "lng": -0.1443888}, "viewport": {"northeast": {"lat": 51.49164813029149, "lng": -0.1429569197084979}, "southwest": {"lat": 51.4889501697085, "lng": -0.145654880291502}}}, "name": "Hotel Deals Center", "place_id": "ChIJMRU-8h4FdkgRdbqOnqk77Cc", "types": ["lodging", "point_of_interest", "establishment"]}, "ChIJP0ZUFk8FdkgRV22sU6nh2Hc": {"geometry": {"location": {"lat": 51.49034839999999, "lng": -0.1439007}, "viewport": {"northeast": {"lat": 51.4916536802915, "lng": -0.142605919708498}, "southwest": {"lat": 51.4889557197085, "lng": -0.145303880291502}}}, "name": "Mannys Electrical Safety Certificates", "place_id": "ChIJP0ZUFk8FdkgRV22sU6nh2Hc", "types": ["point_of_interest", "establishment"]}, "ChIJIbhSUYIFdkgRXzUMB-12uuU": {"geometry": {"location": {"lat": 51.4902355, "lng": -0.1436641}, "viewport": {"northeast": {"lat": 51.4915477302915, "lng": -0.142238169708498}, "southwest": {"lat": 51.4888497697085, "lng": -0.144936130291502}}}, "name": "Colombo Hirst", "place_id": "ChIJIbhSUYIFdkgRXzUMB-12uuU", "types": ["point_of_interest", "establishment"], "rating": 5, "user_ratings_total": 1}, "ChIJATDVhR4FdkgRocCmo0cYEgc": {"geometry": {"location": {"lat": 51.48913750030903, "lng": -0.1441506992395616}, "viewport": {"northeast": {"lat": 51.49048648029149, "lng": -0.142801719708498}, "southwest": {"lat": 51.4877885197085, "lng": -0.145499680291502}}}, "name": "57-45 Winchester St", "place_id": "ChIJATDVhR4FdkgRocCmo0cYEgc", "types": ["route"]}, "ChIJ02ykgB4FdkgRE__UQ16lUTw": {"geometry": {"location": {"lat": 51.4889146, "lng": -0.1439468}, "viewport": {"northeast": {"lat": 51.49024138029149, "lng": -0.142535719708498}, "southwest": {"lat": 51.48754341970849, "lng": -0.145233680291502}}}, "name": "Jackson-Stops Pimlico & Westminster", "place_id": "ChIJ02ykgB4FdkgRE__UQ16lUTw", "types": ["real_estate_agency", "point_of_interest", "establishment"], "rating": 4.9, "user_ratings_total": 141}, "ChIJsWwfgR4FdkgRK1xsTcL721w": {"geometry": {"location": {"lat": 51.48890609999999, "lng": -0.1440568}, "viewport": {"northeast": {"lat": 51.4902135802915, "lng": -0.142618719708498}, "southwest": {"lat": 51.4875156197085, "lng": -0.145316680291502}}}, "name": "Horizon House Publications Ltd", "place_id": "ChIJsWwfgR4FdkgRK1xsTcL721w", "types": ["point_of_interest", "establishment"]}, "ChIJp0__hh4FdkgR2XmOc2uof4Y": {"geometry": {"location": {"lat": 51.4890901, "lng": -0.1441439}, "viewport": {"northeast": {"lat": 51.4904530302915, "lng": -0.142777819708498}, "southwest": {"lat": 51.48775506970851, "lng": -0.145475780291502}}}, "name": "ubitricity Charging Station", "place_id": "ChIJp0__hh4FdkgR2XmOc2uof4Y", "types": ["point_of_interest", "establishment"]}, "ChIJn248dRkFdkgRSoVtOnZxp94": {"geometry": {"location": {"lat": 51.48900889999999, "lng": -0.1438811}, "viewport": {"northeast": {"lat": 51.49035788029149, "lng": -0.142532119708498}, "southwest": {"lat": 51.48765991970849, "lng": -0.145230080291502}}}, "name": "Samantha Farag", "place_id": "ChIJn248dRkFdkgRSoVtOnZxp94", "types": ["health", "point_of_interest", "establishment"]}, "ChIJH9fV500FdkgRSDNtiNIsBik": {"geometry": {"location": {"lat": 51.48900889999999, "lng": -0.1438811}, "viewport": {"northeast": {"lat": 51.49035788029149, "lng": -0.142532119708498}, "southwest": {"lat": 51.48765991970849, "lng": -0.145230080291502}}}, "name": "Samantha Farag Counselling Psychology", "place_id": "ChIJH9fV500FdkgRSDNtiNIsBik", "types": ["health", "point_of_interest", "establishment"]}, "ChIJlScdgR4FdkgRbrOIdMhLdQU": {"geometry": {"location": {"lat": 51.4889339, "lng": -0.1440074}, "viewport": {"northeast": {"lat": 51.4903160302915, "lng": -0.142605969708498}, "southwest": {"lat": 51.4876180697085, "lng": -0.145303930291502}}}, "name": "Pimlico Shopper", "place_id": "ChIJlScdgR4FdkgRbrOIdMhLdQU", "types": ["grocery_or_supermarket", "food", "point_of_interest", "store", "establishment"], "rating": 3.1, "user_ratings_total": 38}, "ChIJgcIkjB8FdkgRtrdv1QbcJYQ": {"geometry": {"location": {"lat": 51.48890609999999, "lng": -0.1440568}, "viewport": {"northeast": {"lat": 51.4902135802915, "lng": -0.142618719708498}, "southwest": {"lat": 51.4875156197085, "lng": -0.145316680291502}}}, "name": "Artech House Books", "place_id": "ChIJgcIkjB8FdkgRtrdv1QbcJYQ", "types": ["point_of_interest", "establishment"]}, "ChIJYSu6gx4FdkgRQrthERZcuO0": {"geometry": {"location": {"lat": 51.48890000000001, "lng": -0.1441}, "viewport": {"northeast": {"lat": 51.4902021302915, "lng": -0.142650419708498}, "southwest": {"lat": 51.4875041697085, "lng": -0.145348380291502}}}, "name": "Sussex Street Post Office", "place_id": "ChIJYSu6gx4FdkgRQrthERZcuO0", "types": ["post_office", "convenience_store", "finance", "food", "point_of_interest", "store", "establishment"], "rating": 1.9, "user_ratings_total": 13}, "ChIJYSu6gx4FdkgRVFOCAdiFKjA": {"geometry": {"location": {"lat": 51.48887850000001, "lng": -0.1440834}, "viewport": {"northeast": {"lat": 51.4901869802915, "lng": -0.142647419708498}, "southwest": {"lat": 51.48748901970851, "lng": -0.145345380291502}}}, "name": "ATM", "place_id": "ChIJYSu6gx4FdkgRVFOCAdiFKjA", "types": ["atm", "finance", "point_of_interest", "establishment"]}, "ChIJYSu6gx4FdkgR1GOrulK-IRU": {"geometry": {"location": {"lat": 51.488889, "lng": -0.144001}, "viewport": {"northeast": {"lat": 51.4902078802915, "lng": -0.142587369708498}, "southwest": {"lat": 51.48750991970851, "lng": -0.145285330291502}}}, "name": "MoneyGram", "place_id": "ChIJYSu6gx4FdkgR1GOrulK-IRU", "types": ["finance", "point_of_interest", "establishment"]}, "ChIJtd7_QsQFdkgRoOz_zm7DKEs": {"geometry": {"location": {"lat": 51.4888304, "lng": -0.1441517}, "viewport": {"northeast": {"lat": 51.49013728029151, "lng": -0.142712369708498}, "southwest": {"lat": 51.48743931970851, "lng": -0.145410330291502}}}, "name": "Utsav-Khushiyon Ka Pal", "place_id": "ChIJtd7_QsQFdkgRoOz_zm7DKEs", "types": ["point_of_interest", "clothing_store", "store", "establishment"]}, "ChIJyeUk7hUFdkgRm-7dFwd-YvI": {"geometry": {"location": {"lat": 51.48882709999999, "lng": -0.1441635}, "viewport": {"northeast": {"lat": 51.4901328302915, "lng": -0.142721619708498}, "southwest": {"lat": 51.4874348697085, "lng": -0.145419580291502}}}, "name": "Prafullamohanti Art Collection", "place_id": "ChIJyeUk7hUFdkgRm-7dFwd-YvI", "types": ["point_of_interest", "establishment"]}, "ChIJ01Yogh4FdkgRVDrO_CjaYTw": {"geometry": {"location": {"lat": 51.488774, "lng": -0.1441503}, "viewport": {"northeast": {"lat": 51.4900912302915, "lng": -0.142733119708498}, "southwest": {"lat": 51.48739326970851, "lng": -0.145431080291502}}},