{"E00023784": {"ChIJVeKRtAkQdkgRsPz-z_6bYsU": {"geometry": {"location": {"lat": 51.52815606574273, "lng": -0.1898537186748388}, "viewport": {"northeast": {"lat": 51.5295038302915, "lng": -0.188503269708498}, "southwest": {"lat": 51.5268058697085, "lng": -0.191201230291502}}}, "name": "159-183 Elgin Ave", "place_id": "ChIJVeKRtAkQdkgRsPz-z_6bYsU", "types": ["route"]}, "ChIJcb0ntwkQdkgR6zooBdbTR5U": {"geometry": {"location": {"lat": 51.528387, "lng": -0.1899097}, "viewport": {"northeast": {"lat": 51.5296543802915, "lng": -0.188461069708498}, "southwest": {"lat": 51.5269564197085, "lng": -0.191159030291502}}}, "name": "Abicord", "place_id": "ChIJcb0ntwkQdkgR6zooBdbTR5U", "types": ["health", "point_of_interest", "establishment"]}, "ChIJiQnmmKcadkgRHM2qrRUOU3M": {"geometry": {"location": {"lat": 51.5275403, "lng": -0.1893023}, "viewport": {"northeast": {"lat": 51.5289343802915, "lng": -0.187952619708498}, "southwest": {"lat": 51.5262364197085, "lng": -0.1906505802915021}}}, "name": "Tidal Creative - www.tidalcreative.co.uk", "place_id": "ChIJiQnmmKcadkgRHM2qrRUOU3M", "types": ["point_of_interest", "establishment"]}, "ChIJ_ewzSAgQdkgR4r8LA-9RxRg": {"geometry": {"location": {"lat": 51.5275165, "lng": -0.1897985}, "viewport": {"northeast": {"lat": 51.52892608029151, "lng": -0.1884465697084979}, "southwest": {"lat": 51.52622811970851, "lng": -0.191144530291502}}}, "name": "W9 Dry Cleaners", "place_id": "ChIJ_ewzSAgQdkgR4r8LA-9RxRg", "types": ["laundry", "point_of_interest", "establishment"], "rating": 3.9, "user_ratings_total": 8}, "ChIJs6pWtQkQdkgR-wPcG79PNoY": {"geometry": {"location": {"lat": 51.528018, "lng": -0.189631}, "viewport": {"northeast": {"lat": 51.52944413029149, "lng": -0.188376219708498}, "southwest": {"lat": 51.5267461697085, "lng": -0.191074180291502}}}, "name": "My London Electrician", "place_id": "ChIJs6pWtQkQdkgR-wPcG79PNoY", "types": ["electrician", "point_of_interest", "establishment"], "rating": 4.8, "user_ratings_total": 178}, "ChIJbemwtQkQdkgRFa0ahRRRIzk": {"geometry": {"location": {"lat": 51.5281932, "lng": -0.189637}, "viewport": {"northeast": {"lat": 51.5295623302915, "lng": -0.188314469708498}, "southwest": {"lat": 51.52686436970851, "lng": -0.191012430291502}}}, "name": "ubitricity Charging Station", "place_id": "ChIJbemwtQkQdkgRFa0ahRRRIzk", "types": ["point_of_interest", "establishment"]}, "ChIJ80DrtQkQdkgRT8rl23MLClo": {"geometry": {"location": {"lat": 51.528248, "lng": -0.189684}, "viewport": {"northeast": {"lat": 51.5296146802915, "lng": -0.188356569708498}, "southwest": {"lat": 51.5269167197085, "lng": -0.191054530291502}}}, "name": "ubitricity Charging Station", "place_id": "ChIJ80DrtQkQdkgRT8rl23MLClo", "types": ["point_of_interest", "establishment"]}, "ChIJFRKftAkQdkgRGQWVi9J6bj4": {"geometry": {"location": {"lat": 51.52808499999999, "lng": -0.189962}, "viewport": {"northeast": {"lat": 51.5294214802915, "lng": -0.188597769708498}, "southwest": {"lat": 51.5267235197085, "lng": -0.191295730291502}}}, "name": "ubitricity Charging Station", "place_id": "ChIJFRKftAkQdkgRGQWVi9J6bj4", "types": ["point_of_interest", "establishment"]}, "ChIJ5bVRn0YRdkgR_myxY--1nBs": {"geometry": {"location": {"lat": 51.52795679999999, "lng": -0.1900186999999999}, "viewport": {"northeast": {"lat": 51.52934423029149, "lng": -0.1887166697084979}, "southwest": {"lat": 51.52664626970849, "lng": -0.191414630291502}}}, "name": "Anita Flavina Dance Shoes", "place_id": "ChIJ5bVRn0YRdkgR_myxY--1nBs", "types": ["point_of_interest", "store", "establishment"]}, "ChIJF5S8IlQRdkgRD1eZCGcgB4M": {"geometry": {"location": {"lat": 51.5277451, "lng": -0.1898479}, "viewport": {"northeast": {"lat": 51.52904098029151, "lng": -0.188501519708498}, "southwest": {"lat": 51.52634301970851, "lng": -0.191199480291502}}}, "name": "Italian felicatessen", "place_id": "ChIJF5S8IlQRdkgRD1eZCGcgB4M", "types": ["grocery_or_supermarket", "food", "point_of_interest", "store", "establishment"]}, "ChIJDUi_tgkQdkgR7XaTWSeVN60": {"geometry": {"location": {"lat": 51.5284027, "lng": -0.1899071}, "viewport": {"northeast": {"lat": 51.5296655302915, "lng": -0.188452869708498}, "southwest": {"lat": 51.5269675697085, "lng": -0.191150830291502}}}, "name": "Stephen Marks Yoga", "place_id": "ChIJDUi_tgkQdkgR7XaTWSeVN60", "types": ["school", "point_of_interest", "establishment"]}, "ChIJna_7MQgQdkgRBrLM479dbNA": {"geometry": {"location": {"lat": 51.5276647, "lng": -0.1891609999999999}, "viewport": {"northeast": {"lat": 51.5289961302915, "lng": -0.187811569708498}, "southwest": {"lat": 51.5262981697085, "lng": -0.190509530291502}}}, "name": "ubitricity Charging Station", "place_id": "ChIJna_7MQgQdkgRBrLM479dbNA", "types": ["point_of_interest", "establishment"]}, "ChIJbbdKTQgQdkgRFLu1cQenj8M": {"geometry": {"location": {"lat": 51.5279993, "lng": -0.1903881}, "viewport": {"northeast": {"lat": 51.5293169802915, "lng": -0.189003919708498}, "southwest": {"lat": 51.5266190197085, "lng": -0.191701880291502}}}, "name": "ubitricity Charging Station", "place_id": "ChIJbbdKTQgQdkgRFLu1cQenj8M", "types": ["point_of_interest", "establishment"]}, "ChIJ_UQvyYoRdkgRbi1XLhkpgjs": {"geometry": {"location": {"lat": 51.5275085, "lng": -0.189491}, "viewport": {"northeast": {"lat": 51.52891898029149, "lng": -0.188127019708498}, "southwest": {"lat": 51.5262210197085, "lng": -0.190824980291502}}}, "name": "Chelo", "place_id": "ChIJ_UQvyYoRdkgRbi1XLhkpgjs", "types": ["restaurant", "food", "point_of_interest", "establishment"], "rating": 4.6, "user_ratings_total": 112}, "ChIJhzeVXaYadkgR8ft533c9rU0": {"geometry": {"location": {"lat": 51.52751919999999, "lng": -0.1898947}, "viewport": {"northeast": {"lat": 51.52892833029149, "lng": -0.188542769708498}, "southwest": {"lat": 51.52623036970849, "lng": -0.191240730291502}}}, "name": "Vitality Hair & Beauty Salon", "place_id": "ChIJhzeVXaYadkgR8ft533c9rU0", "types": ["beauty_salon", "hair_care", "point_of_interest", "establishment"], "rating": 4.7, "user_ratings_total": 90}, "ChIJSebdSwgQdkgRu93G7ltGLq0": {"geometry": {"location": {"lat": 51.5276889, "lng": -0.1898589}, "viewport": {"northeast": {"lat": 51.52902933514565, "lng": -0.1885280040560757}, "southwest": {"lat": 51.52633137456265, "lng": -0.1912259646390798}}}, "name": "Parking lot", "place_id": "ChIJSebdSwgQdkgRu93G7ltGLq0", "types": ["parking", "premise", "point_of_interest", "establishment"]}, "ChIJiSSpWggQdkgREsNsGoi3Ios": {"geometry": {"location": {"lat": 51.5265119, "lng": -0.1897225}, "viewport": {"northeast": {"lat": 51.52829088029149, "lng": -0.188668969708498}, "southwest": {"lat": 51.5255929197085, "lng": -0.191366930291502}}}, "name": "Paddington Sports Club", "place_id": "ChIJiSSpWggQdkgREsNsGoi3Ios", "types": ["restaurant", "food", "school", "gym", "health", "point_of_interest", "establishment"], "rating": 4.2, "user_ratings_total": 23}, "ChIJKRFeWwgQdkgR7rwkWuEisTw": {"geometry": {"location": {"lat": 51.527027, "lng": -0.190426}, "viewport": {"northeast": {"lat": 51.52843103029151, "lng": -0.189181619708498}, "southwest": {"lat": 51.52573306970851, "lng": -0.191879580291502}}}, "name": "Paddington Bowls Club", "place_id": "ChIJKRFeWwgQdkgR7rwkWuEisTw", "types": ["point_of_interest", "establishment"]}, "ChIJgXKxPQgQdkgRUXuV-ds8RFs": {"geometry": {"location": {"lat": 51.526823, "lng": -0.189108}, "viewport": {"northeast": {"lat": 51.5281987802915, "lng": -0.187727169708498}, "southwest": {"lat": 51.5255008197085, "lng": -0.190425130291502}}}, "name": "ubitricity Charging Station", "place_id": "ChIJgXKxPQgQdkgRUXuV-ds8RFs", "types": ["point_of_interest", "establishment"]}, "ChIJ4Vj8p0ERdkgRizq_bFbzAUY": {"geometry": {"location": {"lat": 51.52659329999999, "lng": -0.1897316}, "viewport": {"northeast": {"lat": 51.52813743029151, "lng": -0.188155419708498}, "southwest": {"lat": 51.52543946970851, "lng": -0.190853380291502}}}, "name": "MBPT Fitness", "place_id": "ChIJ4Vj8p0ERdkgRizq_bFbzAUY", "types": ["health", "point_of_interest", "establishment"], "rating": 5, "user_ratings_total": 4}, "ChIJ2QgoNggQdkgRptOYcc0EqXk": {"geometry": {"location": {"lat": 51.5274693, "lng": -0.1896452}, "viewport": {"northeast": {"lat": 51.52890093029151, "lng": -0.188285969708498}, "southwest": {"lat": 51.52620296970851, "lng": -0.190983930291502}}}, "name": "Hamptons Estate Agents Maida Vale", "place_id": "ChIJ2QgoNggQdkgRptOYcc0EqXk", "types": ["finance", "real_estate_agency", "point_of_interest", "establishment"], "rating": 4.8, "user_ratings_total": 306}, "ChIJxaVLOVsRdkgRtHg4Nr1tVAY": {"geometry": {"location": {"lat": 51.52745299999999, "lng": -0.1896617}, "viewport": {"northeast": {"lat": 51.52889303029149, "lng": -0.188308269708498}, "southwest": {"lat": 51.5261950697085, "lng": -0.191006230291502}}}, "name": "AEA Cleaning Services Ltd", "place_id": "ChIJxaVLOVsRdkgRtHg4Nr1tVAY", "types": ["point_of_interest", "establishment"]}, "ChIJAQAUNwgQdkgR4Iy5zlZ-LeU": {"geometry": {"location": {"lat": 51.5274432, "lng": -0.189351}, "viewport": {"northeast": {"lat": 51.5288859802915, "lng": -0.188000519708498}, "southwest": {"lat": 51.5261880197085, "lng": -0.190698480291502}}}, "name": "Yummy Licks", "place_id": "ChIJAQAUNwgQdkgR4Iy5zlZ-LeU", "types": ["cafe", "food", "point_of_interest", "store", "establishment"], "rating": 4.4, "user_ratings_total": 65}, "ChIJ_9W5NwgQdkgRTIubb0k5II4": {"geometry": {"location": {"lat": 51.5274635, "lng": -0.1894993}, "viewport": {"northeast": {"lat": 51.5288967802915, "lng": -0.188146219708498}, "southwest": {"lat": 51.5261988197085, "lng": -0.190844180291502}}}, "name": "Beattie Construction Ltd", "place_id": "ChIJ_9W5NwgQdkgRTIubb0k5II4", "types": ["general_contractor", "point_of_interest", "establishment"], "rating": 5, "user_ratings_total": 4}, "ChIJE-XFSQgQdkgRB34gG5o3B1Y": {"geometry": {"location": {"lat": 51.5274732, "lng": -0.1897235}, "viewport": {"northeast": {"lat": 51.5289037302915, "lng": -0.188370569708498}, "southwest": {"lat": 51.5262057697085, "lng": -0.191068530291502}}}, "name": "La Piccola Deli Maida Vale", "place_id": "ChIJE-XFSQgQdkgRB34gG5o3B1Y", "types": ["cafe", "food", "point_of_interest", "store", "establishment"], "rating": 4.3, "user_ratings_total": 122}, "ChIJ5cAvSAgQdkgRO9sTmplyW6s": {"geometry": {"location": {"lat": 51.5274693, "lng": -0.1896452}, "viewport": {"northeast": {"lat": 51.52890103029149, "lng": -0.188288519708498}, "southwest": {"lat": 51.52620306970849, "lng": -0.190986480291502}}}, "name": "EI Prestige", "place_id": "ChIJ5cAvSAgQdkgRO9sTmplyW6s", "types": ["point_of_interest", "establishment"]}, "ChIJLWHO6W4RdkgR8pgfb6-3UqI": {"geometry": {"location": {"lat": 51.5274693, "lng": -0.1896452}, "viewport": {"northeast": {"lat": 51.52890103029149, "lng": -0.188292169708498}, "southwest": {"lat": 51.52620306970849, "lng": -0.190990130291502}}}, "name": "All'oro Italia", "place_id": "ChIJLWHO6W4RdkgR8pgfb6-3UqI", "types": ["restaurant", "food", "point_of_interest", "establishment"], "rating": 5, "user_ratings_total": 1}, "ChIJJ6ozBXMRdkgRuwlfUV2vaYM": {"geometry": {"location": {"lat": 51.5274693, "lng": -0.1896452}, "viewport": {"northeast": {"lat": 51.52890103029149, "lng": -0.188292169708498}, "southwest": {"lat": 51.52620306970849, "lng": -0.190990130291502}}}, "name": "Portholes", "place_id": "ChIJJ6ozBXMRdkgRuwlfUV2vaYM", "types": ["point_of_interest", "establishment"]}, "ChIJnSA-cAgQdkgRATokB9GPoZM": {"geometry": {"location": {"lat": 51.52602439398794, "lng": -0.1902900012055541}, "viewport": {"northeast": {"lat": 51.52742295000004, "lng": -0.1871738999999999}, "southwest": {"lat": 51.52460954999993, "lng": -0.1934287}}}, "name": "170 Delaware Rd", "place_id": "ChIJnSA-cAgQdkgRATokB9GPoZM", "types": ["route"]}, "ChIJUSRb83wRdkgRrMisaIw04GU": {"geometry": {"location": {"lat": 51.5258546, "lng": -0.1898941}, "viewport": {"northeast": {"lat": 51.52717783029149, "lng": -0.1885743197084979}, "southwest": {"lat": 51.52447986970849, "lng": -0.191272280291502}}}, "name": "Taxi W9 London", "place_id": "ChIJUSRb83wRdkgRrMisaIw04GU", "types": ["point_of_interest", "establishment"]}, "ChIJT6knDAgQdkgRVLH6bf8On6Y": {"geometry": {"location": {"lat": 51.5258119, "lng": -0.1892347}, "viewport": {"northeast": {"lat": 51.5270790302915, "lng": -0.187982219708498}, "southwest": {"lat": 51.5243810697085, "lng": -0.190680180291502}}}, "name": "Maida Vale Handyman Ltd", "place_id": "ChIJT6knDAgQdkgRVLH6bf8On6Y", "types": ["general_contractor", "point_of_interest", "establishment"]}, "ChIJ40GqBTwRdkgRVHImvnlLoDk": {"geometry": {"location": {"lat": 51.5260101, "lng": -0.1899518}, "viewport": {"northeast": {"lat": 51.5273148302915, "lng": -0.188651619708498}, "southwest": {"lat": 51.5246168697085, "lng": -0.191349580291502}}}, "name": "Nima", "place_id": "ChIJ40GqBTwRdkgRVHImvnlLoDk", "types": ["school", "point_of_interest", "establishment"]}, "ChIJUckKcQgQdkgRrFPSVQO2DzQ": {"geometry": {"location": {"lat": 51.52585449999999, "lng": -0.1900551}, "viewport": {"northeast": {"lat": 51.5272248302915, "lng": -0.1886825697084979}, "southwest": {"lat": 51.5245268697085, "lng": -0.191380530291502}}}, "name": "Zipcar", "place_id": "ChIJUckKcQgQdkgRrFPSVQO2DzQ", "types": ["car_rental", "point_of_interest", "establishment"]}, "ChIJOfGcfnkRdkgRpinmXKOMPKE": {"geometry": {"location": {"lat": 51.5262754, "lng": -0.1897323}, "viewport": {"northeast": {"lat": 51.5279210302915, "lng": -0.188030769708498}, "southwest": {"lat": 51.5252230697085, "lng": -0.190728730291502}}}, "name": "Petite Performers Maida Vale", "place_id": "ChIJOfGcfnkRdkgRpinmXKOMPKE", "types": ["point_of_interest", "establishment"]}, "ChIJW7g82gcQdkgRlehmT5wwTfU": {"geometry": {"location": {"lat": 51.5249949, "lng": -0.190214}, "viewport": {"northeast": {"lat": 51.5263220802915, "lng": -0.188891169708498}, "southwest": {"lat": 51.5236241197085, "lng": -0.191589130291502}}}, "name": "ubitricity Charging Station", "place_id": "ChIJW7g82gcQdkgRlehmT5wwTfU", "types": ["point_of_interest", "establishment"]}, "ChIJEx6LUwgQdkgRSOgcC1PZRvA": {"geometry": {"location": {"lat": 51.5277839000352, "lng": -0.1906350000817465}, "viewport": {"northeast": {"lat": 51.5291328802915, "lng": -0.189286019708498}, "southwest": {"lat": 51.5264349197085, "lng": -0.191983980291502}}}, "name": "149-153 Elgin Ave", "place_id": "ChIJEx6LUwgQdkgRSOgcC1PZRvA", "types": ["route"]}, "ChIJj1_r-wgQdkgRUHee7_VRF4k": {"geometry": {"location": {"lat": 51.5276593, "lng": -0.1915743}, "viewport": {"northeast": {"lat": 51.52890528029149, "lng": -0.190102619708498}, "southwest": {"lat": 51.5262073197085, "lng": -0.192800580291502}}}, "name": "City of Westminster College, Maida Vale Campus", "place_id": "ChIJj1_r-wgQdkgRUHee7_VRF4k", "types": ["university", "point_of_interest", "establishment"], "rating": 4.4, "user_ratings_total": 17}, "ChIJ0b4P6QkQdkgRhgGQH1bkQc4": {"geometry": {"location": {"lat": 51.528445, "lng": -0.1910557}, "viewport": {"northeast": {"lat": 51.5298662302915, "lng": -0.189793819708498}, "southwest": {"lat": 51.5271682697085, "lng": -0.192491780291502}}}, "name": "AIMS Accountants For Business - Peter Torino", "place_id": "ChIJ0b4P6QkQdkgRhgGQH1bkQc4", "types": ["accounting", "finance", "point_of_interest", "establishment"], "rating": 4, "user_ratings_total": 1}, "ChIJiZnRAwkQdkgRLE7ZgPxDUxU": {"geometry": {"location": {"lat": 51.5281015, "lng": -0.1913411}, "viewport": {"northeast": {"lat": 51.5294349302915, "lng": -0.190027319708498}, "southwest": {"lat": 51.5267369697085, "lng": -0.192725280291502}}}, "name": "ubitricity Charging Station", "place_id": "ChIJiZnRAwkQdkgRLE7ZgPxDUxU", "types": ["point_of_interest", "establishment"]}, "ChIJTYPp9SERdkgRoG__zziIgGw": {"geometry": {"location": {"lat": 51.5278046, "lng": -0.1911637}, "viewport": {"northeast": {"lat": 51.5291780802915, "lng": -0.189779119708498}, "southwest": {"lat": 51.5264801197085, "lng": -0.192477080291502}}}, "name": "Priority Mail Box", "place_id": "ChIJTYPp9SERdkgRoG__zziIgGw", "types": ["post_office", "finance", "point_of_interest", "establishment"]}, "ChIJVwzaqQkQdkgRlKPS_sCnWBw": {"geometry": {"location": {"lat": 51.528445, "lng": -0.1910557}, "viewport": {"northeast": {"lat": 51.5298662302915, "lng": -0.189793819708498}, "southwest": {"lat": 51.5271682697085, "lng": -0.192491780291502}}}, "name": "Global Symposium Ltd", "place_id": "ChIJVwzaqQkQdkgRlKPS_sCnWBw", "types": ["point_of_interest", "establishment"]}, "ChIJ73uAJiARdkgRAJsngTvUKzA": {"geometry": {"location": {"lat": 51.528445, "lng": -0.1910557}, "viewport": {"northeast": {"lat": 51.5298662302915, "lng": -0.189793819708498}, "southwest": {"lat": 51.5271682697085, "lng": -0.192491780291502}}}, "name": "VARCALE CAPITAL MANAGEMENT", "place_id": "ChIJ73uAJiARdkgRAJsngTvUKzA", "types": ["point_of_interest", "establishment"]}, "ChIJhXWKrAkQdkgRRzxPOTzbMcQ": {"geometry": {"location": {"lat": 51.5281009, "lng": -0.1905716}, "viewport": {"northeast": {"lat": 51.52935978029149, "lng": -0.1891125697084979}, "southwest": {"lat": 51.5266618197085, "lng": -0.191810530291502}}}, "name": "MLS Property Services Ltd", "place_id": "ChIJhXWKrAkQdkgRRzxPOTzbMcQ", "types": ["point_of_interest", "establishment"], "rating": 2.7, "user_ratings_total": 3}, "ChIJ-7H4_AgQdkgR_vmtdWnAuXw": {"geometry": {"location": {"lat": 51.5277886, "lng": -0.1916775}, "viewport": {"northeast": {"lat": 51.52917906915322, "lng": -0.1902396436515344}, "southwest": {"lat": 51.52648110857022, "lng": -0.1929376042345384}}}, "name": "Parking lot", "place_id": "ChIJ-7H4_AgQdkgR_vmtdWnAuXw", "types": ["parking", "premise", "point_of_interest", "establishment"]}, "ChIJFYKv-QgQdkgRCJbASZrJ2i0": {"geometry": {"location": {"lat": 51.52737239657721, "lng": -0.1915042862189321}, "viewport": {"northeast": {"lat": 51.5287214302915, "lng": -0.190155369708498}, "southwest": {"lat": 51.5260234697085, "lng": -0.192853330291502}}}, "name": "162-156 Elgin Ave", "place_id": "ChIJFYKv-QgQdkgRCJbASZrJ2i0", "types": ["route"]}, "ChIJrfSW8QgQdkgRlPtHaZ4C24g": {"geometry": {"location": {"lat": 51.5271553, "lng": -0.1916224}, "viewport": {"northeast": {"lat": 51.5285563302915, "lng": -0.190336869708498}, "southwest": {"lat": 51.5258583697085, "lng": -0.193034830291502}}}, "name": "Cunnell Mary", "place_id": "ChIJrfSW8QgQdkgRlPtHaZ4C24g", "types": ["health", "point_of_interest", "establishment"]}, "ChIJf-0X8AgQdkgRU5pEelxpHuY": {"geometry": {"location": {"lat": 51.52724240000001, "lng": -0.1920019}, "viewport": {"northeast": {"lat": 51.52856593029151, "lng": -0.190598619708498}, "southwest": {"lat": 51.52586796970851, "lng": -0.193296580291502}}}, "name": "ubitricity Charging Station", "place_id": "ChIJf-0X8AgQdkgRU5pEelxpHuY", "types": ["point_of_interest", "establishment"]}, "ChIJ63ZH-ggQdkgRSZOMPReoTUM": {"geometry": {"location": {"lat": 51.527449, "lng": -0.191541}, "viewport": {"northeast": {"lat": 51.5287677802915, "lng": -0.190156069708498}, "southwest": {"lat": 51.5260698197085, "lng": -0.192854030291502}}}, "name": "ubitricity Charging Station", "place_id": "ChIJ63ZH-ggQdkgRSZOMPReoTUM", "types": ["point_of_interest", "establishment"]}, "ChIJvzAxWQgQdkgR3hf5I2QgObI": {"geometry": {"location": {"lat": 51.5270506, "lng": -0.190844}, "viewport": {"northeast": {"lat": 51.52838579890636, "lng": -0.1894744978212501}, "southwest": {"lat": 51.52568783832336, "lng": -0.1921724584042541}}}, "name": "Parking lot", "place_id": "ChIJvzAxWQgQdkgR3hf5I2QgObI", "types": ["parking", "premise", "point_of_interest", "establishment"]}, "ChIJV7SFmQgQdkgRD-4cQj4Ozes": {"geometry": {"location": {"lat": 51.52588903670456, "lng": -0.192199939017512}, "viewport": {"northeast": {"lat": 51.5272377302915, "lng": -0.1905297}, "southwest": {"lat": 51.5245397697085, "lng": -0.1938709}}}, "name": "80-112 B413", "place_id": "ChIJV7SFmQgQdkgRD-4cQj4Ozes", "types": ["route"]}, "ChIJw8itYwgQdkgR8EXRUie8_Go": {"geometry": {"location": {"lat": 51.5261871, "lng": -0.1909735}, "viewport": {"northeast": {"lat": 51.5275952802915, "lng": -0.189610219708498}, "southwest": {"lat": 51.52489731970851, "lng": -0.192308180291502}}}, "name": "BBC Maida Vale Studios", "place_id": "ChIJw8itYwgQdkgR8EXRUie8_Go", "types": ["electronics_store", "home_goods_store", "point_of_interest", "store", "establishment"], "rating": 4.4, "user_ratings_total": 229}, "ChIJRU9lodUEdkgRpf4DhngDkWs": {"geometry": {"location": {"lat": 51.525526, "lng": -0.190849}, "viewport": {"northeast": {"lat": 51.5267845302915, "lng": -0.189613419708498}, "southwest": {"lat": 51.5240865697085, "lng": -0.192311380291502}}}, "name": "The Green Gate Practice", "place_id": "ChIJRU9lodUEdkgRpf4DhngDkWs", "types": ["health", "point_of_interest", "establishment"]}, "ChIJq7GpfwgQdkgRaET40DHJ8Jo": {"geometry": {"location": {"lat": 51.5258553, "lng": -0.1916744}, "viewport": {"northeast": {"lat": 51.5271366802915, "lng": -0.190413419708498}, "southwest": {"lat": 51.5244387197085, "lng": -0.193111380291502}}}, "name": "LM Services", "place_id": "ChIJq7GpfwgQdkgRaET40DHJ8Jo", "types": ["accounting", "finance", "university", "point_of_interest", "establishment"]}, "ChIJF3YGgwgQdkgR2TiGcayMHqE": {"geometry": {"location": {"lat": 51.525564, "lng": -0.191639}, "viewport": {"northeast": {"lat": 51.52692173029151, "lng": -0.190279169708498}, "southwest": {"lat": 51.52422376970851, "lng": -0.192977130291502}}}, "name": "ubitricity Charging Station", "place_id": "ChIJF3YGgwgQdkgR2TiGcayMHqE", "types": ["point_of_interest", "establishment"]}, "ChIJVVWljggQdkgR8V-iGeubnXA": {"geometry": {"location": {"lat": 51.52631030000001, "lng": -0.1914833000000001}, "viewport": {"northeast": {"lat": 51.5277426802915, "lng": -0.190040119708498}, "southwest": {"lat": 51.5250447197085, "lng": -0.1927380802915021}}}, "name": "Rayne House", "place_id": "ChIJVVWljggQdkgR8V-iGeubnXA", "types": ["point_of_interest", "establishment"]}, "ChIJiShcJwkQdkgR7W_q234G4g4": {"geometry": {"location": {"lat": 51.52817831500899, "lng": -0.1930913170287602}, "viewport": {"northeast": {"lat": 51.5294711302915, "lng": -0.19127205}, "southwest": {"lat": 51.5267731697085, "lng": -0.19505545}}}, "name": "11-209 Wymering Rd", "place_id": "ChIJiShcJwkQdkgR7W_q234G4g4", "types": ["route"]}, "ChIJq-Y3JwkQdkgR7nj-CiQIIDM": {"geometry": {"location": {"lat": 51.5276431, "lng": -0.1927121}, "viewport": {"northeast": {"lat": 51.52905153029149, "lng": -0.191257369708498}, "southwest": {"lat": 51.52635356970849, "lng": -0.193955330291502}}}, "name": "Heneker Photography", "place_id": "ChIJq-Y3JwkQdkgR7nj-CiQIIDM", "types": ["point_of_interest", "establishment"]}, "ChIJb_Km2wgQdkgR1hdyLCVoPMc": {"geometry": {"location": {"lat": 51.5274783, "lng": -0.1930331}, "viewport": {"northeast": {"lat": 51.5287391302915, "lng": -0.191763069708498}, "southwest": {"lat": 51.52604116970851, "lng": -0.194461030291502}}}, "name": "BrandingYou", "place_id": "ChIJb_Km2wgQdkgR1hdyLCVoPMc", "types": ["point_of_interest", "establishment"]}, "ChIJ-fDrFRURdkgRslOQI2mOLGo": {"geometry": {"location": {"lat": 51.5280107, "lng": -0.193218}, "viewport": {"northeast": {"lat": 51.52941558029149, "lng": -0.191767619708498}, "southwest": {"lat": 51.52671761970849, "lng": -0.194465580291502}}}, "name": "Wymering Mansions", "place_id": "ChIJ-fDrFRURdkgRslOQI2mOLGo", "types": ["point_of_interest", "establishment"], "rating": 5, "user_ratings_total": 1}, "ChIJzzH7JgkQdkgRGTj3rkqSQ7w": {"geometry": {"location": {"lat": 51.5281618, "lng": -0.1929762}, "viewport": {"northeast": {"lat": 51.5294942302915, "lng": -0.191649619708498}, "southwest": {"lat": 51.5267962697085, "lng": -0.194347580291502}}}, "name": "ubitricity Charging Station", "place_id": "ChIJzzH7JgkQdkgRGTj3rkqSQ7w", "types": ["point_of_interest", "establishment"]}, "ChIJd7kwXXERdkgRsRvjr3bzBZk": {"geometry": {"location": {"lat": 51.52818999999999, "lng": -0.1931113}, "viewport": {"northeast": {"lat": 51.52956038029149, "lng": -0.191723419708498}, "southwest": {"lat": 51.52686241970849, "lng": -0.194421380291502}}}, "name": "Krypto Investment Partners Limited", "place_id": "ChIJd7kwXXERdkgRsRvjr3bzBZk", "types": ["point_of_interest", "establishment"]}, "ChIJvyiOLz8RdkgRzGajC_uXjcY": {"geometry": {"location": {"lat": 51.528203, "lng": -0.1931298}, "viewport": {"northeast": {"lat": 51.5295728302915, "lng": -0.191742869708498}, "southwest": {"lat": 51.5268748697085, "lng": -0.194440830291502}}}, "name": "Mindful Mentors", "place_id": "ChIJvyiOLz8RdkgRzGajC_uXjcY", "types": ["health", "point_of_interest", "establishment"]}, "ChIJY9y93wgQdkgRbFUk-7DSHeM": {"geometry": {"location": {"lat": 51.5278515, "lng": -0.192742}, "viewport": {"northeast": {"lat": 51.52921483029149, "lng": -0.191366769708498}, "southwest": {"lat": 51.52651686970849, "lng": -0.194064730291502}}}, "name": "ubitricity Charging Station", "place_id": "ChIJY9y93wgQdkgRbFUk-7DSHeM", "types": ["point_of_interest", "establishment"]}, "ChIJXYGoKQkQdkgRCv6ylIv7DH4": {"geometry": {"location": {"lat": 51.5281438, "lng": -0.1935199}, "viewport": {"northeast": {"lat": 51.5295663802915, "lng": -0.192036369708498}, "southwest": {"lat": 51.5268684197085, "lng": -0.1947343302915021}}}, "name": "D D Global Ltd", "place_id": "ChIJXYGoKQkQdkgRCv6ylIv7DH4", "types": ["point_of_interest", "establishment"]}, "ChIJxW0HJgkQdkgRL64RJp7WorY": {"geometry": {"location": {"lat": 51.5282789, "lng": -0.1933567}, "viewport": {"northeast": {"lat": 51.5296484302915, "lng": -0.191975219708498}, "southwest": {"lat": 51.5269504697085, "lng": -0.194673180291502}}}, "name": "ubitricity Charging Station", "place_id": "ChIJxW0HJgkQdkgRL64RJp7WorY", "types": ["point_of_interest", "establishment"]}, "ChIJZ00J2wgQdkgRZVjwrB9cYE0": {"geometry": {"location": {"lat": 51.52747869999999, "lng": -0.1930360999999999}, "viewport": {"northeast": {"lat": 51.52873978029149, "lng": -0.1917658697084979}, "southwest": {"lat": 51.52604181970849, "lng": -0.194463830291502}}}, "name": "PMB Experts", "place_id": "ChIJZ00J2wgQdkgRZVjwrB9cYE0", "types": ["electrician", "point_of_interest", "establishment"]}, "ChIJ-8Ja3wgQdkgRP92tgkpGuBE": {"geometry": {"location": {"lat": 51.5279612, "lng": -0.1928638}, "viewport": {"northeast": {"lat": 51.5293044954056, "lng": -0.1915182858882953}, "southwest": {"lat": 51.5266065348226, "lng": -0.1942162464712993}}}, "name": "Parking lot", "place_id": "ChIJ-8Ja3wgQdkgRP92tgkpGuBE", "types": ["parking", "premise", "point_of_interest", "establishment"]}, "ChIJC9-4wAgQdkgRyjeoVvgQCK4": {"geometry": {"location": {"lat": 51.52671435043105, "lng": -0.1929274510102914}, "viewport": {"northeast": {"lat": 51.52806333029149, "lng": -0.191578469708498}, "southwest": {"lat": 51.5253653697085, "lng": -0.194276430291502}}}, "name": "138-130 Elgin Ave", "place_id": "ChIJC9-4wAgQdkgRyjeoVvgQCK4", "types": ["route"]}, "ChIJHTqBvggQdkgRVzPZeZ31Byk": {"geometry": {"location": {"lat": 51.5264909, "lng": -0.1929783}, "viewport": {"northeast": {"lat": 51.5279052802915, "lng": -0.191705969708498}, "southwest": {"lat": 51.5252073197085, "lng": -0.194403930291502}}}, "name": "Pines and Needles", "place_id": "ChIJHTqBvggQdkgRVzPZeZ31Byk", "types": ["point_of_interest", "store", "establishment"], "rating": 4.8, "user_ratings_total": 360}, "ChIJXzuBvggQdkgRCY2Ml5KuTzo": {"geometry": {"location": {"lat": 51.5264979, "lng": -0.1930732}, "viewport": {"northeast": {"lat": 51.5279171802915, "lng": -0.191689369708498}, "southwest": {"lat": 51.5252192197085, "lng": -0.194387330291502}}}, "name": "123 Cleaners", "place_id": "ChIJXzuBvggQdkgRCY2Ml5KuTzo", "types": ["laundry", "point_of_interest", "establishment"], "rating": 3.7, "user_ratings_total": 158}, "ChIJP1UN2wgQdkgRNGP9GP6h7w8": {"geometry": {"location": {"lat": 51.5274582, "lng": -0.1930103}, "viewport": {"northeast": {"lat": 51.5287236802915, "lng": -0.191736119708498}, "southwest": {"lat": 51.52602571970851, "lng": -0.194434080291502}}}, "name": "Rooster Advertising Ltd", "place_id": "ChIJP1UN2wgQdkgRNGP9GP6h7w8", "types": ["point_of_interest", "establishment"]}, "ChIJsyy8xggQdkgR7hdfusqBTCM": {"geometry": {"location": {"lat": 51.5269459, "lng": -0.1929948}, "viewport": {"northeast": {"lat": 51.5282948802915, "lng": -0.191645819708498}, "southwest": {"lat": 51.52559691970851, "lng": -0.194343780291502}}}, "name": "Westside Court", "place_id": "ChIJsyy8xggQdkgR7hdfusqBTCM", "types": ["point_of_interest", "establishment"]}, "ChIJGxtNwAgQdkgRmjxaR_wdY1E": {"geometry": {"location": {"lat": 51.526816, "lng": -0.1929155}, "viewport": {"northeast": {"lat": 51.5281339802915, "lng": -0.191528819708498}, "southwest": {"lat": 51.5254360197085, "lng": -0.194226780291502}}}, "name": "ubitricity Charging Station", "place_id": "ChIJGxtNwAgQdkgRmjxaR_wdY1E", "types": ["point_of_interest", "establishment"]}, "ChIJxURtPcARdkgRE0Rcb-dvlH8": {"geometry": {"location": {"lat": 51.5267759, "lng": -0.1928941}, "viewport": {"northeast": {"lat": 51.5281201302915, "lng": -0.191539569708498}, "southwest": {"lat": 51.5254221697085, "lng": -0.194237530291502}}}, "name": "Casa Ale Inglaterra", "place_id": "ChIJxURtPcARdkgRE0Rcb-dvlH8", "types": ["lodging", "point_of_interest", "establishment"]}, "ChIJ23RtjeYRdkgRoYiqd5zwuBs": {"geometry": {"location": {"lat": 51.5271418, "lng": -0.192729}, "viewport": {"northeast": {"lat": 51.52846368029149, "lng": -0.191405319708498}, "southwest": {"lat": 51.5257657197085, "lng": -0.194103280291502}}}, "name": "Lead LDN", "place_id": "ChIJ23RtjeYRdkgRoYiqd5zwuBs", "types": ["point_of_interest", "establishment"], "rating": 5, "user_ratings_total": 1}, "ChIJ35K4wAgQdkgRzKZkwsBkG44": {"geometry": {"location": {"lat": 51.52670479999999, "lng": -0.1927959}, "viewport": {"northeast": {"lat": 51.52807578029149, "lng": -0.191474669708498}, "southwest": {"lat": 51.5253778197085, "lng": -0.194172630291502}}}, "name": "ubitricity Charging Station", "place_id": "ChIJ35K4wAgQdkgRzKZkwsBkG44", "types": ["point_of_interest", "establishment"]}, "ChIJnZeM2XQRdkgRiqoMC_UvZX4": {"geometry": {"location": {"lat": 51.5265751, "lng": -0.1928769}, "viewport": {"northeast": {"lat": 51.5279770302915, "lng": -0.191589969708498}, "southwest": {"lat": 51.5252790697085, "lng": -0.194287930291502}}}, "name": "Edward Ardizzone Blue Plaque", "place_id": "ChIJnZeM2XQRdkgRiqoMC_UvZX4", "types": ["point_of_interest", "establishment"], "rating": 5, "user_ratings_total": 1}, "ChIJDUZYtIwRdkgRExuw8Iqk0o4": {"geometry": {"location": {"lat": 51.5266291, "lng": -0.1926694}, "viewport": {"northeast": {"lat": 51.5280441302915, "lng": -0.191397819708498}, "southwest": {"lat": 51.52534616970851, "lng": -0.194095780291502}}}, "name": "Maida Hill Double Glazing Windows", "place_id": "ChIJDUZYtIwRdkgRExuw8Iqk0o4", "types": ["point_of_interest", "establishment"]}, "ChIJM2jG9a0RdkgRGXVkV-_aoto": {"geometry": {"location": {"lat": 51.5265905, "lng": -0.1927621}, "viewport": {"northeast": {"lat": 51.5280045802915, "lng": -0.191489269708498}, "southwest": {"lat": 51.5253066197085, "lng": -0.194187230291502}}}, "name": "Ceraudo", "place_id": "ChIJM2jG9a0RdkgRGXVkV-_aoto", "types": ["point_of_interest", "establishment"]}, "ChIJg4xMwAgQdkgRqzLoOsEGaCo": {"geometry": {"location": {"lat": 51.5267041, "lng": -0.1925144}, "viewport": {"northeast": {"lat": 51.52811773029151, "lng": -0.191241019708498}, "southwest": {"lat": 51.52541976970851, "lng": -0.193938980291502}}}, "name": "Ontologik Limited", "place_id": "ChIJg4xMwAgQdkgRqzLoOsEGaCo", "types": ["point_of_interest", "establishment"]}, "ChIJZ2z0tQgQdkgRFu4JzjWScCw": {"geometry": {"location": {"lat": 51.52676479999999, "lng": -0.1936581}, "viewport": {"northeast": {"lat": 51.52803908029149, "lng": -0.192378869708498}, "southwest": {"lat": 51.5253411197085, "lng": -0.1950768302915021}}}, "name": "Medimpex UK Ltd", "place_id": "ChIJZ2z0tQgQdkgRFu4JzjWScCw", "types": ["health", "point_of_interest", "establishment"]}, "ChIJZ2z0tQgQdkgRu5Mckpw7nK0": {"geometry": {"location": {"lat": 51.52676479999999, "lng": -0.1936581}, "viewport": {"northeast": {"lat": 51.52803908029149, "lng": -0.192378869708498}, "southwest": {"lat": 51.5253411197085, "lng": -0.1950768302915021}}}, "name": "Gedeon Richter UK Ltd", "place_id": "ChIJZ2z0tQgQdkgRu5Mckpw7nK0", "types": ["health", "point_of_interest", "establishment"], "rating": 1, "user_ratings_total": 1}, "ChIJEZI6tggQdkgRjRmXqdy6BRU": {"geometry": {"location": {"lat": 51.526628, "lng": -0.193515}, "viewport": {"northeast": {"lat": 51.52793398029149, "lng": -0.192207069708498}, "southwest": {"lat": 51.52523601970849, "lng": -0.194905030291502}}}, "name": "Dexters", "place_id": "ChIJEZI6tggQdkgRjRmXqdy6BRU", "types": ["point_of_interest", "establishment"]}, "ChIJBcNvaNkRdkgRvcTfS-ZwQJw": {"geometry": {"location": {"lat": 51.5273997, "lng": -0.1930823}, "viewport": {"northeast": {"lat": 51.5286970302915, "lng": -0.191779569708498}, "southwest": {"lat": 51.5259990697085, "lng": -0.194477530291502}}}, "name": "Southwold Mansions", "place_id": "ChIJBcNvaNkRdkgRvcTfS-ZwQJw", "types": ["point_of_interest", "establishment"]}, "ChIJ3TP9B5wRdkgRHh0dCSirvoU": {"geometry": {"location": {"lat": 51.52669160000001, "lng": -0.1936617}, "viewport": {"northeast": {"lat": 51.52799373029151, "lng": -0.192356469708498}, "southwest": {"lat": 51.52529576970851, "lng": -0.195054430291502}}}, "name": "Commercial Truck Jump Start Maida Hill", "place_id": "ChIJ3TP9B5wRdkgRHh0dCSirvoU", "types": ["car_repair", "point_of_interest", "establishment"]}, "ChIJ_0818aoRdkgR0zu6jrVnmTE": {"geometry": {"location": {"lat": 51.52689030000001, "lng": -0.192229}, "viewport": {"northeast": {"lat": 51.5282643802915, "lng": -0.190849619708498}, "southwest": {"lat": 51.5255664197085, "lng": -0.193547580291502}}}, "name": "AgendaWallet", "place_id": "ChIJ_0818aoRdkgR0zu6jrVnmTE", "types": ["point_of_interest", "establishment"]}, "ChIJq6r6MAYGdkgR6lkRuyZda9c": {"geometry": {"location": {"lat": 51.5274582, "lng": -0.1930103}, "viewport": {"northeast": {"lat": 51.5287236802915, "lng": -0.191736119708498}, "southwest": {"lat": 51.52602571970851, "lng": -0.194434080291502}}}, "name": "Xvavi\u00ae", "place_id": "ChIJq6r6MAYGdkgR6lkRuyZda9c", "types": ["point_of_interest", "establishment"], "rating": 5, "user_ratings_total": 8}, "ChIJP9dLuQgQdkgRRLcDrip3CnA": {"geometry": {"location": {"lat": 51.52641860000001, "lng": -0.1929326}, "viewport": {"northeast": {"lat": 51.5277121802915, "lng": -0.191651619708498}, "southwest": {"lat": 51.5250142197085, "lng": -0.194349580291502}}}, "name": "2 airports", "place_id": "ChIJP9dLuQgQdkgRRLcDrip3CnA", "types": ["point_of_interest", "establishment"]}, "ChIJZfT4oggQdkgRkRtE-gU8RcE": {"geometry": {"location": {"lat": 51.52586429999999, "lng": -0.1925994}, "viewport": {"northeast": {"lat": 51.5272811802915, "lng": -0.191165619708498}, "southwest": {"lat": 51.5245832197085, "lng": -0.193863580291502}}}, "name": "Thinking Man", "place_id": "ChIJZfT4oggQdkgRkRtE-gU8RcE", "types": ["clothing_store", "point_of_interest", "store", "establishment"], "rating": 3.5, "user_ratings_total": 2}, "ChIJ7aPmuggQdkgRwsMaZl3jwzI": {"geometry": {"location": {"lat": 51.5261212, "lng": -0.1931203}, "viewport": {"northeast": {"lat": 51.52753638029149, "lng": -0.1916889697084979}, "southwest": {"lat": 51.5248384197085, "lng": -0.194386930291502}}}, "name": "Rosine Jozef Perelberg", "place_id": "ChIJ7aPmuggQdkgRwsMaZl3jwzI", "types": ["health", "point_of_interest", "establishment"]}, "ChIJTzqBvggQdkgRnMlGrPTnVQU": {"geometry": {"location": {"lat": 51.5262761, "lng": -0.1926}, "viewport": {"northeast": {"lat": 51.52762508029149, "lng": -0.191251019708498}, "southwest": {"lat": 51.52492711970849, "lng": -0.193948980291502}}}, "name": "Properties Actually", "place_id": "ChIJTzqBvggQdkgRnMlGrPTnVQU", "types": ["real_estate_agency", "point_of_interest", "establishment"], "rating": 2.8, "user_ratings_total": 16}, "ChIJkZCDlhACdkgReq7ZIODc6ng": {"geometry": {"location": {"lat": 51.52582149999999, "lng": -0.1924405}, "viewport": {"northeast": {"lat": 51.5272277802915, "lng": -0.191019919708498}, "southwest": {"lat": 51.5245298197085, "lng": -0.193717880291502}}}, "name": "Dashee La MaQuilleuse - Professional Makeup Artist London", "place_id": "ChIJkZCDlhACdkgReq7ZIODc6ng", "types": ["point_of_interest", "establishment"], "rating": 3, "user_ratings_total": 2}, "ChIJh3RivAgQdkgRfW_mhI3uf4M": {"geometry": {"location": {"lat": 51.526186, "lng": -0.1928465}, "viewport": {"northeast": {"lat": 51.5275194802915, "lng": -0.191516819708498}, "southwest": {"lat": 51.5248215197085, "lng": -0.194214780291502}}}, "name": "Elgin Avenue Shirland Road", "place_id": "ChIJh3RivAgQdkgRfW_mhI3uf4M", "types": ["transit_station", "point_of_interest", "establishment"]}, "ChIJcd8FupgRdkgRQ0qDwuNfKTw": {"geometry": {"location": {"lat": 51.5261212, "lng": -0.1931203}, "viewport": {"northeast": {"lat": 51.52753638029149, "lng": -0.1916889697084979}, "southwest": {"lat": 51.5248384197085, "lng": -0.194386930291502}}}, "name": "Amal Building Services ltd", "place_id": "ChIJcd8FupgRdkgRQ0qDwuNfKTw", "types": ["point_of_interest", "establishment"], "rating": 4.9, "user_ratings_total": 38}, "ChIJ7aPmuggQdkgROIE68s-1W54": {"geometry": {"location": {"lat": 51.5261212, "lng": -0.1931203}, "viewport": {"northeast": {"lat": 51.52753638029149, "lng": -0.1916889697084979}, "southwest": {"lat": 51.5248384197085, "lng": -0.194386930291502}}}, "name": "Instute of Psychanalysis", "place_id": "ChIJ7aPmuggQdkgROIE68s-1W54", "types": ["place_of_worship", "point_of_interest", "establishment"]}, "ChIJvXeWvAgQdkgRTnEyFDaQdno": {"geometry": {"location": {"lat": 51.5261, "lng": -0.192814}, "viewport": {"northeast": {"lat": 51.5274757302915, "lng": -0.191431769708498}, "southwest": {"lat": 51.52477776970851, "lng": -0.194129730291502}}}, "name": "Elgin Avenue (Stop MK)", "place_id": "ChIJvXeWvAgQdkgRTnEyFDaQdno", "types": ["transit_station", "point_of_interest", "establishment"]}, "ChIJg_VAtjMRdkgRLmCrEeAr1WI": {"geometry": {"location": {"lat": 51.5261507, "lng": -0.1931179}, "viewport": {"northeast": {"lat": 51.52755628029149, "lng": -0.191698519708498}, "southwest": {"lat": 51.5248583197085, "lng": -0.194396480291502}}}, "name": "Tree House", "place_id": "ChIJg_VAtjMRdkgRLmCrEeAr1WI", "types": ["lodging", "point_of_interest", "establishment"], "rating": 5, "user_ratings_total": 2}, "ChIJX-5Pb_ERdkgRFUo_Sfa78Aw": {"geometry": {"location": {"lat": 51.52585130000001, "lng": -0.192602}, "viewport": {"northeast": {"lat": 51.52720028029151, "lng": -0.191253019708498}, "southwest": {"lat": 51.52450231970851, "lng": -0.1939509802915021}}}, "name": "Skip Hire Maida Vale", "place_id": "ChIJX-5Pb_ERdkgRFUo_Sfa78Aw", "types": ["point_of_interest", "establishment"]}, "ChIJaxnuqQgQdkgRP0JKxNFb-HM": {"geometry": {"location": {"lat": 51.52558310000001, "lng": -0.1929485}, "viewport": {"northeast": {"lat": 51.52689128029151, "lng": -0.191649219708498}, "southwest": {"lat": 51.52419331970851, "lng": -0.194347180291502}}}, "name": "ERH", "place_id": "ChIJaxnuqQgQdkgRP0JKxNFb-HM", "types": ["point_of_interest", "establishment"]}, "ChIJ6b2FsAgQdkgR-RKujMFHuYE": {"geometry": {"location": {"lat": 51.5262112, "lng": -0.1933174}, "viewport": {"northeast": {"lat": 51.5276280302915, "lng": -0.1918851697084979}, "southwest": {"lat": 51.5249300697085, "lng": -0.194583130291502}}}, "name": "DanteVino Ltd", "place_id": "ChIJ6b2FsAgQdkgR-RKujMFHuYE", "types": ["point_of_interest", "establishment"]}, "ChIJoSnhuwgQdkgR7DQ8sgKgrBE": {"geometry": {"location": {"lat": 51.526306, "lng": -0.192864}, "viewport": {"northeast": {"lat": 51.52762478029149, "lng": -0.191552569708498}, "southwest": {"lat": 51.5249268197085, "lng": -0.194250530291502}}}, "name": "Elgin Avenue (Stop MF)", "place_id": "ChIJoSnhuwgQdkgR7DQ8sgKgrBE", "types": ["transit_station", "point_of_interest", "establishment"], "rating": 4.5, "user_ratings_total": 2}, "ChIJf47EFOoRdkgRXfnzlat16ZE": {"geometry": {"location": {"lat": 51.52623209999999, "lng": -0.1926129}, "viewport": {"northeast": {"lat": 51.5275362302915, "lng": -0.191319719708498}, "southwest": {"lat": 51.5248382697085, "lng": -0.194017680291502}}}, "name": "Beachcroft House Care Home", "place_id": "ChIJf47EFOoRdkgRXfnzlat16ZE", "types": ["point_of_interest", "establishment"]}, "ChIJadfHsAgQdkgR01HLtwIw7OI": {"geometry": {"location": {"lat": 51.52630600000001, "lng": -0.193379}, "viewport": {"northeast": {"lat": 51.5277294802915, "lng": -0.192098419708498}, "southwest": {"lat": 51.52503151970851, "lng": -0.194796380291502}}}, "name": "DAY TRUE", "place_id": "ChIJadfHsAgQdkgR01HLtwIw7OI", "types": ["furniture_store", "home_goods_store", "general_contractor", "point_of_interest", "store", "establishment"], "rating": 5, "user_ratings_total": 11}, "ChIJg0UnsQgQdkgRn9zi3OEwUb4": {"geometry": {"location": {"lat": 51.52628920000001, "lng": -0.1934657}, "viewport": {"northeast": {"lat": 51.52770743029151, "lng": -0.1921802697084979}, "southwest": {"lat": 51.52500946970851, "lng": -0.194878230291502}}}, "name": "Man with Van Maida Vale Ltd.", "place_id": "ChIJg0UnsQgQdkgRn9zi3OEwUb4", "types": ["moving_company", "point_of_interest", "establishment"], "rating": 2, "user_ratings_total": 1}, "ChIJJ00rE3ERdkgRyD-tk9xJbjU": {"geometry": {"location": {"lat": 51.52628869999999, "lng": -0.1926565}, "viewport": {"northeast": {"lat": 51.5275816802915, "lng": -0.1913771697084979}, "southwest": {"lat": 51.5248837197085, "lng": -0.194075130291502}}}, "name": "NOKA PROPERTY SERVICES LTD", "place_id": "ChIJJ00rE3ERdkgRyD-tk9xJbjU", "types": ["point_of_interest", "establishment"]}, "ChIJ75sQEJARdkgRVQLNrU67pCw": {"geometry": {"location": {"lat": 51.52638169999999, "lng": -0.1928663}, "viewport": {"northeast": {"lat": 51.52767198029149, "lng": -0.191573119708498}, "southwest": {"lat": 51.52497401970849, "lng": -0.194271080291502}}}, "name": "WEZA", "place_id": "ChIJ75sQEJARdkgRVQLNrU67pCw", "types": ["restaurant", "food", "point_of_interest", "establishment"], "rating": 4.8, "user_ratings_total": 89}, "ChIJuU1QuQgQdkgR1CuPHlNkvnE": {"geometry": {"location": {"lat": 51.5263925, "lng": -0.1929414}, "viewport": {"northeast": {"lat": 51.5277414802915, "lng": -0.191592419708498}, "southwest": {"lat": 51.5250435197085, "lng": -0.194290380291502}}}, "name": "CV Building Services (UK) Ltd", "place_id": "ChIJuU1QuQgQdkgR1CuPHlNkvnE", "types": ["point_of_interest", "establishment"]}, "ChIJV9xLvAgQdkgR2Qz_imlMxT0": {"geometry": {"location": {"lat": 51.5263682, "lng": -0.1927281}, "viewport": {"northeast": {"lat": 51.5276490802915, "lng": -0.191470419708498}, "southwest": {"lat": 51.5249511197085, "lng": -0.194168380291502}}}, "name": "Darren Scott Salon", "place_id": "ChIJV9xLvAgQdkgR2Qz_imlMxT0", "types": ["hair_care", "health", "point_of_interest", "store", "establishment"], "rating": 4.3, "user_ratings_total": 73}, "ChIJVVXRNA8QdkgR0ppg8i6Trds": {"geometry": {"location": {"lat": 51.5268606, "lng": -0.1940414}, "viewport": {"northeast": {"lat": 51.5281501802915, "lng": -0.192747219708498}, "southwest": {"lat": 51.5254522197085, "lng": -0.195445180291502}}}, "name": "Molly Ayton Upholstery", "place_id": "ChIJVVXRNA8QdkgR0ppg8i6Trds", "types": ["furniture_store", "home_goods_store", "point_of_interest", "store", "establishment"], "rating": 5, "user_ratings_total": 1}, "ChIJMYxVtQgQdkgRtGP9eIrqpDM": {"geometry": {"location": {"lat": 51.5267685, "lng": -0.1940297}, "viewport": {"northeast": {"lat": 51.52809173029149, "lng": -0.192705069708498}, "southwest": {"lat": 51.5253937697085, "lng": -0.195403030291502}}}, "name": "ubitricity Charging Station", "place_id": "ChIJMYxVtQgQdkgRtGP9eIrqpDM", "types": ["point_of_interest", "establishment"]}, "ChIJ8exA0AkQdkgRryeqhEjYHqY": {"geometry": {"location": {"lat": 51.52856, "lng": -0.188777}, "viewport": {"northeast": {"lat": 51.5299351802915, "lng": -0.187464769708498}, "southwest": {"lat": 51.5272372197085, "lng": -0.190162730291502}}}, "name": "ubitricity Charging Station", "place_id": "ChIJ8exA0AkQdkgRryeqhEjYHqY", "types": ["point_of_interest", "establishment"]}, "ChIJi3S7NggQdkgRqbQWshcutiA": {"geometry": {"location": {"lat": 51.5274672, "lng": -0.189199}, "viewport": {"northeast": {"lat": 51.52889743029149, "lng": -0.187839069708498}, "southwest": {"lat": 51.52619946970849, "lng": -0.190537030291502}}}, "name": "Sushi Murasaki", "place_id": "ChIJi3S7NggQdkgRqbQWshcutiA", "types": ["restaurant", "food", "point_of_interest", "establishment"], "rating": 4.6, "user_ratings_total": 262}, "ChIJ__86SAgQdkgRrkViQlf71Kw": {"geometry": {"location": {"lat": 51.5274855, "lng": -0.1892784}, "viewport": {"northeast": {"lat": 51.52883173029149, "lng": -0.187820469708498}, "southwest": {"lat": 51.52613376970849, "lng": -0.190518430291502}}}, "name": "Cherrypik Interiors", "place_id": "ChIJ__86SAgQdkgRrkViQlf71Kw", "types": ["furniture_store", "home_goods_store", "general_contractor", "point_of_interest", "store", "establishment"]}, "ChIJK5Fx5AcQdkgRPm_bZkFcQBA": {"geometry": {"location": {"lat": 51.52513480113139, "lng": -0.1887308870324979}, "viewport": {"northeast": {"lat": 51.5264892802915, "lng": -0.187388769708498}, "southwest": {"lat": 51.5237913197085, "lng": -0.190086730291502}}}, "name": "104 Sutherland Ave", "place_id": "ChIJK5Fx5AcQdkgRPm_bZkFcQBA", "types": ["route"]}, "ChIJA8yc4gcQdkgRlVG-WOBE7Io": {"geometry": {"location": {"lat": 51.52536079999999, "lng": -0.1889993}, "viewport": {"northeast": {"lat": 51.5267398302915, "lng": -0.187615519708498}, "southwest": {"lat": 51.5240418697085, "lng": -0.190313480291502}}}, "name": "Source London Charging Station", "place_id": "ChIJA8yc4gcQdkgRlVG-WOBE7Io", "types": ["point_of_interest", "establishment"]}, "ChIJ66194gcQdkgRO0qGq5ctngA": {"geometry": {"location": {"lat": 51.525341, "lng": -0.189048}, "viewport": {"northeast": {"lat": 51.5267335302915, "lng": -0.187647719708498}, "southwest": {"lat": 51.5240355697085, "lng": -0.1903456802915021}}}, "name": "ubitricity Charging Station", "place_id": "ChIJ66194gcQdkgRO0qGq5ctngA", "types": ["point_of_interest", "establishment"]}, "ChIJEx6LUwgQdkgR0fS_jknf1-Q": {"geometry": {"location": {"lat": 51.52771155002046, "lng": -0.1907954000479384}, "viewport": {"northeast": {"lat": 51.5290605302915, "lng": -0.189446419708498}, "southwest": {"lat": 51.5263625697085, "lng": -0.192144380291502}}}, "name": "143-147 Elgin Ave", "place_id": "ChIJEx6LUwgQdkgR0fS_jknf1-Q", "types": ["route"]}, "ChIJ_ewzSAgQdkgRtjxD90K9V_I": {"geometry": {"location": {"lat": 51.5275133, "lng": -0.1900438}, "viewport": {"northeast": {"lat": 51.52892678029148, "lng": -0.1886916697084979}, "southwest": {"lat": 51.52622881970849, "lng": -0.191389630291502}}}, "name": "Le Cochonnet - Italian Restaurant & Pizzeria", "place_id": "ChIJ_ewzSAgQdkgRtjxD90K9V_I", "types": ["bar", "restaurant", "food", "point_of_interest", "establishment"], "rating": 3.9, "user_ratings_total": 370}, "ChIJ129kVwgQdkgRCMrXbp2HPsg": {"geometry": {"location": {"lat": 51.5274296, "lng": -0.1905877000000001}, "viewport": {"northeast": {"lat": 51.52880338029149, "lng": -0.189132819708498}, "southwest": {"lat": 51.52610541970849, "lng": -0.1918307802915021}}}, "name": "Wanderlust Nail Lounge", "place_id": "ChIJ129kVwgQdkgRCMrXbp2HPsg", "types": ["beauty_salon", "point_of_interest", "establishment"], "rating": 4.7, "user_ratings_total": 57}, "ChIJRWK7UAgQdkgRvS_zQslaejM": {"geometry": {"location": {"lat": 51.527353, "lng": -0.19053}, "viewport": {"northeast": {"lat": 51.5287498802915, "lng": -0.189117269708498}, "southwest": {"lat": 51.5260519197085, "lng": -0.191815230291502}}}, "name": "Compton Reeback Estate Agents", "place_id": "ChIJRWK7UAgQdkgRvS_zQslaejM", "types": ["real_estate_agency", "point_of_interest", "establishment"], "rating": 4.9, "user_ratings_total": 151}, "ChIJc6VeTggQdkgRY2EKqUiXr4w": {"geometry": {"location": {"lat": 51.5275268, "lng": -0.1901468}, "viewport": {"northeast": {"lat": 51.5288217802915, "lng": -0.188887669708498}, "southwest": {"lat": 51.5261238197085, "lng": -0.191585630291502}}}, "name": "Avalon Flowers", "place_id": "ChIJc6VeTggQdkgRY2EKqUiXr4w", "types": ["florist", "point_of_interest", "store", "establishment"], "rating": 4.4, "user_ratings_total": 28}, "ChIJHbx-gZ4RdkgR8y_ESgDaLzQ": {"geometry": {"location": {"lat": 51.5274167, "lng": -0.1905369}, "viewport": {"northeast": {"lat": 51.5287965802915, "lng": -0.189112469708498}, "southwest": {"lat": 51.5260986197085, "lng": -0.191810430291502}}}, "name": "Maida Vale London - catherine", "place_id": "ChIJHbx-gZ4RdkgR8y_ESgDaLzQ", "types": ["lodging", "point_of_interest", "establishment"]}, "ChIJwbBWctcRdkgRpiTOvE2hUlM": {"geometry": {"location": {"lat": 51.5273913, "lng": -0.190479}, "viewport": {"northeast": {"lat": 51.52877273029149, "lng": -0.189064319708498}, "southwest": {"lat": 51.52607476970849, "lng": -0.191762280291502}}}, "name": "Iona, Lara and Brill\u2019s Pad", "place_id": "ChIJwbBWctcRdkgRpiTOvE2hUlM", "types": ["point_of_interest", "establishment"]}, "ChIJRWK7UAgQdkgRMb4tMxDTpmY": {"geometry": {"location": {"lat": 51.52742659999999, "lng": -0.1905796}, "viewport": {"northeast": {"lat": 51.5288015302915, "lng": -0.189128569708498}, "southwest": {"lat": 51.5261035697085, "lng": -0.191826530291502}}}, "name": "Hamish 2", "place_id": "ChIJRWK7UAgQdkgRMb4tMxDTpmY", "types": ["convenience_store", "food", "point_of_interest", "store", "establishment"], "rating": 3, "user_ratings_total": 29}, "ChIJO7LDUQgQdkgRoUwkaMaft0I": {"geometry": {"location": {"lat": 51.52746189999999, "lng": -0.1906561}, "viewport": {"northeast": {"lat": 51.52881088029149, "lng": -0.189307119708498}, "southwest": {"lat": 51.5261129197085, "lng": -0.192005080291502}}}, "name": "Petit Caf\u00e9", "place_id": "ChIJO7LDUQgQdkgRoUwkaMaft0I", "types": ["cafe", "food", "point_of_interest", "store", "establishment"], "rating": 3.9, "user_ratings_total": 132}, "ChIJL6Z38i0RdkgRxl-gBZ9X2ss": {"geometry": {"location": {"lat": 51.5273854, "lng": -0.1905957}, "viewport": {"northeast": {"lat": 51.5287809302915, "lng": -0.189136619708498}, "southwest": {"lat": 51.5260829697085, "lng": -0.191834580291502}}}, "name": "Post Office Travel Money", "place_id": "ChIJL6Z38i0RdkgRxl-gBZ9X2ss", "types": ["finance", "point_of_interest", "establishment"]}, "ChIJy0og9JoRdkgRqdSt9D1dSu0": {"geometry": {"location": {"lat": 51.5273854, "lng": -0.1905957}, "viewport": {"northeast": {"lat": 51.5287809302915, "lng": -0.189136619708498}, "southwest": {"lat": 51.5260829697085, "lng": -0.191834580291502}}}, "name": "MoneyGram", "place_id": "ChIJy0og9JoRdkgRqdSt9D1dSu0", "types": ["finance", "point_of_interest", "establishment"]}, "ChIJIYo3TnoRdkgRNIsd0Dxvmrg": {"geometry": {"location": {"lat": 51.5273206, "lng": -0.1904582}, "viewport": {"northeast": {"lat": 51.5286669802915, "lng": -0.189104419708498}, "southwest": {"lat": 51.5259690197085, "lng": -0.191802380291502}}}, "name": "Cheapest Online Conveyancing", "place_id": "ChIJIYo3TnoRdkgRNIsd0Dxvmrg", "types": ["lawyer", "point_of_interest", "establishment"]}, "ChIJsxG5WggQdkgRSxvyATQDaS0": {"geometry": {"location": {"lat": 51.5273206, "lng": -0.1904582}, "viewport": {"northeast": {"lat": 51.5287019302915, "lng": -0.189055519708498}, "southwest": {"lat": 51.5260039697085, "lng": -0.191753480291502}}}, "name": "Bon Appetit", "place_id": "ChIJsxG5WggQdkgRSxvyATQDaS0", "types": ["food", "point_of_interest", "store", "establishment"], "rating": 4.5, "user_ratings_total": 41}, "ChIJnfdThpURdkgRPQKpnL3eyD0": {"geometry": {"location": {"lat": 51.52761700000001, "lng": -0.1906167}, "viewport": {"northeast": {"lat": 51.52895383029151, "lng": -0.189155669708498}, "southwest": {"lat": 51.52625586970851, "lng": -0.191853630291502}}}, "name": "DIM Electrical Services", "place_id": "ChIJnfdThpURdkgRPQKpnL3eyD0", "types": ["electrician", "point_of_interest", "establishment"], "rating": 5, "user_ratings_total": 2}, "ChIJCzeXUAgQdkgRvsr3YZcZqs8": {"geometry": {"location": {"lat": 51.52740000000001, "lng": -0.1907}, "viewport": {"northeast": {"lat": 51.5286837302915, "lng": -0.189227569708498}, "southwest": {"lat": 51.52598576970851, "lng": -0.191925530291502}}}, "name": "Castellain Road Post Office", "place_id": "ChIJCzeXUAgQdkgRvsr3YZcZqs8", "types": ["post_office", "convenience_store", "finance", "food", "point_of_interest", "store", "establishment"], "rating": 1.3, "user_ratings_total": 12}, "ChIJmVkqSQgQdkgReyGMKR5oQ-I": {"geometry": {"location": {"lat": 51.5275111, "lng": -0.1899602}, "viewport": {"northeast": {"lat": 51.5289249302915, "lng": -0.188608069708498}, "southwest": {"lat": 51.5262269697085, "lng": -0.191306030291502}}}, "name": "Illy", "place_id": "ChIJmVkqSQgQdkgReyGMKR5oQ-I", "types": ["cafe", "food", "point_of_interest", "establishment"], "rating": 3, "user_ratings_total": 1}, "ChIJE1L6_pIRdkgRNEBWjcIYeOU": {"geometry": {"location": {"lat": 51.526332, "lng": -0.190494}, "viewport": {"northeast": {"lat": 51.52761043029151, "lng": -0.189228569708498}, "southwest": {"lat": 51.52491246970851, "lng": -0.191926530291502}}}, "name": "Wear & Tear", "place_id": "ChIJE1L6_pIRdkgRNEBWjcIYeOU", "types": ["point_of_interest", "establishment"]}, "ChIJv3fmYQgQdkgRKuxOBq1VECE": {"geometry": {"location": {"lat": 51.526414, "lng": -0.191032}, "viewport": {"northeast": {"lat": 51.52775258029149, "lng": -0.189695119708498}, "southwest": {"lat": 51.5250546197085, "lng": -0.192393080291502}}}, "name": "ubitricity Charging Station", "place_id": "ChIJv3fmYQgQdkgRKuxOBq1VECE", "types": ["point_of_interest", "establishment"]}, "ChIJybGs1QcQdkgROq5hksjHwD4": {"geometry": {"location": {"lat": 51.52523223122817, "lng": -0.1908438210193178}, "viewport": {"northeast": {"lat": 51.5265810302915, "lng": -0.189495069708498}, "southwest": {"lat": 51.5238830697085, "lng": -0.192193030291502}}}, "name": "64-78 B413", "place_id": "ChIJybGs1QcQdkgROq5hksjHwD4", "types": ["route"]}, "ChIJRU9lodUEdkgREBrj-elY6Bw": {"geometry": {"location": {"lat": 51.5251443, "lng": -0.1902155}, "viewport": {"northeast": {"lat": 51.5264256302915, "lng": -0.188951519708498}, "southwest": {"lat": 51.5237276697085, "lng": -0.191649480291502}}}, "name": "Andreas Lind", "place_id": "ChIJRU9lodUEdkgREBrj-elY6Bw", "types": ["health", "point_of_interest", "establishment"]}, "ChIJWyH-kysFdkgRj2oLfi5dWwE": {"geometry": {"location": {"lat": 51.525388, "lng": -0.190908}, "viewport": {"northeast": {"lat": 51.5266983302915, "lng": -0.189607469708498}, "southwest": {"lat": 51.5240003697085, "lng": -0.192305430291502}}}, "name": "Shirland Ventures Limited", "place_id": "ChIJWyH-kysFdkgRj2oLfi5dWwE", "types": ["point_of_interest", "establishment"]}, "ChIJZe0CgAgQdkgRxY5WLFv-WDs": {"geometry": {"location": {"lat": 51.5251151, "lng": -0.1902767}, "viewport": {"northeast": {"lat": 51.5264147302915, "lng": -0.188989669708498}, "southwest": {"lat": 51.5237167697085, "lng": -0.191687630291502}}}, "name": "North London Counselling", "place_id": "ChIJZe0CgAgQdkgRxY5WLFv-WDs", "types": ["health", "point_of_interest", "establishment"]}, "ChIJx0CW1QcQdkgR_Mp3AdPYcb0": {"geometry": {"location": {"lat": 51.52529, "lng": -0.190816}, "viewport": {"northeast": {"lat": 51.5266195802915, "lng": -0.189491519708498}, "southwest": {"lat": 51.52392161970851, "lng": -0.192189480291502}}}, "name": "ubitricity Charging Station", "place_id": "ChIJx0CW1QcQdkgR_Mp3AdPYcb0", "types": ["point_of_interest", "establishment"]}, "ChIJ5SCEfwgQdkgRLofPZzW7IKI": {"geometry": {"location": {"lat": 51.52538759999999, "lng": -0.1909084}, "viewport": {"northeast": {"lat": 51.5266981302915, "lng": -0.189607619708498}, "southwest": {"lat": 51.5240001697085, "lng": -0.192305580291502}}}, "name": "Soleil Relocation", "place_id": "ChIJ5SCEfwgQdkgRLofPZzW7IKI", "types": ["moving_company", "storage", "point_of_interest", "establishment"]}, "ChIJjdCEKgYQdkgRndP3qiodlHY": {"geometry": {"location": {"lat": 51.52533700000001, "lng": -0.191203}, "viewport": {"northeast": {"lat": 51.52670753029151, "lng": -0.1898265197084979}, "southwest": {"lat": 51.52400956970851, "lng": -0.192524480291502}}}, "name": "ubitricity Charging Station", "place_id": "ChIJjdCEKgYQdkgRndP3qiodlHY", "types": ["point_of_interest", "establishment"]}, "ChIJ39EaGwkQdkgRwN89CULyJ0s": {"geometry": {"location": {"lat": 51.52849325005829, "lng": -0.1920126997905099}, "viewport": {"northeast": {"lat": 51.52984223029151, "lng": -0.190663719708498}, "southwest": {"lat": 51.52714426970851, "lng": -0.193361680291502}}}, "name": "Morshead Road", "place_id": "ChIJ39EaGwkQdkgRwN89CULyJ0s", "types": ["route"]}, "ChIJSTtW7ggQdkgRP4Eh1F_Af5M": {"geometry": {"location": {"lat": 51.52710295010578, "lng": -0.1920808502579455}, "viewport": {"northeast": {"lat": 51.5284519302915, "lng": -0.190731869708498}, "southwest": {"lat": 51.5257539697085, "lng": -0.193429830291502}}}, "name": "117-127 Elgin Ave", "place_id": "ChIJSTtW7ggQdkgRP4Eh1F_Af5M", "types": ["route"]}, "ChIJr1S9fzcRdkgR2EI0c1OXv3Y": {"geometry": {"location": {"lat": 51.5260516, "lng": -0.1921485}, "viewport": {"northeast": {"lat": 51.5273421302915, "lng": -0.190872519708498}, "southwest": {"lat": 51.5246441697085, "lng": -0.193570480291502}}}, "name": "The Masefield", "place_id": "ChIJr1S9fzcRdkgR2EI0c1OXv3Y", "types": ["point_of_interest", "establishment"]}, "ChIJFQMcoAgQdkgRkQNH65pW1Lo": {"geometry": {"location": {"lat": 51.5254245, "lng": -0.1925562}, "viewport": {"northeast": {"lat": 51.5267245802915, "lng": -0.1912781197084979}, "southwest": {"lat": 51.5240266197085, "lng": -0.193976080291502}}}, "name": "Even Flow Lifestyle Fitness", "place_id": "ChIJFQMcoAgQdkgRkQNH65pW1Lo", "types": ["gym", "health", "point_of_interest", "establishment"]}, "ChIJDXgCKAYQdkgR09mS5moO8l4": {"geometry": {"location": {"lat": 51.525365, "lng": -0.191767}, "viewport": {"northeast": {"lat": 51.5266935302915, "lng": -0.190389569708498}, "southwest": {"lat": 51.5239955697085, "lng": -0.193087530291502}}}, "name": "ubitricity Charging Station", "place_id": "ChIJDXgCKAYQdkgR09mS5moO8l4", "types": ["point_of_interest", "establishment"]}, "ChIJfReHLQkQdkgRT8HxDa5Q8n4": {"geometry": {"location": {"lat": 51.5285599, "lng": -0.1939387}, "viewport": {"northeast": {"lat": 51.52992933029149, "lng": -0.192566369708498}, "southwest": {"lat": 51.5272313697085, "lng": -0.195264330291502}}}, "name": "ubitricity Charging Station", "place_id": "ChIJfReHLQkQdkgRT8HxDa5Q8n4", "types": ["point_of_interest", "establishment"]}, "ChIJlUYk0ggQdkgR0NsGxR8ZxIU": {"geometry": {"location": {"lat": 51.52743448919131, "lng": -0.1935732266244814}, "viewport": {"northeast": {"lat": 51.52876303029149, "lng": -0.1915704}, "southwest": {"lat": 51.5260650697085, "lng": -0.1956311999999999}}}, "name": "17-61 Widley Rd", "place_id": "ChIJlUYk0ggQdkgR0NsGxR8ZxIU", "types": ["route"]}, "ChIJFxax0QgQdkgRbUe_0s2ph70": {"geometry": {"location": {"lat": 51.5273023, "lng": -0.1939409}, "viewport": {"northeast": {"lat": 51.5287503302915, "lng": -0.192503169708498}, "southwest": {"lat": 51.5260523697085, "lng": -0.195201130291502}}}, "name": "Cristina Codina Alexander Technique Maida Vale", "place_id": "ChIJFxax0QgQdkgRbUe_0s2ph70", "types": ["health", "point_of_interest", "establishment"]}, "ChIJJ3FazggQdkgRFZJYM2hbWpo": {"geometry": {"location": {"lat": 51.5272923, "lng": -0.1939295}, "viewport": {"northeast": {"lat": 51.52874268029149, "lng": -0.192489719708498}, "southwest": {"lat": 51.52604471970849, "lng": -0.195187680291502}}}, "name": "Froggle Parties Ltd", "place_id": "ChIJJ3FazggQdkgRFZJYM2hbWpo", "types": ["point_of_interest", "establishment"], "rating": 5, "user_ratings_total": 7}, "ChIJ3TZbzQgQdkgRE4EMXJGCAys": {"geometry": {"location": {"lat": 51.5272938, "lng": -0.1939592}, "viewport": {"northeast": {"lat": 51.5287475302915, "lng": -0.192516419708498}, "southwest": {"lat": 51.5260495697085, "lng": -0.195214380291502}}}, "name": "RBM Architects", "place_id": "ChIJ3TZbzQgQdkgRE4EMXJGCAys", "types": ["point_of_interest", "establishment"]}, "ChIJEQ-YLA8QdkgRiMOSYYfLWJo": {"geometry": {"location": {"lat": 51.52762329999999, "lng": -0.1941176}, "viewport": {"northeast": {"lat": 51.5289997302915, "lng": -0.192744019708498}, "southwest": {"lat": 51.5263017697085, "lng": -0.195441980291502}}}, "name": "CVRite", "place_id": "ChIJEQ-YLA8QdkgRiMOSYYfLWJo", "types": ["point_of_interest", "establishment"]}, "ChIJ4VNF0ggQdkgRcL3Hcm4Fq2Y": {"geometry": {"location": {"lat": 51.527455, "lng": -0.193791}, "viewport": {"northeast": {"lat": 51.5288184802915, "lng": -0.192429069708498}, "southwest": {"lat": 51.5261205197085, "lng": -0.195127030291502}}}, "name": "ubitricity Charging Station", "place_id": "ChIJ4VNF0ggQdkgRcL3Hcm4Fq2Y", "types": ["point_of_interest", "establishment"]}, "ChIJmaWhKVARdkgRpR1x9AWW9wA": {"geometry": {"location": {"lat": 51.5273327, "lng": -0.19395}, "viewport": {"northeast": {"lat": 51.52877033029151, "lng": -0.192521619708498}, "southwest": {"lat": 51.52607236970851, "lng": -0.1952195802915021}}}, "name": "Legacy Tees London", "place_id": "ChIJmaWhKVARdkgRpR1x9AWW9wA", "types": ["point_of_interest", "clothing_store", "store", "establishment"]}, "ChIJE5vemPgRdkgRMeBffXiIVPs": {"geometry": {"location": {"lat": 51.5273327, "lng": -0.19395}, "viewport": {"northeast": {"lat": 51.5287703802915, "lng": -0.192521569708498}, "southwest": {"lat": 51.5260724197085, "lng": -0.195219530291502}}}, "name": "Josh Cawthorn - Director", "place_id": "ChIJE5vemPgRdkgRMeBffXiIVPs", "types": ["point_of_interest", "establishment"], "rating": 5, "user_ratings_total": 3}, "ChIJ3TZbzQgQdkgRjVE9PjZkosM": {"geometry": {"location": {"lat": 51.5272923, "lng": -0.1939295}, "viewport": {"northeast": {"lat": 51.52874268029149, "lng": -0.192489719708498}, "southwest": {"lat": 51.52604471970849, "lng": -0.195187680291502}}}, "name": "CP. Air-Con Services", "place_id": "ChIJ3TZbzQgQdkgRjVE9PjZkosM", "types": ["electrician", "plumber", "general_contractor", "point_of_interest", "establishment"], "rating": 5, "user_ratings_total": 1}, "ChIJSRP3TA8QdkgRKFfIIZly7Q0": {"geometry": {"location": {"lat": 51.52638772556207, "lng": -0.1937052541851028}, "viewport": {"northeast": {"lat": 51.5277370302915, "lng": -0.192356569708498}, "southwest": {"lat": 51.5250390697085, "lng": -0.195054530291502}}}, "name": "128-120 Elgin Ave", "place_id": "ChIJSRP3TA8QdkgRKFfIIZly7Q0", "types": ["route"]}, "ChIJ-U8zSQ8QdkgRkRSDQinOh4o": {"geometry": {"location": {"lat": 51.526491, "lng": -0.1939467}, "viewport": {"northeast": {"lat": 51.52776863029149, "lng": -0.192532869708498}, "southwest": {"lat": 51.5250706697085, "lng": -0.195230830291502}}}, "name": "Alexandra Soveral Limited", "place_id": "ChIJ-U8zSQ8QdkgRkRSDQinOh4o", "types": ["health", "point_of_interest", "store", "establishment"]}, "ChIJNyJkswgQdkgRR_eh6iQLXas": {"geometry": {"location": {"lat": 51.52632120000001, "lng": -0.1938978}, "viewport": {"northeast": {"lat": 51.5276422802915, "lng": -0.192523419708498}, "southwest": {"lat": 51.5249443197085, "lng": -0.195221380291502}}}, "name": "W9design", "place_id": "ChIJNyJkswgQdkgRR_eh6iQLXas", "types": ["general_contractor", "point_of_interest", "establishment"]}, "ChIJ-U8zSQ8QdkgRZq4OCJtiG4g": {"geometry": {"location": {"lat": 51.5264631, "lng": -0.1938972}, "viewport": {"northeast": {"lat": 51.52777103029149, "lng": -0.192479669708498}, "southwest": {"lat": 51.52507306970849, "lng": -0.195177630291502}}}, "name": "Elgin Food & Wine", "place_id": "ChIJ-U8zSQ8QdkgRZq4OCJtiG4g", "types": ["grocery_or_supermarket", "food", "point_of_interest", "store", "establishment"], "rating": 4, "user_ratings_total": 38}, "ChIJabl_Sw8QdkgRuKJAFXN8AFo": {"geometry": {"location": {"lat": 51.526491, "lng": -0.1939467}, "viewport": {"northeast": {"lat": 51.52776863029149, "lng": -0.192532869708498}, "southwest": {"lat": 51.5250706697085, "lng": -0.195230830291502}}}, "name": "Slumberfleece Ltd", "place_id": "ChIJabl_Sw8QdkgRuKJAFXN8AFo", "types": ["home_goods_store", "point_of_interest", "store", "establishment"]}, "ChIJGxapqVURdkgRvQqXjS-plMM": {"geometry": {"location": {"lat": 51.5262749, "lng": -0.193924}, "viewport": {"northeast": {"lat": 51.5276235802915, "lng": -0.192574669708498}, "southwest": {"lat": 51.5249256197085, "lng": -0.195272630291502}}}, "name": "Van Recovery Maida Hill", "place_id": "ChIJGxapqVURdkgRvQqXjS-plMM", "types": ["car_repair", "point_of_interest", "establishment"]}, "ChIJgTtUJwYQdkgRlwYF0odeAs8": {"geometry": {"location": {"lat": 51.5252039, "lng": -0.1936398}, "viewport": {"northeast": {"lat": 51.5263824802915, "lng": -0.191821719708498}, "southwest": {"lat": 51.5236845197085, "lng": -0.194519680291502}}}, "name": "Paddington Academy", "place_id": "ChIJgTtUJwYQdkgRlwYF0odeAs8", "types": ["school", "point_of_interest", "establishment"], "rating": 2.7, "user_ratings_total": 70}}}