{"E00023967": {"ChIJ74PScuEEdkgRyXOKoq-NcCI": {"geometry": {"location": {"lat": 51.48995572374795, "lng": -0.1372996612879731}, "viewport": {"northeast": {"lat": 51.4913031302915, "lng": -0.1353148}, "southwest": {"lat": 51.48860516970851, "lng": -0.1392884}}}, "name": "59-111 Belgrave Rd", "place_id": "ChIJ74PScuEEdkgRyXOKoq-NcCI", "types": ["route"]}, "ChIJuWuyFOEEdkgR9UQjXb9u2aU": {"geometry": {"location": {"lat": 51.48999549999999, "lng": -0.1369828}, "viewport": {"northeast": {"lat": 51.4912885802915, "lng": -0.135717469708498}, "southwest": {"lat": 51.4885906197085, "lng": -0.138415430291502}}}, "name": "Best Western Corona Hotel", "place_id": "ChIJuWuyFOEEdkgR9UQjXb9u2aU", "types": ["lodging", "point_of_interest", "establishment"], "rating": 3.8, "user_ratings_total": 429}, "ChIJxetS_Pqm2EcRBMKJnYArktI": {"geometry": {"location": {"lat": 51.4898111, "lng": -0.1365355}, "viewport": {"northeast": {"lat": 51.49109093029149, "lng": -0.135271219708498}, "southwest": {"lat": 51.4883929697085, "lng": -0.137969180291502}}}, "name": "Corbigoe Hotel", "place_id": "ChIJxetS_Pqm2EcRBMKJnYArktI", "types": ["lodging", "point_of_interest", "establishment"], "rating": 2.1, "user_ratings_total": 499}, "ChIJD5E3FeEEdkgRMAR4Q9m7k5M": {"geometry": {"location": {"lat": 51.4900738, "lng": -0.1365241}, "viewport": {"northeast": {"lat": 51.4914767802915, "lng": -0.135109719708498}, "southwest": {"lat": 51.4887788197085, "lng": -0.137807680291502}}}, "name": "Corinthian Travel", "place_id": "ChIJD5E3FeEEdkgRMAR4Q9m7k5M", "types": ["point_of_interest", "establishment"], "rating": 5, "user_ratings_total": 2}, "ChIJOfUasOYEdkgRGrqJVGF4WLM": {"geometry": {"location": {"lat": 51.4902008, "lng": -0.1359771}, "viewport": {"northeast": {"lat": 51.4914804302915, "lng": -0.134702419708498}, "southwest": {"lat": 51.4887824697085, "lng": -0.137400380291502}}}, "name": "Cave", "place_id": "ChIJOfUasOYEdkgRGrqJVGF4WLM", "types": ["art_gallery", "cafe", "food", "point_of_interest", "store", "establishment"], "rating": 4.7, "user_ratings_total": 26}, "ChIJme1xTeEEdkgREWK9-VaXYNE": {"geometry": {"location": {"lat": 51.4905102, "lng": -0.1369305}, "viewport": {"northeast": {"lat": 51.49187938029149, "lng": -0.135542769708498}, "southwest": {"lat": 51.4891814197085, "lng": -0.138240730291502}}}, "name": "Savill Damp Proofing Limited", "place_id": "ChIJme1xTeEEdkgREWK9-VaXYNE", "types": ["general_contractor", "point_of_interest", "establishment"], "rating": 5, "user_ratings_total": 4}, "ChIJL2ecfeEEdkgRh7kABIUalVg": {"geometry": {"location": {"lat": 51.4898986, "lng": -0.1361293}, "viewport": {"northeast": {"lat": 51.4911582302915, "lng": -0.134593369708498}, "southwest": {"lat": 51.4884602697085, "lng": -0.137291330291502}}}, "name": "Honeylight Computers Ltd", "place_id": "ChIJL2ecfeEEdkgRh7kABIUalVg", "types": ["point_of_interest", "establishment"], "rating": 4.4, "user_ratings_total": 68}, "ChIJ58z3EOEEdkgRgQifhm1_wzA": {"geometry": {"location": {"lat": 51.4905081, "lng": -0.1369828}, "viewport": {"northeast": {"lat": 51.49185378029149, "lng": -0.135640219708498}, "southwest": {"lat": 51.48915581970849, "lng": -0.138338180291502}}}, "name": "Bespoke Photography", "place_id": "ChIJ58z3EOEEdkgRgQifhm1_wzA", "types": ["point_of_interest", "establishment"]}, "ChIJi2bgclEbdkgRh1j-WSJK-aI": {"geometry": {"location": {"lat": 51.4906417, "lng": -0.1359118}, "viewport": {"northeast": {"lat": 51.4917835802915, "lng": -0.134847869708498}, "southwest": {"lat": 51.4890856197085, "lng": -0.137545830291502}}}, "name": "KREADO", "place_id": "ChIJi2bgclEbdkgRh1j-WSJK-aI", "types": ["general_contractor", "point_of_interest", "establishment"]}, "ChIJ_6Y4BeEEdkgRU6W2osb0Yjs": {"geometry": {"location": {"lat": 51.49048430000001, "lng": -0.1371716}, "viewport": {"northeast": {"lat": 51.49187413029151, "lng": -0.135737869708498}, "southwest": {"lat": 51.48917616970851, "lng": -0.138435830291502}}}, "name": "A to B London", "place_id": "ChIJ_6Y4BeEEdkgRU6W2osb0Yjs", "types": ["point_of_interest", "establishment"]}, "ChIJRxoLs-YEdkgRvnfiPtLneLE": {"geometry": {"location": {"lat": 51.49022209999999, "lng": -0.1366684}, "viewport": {"northeast": {"lat": 51.49160068029149, "lng": -0.135274669708498}, "southwest": {"lat": 51.4889027197085, "lng": -0.137972630291502}}}, "name": "Rs Newsagents", "place_id": "ChIJRxoLs-YEdkgRvnfiPtLneLE", "types": ["point_of_interest", "store", "establishment"]}, "ChIJSyw-OeEEdkgRaGodDU3JXmA": {"geometry": {"location": {"lat": 51.4902008, "lng": -0.1359771}, "viewport": {"northeast": {"lat": 51.4914804302915, "lng": -0.134702419708498}, "southwest": {"lat": 51.4887824697085, "lng": -0.137400380291502}}}, "name": "Cavespace", "place_id": "ChIJSyw-OeEEdkgRaGodDU3JXmA", "types": ["art_gallery", "point_of_interest", "establishment"]}, "ChIJGww5P-EEdkgR8wP80VgrG5w": {"geometry": {"location": {"lat": 51.4899804, "lng": -0.1362057}, "viewport": {"northeast": {"lat": 51.4913691302915, "lng": -0.134814119708498}, "southwest": {"lat": 51.4886711697085, "lng": -0.137512080291502}}}, "name": "Web Expert", "place_id": "ChIJGww5P-EEdkgR8wP80VgrG5w", "types": ["point_of_interest", "establishment"]}, "ChIJ78YOR-EEdkgRSJ8GzfN-vak": {"geometry": {"location": {"lat": 51.4898572, "lng": -0.1359083}, "viewport": {"northeast": {"lat": 51.4912499302915, "lng": -0.134517369708498}, "southwest": {"lat": 51.4885519697085, "lng": -0.137215330291502}}}, "name": "Heeran Construction", "place_id": "ChIJ78YOR-EEdkgRSJ8GzfN-vak", "types": ["point_of_interest", "establishment"]}, "ChIJE6QDQ-EEdkgREapDNom6hL0": {"geometry": {"location": {"lat": 51.48944355002521, "lng": -0.1362311999348937}, "viewport": {"northeast": {"lat": 51.49079253029149, "lng": -0.134882219708498}, "southwest": {"lat": 51.48809456970849, "lng": -0.137580180291502}}}, "name": "Belgrave Road", "place_id": "ChIJE6QDQ-EEdkgREapDNom6hL0", "types": ["route"]}, "ChIJDaYaaeEEdkgRbR8XStuLsYM": {"geometry": {"location": {"lat": 51.48950689999999, "lng": -0.1366956}, "viewport": {"northeast": {"lat": 51.49090693029149, "lng": -0.135284069708498}, "southwest": {"lat": 51.4882089697085, "lng": -0.137982030291502}}}, "name": "Blades", "place_id": "ChIJDaYaaeEEdkgRbR8XStuLsYM", "types": ["lodging", "point_of_interest", "establishment"], "rating": 4.1, "user_ratings_total": 134}, "ChIJC-FtXeEEdkgRzgSQztgcexg": {"geometry": {"location": {"lat": 51.48916440000001, "lng": -0.1363534}, "viewport": {"northeast": {"lat": 51.4905365302915, "lng": -0.135045619708498}, "southwest": {"lat": 51.4878385697085, "lng": -0.137743580291502}}}, "name": "SW1 Bathroom Plumbing & Heating Supplies", "place_id": "ChIJC-FtXeEEdkgRzgSQztgcexg", "types": ["home_goods_store", "point_of_interest", "store", "establishment"], "rating": 4.1, "user_ratings_total": 17}, "ChIJc9bYY-EEdkgRcJwl7RUElKs": {"geometry": {"location": {"lat": 51.488917, "lng": -0.1365984}, "viewport": {"northeast": {"lat": 51.4903060302915, "lng": -0.135322319708498}, "southwest": {"lat": 51.4876080697085, "lng": -0.138020280291502}}}, "name": "Pimlico Centre for the Alexander Technique", "place_id": "ChIJc9bYY-EEdkgRcJwl7RUElKs", "types": ["health", "point_of_interest", "establishment"], "rating": 5, "user_ratings_total": 4}, "ChIJU4DSZuEEdkgRGfiwswzffaI": {"geometry": {"location": {"lat": 51.48890789999999, "lng": -0.1366}, "viewport": {"northeast": {"lat": 51.4902986802915, "lng": -0.1353270697084979}, "southwest": {"lat": 51.4876007197085, "lng": -0.138025030291502}}}, "name": "Invisible Training", "place_id": "ChIJU4DSZuEEdkgRGfiwswzffaI", "types": ["point_of_interest", "establishment"]}, "ChIJ7x8SH4MPdkgRcsQ978sg9m4": {"geometry": {"location": {"lat": 51.488917, "lng": -0.1365984}, "viewport": {"northeast": {"lat": 51.4903060302915, "lng": -0.135322319708498}, "southwest": {"lat": 51.4876080697085, "lng": -0.138020280291502}}}, "name": "Alexander Technique in London", "place_id": "ChIJ7x8SH4MPdkgRcsQ978sg9m4", "types": ["health", "point_of_interest", "establishment"]}, "ChIJ-9PeYOEEdkgRoCUzdpHxjIY": {"geometry": {"location": {"lat": 51.488917, "lng": -0.1365984}, "viewport": {"northeast": {"lat": 51.4903060302915, "lng": -0.135322319708498}, "southwest": {"lat": 51.4876080697085, "lng": -0.138020280291502}}}, "name": "Arabella Lennox-Boyd Landscape Design", "place_id": "ChIJ-9PeYOEEdkgRoCUzdpHxjIY", "types": ["general_contractor", "point_of_interest", "establishment"]}, "ChIJD6KTfOEEdkgRyFXs7omAr24": {"geometry": {"location": {"lat": 51.4889599, "lng": -0.1370235}, "viewport": {"northeast": {"lat": 51.4902738802915, "lng": -0.135610869708498}, "southwest": {"lat": 51.4875759197085, "lng": -0.138308830291502}}}, "name": "Peta Smyth Antique Textiles", "place_id": "ChIJD6KTfOEEdkgRyFXs7omAr24", "types": ["home_goods_store", "point_of_interest", "store", "establishment"]}, "ChIJcViTfOEEdkgRpavzoA7wSz4": {"geometry": {"location": {"lat": 51.48889129999999, "lng": -0.1371379}, "viewport": {"northeast": {"lat": 51.4901970302915, "lng": -0.135728369708498}, "southwest": {"lat": 51.4874990697085, "lng": -0.138426330291502}}}, "name": "Pizza Express", "place_id": "ChIJcViTfOEEdkgRpavzoA7wSz4", "types": ["meal_takeaway", "restaurant", "food", "point_of_interest", "establishment"], "rating": 4, "user_ratings_total": 365}, "ChIJhf8eQuEEdkgRbRr10Y09g30": {"geometry": {"location": {"lat": 51.48962649999999, "lng": -0.1363516}, "viewport": {"northeast": {"lat": 51.4909754802915, "lng": -0.135002619708498}, "southwest": {"lat": 51.4882775197085, "lng": -0.137700580291502}}}, "name": "Nomadic Chefs", "place_id": "ChIJhf8eQuEEdkgRbRr10Y09g30", "types": ["food", "point_of_interest", "establishment"]}, "ChIJ15RdReEEdkgRHeHAGEMumJ8": {"geometry": {"location": {"lat": 51.4893868, "lng": -0.1357244}, "viewport": {"northeast": {"lat": 51.4906783302915, "lng": -0.134441969708498}, "southwest": {"lat": 51.4879803697085, "lng": -0.137139930291502}}}, "name": "Judith Dawson", "place_id": "ChIJ15RdReEEdkgRHeHAGEMumJ8", "types": ["point_of_interest", "establishment"]}, "ChIJS-5yZOEEdkgRRFM_9hPaKoY": {"geometry": {"location": {"lat": 51.4890188, "lng": -0.1369172}, "viewport": {"northeast": {"lat": 51.4903363302915, "lng": -0.135510969708498}, "southwest": {"lat": 51.4876383697085, "lng": -0.138208930291502}}}, "name": "Pimlico Tandoori Restaurant", "place_id": "ChIJS-5yZOEEdkgRRFM_9hPaKoY", "types": ["restaurant", "food", "point_of_interest", "establishment"], "rating": 3.8, "user_ratings_total": 194}, "ChIJ49rdZuEEdkgRyQqTzG97JYY": {"geometry": {"location": {"lat": 51.488989, "lng": -0.1365973}, "viewport": {"northeast": {"lat": 51.4903650802915, "lng": -0.135288569708498}, "southwest": {"lat": 51.4876671197085, "lng": -0.137986530291502}}}, "name": "Sole Beauty Pimlico", "place_id": "ChIJ49rdZuEEdkgRyQqTzG97JYY", "types": ["beauty_salon", "hair_care", "spa", "point_of_interest", "establishment"], "rating": 4.1, "user_ratings_total": 36}, "ChIJ220q98oPdkgRmIGCLYEpTv4": {"geometry": {"location": {"lat": 51.48890789999999, "lng": -0.1366}, "viewport": {"northeast": {"lat": 51.4902986802915, "lng": -0.1353270697084979}, "southwest": {"lat": 51.4876007197085, "lng": -0.138025030291502}}}, "name": "Alex Dixon Psychotherapy and Counselling", "place_id": "ChIJ220q98oPdkgRmIGCLYEpTv4", "types": ["health", "point_of_interest", "establishment"]}, "ChIJbZhrZ-EEdkgRFPo82bFgvGQ": {"geometry": {"location": {"lat": 51.489031, "lng": -0.136463}, "viewport": {"northeast": {"lat": 51.49041608029151, "lng": -0.135178269708498}, "southwest": {"lat": 51.48771811970851, "lng": -0.137876230291502}}}, "name": "Nicky Dobree Interior Design Ltd", "place_id": "ChIJbZhrZ-EEdkgRFPo82bFgvGQ", "types": ["general_contractor", "point_of_interest", "establishment"], "rating": 5, "user_ratings_total": 2}, "ChIJ4aJMenYFdkgR9KDWY0D5GjI": {"geometry": {"location": {"lat": 51.4891994, "lng": -0.1366812}, "viewport": {"northeast": {"lat": 51.4905169802915, "lng": -0.135263169708498}, "southwest": {"lat": 51.4878190197085, "lng": -0.137961130291502}}}, "name": "Little Bread Pedlar", "place_id": "ChIJ4aJMenYFdkgR9KDWY0D5GjI", "types": ["bakery", "food", "point_of_interest", "store", "establishment"], "rating": 4.8, "user_ratings_total": 46}, "ChIJl8_2oQkFdkgRp27N0R7fv7s": {"geometry": {"location": {"lat": 51.4889901, "lng": -0.1365085}, "viewport": {"northeast": {"lat": 51.4903773302915, "lng": -0.135227569708498}, "southwest": {"lat": 51.4876793697085, "lng": -0.137925530291502}}}, "name": "Kipper & Chalk", "place_id": "ChIJl8_2oQkFdkgRp27N0R7fv7s", "types": ["point_of_interest", "establishment"], "rating": 5, "user_ratings_total": 9}, "ChIJ58vU4uMEdkgR_Lm-Vijodf0": {"geometry": {"location": {"lat": 51.4891126, "lng": -0.1361009}, "viewport": {"northeast": {"lat": 51.49046698029149, "lng": -0.134680769708498}, "southwest": {"lat": 51.48776901970849, "lng": -0.137378730291502}}}, "name": "Dunbar Maintenance", "place_id": "ChIJ58vU4uMEdkgR_Lm-Vijodf0", "types": ["point_of_interest", "establishment"]}, "ChIJ1Q8hIL0FdkgRFkELBwQRDa0": {"geometry": {"location": {"lat": 51.4891674, "lng": -0.1367561}, "viewport": {"northeast": {"lat": 51.4904764802915, "lng": -0.135336119708498}, "southwest": {"lat": 51.4877785197085, "lng": -0.138034080291502}}}, "name": "Khallouk & Taylor Deli", "place_id": "ChIJ1Q8hIL0FdkgRFkELBwQRDa0", "types": ["bar", "restaurant", "food", "point_of_interest", "establishment"], "rating": 4.7, "user_ratings_total": 38}, "ChIJ6yK6_OMEdkgRvyu-gAdii-Q": {"geometry": {"location": {"lat": 51.48899579999999, "lng": -0.136024}, "viewport": {"northeast": {"lat": 51.49035388029149, "lng": -0.1346201197084979}, "southwest": {"lat": 51.48765591970849, "lng": -0.137318080291502}}}, "name": "Public Speaking Matters", "place_id": "ChIJ6yK6_OMEdkgRvyu-gAdii-Q", "types": ["point_of_interest", "establishment"], "rating": 5, "user_ratings_total": 27}, "ChIJ49E3YeEEdkgRmF6PXjV99Ew": {"geometry": {"location": {"lat": 51.48891709999999, "lng": -0.1366975}, "viewport": {"northeast": {"lat": 51.49029083029149, "lng": -0.135393519708498}, "southwest": {"lat": 51.4875928697085, "lng": -0.138091480291502}}}, "name": "Ulrich Engler", "place_id": "ChIJ49E3YeEEdkgRmF6PXjV99Ew", "types": ["point_of_interest", "clothing_store", "store", "establishment"], "rating": 1, "user_ratings_total": 1}, "ChIJdaHAW_kFdkgRlrJF0l8WMsk": {"geometry": {"location": {"lat": 51.48947200000001, "lng": -0.1365523}, "viewport": {"northeast": {"lat": 51.4908610302915, "lng": -0.135152719708498}, "southwest": {"lat": 51.4881630697085, "lng": -0.137850680291502}}}, "name": "Victoria massage", "place_id": "ChIJdaHAW_kFdkgRlrJF0l8WMsk", "types": ["spa", "point_of_interest", "establishment"], "rating": 5, "user_ratings_total": 5}, "ChIJh0sYaeEEdkgRarHgHT_CrXg": {"geometry": {"location": {"lat": 51.48950689999999, "lng": -0.1366956}, "viewport": {"northeast": {"lat": 51.49090693029149, "lng": -0.135284069708498}, "southwest": {"lat": 51.4882089697085, "lng": -0.137982030291502}}}, "name": "\u30d6\u30ec\u30fc\u30ba \u30db\u30c6\u30eb", "place_id": "ChIJh0sYaeEEdkgRarHgHT_CrXg", "types": ["lodging", "point_of_interest", "establishment"]}, "ChIJGwjYY-EEdkgRefMQETpDRhU": {"geometry": {"location": {"lat": 51.488845, "lng": -0.1367728}, "viewport": {"northeast": {"lat": 51.4902228802915, "lng": -0.135476369708498}, "southwest": {"lat": 51.4875249197085, "lng": -0.138174330291502}}}, "name": "Open Shut Windows", "place_id": "ChIJGwjYY-EEdkgRefMQETpDRhU", "types": ["general_contractor", "point_of_interest", "establishment"]}, "ChIJiWKRzzEFdkgRCmu-Us7phE4": {"geometry": {"location": {"lat": 51.48900080000001, "lng": -0.1369816}, "viewport": {"northeast": {"lat": 51.49031233029151, "lng": -0.135564419708498}, "southwest": {"lat": 51.48761436970851, "lng": -0.1382623802915021}}}, "name": "WM Semi Permanent Make Up", "place_id": "ChIJiWKRzzEFdkgRCmu-Us7phE4", "types": ["beauty_salon", "point_of_interest", "establishment"], "rating": 5, "user_ratings_total": 6}, "ChIJ1c6AY-EEdkgR4U_BVJHDwLM": {"geometry": {"location": {"lat": 51.4889811, "lng": -0.1369973}, "viewport": {"northeast": {"lat": 51.4902944802915, "lng": -0.1355835697084979}, "southwest": {"lat": 51.4875965197085, "lng": -0.138281530291502}}}, "name": "Moreton Place Beauty & Wellbeing", "place_id": "ChIJ1c6AY-EEdkgR4U_BVJHDwLM", "types": ["beauty_salon", "hair_care", "spa", "health", "point_of_interest", "establishment"], "rating": 5, "user_ratings_total": 62}, "ChIJRY42ReEEdkgRXXGlO4igqKM": {"geometry": {"location": {"lat": 51.48933539999999, "lng": -0.1357902}, "viewport": {"northeast": {"lat": 51.49065358029149, "lng": -0.134476919708498}, "southwest": {"lat": 51.48795561970849, "lng": -0.137174880291502}}}, "name": "ubitricity Charging Station", "place_id": "ChIJRY42ReEEdkgRXXGlO4igqKM", "types": ["point_of_interest", "establishment"]}, "ChIJ9x2Jb-EEdkgR1qjlEc04EFo": {"geometry": {"location": {"lat": 51.4893216, "lng": -0.1370382}, "viewport": {"northeast": {"lat": 51.4906302302915, "lng": -0.135738669708498}, "southwest": {"lat": 51.4879322697085, "lng": -0.138436630291502}}}, "name": "B Huber Co Ltd", "place_id": "ChIJ9x2Jb-EEdkgR1qjlEc04EFo", "types": ["finance", "point_of_interest", "establishment"]}, "ChIJg1ksX-EEdkgRMx2M2ESimB8": {"geometry": {"location": {"lat": 51.4887886, "lng": -0.1360727}, "viewport": {"northeast": {"lat": 51.4901561302915, "lng": -0.134600819708498}, "southwest": {"lat": 51.4874581697085, "lng": -0.137298780291502}}}, "name": "Gravesend Visitor Information Centre", "place_id": "ChIJg1ksX-EEdkgRMx2M2ESimB8", "types": ["travel_agency", "point_of_interest", "establishment"]}, "ChIJd1_yGTMFdkgR8LAmsgFzSek": {"geometry": {"location": {"lat": 51.48878449999999, "lng": -0.1368059}, "viewport": {"northeast": {"lat": 51.49017053029151, "lng": -0.135524269708498}, "southwest": {"lat": 51.48747256970851, "lng": -0.138222230291502}}}, "name": "Beautiful Knitters", "place_id": "ChIJd1_yGTMFdkgR8LAmsgFzSek", "types": ["school", "point_of_interest", "store", "establishment"], "rating": 4.9, "user_ratings_total": 47}, "ChIJaaJ5akcFdkgRQGxf19DsnPM": {"geometry": {"location": {"lat": 51.48962649999999, "lng": -0.1363516}, "viewport": {"northeast": {"lat": 51.4909374302915, "lng": -0.135050669708498}, "southwest": {"lat": 51.4882394697085, "lng": -0.137748630291502}}}, "name": "Mix & Rise", "place_id": "ChIJaaJ5akcFdkgRQGxf19DsnPM", "types": ["food", "point_of_interest", "store", "establishment"]}, "ChIJoSdeMSQFdkgRdFVM5-woFHk": {"geometry": {"location": {"lat": 51.48940520000001, "lng": -0.1357504}, "viewport": {"northeast": {"lat": 51.4906945302915, "lng": -0.134470519708498}, "southwest": {"lat": 51.48799656970851, "lng": -0.137168480291502}}}, "name": "Happy brix", "place_id": "ChIJoSdeMSQFdkgRdFVM5-woFHk", "types": ["general_contractor", "point_of_interest", "establishment"]}, "ChIJAQBnReEEdkgRe_3QMBMB1vY": {"geometry": {"location": {"lat": 51.4894015, "lng": -0.1357301}, "viewport": {"northeast": {"lat": 51.4906890302915, "lng": -0.1344522697084979}, "southwest": {"lat": 51.4879910697085, "lng": -0.137150230291502}}}, "name": "Abset Services Limited", "place_id": "ChIJAQBnReEEdkgRe_3QMBMB1vY", "types": ["point_of_interest", "establishment"]}, "ChIJAQBnReEEdkgRXwCVeFkyEjI": {"geometry": {"location": {"lat": 51.4894015, "lng": -0.1357301}, "viewport": {"northeast": {"lat": 51.4906890302915, "lng": -0.1344522697084979}, "southwest": {"lat": 51.4879910697085, "lng": -0.137150230291502}}}, "name": "Wg Servicing Limited", "place_id": "ChIJAQBnReEEdkgRXwCVeFkyEjI", "types": ["point_of_interest", "establishment"]}, "ChIJ2XRg4ekPdkgRAONAdi74h7Y": {"geometry": {"location": {"lat": 51.488754, "lng": -0.1359575}, "viewport": {"northeast": {"lat": 51.4901155802915, "lng": -0.134533869708498}, "southwest": {"lat": 51.4874176197085, "lng": -0.137231830291502}}}, "name": "Embassy of Georgia", "place_id": "ChIJ2XRg4ekPdkgRAONAdi74h7Y", "types": ["embassy", "point_of_interest", "establishment"], "rating": 4.2, "user_ratings_total": 26}, "ChIJo_ak4uMEdkgRUqJtsmphtqg": {"geometry": {"location": {"lat": 51.4894183, "lng": -0.1357205}, "viewport": {"northeast": {"lat": 51.4906988802915, "lng": -0.134450719708498}, "southwest": {"lat": 51.4880009197085, "lng": -0.137148680291502}}}, "name": "Londons Loft Specialists \ud83c\udfc6", "place_id": "ChIJo_ak4uMEdkgRUqJtsmphtqg", "types": ["general_contractor", "point_of_interest", "establishment"]}, "ChIJTxeCX-EEdkgRejgRyy-ksBU": {"geometry": {"location": {"lat": 51.48867509999999, "lng": -0.1362475}, "viewport": {"northeast": {"lat": 51.4899587802915, "lng": -0.134868569708498}, "southwest": {"lat": 51.4872608197085, "lng": -0.137566530291502}}}, "name": "Your Workplace Supplies Ltd", "place_id": "ChIJTxeCX-EEdkgRejgRyy-ksBU", "types": ["point_of_interest", "establishment"]}, "ChIJPagB8vMEdkgRgjkQjSQYpfg": {"geometry": {"location": {"lat": 51.48867509999999, "lng": -0.1362475}, "viewport": {"northeast": {"lat": 51.4900240802915, "lng": -0.134898519708498}, "southwest": {"lat": 51.4873261197085, "lng": -0.137596480291502}}}, "name": "Culture Consultants Ltd", "place_id": "ChIJPagB8vMEdkgRgjkQjSQYpfg", "types": ["point_of_interest", "establishment"]}, "ChIJAQBAUOEEdkgRS-zAuiEnSyY": {"geometry": {"location": {"lat": 51.4892272, "lng": -0.135603}, "viewport": {"northeast": {"lat": 51.4905523802915, "lng": -0.134282969708498}, "southwest": {"lat": 51.4878544197085, "lng": -0.136980930291502}}}, "name": "Zackbd", "place_id": "ChIJAQBAUOEEdkgRS-zAuiEnSyY", "types": ["general_contractor", "point_of_interest", "establishment"]}, "ChIJXaxcFWEFdkgRO4ldWU4QXaU": {"geometry": {"location": {"lat": 51.48871260000001, "lng": -0.136863}, "viewport": {"northeast": {"lat": 51.4901055302915, "lng": -0.135593969708498}, "southwest": {"lat": 51.4874075697085, "lng": -0.138291930291502}}}, "name": "La Maison du Chat", "place_id": "ChIJXaxcFWEFdkgRO4ldWU4QXaU", "types": ["cafe", "food", "point_of_interest", "store", "establishment"], "rating": 4.4, "user_ratings_total": 21}, "ChIJpYFM3uMEdkgREfISgVGDkBI": {"geometry": {"location": {"lat": 51.48848367755205, "lng": -0.1365211434147427}, "viewport": {"northeast": {"lat": 51.48983073029149, "lng": -0.13495055}, "southwest": {"lat": 51.4871327697085, "lng": -0.13808995}}}, "name": "32-10 Lupus St", "place_id": "ChIJpYFM3uMEdkgREfISgVGDkBI", "types": ["route"]}, "ChIJ6UiF0OMEdkgR-acT8e3bJMo": {"geometry": {"location": {"lat": 51.4880398, "lng": -0.1371874}, "viewport": {"northeast": {"lat": 51.48953753029149, "lng": -0.136049519708498}, "southwest": {"lat": 51.48683956970849, "lng": -0.138747480291502}}}, "name": "Capital Carboot", "place_id": "ChIJ6UiF0OMEdkgR-acT8e3bJMo", "types": ["point_of_interest", "establishment"], "rating": 3.9, "user_ratings_total": 202}, "ChIJHZsf3uMEdkgRuGIAQT5vkdQ": {"geometry": {"location": {"lat": 51.4882678, "lng": -0.1366178}, "viewport": {"northeast": {"lat": 51.4896283302915, "lng": -0.135764719708498}, "southwest": {"lat": 51.4869303697085, "lng": -0.138462680291502}}}, "name": "Pimlico Primary", "place_id": "ChIJHZsf3uMEdkgRuGIAQT5vkdQ", "types": ["school", "point_of_interest", "establishment"], "rating": 4.9, "user_ratings_total": 10}, "ChIJF6m_2uMEdkgRg21WwKSexxY": {"geometry": {"location": {"lat": 51.4880668, "lng": -0.1370759}, "viewport": {"northeast": {"lat": 51.4895606802915, "lng": -0.135993769708498}, "southwest": {"lat": 51.4868627197085, "lng": -0.138691730291502}}}, "name": "Alpha Church", "place_id": "ChIJF6m_2uMEdkgRg21WwKSexxY", "types": ["point_of_interest", "establishment"], "rating": 4.8, "user_ratings_total": 28}, "ChIJ45of3uMEdkgRWSbPmTPVPpg": {"geometry": {"location": {"lat": 51.4881811, "lng": -0.1371032}, "viewport": {"northeast": {"lat": 51.48958383029151, "lng": -0.136007419708498}, "southwest": {"lat": 51.48688586970851, "lng": -0.138705380291502}}}, "name": "FUTURE", "place_id": "ChIJ45of3uMEdkgRWSbPmTPVPpg", "types": ["point_of_interest", "establishment"]}, "ChIJG4EIs2MddkgR_TXo0hgeVBw": {"geometry": {"location": {"lat": 51.4884936, "lng": -0.1368608}, "viewport": {"northeast": {"lat": 51.48980933029149, "lng": -0.135496069708498}, "southwest": {"lat": 51.48711136970849, "lng": -0.138194030291502}}}, "name": "ALFA Serviced Apartments", "place_id": "ChIJG4EIs2MddkgR_TXo0hgeVBw", "types": ["lodging", "point_of_interest", "establishment"], "rating": 5, "user_ratings_total": 2}, "ChIJ7_xU--MEdkgRUQV7EybDQg0": {"geometry": {"location": {"lat": 51.488226, "lng": -0.135635}, "viewport": {"northeast": {"lat": 51.48957918029149, "lng": -0.134262119708498}, "southwest": {"lat": 51.48688121970849, "lng": -0.136960080291502}}}, "name": "Santander Cycles", "place_id": "ChIJ7_xU--MEdkgRUQV7EybDQg0", "types": ["point_of_interest", "establishment"], "rating": 5, "user_ratings_total": 2}, "ChIJScUk7OMEdkgRxiKmRzgaLls": {"geometry": {"location": {"lat": 51.4876259, "lng": -0.1359166}, "viewport": {"northeast": {"lat": 51.48897777804937, "lng": -0.1345821269674574}, "southwest": {"lat": 51.48627981746637, "lng": -0.1372800875504614}}}, "name": "Parking lot", "place_id": "ChIJScUk7OMEdkgRxiKmRzgaLls", "types": ["parking", "premise", "point_of_interest", "establishment"]}, "ChIJ0Q6bwOMEdkgRqN_Ykj2CS7I": {"geometry": {"location": {"lat": 51.48736118591805, "lng": -0.1366699453754653}, "viewport": {"northeast": {"lat": 51.48871018029151, "lng": -0.1348092500000001}, "southwest": {"lat": 51.48601221970851, "lng": -0.1385306499999999}}}, "name": "2-46 Chichester St", "place_id": "ChIJ0Q6bwOMEdkgRqN_Ykj2CS7I", "types": ["route"]}, "ChIJ2SDiH10OdkgRMCilN79CRe8": {"geometry": {"location": {"lat": 51.48725090000001, "lng": -0.13666}, "viewport": {"northeast": {"lat": 51.4886465302915, "lng": -0.135396569708498}, "southwest": {"lat": 51.4859485697085, "lng": -0.138094530291502}}}, "name": "Dolphin House - Serviced Apartments", "place_id": "ChIJ2SDiH10OdkgRMCilN79CRe8", "types": ["lodging", "point_of_interest", "establishment"], "rating": 4.1, "user_ratings_total": 594}, "ChIJu4XTCuMEdkgR2rsZM6ZaHL0": {"geometry": {"location": {"lat": 51.4870426, "lng": -0.1365423}, "viewport": {"northeast": {"lat": 51.4885497802915, "lng": -0.135337719708498}, "southwest": {"lat": 51.4858518197085, "lng": -0.138035680291502}}}, "name": "DSQ GYM", "place_id": "ChIJu4XTCuMEdkgR2rsZM6ZaHL0", "types": ["gym", "health", "point_of_interest", "establishment"], "rating": 3.8, "user_ratings_total": 165}, "ChIJ12GxmuMEdkgRIciWi6PFS4I": {"geometry": {"location": {"lat": 51.4870916, "lng": -0.1365107}, "viewport": {"northeast": {"lat": 51.4885785302915, "lng": -0.135321919708498}, "southwest": {"lat": 51.4858805697085, "lng": -0.138019880291502}}}, "name": "The Entertainment Agents' Association", "place_id": "ChIJ12GxmuMEdkgRIciWi6PFS4I", "types": ["point_of_interest", "establishment"]}, "ChIJu4XTCuMEdkgRBTIuTdRWako": {"geometry": {"location": {"lat": 51.4870916, "lng": -0.1365107}, "viewport": {"northeast": {"lat": 51.4885785302915, "lng": -0.135321919708498}, "southwest": {"lat": 51.4858805697085, "lng": -0.138019880291502}}}, "name": "David Propert", "place_id": "ChIJu4XTCuMEdkgRBTIuTdRWako", "types": ["health", "point_of_interest", "establishment"], "rating": 5, "user_ratings_total": 8}, "ChIJS6eKLVEDdkgRlzdZKHdxA44": {"geometry": {"location": {"lat": 51.4870916, "lng": -0.1365107}, "viewport": {"northeast": {"lat": 51.4885785302915, "lng": -0.135321919708498}, "southwest": {"lat": 51.4858805697085, "lng": -0.138019880291502}}}, "name": "Good For The Sole", "place_id": "ChIJS6eKLVEDdkgRlzdZKHdxA44", "types": ["health", "point_of_interest", "establishment"], "rating": 5, "user_ratings_total": 2}, "ChIJcUaXl-MEdkgRDxvj5xGwTJU": {"geometry": {"location": {"lat": 51.4870989, "lng": -0.136454}, "viewport": {"northeast": {"lat": 51.48858698029149, "lng": -0.135293569708498}, "southwest": {"lat": 51.4858890197085, "lng": -0.137991530291502}}}, "name": "The Spa - In Dolphin Square", "place_id": "ChIJcUaXl-MEdkgRDxvj5xGwTJU", "types": ["beauty_salon", "hair_care", "spa", "point_of_interest", "establishment"], "rating": 4.5, "user_ratings_total": 375}, "ChIJ-2l5JOIEdkgRkwZfjUVlJA4": {"geometry": {"location": {"lat": 51.4870916, "lng": -0.1365107}, "viewport": {"northeast": {"lat": 51.4885785302915, "lng": -0.135321919708498}, "southwest": {"lat": 51.4858805697085, "lng": -0.138019880291502}}}, "name": "Ghazaleh Rahimi Podiatry (Pimlico Podiatry)", "place_id": "ChIJ-2l5JOIEdkgRkwZfjUVlJA4", "types": ["doctor", "health", "point_of_interest", "establishment"], "rating": 5, "user_ratings_total": 32}, "ChIJTc-IvuMEdkgRdniZOyQKTRQ": {"geometry": {"location": {"lat": 51.4869375, "lng": -0.1364365}, "viewport": {"northeast": {"lat": 51.48849703029151, "lng": -0.135211619708498}, "southwest": {"lat": 51.48579906970851, "lng": -0.137909580291502}}}, "name": "Dolphin Square", "place_id": "ChIJTc-IvuMEdkgRdniZOyQKTRQ", "types": ["real_estate_agency", "point_of_interest", "establishment"], "rating": 3.8, "user_ratings_total": 33}, "ChIJjepWleMEdkgRPlblQDvZC4Q": {"geometry": {"location": {"lat": 51.48731180000001, "lng": -0.1364031000000001}, "viewport": {"northeast": {"lat": 51.48863248029151, "lng": -0.135287369708498}, "southwest": {"lat": 51.48593451970851, "lng": -0.137985330291502}}}, "name": "Rodney House", "place_id": "ChIJjepWleMEdkgRPlblQDvZC4Q", "types": ["point_of_interest", "establishment"], "rating": 5, "user_ratings_total": 1}, "ChIJr8XGlOMEdkgRT_izjLM60l0": {"geometry": {"location": {"lat": 51.4872798, "lng": -0.1361597}, "viewport": {"northeast": {"lat": 51.4886876302915, "lng": -0.1351464197084979}, "southwest": {"lat": 51.4859896697085, "lng": -0.137844380291502}}}, "name": "Newsagents - Dolphin Square Arcade", "place_id": "ChIJr8XGlOMEdkgRT_izjLM60l0", "types": ["point_of_interest", "store", "establishment"]}, "ChIJwxmcwOMEdkgR9cdk6TrsVRE": {"geometry": {"location": {"lat": 51.487354, "lng": -0.13667}, "viewport": {"northeast": {"lat": 51.4887366802915, "lng": -0.135336019708498}, "southwest": {"lat": 51.4860387197085, "lng": -0.138033980291502}}}, "name": "Tai Chi City", "place_id": "ChIJwxmcwOMEdkgR9cdk6TrsVRE", "types": ["school", "health", "point_of_interest", "establishment"], "rating": 4.9, "user_ratings_total": 16}, "ChIJNwmbwOMEdkgRvPQZyiZR_Js": {"geometry": {"location": {"lat": 51.487365, "lng": -0.13666}, "viewport": {"northeast": {"lat": 51.4887423302915, "lng": -0.135323619708498}, "southwest": {"lat": 51.4860443697085, "lng": -0.138021580291502}}}, "name": "Love Swimming", "place_id": "ChIJNwmbwOMEdkgRvPQZyiZR_Js", "types": ["point_of_interest", "establishment"], "rating": 3.7, "user_ratings_total": 3}, "ChIJ12GxmuMEdkgRyL8RoNmg3Bc": {"geometry": {"location": {"lat": 51.48704300000001, "lng": -0.1357533}, "viewport": {"northeast": {"lat": 51.48839803029151, "lng": -0.134341519708498}, "southwest": {"lat": 51.48570006970851, "lng": -0.137039480291502}}}, "name": "Genever & Partners Ltd.", "place_id": "ChIJ12GxmuMEdkgRyL8RoNmg3Bc", "types": ["point_of_interest", "establishment"]}, "ChIJPx6jsOMEdkgR8najCw5AuDI": {"geometry": {"location": {"lat": 51.4869372, "lng": -0.1371918}, "viewport": {"northeast": {"lat": 51.4880780802915, "lng": -0.135861219708498}, "southwest": {"lat": 51.4853801197085, "lng": -0.138559180291502}}}, "name": "Integria Consulting Ltd", "place_id": "ChIJPx6jsOMEdkgR8najCw5AuDI", "types": ["point_of_interest", "establishment"]}, "ChIJUfpeleMEdkgRAenv5Yp5zQg": {"geometry": {"location": {"lat": 51.4870916, "lng": -0.1365107}, "viewport": {"northeast": {"lat": 51.4885785302915, "lng": -0.135321919708498}, "southwest": {"lat": 51.4858805697085, "lng": -0.138019880291502}}}, "name": "Dolphin Bar and Grill", "place_id": "ChIJUfpeleMEdkgRAenv5Yp5zQg", "types": ["restaurant", "cafe", "bar", "food", "point_of_interest", "store", "establishment"], "rating": 3.5, "user_ratings_total": 56}, "ChIJu4XTCuMEdkgRGPRp1fxjxvM": {"geometry": {"location": {"lat": 51.4872872, "lng": -0.1362381}, "viewport": {"northeast": {"lat": 51.48868158029149, "lng": -0.135185619708498}, "southwest": {"lat": 51.48598361970849, "lng": -0.137883580291502}}}, "name": "Dolphin Square Dry Cleaners", "place_id": "ChIJu4XTCuMEdkgRGPRp1fxjxvM", "types": ["laundry", "point_of_interest", "establishment"], "rating": 2.9, "user_ratings_total": 9}, "ChIJKdfWveMEdkgR-JIcQ2BfQag": {"geometry": {"location": {"lat": 51.4870916, "lng": -0.1365107}, "viewport": {"northeast": {"lat": 51.4885785302915, "lng": -0.135321919708498}, "southwest": {"lat": 51.4858805697085, "lng": -0.138019880291502}}}, "name": "The Hungry Dolphin Caf\u00e9", "place_id": "ChIJKdfWveMEdkgR-JIcQ2BfQag", "types": ["cafe", "restaurant", "food", "point_of_interest", "store", "establishment"], "rating": 5, "user_ratings_total": 2}, "ChIJ32GxmuMEdkgRvSksVXAJiko": {"geometry": {"location": {"lat": 51.4870162, "lng": -0.1364477}, "viewport": {"northeast": {"lat": 51.48854318029149, "lng": -0.135290419708498}, "southwest": {"lat": 51.4858452197085, "lng": -0.137988380291502}}}, "name": "Calmer Clinics", "place_id": "ChIJ32GxmuMEdkgRvSksVXAJiko", "types": ["physiotherapist", "health", "point_of_interest", "establishment"], "rating": 4.5, "user_ratings_total": 8}, "ChIJhVwH0VoFdkgRSdx4yOoIIrw": {"geometry": {"location": {"lat": 51.4870916, "lng": -0.1365107}, "viewport": {"northeast": {"lat": 51.4885785302915, "lng": -0.135321919708498}, "southwest": {"lat": 51.4858805697085, "lng": -0.138019880291502}}}, "name": "Any London Waste", "place_id": "ChIJhVwH0VoFdkgRSdx4yOoIIrw", "types": ["point_of_interest", "establishment"]}, "ChIJOzg2heMEdkgRxV74lyoC8B8": {"geometry": {"location": {"lat": 51.4870916, "lng": -0.1365107}, "viewport": {"northeast": {"lat": 51.4885785302915, "lng": -0.135321919708498}, "southwest": {"lat": 51.4858805697085, "lng": -0.138019880291502}}}, "name": "Colour Affects", "place_id": "ChIJOzg2heMEdkgRxV74lyoC8B8", "types": ["point_of_interest", "establishment"]}, "ChIJKdfWveMEdkgRae_RBg63Xo8": {"geometry": {"location": {"lat": 51.4870916, "lng": -0.1365107}, "viewport": {"northeast": {"lat": 51.4885785302915, "lng": -0.135321919708498}, "southwest": {"lat": 51.4858805697085, "lng": -0.138019880291502}}}, "name": "Dolphin News", "place_id": "ChIJKdfWveMEdkgRae_RBg63Xo8", "types": ["point_of_interest", "establishment"]}, "ChIJKdfWveMEdkgRTVSzN27YKCs": {"geometry": {"location": {"lat": 51.4869919, "lng": -0.1365441}, "viewport": {"northeast": {"lat": 51.48852248029149, "lng": -0.135338619708498}, "southwest": {"lat": 51.4858245197085, "lng": -0.138036580291502}}}, "name": "Dolphin International Travel", "place_id": "ChIJKdfWveMEdkgRTVSzN27YKCs", "types": ["travel_agency", "point_of_interest", "establishment"]}, "ChIJyRn33Y4FdkgRWwHXkEHS3Xo": {"geometry": {"location": {"lat": 51.4871254, "lng": -0.136602}, "viewport": {"northeast": {"lat": 51.48858933029149, "lng": -0.135367569708498}, "southwest": {"lat": 51.48589136970849, "lng": -0.138065530291502}}}, "name": "Serviced Rentals - Dolphin Square", "place_id": "ChIJyRn33Y4FdkgRWwHXkEHS3Xo", "types": ["real_estate_agency", "point_of_interest", "establishment"]}, "ChIJH_BO404FdkgRg-V3uxWjVXE": {"geometry": {"location": {"lat": 51.48696469999999, "lng": -0.1366936}, "viewport": {"northeast": {"lat": 51.4884959302915, "lng": -0.135425619708498}, "southwest": {"lat": 51.4857979697085, "lng": -0.138123580291502}}}, "name": "Dino Chavda Online Coaching", "place_id": "ChIJH_BO404FdkgRg-V3uxWjVXE", "types": ["health", "point_of_interest", "establishment"], "rating": 5, "user_ratings_total": 8}, "ChIJR4_oGHwFdkgR2LQ2x_xYMMU": {"geometry": {"location": {"lat": 51.4870256, "lng": -0.136727}, "viewport": {"northeast": {"lat": 51.4885258802915, "lng": -0.135445219708498}, "southwest": {"lat": 51.4858279197085, "lng": -0.138143180291502}}}, "name": "Jgfitness360", "place_id": "ChIJR4_oGHwFdkgR2LQ2x_xYMMU", "types": ["health", "point_of_interest", "establishment"], "rating": 5, "user_ratings_total": 4}, "ChIJM2xwoogFdkgRAwFdYJwbeLg": {"geometry": {"location": {"lat": 51.48725400000001, "lng": -0.1361915}, "viewport": {"northeast": {"lat": 51.4886841302915, "lng": -0.135162319708498}, "southwest": {"lat": 51.4859861697085, "lng": -0.137860280291502}}}, "name": "Dolphin Square Caf\u00e9", "place_id": "ChIJM2xwoogFdkgRAwFdYJwbeLg", "types": ["cafe", "food", "point_of_interest", "establishment"]}, "ChIJo_TikPIFdkgRTJ_moPGy0Bo": {"geometry": {"location": {"lat": 51.4872755, "lng": -0.1366204}, "viewport": {"northeast": {"lat": 51.4886505802915, "lng": -0.135376769708498}, "southwest": {"lat": 51.4859526197085, "lng": -0.138074730291502}}}, "name": "Mieke Rainbird Chill, Acupuncturist", "place_id": "ChIJo_TikPIFdkgRTJ_moPGy0Bo", "types": ["health", "point_of_interest", "establishment"]}, "ChIJRz7hbhUFdkgR7qkGN15FY7s": {"geometry": {"location": {"lat": 51.4872804, "lng": -0.1366785}, "viewport": {"northeast": {"lat": 51.48866623029149, "lng": -0.135345869708498}, "southwest": {"lat": 51.48596826970849, "lng": -0.138043830291502}}}, "name": "You Live Life Well by Michelle Cohen", "place_id": "ChIJRz7hbhUFdkgR7qkGN15FY7s", "types": ["health", "point_of_interest", "establishment"], "rating": 5, "user_ratings_total": 7}, "ChIJKz5g7AYFdkgRmXmHMfjhwdc": {"geometry": {"location": {"lat": 51.48736, "lng": -0.13666}, "viewport": {"northeast": {"lat": 51.48874068029149, "lng": -0.135325119708498}, "southwest": {"lat": 51.4860427197085, "lng": -0.138023080291502}}}, "name": "Clapham Junction", "place_id": "ChIJKz5g7AYFdkgRmXmHMfjhwdc", "types": ["lodging", "point_of_interest", "establishment"]}, "ChIJ0y15w6kFdkgRlDMareXmPoA": {"geometry": {"location": {"lat": 51.4872944, "lng": -0.1358957}, "viewport": {"northeast": {"lat": 51.4885212802915, "lng": -0.1344251697084979}, "southwest": {"lat": 51.48582331970851, "lng": -0.137123130291502}}}, "name": "Hotel Dolphin", "place_id": "ChIJ0y15w6kFdkgRlDMareXmPoA", "types": ["lodging", "point_of_interest", "establishment"]}, "ChIJ418Z6-MEdkgRyGiQsSsFmjE": {"geometry": {"location": {"lat": 51.48744070000001, "lng": -0.1362084}, "viewport": {"northeast": {"lat": 51.4888200302915, "lng": -0.134872919708498}, "southwest": {"lat": 51.4861220697085, "lng": -0.1375708802915021}}}, "name": "SW Finance", "place_id": "ChIJ418Z6-MEdkgRyGiQsSsFmjE", "types": ["finance", "point_of_interest", "establishment"]}, "ChIJ418Z6-MEdkgRU5XIJOJbY3Y": {"geometry": {"location": {"lat": 51.48744070000001, "lng": -0.1362084}, "viewport": {"northeast": {"lat": 51.4888200302915, "lng": -0.134872919708498}, "southwest": {"lat": 51.4861220697085, "lng": -0.1375708802915021}}}, "name": "Luxury Timepiece", "place_id": "ChIJ418Z6-MEdkgRU5XIJOJbY3Y", "types": ["point_of_interest", "store", "establishment"]}, "ChIJy4i9BBAFdkgRyqjbvZbYCsk": {"geometry": {"location": {"lat": 51.48744070000001, "lng": -0.1362084}, "viewport": {"northeast": {"lat": 51.4888200302915, "lng": -0.134872919708498}, "southwest": {"lat": 51.4861220697085, "lng": -0.1375708802915021}}}, "name": "Kempo Jujitsu Self Defence (Pimlico)", "place_id": "ChIJy4i9BBAFdkgRyqjbvZbYCsk", "types": ["health", "point_of_interest", "establishment"]}, "ChIJob01vuMEdkgRUxeF_XZk4cg": {"geometry": {"location": {"lat": 51.48744070000001, "lng": -0.1362084}, "viewport": {"northeast": {"lat": 51.4888200302915, "lng": -0.134872919708498}, "southwest": {"lat": 51.4861220697085, "lng": -0.1375708802915021}}}, "name": "My French Physio", "place_id": "ChIJob01vuMEdkgRUxeF_XZk4cg", "types": ["physiotherapist", "health", "point_of_interest", "establishment"], "rating": 4.9, "user_ratings_total": 31}, "ChIJV8gP0ykFdkgRnQW6XhtmmxQ": {"geometry": {"location": {"lat": 51.4873829, "lng": -0.1359522}, "viewport": {"northeast": {"lat": 51.48861288029149, "lng": -0.134500219708498}, "southwest": {"lat": 51.4859149197085, "lng": -0.137198180291502}}}, "name": "Collum Hair Co", "place_id": "ChIJV8gP0ykFdkgRnQW6XhtmmxQ", "types": ["hair_care", "point_of_interest", "establishment"]}, "ChIJG-orDOEEdkgRkseU3eZSq6E": {"geometry": {"location": {"lat": 51.49039639999999, "lng": -0.1377961}, "viewport": {"northeast": {"lat": 51.49165368029149, "lng": -0.1364737197084979}, "southwest": {"lat": 51.48895571970849, "lng": -0.139171680291502}}}, "name": "Victoria Inn", "place_id": "ChIJG-orDOEEdkgRkseU3eZSq6E", "types": ["lodging", "point_of_interest", "establishment"], "rating": 3.6, "user_ratings_total": 436}, "ChIJW-zrseEEdkgRlEFG2yb-wtc": {"geometry": {"location": {"lat": 51.49065979999999, "lng": -0.1383784}, "viewport": {"northeast": {"lat": 51.49195898029149, "lng": -0.136999269708498}, "southwest": {"lat": 51.48926101970849, "lng": -0.139697230291502}}}, "name": "OYO Flagship Huttons", "place_id": "ChIJW-zrseEEdkgRlEFG2yb-wtc", "types": ["lodging", "point_of_interest", "establishment"], "rating": 3.4, "user_ratings_total": 806}, "ChIJC7v6vOEEdkgRMzUB4sDDpCI": {"geometry": {"location": {"lat": 51.4901947, "lng": -0.1387737000000001}, "viewport": {"northeast": {"lat": 51.4915109802915, "lng": -0.137344819708498}, "southwest": {"lat": 51.4888130197085, "lng": -0.1400427802915021}}}, "name": "The Melita, London", "place_id": "ChIJC7v6vOEEdkgRMzUB4sDDpCI", "types": ["lodging", "point_of_interest", "establishment"], "rating": 3.8, "user_ratings_total": 127}, "ChIJ8bpHdeEEdkgRV4_mamfZEjA": {"geometry": {"location": {"lat": 51.4901024, "lng": -0.1381361}, "viewport": {"northeast": {"lat": 51.4915298302915, "lng": -0.136692169708498}, "southwest": {"lat": 51.4888318697085, "lng": -0.139390130291502}}}, "name": "The Belgrave", "place_id": "ChIJ8bpHdeEEdkgRV4_mamfZEjA", "types": ["lodging", "point_of_interest", "establishment"], "rating": 4.4, "user_ratings_total": 503}, "ChIJrUfuueEEdkgR6joeORsbYVw": {"geometry": {"location": {"lat": 51.4904777, "lng": -0.1388339}, "viewport": {"northeast": {"lat": 51.49174463029151, "lng": -0.137288819708498}, "southwest": {"lat": 51.48904666970851, "lng": -0.139986780291502}}}, "name": "Sidney Hotel London - Budget Hotels In Central London Near Victoria Station, Hotel Near Queen Elisabeth Conference Centre, Breakfast, Free WI-FI, Restaurant", "place_id": "ChIJrUfuueEEdkgR6joeORsbYVw", "types": ["lodging", "point_of_interest", "establishment"], "rating": 3.8, "user_ratings_total": 771}, "ChIJ8bpHdeEEdkgRp4mltdw8lNQ": {"geometry": {"location": {"lat": 51.490069, "lng": -0.1378307}, "viewport": {"northeast": {"lat": 51.49146158029149, "lng": -0.136429069708498}, "southwest": {"lat": 51.48876361970849, "lng": -0.139127030291502}}}, "name": "CARLTON HOTEL", "place_id": "ChIJ8bpHdeEEdkgRp4mltdw8lNQ", "types": ["lodging", "point_of_interest", "establishment"], "rating": 3.2, "user_ratings_total": 254}, "ChIJp-HBr-EEdkgRVW4t9zfJmoo": {"geometry": {"location": {"lat": 51.4907215, "lng": -0.1385217}, "viewport": {"northeast": {"lat": 51.4920113302915, "lng": -0.137245319708498}, "southwest": {"lat": 51.4893133697085, "lng": -0.139943280291502}}}, "name": "The Victor Hotel London Victoria", "place_id": "ChIJp-HBr-EEdkgRVW4t9zfJmoo", "types": ["lodging", "point_of_interest", "establishment"], "rating": 3.8, "user_ratings_total": 223}, "ChIJPUqpvOEEdkgRs02tpbei7YA": {"geometry": {"location": {"lat": 51.4902778, "lng": -0.1386111}, "viewport": {"northeast": {"lat": 51.4916053302915, "lng": -0.137208319708498}, "southwest": {"lat": 51.4889073697085, "lng": -0.139906280291502}}}, "name": "Romanos Hotel London", "place_id": "ChIJPUqpvOEEdkgRs02tpbei7YA", "types": ["lodging", "point_of_interest", "establishment"], "rating": 3, "user_ratings_total": 241}, "ChIJp-twC-EEdkgRHFYfqUrRmL4": {"geometry": {"location": {"lat": 51.4902658, "lng": -0.1375795}, "viewport": {"northeast": {"lat": 51.4915567302915, "lng": -0.136298119708498}, "southwest": {"lat": 51.4888587697085, "lng": -0.138996080291502}}}, "name": "Astor Victoria Hostel", "place_id": "ChIJp-twC-EEdkgRHFYfqUrRmL4", "types": ["lodging", "point_of_interest", "establishment"], "rating": 3.8, "user_ratings_total": 840}, "ChIJ0X7tB-EEdkgROnCalatq7yM": {"geometry": {"location": {"lat": 51.4906805, "lng": -0.1377593}, "viewport": {"northeast": {"lat": 51.4920657302915, "lng": -0.136497869708498}, "southwest": {"lat": 51.4893677697085, "lng": -0.139195830291502}}}, "name": "C C A Management", "place_id": "ChIJ0X7tB-EEdkgROnCalatq7yM", "types": ["point_of_interest", "establishment"]}, "ChIJG-orDOEEdkgRekBzk2_fu_Q": {"geometry": {"location": {"lat": 51.49028209999999, "lng": -0.1375019}, "viewport": {"northeast": {"lat": 51.49155743029149, "lng": -0.136241869708498}, "southwest": {"lat": 51.48885946970849, "lng": -0.138939830291502}}}, "name": "Eco Valeting Express.co.uk", "place_id": "ChIJG-orDOEEdkgRekBzk2_fu_Q", "types": ["point_of_interest", "establishment"]}, "ChIJ3b9yQ9wFdkgRgUsXQzvIYRY": {"geometry": {"location": {"lat": 51.49022410000001, "lng": -0.138329}, "viewport": {"northeast": {"lat": 51.4916423802915, "lng": -0.136895719708498}, "southwest": {"lat": 51.4889444197085, "lng": -0.139593680291502}}}, "name": "Domenica Marland", "place_id": "ChIJ3b9yQ9wFdkgRgUsXQzvIYRY", "types": ["point_of_interest", "establishment"]}, "ChIJGx_po-EEdkgRAGkfapdrjeQ": {"geometry": {"location": {"lat": 51.49022410000001, "lng": -0.138329}, "viewport": {"northeast": {"lat": 51.4916423802915, "lng": -0.136895719708498}, "southwest": {"lat": 51.4889444197085, "lng": -0.139593680291502}}}, "name": "Herriot Limited", "place_id": "ChIJGx_po-EEdkgRAGkfapdrjeQ", "types": ["point_of_interest", "establishment"]}, "ChIJSyJsoOEEdkgRvNKo5xklJVc": {"geometry": {"location": {"lat": 51.49006439999999, "lng": -0.137965}, "viewport": {"northeast": {"lat": 51.49147808029149, "lng": -0.136536369708498}, "southwest": {"lat": 51.48878011970849, "lng": -0.1392343302915021}}}, "name": "Laxford Property Limited", "place_id": "ChIJSyJsoOEEdkgRvNKo5xklJVc", "types": ["point_of_interest", "establishment"]}, "ChIJAXlc4BQFdkgRzXYrGCMwva4": {"geometry": {"location": {"lat": 51.4900573, "lng": -0.1379495}, "viewport": {"northeast": {"lat": 51.4914713802915, "lng": -0.136521919708498}, "southwest": {"lat": 51.4887734197085, "lng": -0.139219880291502}}}, "name": "Archetype Copywriting", "place_id": "ChIJAXlc4BQFdkgRzXYrGCMwva4", "types": ["point_of_interest", "establishment"]}, "ChIJeV1jCeEEdkgRCwvWOSSoStk": {"geometry": {"location": {"lat": 51.4903107, "lng": -0.1376686}, "viewport": {"northeast": {"lat": 51.4916022802915, "lng": -0.136390319708498}, "southwest": {"lat": 51.4889043197085, "lng": -0.139088280291502}}}, "name": "Aston Victoria", "place_id": "ChIJeV1jCeEEdkgRCwvWOSSoStk", "types": ["lodging", "point_of_interest", "establishment"]}, "ChIJ50iGq7IFdkgRXfoNUAM5Oi0": {"geometry": {"location": {"lat": 51.4901199, "lng": -0.1377304}, "viewport": {"northeast": {"lat": 51.4914684302915, "lng": -0.136382019708498}, "southwest": {"lat": 51.4887704697085, "lng": -0.139079980291502}}}, "name": "\u0425\u043e\u0441\u0442\u0435\u043b", "place_id": "ChIJ50iGq7IFdkgRXfoNUAM5Oi0", "types": ["lodging", "point_of_interest", "establishment"]}, "ChIJub6mCuEEdkgRTrjrZ583MP0": {"geometry": {"location": {"lat": 51.49002100000001, "lng": -0.137884}, "viewport": {"northeast": {"lat": 51.4914368802915, "lng": -0.136454269708498}, "southwest": {"lat": 51.4887389197085, "lng": -0.1391522302915021}}}, "name": "\u30ab\u30fc\u30eb\u30c8\u30f3 \u30db\u30c6\u30eb", "place_id": "ChIJub6mCuEEdkgRTrjrZ583MP0", "types": ["lodging", "point_of_interest", "establishment"]}, "ChIJub6mCuEEdkgR2pVpSLW3fic": {"geometry": {"location": {"lat": 51.49002100000001, "lng": -0.137884}, "viewport": {"northeast": {"lat": 51.4914368802915, "lng": -0.136454269708498}, "southwest": {"lat": 51.4887389197085, "lng": -0.1391522302915021}}}, "name": "London hospedaje", "place_id": "ChIJub6mCuEEdkgR2pVpSLW3fic", "types": ["lodging", "point_of_interest", "establishment"]}, "ChIJb6_yEjUFdkgRYeAIgkqdRpk": {"geometry": {"location": {"lat": 51.4902658, "lng": -0.1375795}, "viewport": {"northeast": {"lat": 51.4915579302915, "lng": -0.136299169708498}, "southwest": {"lat": 51.4888599697085, "lng": -0.138997130291502}}}, "name": "RESOURCE.ME LTD", "place_id": "ChIJb6_yEjUFdkgRYeAIgkqdRpk", "types": ["point_of_interest", "establishment"], "rating": 5, "user_ratings_total": 1}, "ChIJv-8sdeEEdkgRgpcWdz7IHTk": {"geometry": {"location": {"lat": 51.4899563, "lng": -0.1377496}, "viewport": {"northeast": {"lat": 51.49137273029149, "lng": -0.136319169708498}, "southwest": {"lat": 51.4886747697085, "lng": -0.139017130291502}}}, "name": "Alessandra Borghi Hypnotherapy", "place_id": "ChIJv-8sdeEEdkgRgpcWdz7IHTk", "types": ["health", "point_of_interest", "establishment"]}, "ChIJ4708hgcFdkgRKQroOc0EW5Y": {"geometry": {"location": {"lat": 51.49062139999999, "lng": -0.1383806}, "viewport": {"northeast": {"lat": 51.49192163029151, "lng": -0.137091469708498}, "southwest": {"lat": 51.48922366970851, "lng": -0.139789430291502}}}, "name": "Six20Two", "place_id": "ChIJ4708hgcFdkgRKQroOc0EW5Y", "types": ["point_of_interest", "establishment"]}, "ChIJiUxhr-EEdkgR_B1q8UUaB8E": {"geometry": {"location": {"lat": 51.49062139999999, "lng": -0.1383806}, "viewport": {"northeast": {"lat": 51.49192163029151, "lng": -0.137091469708498}, "southwest": {"lat": 51.48922366970851, "lng": -0.139789430291502}}}, "name": "\u30cf\u30c3\u30c8\u30f3 \u30db\u30c6\u30eb", "place_id": "ChIJiUxhr-EEdkgR_B1q8UUaB8E", "types": ["lodging", "point_of_interest", "establishment"]}, "ChIJdyAtpeEEdkgRF4tMPP345I4": {"geometry": {"location": {"lat": 51.490486, "lng": -0.138634}, "viewport": {"northeast": {"lat": 51.49186703029149, "lng": -0.137245669708498}, "southwest": {"lat": 51.4891690697085, "lng": -0.139943630291502}}}, "name": "Belgrave Road (Stop S)", "place_id": "ChIJdyAtpeEEdkgRF4tMPP345I4", "types": ["transit_station", "point_of_interest", "establishment"], "rating": 5, "user_ratings_total": 1}, "ChIJ7TH3iOgFdkgRmdgkgbpTgT8": {"geometry": {"location": {"lat": 51.4901504, "lng": -0.1374574}, "viewport": {"northeast": {"lat": 51.4914611302915, "lng": -0.136154569708498}, "southwest": {"lat": 51.4887631697085, "lng": -0.138852530291502}}}, "name": "KOYAN BARBERS", "place_id": "ChIJ7TH3iOgFdkgRmdgkgbpTgT8", "types": ["hair_care", "health", "point_of_interest", "establishment"]}, "ChIJPUuyZkgFdkgRK4ls11YVN1s": {"geometry": {"location": {"lat": 51.4904777, "lng": -0.1388339}, "viewport": {"northeast": {"lat": 51.49189138029149, "lng": -0.137405519708498}, "southwest": {"lat": 51.48919341970849, "lng": -0.140103480291502}}}, "name": "HAQEL ALMADINA TEXTILE TRAINING", "place_id": "ChIJPUuyZkgFdkgRK4ls11YVN1s", "types": ["store", "point_of_interest", "establishment"]}, "ChIJT0IH0Y8FdkgRtD6tzvcssUE": {"geometry": {"location": {"lat": 51.4898865, "lng": -0.1376068}, "viewport": {"northeast": {"lat": 51.49130348029149, "lng": -0.136174369708498}, "southwest": {"lat": 51.48860551970849, "lng": -0.138872330291502}}}, "name": "Brokers SouthEast Limited", "place_id": "ChIJT0IH0Y8FdkgRtD6tzvcssUE", "types": ["real_estate_agency", "point_of_interest", "establishment"], "rating": 5, "user_ratings_total": 1}, "ChIJlf__b7UEdkgRaekf8LyV5Eg": {"geometry": {"location": {"lat": 51.4901202, "lng": -0.1372793}, "viewport": {"northeast": {"lat": 51.4914142302915, "lng": -0.135997819708498}, "southwest": {"lat": 51.4887162697085, "lng": -0.138695780291502}}}, "name": "Melbourne House Hotel", "place_id": "ChIJlf__b7UEdkgRaekf8LyV5Eg", "types": ["lodging", "point_of_interest", "establishment"], "rating": 3.7, "user_ratings_total": 156}, "ChIJtY0KsOEEdkgR4Y5GSgAjofQ": {"geometry": {"location": {"lat": 51.4906235, "lng": -0.1387225}, "viewport": {"northeast": {"lat": 51.49199943029149, "lng": -0.1373404197084979}, "southwest": {"lat": 51.48930146970849, "lng": -0.140038380291502}}}, "name": "Belgrave Road", "place_id": "ChIJtY0KsOEEdkgR4Y5GSgAjofQ", "types": ["transit_station", "point_of_interest", "establishment"]}, "ChIJZXq0qeEEdkgRbY88AVK2P8Q": {"geometry": {"location": {"lat": 51.490797, "lng": -0.138019}, "viewport": {"northeast": {"lat": 51.4921796302915, "lng": -0.136629269708498}, "southwest": {"lat": 51.4894816697085, "lng": -0.139327230291502}}}, "name": "ubitricity Charging Station", "place_id": "ChIJZXq0qeEEdkgRbY88AVK2P8Q", "types": ["point_of_interest", "establishment"]}, "ChIJ93wseeEEdkgRSMJ8Xby9-T8": {"geometry": {"location": {"lat": 51.4890983001441, "lng": -0.1377640989024968}, "viewport": {"northeast": {"lat": 51.4904472802915, "lng": -0.136415119708498}, "southwest": {"lat": 51.4877493197085, "lng": -0.139113080291502}}}, "name": "11-35 Moreton Terrace", "place_id": "ChIJ93wseeEEdkgRSMJ8Xby9-T8", "types": ["route"]}, "ChIJHxkkyuEEdkgRFZPDtZHrpZk": {"geometry": {"location": {"lat": 51.48896730000001, "lng": -0.1384825}, "viewport": {"northeast": {"lat": 51.4903009302915, "lng": -0.137232469708498}, "southwest": {"lat": 51.4876029697085, "lng": -0.139930430291502}}}, "name": "ixPocket mobile", "place_id": "ChIJHxkkyuEEdkgRFZPDtZHrpZk", "types": ["point_of_interest", "establishment"]}, "ChIJfTJjsxkFdkgRFCYWFeYdPJk": {"geometry": {"location": {"lat": 51.489076, "lng": -0.137944}, "viewport": {"northeast": {"lat": 51.49044673029151, "lng": -0.136512219708498}, "southwest": {"lat": 51.48774876970851, "lng": -0.139210180291502}}}, "name": "SightMill Ltd", "place_id": "ChIJfTJjsxkFdkgRFCYWFeYdPJk", "types": ["point_of_interest", "establishment"]}, "ChIJHY-0r6scdkgR7CoVzeSz-rI": {"geometry": {"location": {"lat": 51.48918940000001, "lng": -0.1376947}, "viewport": {"northeast": {"lat": 51.49052378029151, "lng": -0.136401369708498}, "southwest": {"lat": 51.48782581970851, "lng": -0.139099330291502}}}, "name": "Minerva Tutors", "place_id": "ChIJHY-0r6scdkgR7CoVzeSz-rI", "types": ["point_of_interest", "establishment"], "rating": 5, "user_ratings_total": 8}, "ChIJOV3UfuEEdkgRiiRT-jT_qhA": {"geometry": {"location": {"lat": 51.4889772, "lng": -0.1378021}, "viewport": {"northeast": {"lat": 51.4903395802915, "lng": -0.136402169708498}, "southwest": {"lat": 51.4876416197085, "lng": -0.139100130291502}}}, "name": "Mark Gutteridge", "place_id": "ChIJOV3UfuEEdkgRiiRT-jT_qhA", "types": ["electronics_store", "home_goods_store", "school", "point_of_interest", "store", "establishment"], "rating": 5, "user_ratings_total": 9}, "ChIJczZ0tBkFdkgRQHGihShGgAg": {"geometry": {"location": {"lat": 51.4891486, "lng": -0.1376627}, "viewport": {"northeast": {"lat": 51.49048248029149, "lng": -0.136371219708498}, "southwest": {"lat": 51.48778451970849, "lng": -0.139069180291502}}}, "name": "Crypto Gold Stake Ltd", "place_id": "ChIJczZ0tBkFdkgRQHGihShGgAg", "types": ["finance", "point_of_interest", "establishment"], "rating": 3, "user_ratings_total": 2}, "ChIJA6sGkOEEdkgRS27Ix1EXRIM": {"geometry": {"location": {"lat": 51.4893268, "lng": -0.1386557}, "viewport": {"northeast": {"lat": 51.49066253029149, "lng": -0.137391919708498}, "southwest": {"lat": 51.4879645697085, "lng": -0.140089880291502}}}, "name": "Exxpedition C.i.c.", "place_id": "ChIJA6sGkOEEdkgRS27Ix1EXRIM", "types": ["point_of_interest", "establishment"]}, "ChIJT0WzaA0FdkgRXEOlv7HctJM": {"geometry": {"location": {"lat": 51.4896244, "lng": -0.1383252}, "viewport": {"northeast": {"lat": 51.4909747302915, "lng": -0.136828969708498}, "southwest": {"lat": 51.4882767697085, "lng": -0.139526930291502}}}, "name": "CREMATION LOW COST DIRECT", "place_id": "ChIJT0WzaA0FdkgRXEOlv7HctJM", "types": ["point_of_interest", "establishment"], "rating": 5, "user_ratings_total": 7}, "ChIJU_5XmeEEdkgR8RAYgBbdTNw": {"geometry": {"location": {"lat": 51.48963509999999, "lng": -0.1383129}, "viewport": {"northeast": {"lat": 51.4909853802915, "lng": -0.136822969708498}, "southwest": {"lat": 51.4882874197085, "lng": -0.139520930291502}}}, "name": "Cremation Low Cost Direct", "place_id": "ChIJU_5XmeEEdkgR8RAYgBbdTNw", "types": ["point_of_interest", "establishment"]}, "ChIJG4TGjuEEdkgRtKL45qgDpXE": {"geometry": {"location": {"lat": 51.4890298, "lng": -0.1388862}, "viewport": {"northeast": {"lat": 51.4903910802915, "lng": -0.137457919708498}, "southwest": {"lat": 51.4876931197085, "lng": -0.1401558802915021}}}, "name": "ZEITBTC", "place_id": "ChIJG4TGjuEEdkgRtKL45qgDpXE", "types": ["point_of_interest", "establishment"]}, "ChIJB5HmeuEEdkgRZ3YzpL4_i5M": {"geometry": {"location": {"lat": 51.4891707, "lng": -0.1372747}, "viewport": {"northeast": {"lat": 51.4905625302915, "lng": -0.135873219708498}, "southwest": {"lat": 51.48786456970851, "lng": -0.138571180291502}}}, "name": "Gilbert & Cooke", "place_id": "ChIJB5HmeuEEdkgRZ3YzpL4_i5M", "types": ["point_of_interest", "establishment"]}, "ChIJJ15ULuIEdkgR9axHF5RE74w": {"geometry": {"location": {"lat": 51.4881418500044, "lng": -0.1384255500049712}, "viewport": {"northeast": {"lat": 51.4894908302915, "lng": -0.137076569708498}, "southwest": {"lat": 51.4867928697085, "lng": -0.139774530291502}}}, "name": "48 Lupus St", "place_id": "ChIJJ15ULuIEdkgR9axHF5RE74w", "types": ["route"]}, "ChIJH-bl1OMEdkgRbt5353omVss": {"geometry": {"location": {"lat": 51.4884222, "lng": -0.1374917}, "viewport": {"northeast": {"lat": 51.4897183302915, "lng": -0.136116819708498}, "southwest": {"lat": 51.4870203697085, "lng": -0.138814780291502}}}, "name": "Goya", "place_id": "ChIJH-bl1OMEdkgRbt5353omVss", "types": ["restaurant", "food", "point_of_interest", "establishment"], "rating": 4.2, "user_ratings_total": 449}, "ChIJU6g5K-IEdkgRkc0EKkhtOvM": {"geometry": {"location": {"lat": 51.48838300000001, "lng": -0.1379631}, "viewport": {"northeast": {"lat": 51.48965938029151, "lng": -0.136579769708498}, "southwest": {"lat": 51.48696141970851, "lng": -0.1392777302915021}}}, "name": "Gray Fulton Ltd", "place_id": "ChIJU6g5K-IEdkgRkc0EKkhtOvM", "types": ["point_of_interest", "establishment"]}, "ChIJiSOqBKgEdkgRHll4v-3eFcc": {"geometry": {"location": {"lat": 51.4883299, "lng": -0.1384788}, "viewport": {"northeast": {"lat": 51.4897037302915, "lng": -0.1371967197084979}, "southwest": {"lat": 51.4870057697085, "lng": -0.139894680291502}}}, "name": "Emma Gibbons", "place_id": "ChIJiSOqBKgEdkgRHll4v-3eFcc", "types": ["health", "point_of_interest", "establishment"]}, "ChIJW5qLLeIEdkgR0IrYY1NxEtw": {"geometry": {"location": {"lat": 51.48801, "lng": -0.138154}, "viewport": {"northeast": {"lat": 51.48944273029149, "lng": -0.136569719708498}, "southwest": {"lat": 51.4867447697085, "lng": -0.139267680291502}}}, "name": "Amazon Locker - Hayden", "place_id": "ChIJW5qLLeIEdkgR0IrYY1NxEtw", "types": ["point_of_interest", "establishment"], "rating": 4, "user_ratings_total": 1}, "ChIJ0z9zLeIEdkgRMAfQpd0TMU8": {"geometry": {"location": {"lat": 51.48802449999999, "lng": -0.1380043}, "viewport": {"northeast": {"lat": 51.4894660302915, "lng": -0.136663869708498}, "southwest": {"lat": 51.4867680697085, "lng": -0.139361830291502}}}, "name": "Westminster Adult Education Service", "place_id": "ChIJ0z9zLeIEdkgRMAfQpd0TMU8", "types": ["university", "point_of_interest", "establishment"], "rating": 3.8, "user_ratings_total": 24}, "ChIJJ_RvimYEdkgRTHRX41Gy2b8": {"geometry": {"location": {"lat": 51.488087, "lng": -0.137595}, "viewport": {"northeast": {"lat": 51.4895302302915, "lng": -0.136287819708498}, "southwest": {"lat": 51.4868322697085, "lng": -0.138985780291502}}}, "name": "Choice Tutors", "place_id": "ChIJJ_RvimYEdkgRTHRX41Gy2b8", "types": ["point_of_interest", "establishment"], "rating": 3.7, "user_ratings_total": 3}, "ChIJNejl1OMEdkgRbf4Hdmr57dE": {"geometry": {"location": {"lat": 51.48832119999999, "lng": -0.1381471}, "viewport": {"northeast": {"lat": 51.48961893029149, "lng": -0.136723969708498}, "southwest": {"lat": 51.4869209697085, "lng": -0.139421930291502}}}, "name": "Pimlico Health @ The Marven", "place_id": "ChIJNejl1OMEdkgRbf4Hdmr57dE", "types": ["health", "point_of_interest", "establishment"], "rating": 2.6, "user_ratings_total": 68}, "ChIJZTVaK-IEdkgReCeJbcAczpY": {"geometry": {"location": {"lat": 51.4883469, "lng": -0.137951}, "viewport": {"northeast": {"lat": 51.4896458802915, "lng": -0.136549069708498}, "southwest": {"lat": 51.4869479197085, "lng": -0.139247030291502}}}, "name": "Paxall Pharmacy", "place_id": "ChIJZTVaK-IEdkgReCeJbcAczpY", "types": ["pharmacy", "health", "point_of_interest", "store", "establishment"], "rating": 3.6, "user_ratings_total": 15}, "ChIJ8Xt90uMEdkgRJr_JIqDoj88": {"geometry": {"location": {"lat": 51.48802560000001, "lng": -0.1377073}, "viewport": {"northeast": {"lat": 51.4894883802915, "lng": -0.136359919708498}, "southwest": {"lat": 51.48679041970851, "lng": -0.139057880291502}}}, "name": "AlManhaj Arabic Academy", "place_id": "ChIJ8Xt90uMEdkgRJr_JIqDoj88", "types": ["school", "point_of_interest", "establishment"], "rating": 2.5, "user_ratings_total": 2}, "ChIJv1SiD-IEdkgRfmZZPFR_mos": {"geometry": {"location": {"lat": 51.4877469, "lng": -0.1377993}, "viewport": {"northeast": {"lat": 51.48932973029149, "lng": -0.136466219708498}, "southwest": {"lat": 51.4866317697085, "lng": -0.139164180291502}}}, "name": "Star Bright Tuition", "place_id": "ChIJv1SiD-IEdkgRfmZZPFR_mos", "types": ["point_of_interest", "establishment"]}, "ChIJNejl1OMEdkgR_-ba5K7K9OI": {"geometry": {"location": {"lat": 51.4884496, "lng": -0.1377763}, "viewport": {"northeast": {"lat": 51.48970988029149, "lng": -0.136387969708498}, "southwest": {"lat": 51.48701191970849, "lng": -0.139085930291502}}}, "name": "Dr S Neogi - Pimlico Health @ the Marven", "place_id": "ChIJNejl1OMEdkgR_-ba5K7K9OI", "types": ["doctor", "health", "point_of_interest", "establishment"]}, "ChIJc6YDJuIEdkgRmG7anuL7vj4": {"geometry": {"location": {"lat": 51.4882961, "lng": -0.1388212}, "viewport": {"northeast": {"lat": 51.4896987302915, "lng": -0.137406719708498}, "southwest": {"lat": 51.4870007697085, "lng": -0.140104680291502}}}, "name": "A & M Campbell", "place_id": "ChIJc6YDJuIEdkgRmG7anuL7vj4", "types": ["painter", "general_contractor", "point_of_interest", "establishment"], "rating": 5, "user_ratings_total": 1}, "ChIJq7KnzOMEdkgRU1Ityc-Yc-A": {"geometry": {"location": {"lat": 51.487675, "lng": -0.1378363}, "viewport": {"northeast": {"lat": 51.48928778029149, "lng": -0.136498869708498}, "southwest": {"lat": 51.48658981970849, "lng": -0.139196830291502}}}, "name": "PMACA", "place_id": "ChIJq7KnzOMEdkgRU1Ityc-Yc-A", "types": ["point_of_interest", "establishment"]}, "ChIJ6UiF0OMEdkgRdBo5hJIwY_U": {"geometry": {"location": {"lat": 51.4880378, "lng": -0.1375772}, "viewport": {"northeast": {"lat": 51.48950618029149, "lng": -0.1362758197084979}, "southwest": {"lat": 51.48680821970849, "lng": -0.138973780291502}}}, "name": "Pimlico Academy", "place_id": "ChIJ6UiF0OMEdkgRdBo5hJIwY_U", "types": ["school", "point_of_interest", "establishment"], "rating": 4.1, "user_ratings_total": 61}, "ChIJ-2l5JOIEdkgRiBQZAgqhFdw": {"geometry": {"location": {"lat": 51.4881818, "lng": -0.1389763}, "viewport": {"northeast": {"lat": 51.4894759802915, "lng": -0.137608069708498}, "southwest": {"lat": 51.4867780197085, "lng": -0.140306030291502}}}, "name": "HHbeautyclinic", "place_id": "ChIJ-2l5JOIEdkgRiBQZAgqhFdw", "types": ["point_of_interest", "store", "establishment"]}, "ChIJ0fpZlOYEdkgRax_Dd-gcVyw": {"geometry": {"location": {"lat": 51.4880672, "lng": -0.1379298}, "viewport": {"northeast": {"lat": 51.48947003029149, "lng": -0.136677119708498}, "southwest": {"lat": 51.48677206970849, "lng": -0.139375080291502}}}, "name": "Pimlico Library", "place_id": "ChIJ0fpZlOYEdkgRax_Dd-gcVyw", "types": ["library", "point_of_interest", "establishment"], "rating": 3.8, "user_ratings_total": 53}, "ChIJj2JfzeMEdkgR9cowcm9unps": {"geometry": {"location": {"lat": 51.487993, "lng": -0.1378155}, "viewport": {"northeast": {"lat": 51.4894612802915, "lng": -0.136420069708498}, "southwest": {"lat": 51.4867633197085, "lng": -0.139118030291502}}}, "name": "Pimlico Academy & Library", "place_id": "ChIJj2JfzeMEdkgR9cowcm9unps", "types": ["transit_station", "point_of_interest", "establishment"]}, "ChIJdyOTLuIEdkgRHL1WodPn08U": {"geometry": {"location": {"lat": 51.4882982, "lng": -0.1381455}, "viewport": {"northeast": {"lat": 51.4895982302915, "lng": -0.136773319708498}, "southwest": {"lat": 51.4869002697085, "lng": -0.139471280291502}}}, "name": "Marven Medical Practice", "place_id": "ChIJdyOTLuIEdkgRHL1WodPn08U", "types": ["doctor", "health", "point_of_interest", "establishment"], "rating": 3, "user_ratings_total": 23}, "ChIJ6754K-IEdkgR_fRGJztLODg": {"geometry": {"location": {"lat": 51.488301, "lng": -0.1379846}, "viewport": {"northeast": {"lat": 51.4896133302915, "lng": -0.1366182697084979}, "southwest": {"lat": 51.48691536970851, "lng": -0.139316230291502}}}, "name": "Pimlico Academy & Library (Stop D)", "place_id": "ChIJ6754K-IEdkgR_fRGJztLODg", "types": ["transit_station", "point_of_interest", "establishment"]}, "ChIJb43Zi2YEdkgRWTopWg2cjlA": {"geometry": {"location": {"lat": 51.4880516, "lng": -0.1377607}, "viewport": {"northeast": {"lat": 51.4894975302915, "lng": -0.136382069708498}, "southwest": {"lat": 51.4867995697085, "lng": -0.139080030291502}}}, "name": "Keen Learners", "place_id": "ChIJb43Zi2YEdkgRWTopWg2cjlA", "types": ["point_of_interest", "establishment"], "rating": 5, "user_ratings_total": 12}, "ChIJKZAruVkFdkgR7ulGtnwbYIs": {"geometry": {"location": {"lat": 51.4880697, "lng": -0.1377272}, "viewport": {"northeast": {"lat": 51.48951038029149, "lng": -0.136360069708498}, "southwest": {"lat": 51.48681241970849, "lng": -0.139058030291502}}}, "name": "The Coffee Shop", "place_id": "ChIJKZAruVkFdkgR7ulGtnwbYIs", "types": ["food", "point_of_interest", "store", "establishment"], "rating": 3, "user_ratings_total": 1}, "ChIJCfvHDQEFdkgR85tyhshYdsQ": {"geometry": {"location": {"lat": 51.4880236, "lng": -0.1385846}, "viewport": {"northeast": {"lat": 51.4894175302915, "lng": -0.137251219708498}, "southwest": {"lat": 51.4867195697085, "lng": -0.139949180291502}}}, "name": "Community English Classes", "place_id": "ChIJCfvHDQEFdkgR85tyhshYdsQ", "types": ["school", "point_of_interest", "establishment"]}, "ChIJAU4BMOIEdkgRuFsJyJWA8g8": {"geometry": {"location": {"lat": 51.487973, "lng": -0.1386067}, "viewport": {"northeast": {"lat": 51.48932198029149, "lng": -0.137257719708498}, "southwest": {"lat": 51.4866240197085, "lng": -0.139955680291502}}}, "name": "EPE SCAFFOLDING", "place_id": "ChIJAU4BMOIEdkgRuFsJyJWA8g8", "types": ["health", "point_of_interest", "establishment"]}, "ChIJFzxt8R0FdkgRYQ7KS7_bTK8": {"geometry": {"location": {"lat": 51.4881138, "lng": -0.1375798}, "viewport": {"northeast": {"lat": 51.4895431802915, "lng": -0.1362676197084979}, "southwest": {"lat": 51.4868452197085, "lng": -0.138965580291502}}}, "name": "Ceroc Pimlico Victoria", "place_id": "ChIJFzxt8R0FdkgRYQ7KS7_bTK8", "types": ["point_of_interest", "establishment"], "rating": 4.8, "user_ratings_total": 12}, "ChIJ-0wOfaoFdkgRmJINXfPz97w": {"geometry": {"location": {"lat": 51.488221, "lng": -0.1386882}, "viewport": {"northeast": {"lat": 51.48951398029149, "lng": -0.137319769708498}, "southwest": {"lat": 51.48681601970849, "lng": -0.140017730291502}}}, "name": "Brewhouse Pimlico", "place_id": "ChIJ-0wOfaoFdkgRmJINXfPz97w", "types": ["cafe", "food", "point_of_interest", "store", "establishment"], "rating": 4.3, "user_ratings_total": 35}, "ChIJrV6L1OMEdkgR6mGQZsqdghY": {"geometry": {"location": {"lat": 51.4883999, "lng": -0.1377324}, "viewport": {"northeast": {"lat": 51.4896867802915, "lng": -0.136355869708498}, "southwest": {"lat": 51.4869888197085, "lng": -0.139053830291502}}}, "name": "Poppy Design ltd", "place_id": "ChIJrV6L1OMEdkgR6mGQZsqdghY", "types": ["point_of_interest", "establishment"]}, "ChIJtdNyPFwFdkgRjUIS-rDlWvo": {"geometry": {"location": {"lat": 51.488288, "lng": -0.138721}, "viewport": {"northeast": {"lat": 51.4895468802915, "lng": -0.137340719708498}, "southwest": {"lat": 51.4868489197085, "lng": -0.140038680291502}}}, "name": "Central Health Physiotherapy @ Pimlico", "place_id": "ChIJtdNyPFwFdkgRjUIS-rDlWvo", "types": ["physiotherapist", "gym", "health", "point_of_interest", "establishment"], "rating": 5, "user_ratings_total": 1}, "ChIJ_Q8ZLOIEdkgRGCCriENGXj4": {"geometry": {"location": {"lat": 51.4884496, "lng": -0.1377763}, "viewport": {"northeast": {"lat": 51.48970988029149, "lng": -0.136387969708498}, "southwest": {"lat": 51.48701191970849, "lng": -0.139085930291502}}}, "name": "Jerjian Dr J C", "place_id": "ChIJ_Q8ZLOIEdkgRGCCriENGXj4", "types": ["doctor", "health", "point_of_interest", "establishment"]}, "ChIJx-EAI-IEdkgREl-cld7KbI4": {"geometry": {"location": {"lat": 51.4881883, "lng": -0.1388247}, "viewport": {"northeast": {"lat": 51.4894895802915, "lng": -0.137457569708498}, "southwest": {"lat": 51.48679161970851, "lng": -0.140155530291502}}}, "name": "Neate House", "place_id": "ChIJx-EAI-IEdkgREl-cld7KbI4", "types": ["point_of_interest", "establishment"], "rating": 5, "user_ratings_total": 1}, "ChIJm6SYKeIEdkgRKktR_IXzuGc": {"geometry": {"location": {"lat": 51.48850940000001, "lng": -0.1383516}, "viewport": {"northeast": {"lat": 51.4898635302915, "lng": -0.137092119708498}, "southwest": {"lat": 51.4871655697085, "lng": -0.1397900802915021}}}, "name": "Resource Guru", "place_id": "ChIJm6SYKeIEdkgRKktR_IXzuGc", "types": ["point_of_interest", "establishment"]}, "ChIJEcZUMeIEdkgRopHEkOT7xVc": {"geometry": {"location": {"lat": 51.48766699999999, "lng": -0.138274}, "viewport": {"northeast": {"lat": 51.4890089302915, "lng": -0.136971019708498}, "southwest": {"lat": 51.48631096970851, "lng": -0.139668980291502}}}, "name": "Pimlico - Thames Private Apartment", "place_id": "ChIJEcZUMeIEdkgRopHEkOT7xVc", "types": ["lodging", "point_of_interest", "establishment"]}, "ChIJXTO52xEFdkgRxYnifCk3f94": {"geometry": {"location": {"lat": 51.487675, "lng": -0.1378363}, "viewport": {"northeast": {"lat": 51.48928778029149, "lng": -0.136498869708498}, "southwest": {"lat": 51.48658981970849, "lng": -0.139196830291502}}}, "name": "Powerplay Netball at Pimlico Academy", "place_id": "ChIJXTO52xEFdkgRxYnifCk3f94", "types": ["point_of_interest", "establishment"]}, "ChIJs1P3LEkFdkgRSjnF3-sckkU": {"geometry": {"location": {"lat": 51.487675, "lng": -0.1378363}, "viewport": {"northeast": {"lat": 51.48928778029149, "lng": -0.136498869708498}, "southwest": {"lat": 51.48658981970849, "lng": -0.139196830291502}}}, "name": "RCCGSGLG", "place_id": "ChIJs1P3LEkFdkgRSjnF3-sckkU", "types": ["place_of_worship", "point_of_interest", "establishment"]}, "ChIJq7KnzOMEdkgRDyIOCUHTXkc": {"geometry": {"location": {"lat": 51.487675, "lng": -0.1378363}, "viewport": {"northeast": {"lat": 51.48928778029149, "lng": -0.136498869708498}, "southwest": {"lat": 51.48658981970849, "lng": -0.139196830291502}}}, "name": "Pimlico-London SCITT", "place_id": "ChIJq7KnzOMEdkgRDyIOCUHTXkc", "types": ["university", "point_of_interest", "establishment"]}, "ChIJ-2l5JOIEdkgR6sgypqRJbnc": {"geometry": {"location": {"lat": 51.48819899999999, "lng": -0.1388923}, "viewport": {"northeast": {"lat": 51.48949043029149, "lng": -0.137523119708498}, "southwest": {"lat": 51.48679246970849, "lng": -0.140221080291502}}}, "name": "Darren Rose Fertility Acupuncture", "place_id": "ChIJ-2l5JOIEdkgR6sgypqRJbnc", "types": ["health", "point_of_interest", "establishment"]}, "ChIJfcL_MOIEdkgRGzsFCV5ieVg": {"geometry": {"location": {"lat": 51.48761289999999, "lng": -0.1381367}, "viewport": {"northeast": {"lat": 51.48895528029149, "lng": -0.136843669708498}, "southwest": {"lat": 51.48625731970849, "lng": -0.139541630291502}}}, "name": "ubitricity Charging Station", "place_id": "ChIJfcL_MOIEdkgRGzsFCV5ieVg", "types": ["point_of_interest", "establishment"]}, "ChIJy5vRNuIEdkgRhJE84FmiU48": {"geometry": {"location": {"lat": 51.48764, "lng": -0.138405}, "viewport": {"northeast": {"lat": 51.48899948029149, "lng": -0.136987719708498}, "southwest": {"lat": 51.4863015197085, "lng": -0.139685680291502}}}, "name": "Pimlico Academy & Library (Stop B)", "place_id": "ChIJy5vRNuIEdkgRhJE84FmiU48", "types": ["transit_station", "point_of_interest", "establishment"], "rating": 3.3, "user_ratings_total": 4}, "ChIJw5HZ0-MEdkgR3h_dTWGqkF8": {"geometry": {"location": {"lat": 51.4884267, "lng": -0.1375633}, "viewport": {"northeast": {"lat": 51.4897146302915, "lng": -0.136187269708498}, "southwest": {"lat": 51.4870166697085, "lng": -0.138885230291502}}}, "name": "Mercadillo", "place_id": "ChIJw5HZ0-MEdkgR3h_dTWGqkF8", "types": ["clothing_store", "point_of_interest", "store", "establishment"]}, "ChIJpVP80uMEdkgRDmii5ArNOME": {"geometry": {"location": {"lat": 51.4881514, "lng": -0.1389464}, "viewport": {"northeast": {"lat": 51.48946078029149, "lng": -0.137584219708498}, "southwest": {"lat": 51.4867628197085, "lng": -0.140282180291502}}}, "name": "Phone Box", "place_id": "ChIJpVP80uMEdkgRDmii5ArNOME", "types": ["point_of_interest", "establishment"]}, "ChIJLdCw0OMEdkgRONKzMXKaVYw": {"geometry": {"location": {"lat": 51.48826520000001, "lng": -0.1373765}, "viewport": {"northeast": {"lat": 51.4896422802915, "lng": -0.1360449697084979}, "southwest": {"lat": 51.4869443197085, "lng": -0.138742930291502}}}, "name": "Pimlico Academy & Library (Stop L)", "place_id": "ChIJLdCw0OMEdkgRONKzMXKaVYw", "types": ["bus_station", "transit_station", "point_of_interest", "establishment"]}, "ChIJrc_-gsQFdkgRbUHPpNuK5dg": {"geometry": {"location": {"lat": 51.48826039999999, "lng": -0.1373716}, "viewport": {"northeast": {"lat": 51.4896409302915, "lng": -0.136036519708498}, "southwest": {"lat": 51.4869429697085, "lng": -0.138734480291502}}}, "name": "Future Academies", "place_id": "ChIJrc_-gsQFdkgRbUHPpNuK5dg", "types": ["point_of_interest", "establishment"]}, "ChIJp1B04i8FdkgR-S3OnrzZb8M": {"geometry": {"location": {"lat": 51.4884413, "lng": -0.1375319}, "viewport": {"northeast": {"lat": 51.48979028029149, "lng": -0.136182919708498}, "southwest": {"lat": 51.48709231970849, "lng": -0.138880880291502}}}, "name": "\u0416\u04b1\u043b\u0434\u044b\u0437-\u0410\u0439", "place_id": "ChIJp1B04i8FdkgR-S3OnrzZb8M", "types": ["point_of_interest", "establishment"]}, "ChIJj1ErnB0FdkgRyqd3CJaEkI0": {"geometry": {"location": {"lat": 51.4884413, "lng": -0.1375319}, "viewport": {"northeast": {"lat": 51.48979028029149, "lng": -0.136182919708498}, "southwest": {"lat": 51.48709231970849, "lng": -0.138880880291502}}}, "name": "Juldyz-Ay, kazakh language lessons", "place_id": "ChIJj1ErnB0FdkgRyqd3CJaEkI0", "types": ["point_of_interest", "establishment"]}, "ChIJxYXONeIEdkgRgDanfW_R9wA": {"geometry": {"location": {"lat": 51.4872937500008, "lng": -0.1381219999900396}, "viewport": {"northeast": {"lat": 51.4886427302915, "lng": -0.136773019708498}, "southwest": {"lat": 51.4859447697085, "lng": -0.139470980291502}}}, "name": "21 Claverton St", "place_id": "ChIJxYXONeIEdkgRgDanfW_R9wA", "types": ["route"]}, "ChIJ-wRGVeIEdkgRSIgFbn__LYk": {"geometry": {"location": {"lat": 51.4866297, "lng": -0.1381048}, "viewport": {"northeast": {"lat": 51.4879969302915, "lng": -0.136639019708498}, "southwest": {"lat": 51.4852989697085, "lng": -0.139336980291502}}}, "name": "Super Mega Action Plus Limited", "place_id": "ChIJ-wRGVeIEdkgRSIgFbn__LYk", "types": ["point_of_interest", "establishment"]}, "ChIJJdNab-IEdkgRhavMu665IrE": {"geometry": {"location": {"lat": 51.4870506, "lng": -0.1388449}, "viewport": {"northeast": {"lat": 51.4884430802915, "lng": -0.137513719708498}, "southwest": {"lat": 51.4857451197085, "lng": -0.140211680291502}}}, "name": "McCarrick Carpentry and Construction ltd", "place_id": "ChIJJdNab-IEdkgRhavMu665IrE", "types": ["general_contractor", "point_of_interest", "establishment"]}, "ChIJ___b31wOdkgRQZYmmUNL0QU": {"geometry": {"location": {"lat": 51.4870894, "lng": -0.1374492}, "viewport": {"northeast": {"lat": 51.4885052302915, "lng": -0.135832469708498}, "southwest": {"lat": 51.4858072697085, "lng": -0.138530430291502}}}, "name": "Corporate Living - Dolphin Square", "place_id": "ChIJ___b31wOdkgRQZYmmUNL0QU", "types": ["lodging", "point_of_interest", "establishment"], "rating": 5, "user_ratings_total": 6}, "ChIJHQcPsuMEdkgRhyldFotC0UI": {"geometry": {"location": {"lat": 51.48664900000001, "lng": -0.1376218}, "viewport": {"northeast": {"lat": 51.4879801802915, "lng": -0.1363868697084979}, "southwest": {"lat": 51.4852822197085, "lng": -0.139084830291502}}}, "name": "Page Property Services", "place_id": "ChIJHQcPsuMEdkgRhyldFotC0UI", "types": ["finance", "point_of_interest", "establishment"]}, "ChIJhy6ksuMEdkgRBgj67IhROEk": {"geometry": {"location": {"lat": 51.4870082, "lng": -0.1381167}, "viewport": {"northeast": {"lat": 51.48836068029149, "lng": -0.136715619708498}, "southwest": {"lat": 51.48566271970849, "lng": -0.139413580291502}}}, "name": "ubitricity Charging Station", "place_id": "ChIJhy6ksuMEdkgRBgj67IhROEk", "types": ["point_of_interest", "establishment"]}, "ChIJL41EVIoFdkgRRlIweK5ouEw": {"geometry": {"location": {"lat": 51.4870264, "lng": -0.138307}, "viewport": {"northeast": {"lat": 51.4884703302915, "lng": -0.137004119708498}, "southwest": {"lat": 51.4857723697085, "lng": -0.139702080291502}}}, "name": "Private Investigator Churchill Gardens", "place_id": "ChIJL41EVIoFdkgRRlIweK5ouEw", "types": ["point_of_interest", "establishment"], "rating": 5, "user_ratings_total": 1}, "ChIJkybRTeIEdkgR8B_OmjdyBrA": {"geometry": {"location": {"lat": 51.4868135, "lng": -0.138227}, "viewport": {"northeast": {"lat": 51.4883633302915, "lng": -0.136964119708498}, "southwest": {"lat": 51.4856653697085, "lng": -0.139662080291502}}}, "name": "AGM Strategic Solutions", "place_id": "ChIJkybRTeIEdkgR8B_OmjdyBrA", "types": ["point_of_interest", "establishment"]}, "ChIJEWhiUuIEdkgR3rDrrqB2OX0": {"geometry": {"location": {"lat": 51.4866252, "lng": -0.1380747}, "viewport": {"northeast": {"lat": 51.4882660802915, "lng": -0.136903669708498}, "southwest": {"lat": 51.4855681197085, "lng": -0.139601630291502}}}, "name": "Lenthall House", "place_id": "ChIJEWhiUuIEdkgR3rDrrqB2OX0", "types": ["point_of_interest", "establishment"], "rating": 5, "user_ratings_total": 2}, "ChIJl_Zqp-MEdkgR_cw0CdhuMX0": {"geometry": {"location": {"lat": 51.48672879999999, "lng": -0.1376861}, "viewport": {"northeast": {"lat": 51.48806233029149, "lng": -0.136436069708498}, "southwest": {"lat": 51.4853643697085, "lng": -0.139134030291502}}}, "name": "Howard House", "place_id": "ChIJl_Zqp-MEdkgR_cw0CdhuMX0", "types": ["lodging", "point_of_interest", "establishment"]}, "ChIJqQas3eEEdkgRWfQ8mFXE1xo": {"geometry": {"location": {"lat": 51.49014754401273, "lng": -0.1402949128852788}, "viewport": {"northeast": {"lat": 51.4914765302915, "lng": -0.1387167}, "southwest": {"lat": 51.48877856970851, "lng": -0.1418291}}}, "name": "2-36 Gloucester St", "place_id": "ChIJqQas3eEEdkgRWfQ8mFXE1xo", "types": ["route"]}, "ChIJq7zowOEEdkgRd1RPg11Kc9Y": {"geometry": {"location": {"lat": 51.4902181, "lng": -0.1395677}, "viewport": {"northeast": {"lat": 51.4915161302915, "lng": -0.138136669708498}, "southwest": {"lat": 51.48881816970851, "lng": -0.140834630291502}}}, "name": "Area16 Marketing", "place_id": "ChIJq7zowOEEdkgRd1RPg11Kc9Y", "types": ["point_of_interest", "establishment"]}, "ChIJNWNj3OEEdkgRJjqOxOs-_8M": {"geometry": {"location": {"lat": 51.4902334, "lng": -0.1403209}, "viewport": {"northeast": {"lat": 51.4915629802915, "lng": -0.138930569708498}, "southwest": {"lat": 51.4888650197085, "lng": -0.141628530291502}}}, "name": "Just Off", "place_id": "ChIJNWNj3OEEdkgRJjqOxOs-_8M", "types": ["point_of_interest", "establishment"]}, "ChIJXx7-ojYbdkgR6ITQjxEhqJc": {"geometry": {"location": {"lat": 51.4902914, "lng": -0.1403578}, "viewport": {"northeast": {"lat": 51.4916049302915, "lng": -0.138933269708498}, "southwest": {"lat": 51.48890696970851, "lng": -0.141631230291502}}}, "name": "Portman Chambers", "place_id": "ChIJXx7-ojYbdkgR6ITQjxEhqJc", "types": ["point_of_interest", "establishment"], "rating": 1, "user_ratings_total": 1}, "ChIJ5Xvr2-EEdkgRE5DOef1icg4": {"geometry": {"location": {"lat": 51.4903475, "lng": -0.1403839}, "viewport": {"northeast": {"lat": 51.49164708029149, "lng": -0.138929369708498}, "southwest": {"lat": 51.48894911970849, "lng": -0.141627330291502}}}, "name": "London Pimlico", "place_id": "ChIJ5Xvr2-EEdkgRE5DOef1icg4", "types": ["real_estate_agency", "point_of_interest", "establishment"]}, "ChIJ3yy928IEdkgRs9Twns6fca8": {"geometry": {"location": {"lat": 51.4901542, "lng": -0.1404256}, "viewport": {"northeast": {"lat": 51.49148248029149, "lng": -0.139032269708498}, "southwest": {"lat": 51.4887845197085, "lng": -0.141730230291502}}}, "name": "St. George Valuations", "place_id": "ChIJ3yy928IEdkgRs9Twns6fca8", "types": ["point_of_interest", "establishment"]}, "ChIJT3Y23-EEdkgRM-EJ3LM6WEU": {"geometry": {"location": {"lat": 51.4903711, "lng": -0.1406466}, "viewport": {"northeast": {"lat": 51.4917886302915, "lng": -0.139446369708498}, "southwest": {"lat": 51.4890906697085, "lng": -0.142144330291502}}}, "name": "Aldine Honey Ltd", "place_id": "ChIJT3Y23-EEdkgRM-EJ3LM6WEU", "types": ["real_estate_agency", "point_of_interest", "establishment"]}, "ChIJtcQ83OEEdkgRowPuWjTdeZQ": {"geometry": {"location": {"lat": 51.4902375, "lng": -0.1404401}, "viewport": {"northeast": {"lat": 51.4915485302915, "lng": -0.1390101197084979}, "southwest": {"lat": 51.4888505697085, "lng": -0.141708080291502}}}, "name": "Powder Puffs", "place_id": "ChIJtcQ83OEEdkgRowPuWjTdeZQ", "types": ["point_of_interest", "establishment"]}, "ChIJn6SFxOEEdkgRooB554pHqfY": {"geometry": {"location": {"lat": 51.49032109999999, "lng": -0.1399497}, "viewport": {"northeast": {"lat": 51.4916903302915, "lng": -0.138643969708498}, "southwest": {"lat": 51.4889923697085, "lng": -0.141341930291502}}}, "name": "OYO Gloucester St. Studios", "place_id": "ChIJn6SFxOEEdkgRooB554pHqfY", "types": ["lodging", "point_of_interest", "establishment"], "rating": 3.7, "user_ratings_total": 15}, "ChIJ-QnmjDAFdkgRG_tBruGRV5g": {"geometry": {"location": {"lat": 51.4902733, "lng": -0.1401387}, "viewport": {"northeast": {"lat": 51.4916418802915, "lng": -0.138831519708498}, "southwest": {"lat": 51.4889439197085, "lng": -0.1415294802915021}}}, "name": "Crptogold Investment", "place_id": "ChIJ-QnmjDAFdkgRG_tBruGRV5g", "types": ["finance", "point_of_interest", "establishment"], "rating": 5, "user_ratings_total": 2}, "ChIJ_UhD2-EEdkgRGKNspnekg9k": {"geometry": {"location": {"lat": 51.49033829999999, "lng": -0.1401946}, "viewport": {"northeast": {"lat": 51.49166783029149, "lng": -0.138804069708498}, "southwest": {"lat": 51.48896986970849, "lng": -0.141502030291502}}}, "name": "Signage London", "place_id": "ChIJ_UhD2-EEdkgRGKNspnekg9k", "types": ["point_of_interest", "store", "establishment"]}, "ChIJgf1rOfwFdkgRa3n2897Dxc0": {"geometry": {"location": {"lat": 51.49031799999999, "lng": -0.1402538}, "viewport": {"northeast": {"lat": 51.4916423302915, "lng": -0.138852169708498}, "southwest": {"lat": 51.48894436970851, "lng": -0.141550130291502}}}, "name": "AFM Upholsterers", "place_id": "ChIJgf1rOfwFdkgRa3n2897Dxc0", "types": ["furniture_store", "home_goods_store", "point_of_interest", "store", "establishment"]}, "ChIJX4RmnfgFdkgRcZ-CkFsum1A": {"geometry": {"location": {"lat": 51.49031799999999, "lng": -0.1402538}, "viewport": {"northeast": {"lat": 51.4916423302915, "lng": -0.138852219708498}, "southwest": {"lat": 51.48894436970851, "lng": -0.141550180291502}}}, "name": "Namai", "place_id": "ChIJX4RmnfgFdkgRcZ-CkFsum1A", "types": ["lodging", "point_of_interest", "establishment"]}, "ChIJM25H4MsFdkgRdgUYVXoywgE": {"geometry": {"location": {"lat": 51.4905, "lng": -0.1401}, "viewport": {"northeast": {"lat": 51.49181443029149, "lng": -0.138677269708498}, "southwest": {"lat": 51.48911646970849, "lng": -0.141375230291502}}}, "name": "BINANCE-TRADERS HEADQUARTERS", "place_id": "ChIJM25H4MsFdkgRdgUYVXoywgE", "types": ["point_of_interest", "establishment"], "rating": 3, "user_ratings_total": 4}, "ChIJNWNj3OEEdkgRsuzP1YOnNLo": {"geometry": {"location": {"lat": 51.49024030000001, "lng": -0.1403128}, "viewport": {"northeast": {"lat": 51.49156983029151, "lng": -0.138922369708498}, "southwest": {"lat": 51.48887186970851, "lng": -0.141620330291502}}}, "name": "The BDG Group", "place_id": "ChIJNWNj3OEEdkgRsuzP1YOnNLo", "types": ["finance", "point_of_interest", "establishment"]}, "ChIJ34XwvQEFdkgRrqvQHJEIoSk": {"geometry": {"location": {"lat": 51.4903326, "lng": -0.1403121}, "viewport": {"northeast": {"lat": 51.4916455302915, "lng": -0.138886219708498}, "southwest": {"lat": 51.48894756970851, "lng": -0.141584180291502}}}, "name": "Vaysor Tech Ltd", "place_id": "ChIJ34XwvQEFdkgRrqvQHJEIoSk", "types": ["finance", "point_of_interest", "establishment"]}, "ChIJeaJmTwUFdkgRahNBtdBwMxQ": {"geometry": {"location": {"lat": 51.4902334, "lng": -0.1403209}, "viewport": {"northeast": {"lat": 51.4915629802915, "lng": -0.138930519708498}, "southwest": {"lat": 51.4888650197085, "lng": -0.141628480291502}}}, "name": "Bolinkgbroke Advisory", "place_id": "ChIJeaJmTwUFdkgRahNBtdBwMxQ", "types": ["point_of_interest", "establishment"]}, "ChIJNWNj3OEEdkgREl-J7BmhE7Q": {"geometry": {"location": {"lat": 51.4902334, "lng": -0.1403209}, "viewport": {"northeast": {"lat": 51.4915629802915, "lng": -0.138930569708498}, "southwest": {"lat": 51.4888650197085, "lng": -0.141628530291502}}}, "name": "Secure Inside Area", "place_id": "ChIJNWNj3OEEdkgREl-J7BmhE7Q", "types": ["point_of_interest", "establishment"]}, "ChIJh5CF2-EEdkgRrpdESZALZg8": {"geometry": {"location": {"lat": 51.4903171, "lng": -0.1403336}, "viewport": {"northeast": {"lat": 51.4916296302915, "lng": -0.138906919708498}, "southwest": {"lat": 51.48893166970851, "lng": -0.141604880291502}}}, "name": "Mornington Hotel London Victoria", "place_id": "ChIJh5CF2-EEdkgRrpdESZALZg8", "types": ["lodging", "point_of_interest", "establishment"], "rating": 4, "user_ratings_total": 153}, "ChIJHzo0wXYFdkgRKcdawjjBJaM": {"geometry": {"location": {"lat": 51.4905565, "lng": -0.1400081}, "viewport": {"northeast": {"lat": 51.4918744302915, "lng": -0.138592869708498}, "southwest": {"lat": 51.4891764697085, "lng": -0.141290830291502}}}, "name": "Emergency Mobile Tyre Fitting Pimlico", "place_id": "ChIJHzo0wXYFdkgRKcdawjjBJaM", "types": ["car_repair", "point_of_interest", "store", "establishment"]}, "ChIJ_-f9ojYbdkgRGrGf5brzBdU": {"geometry": {"location": {"lat": 51.4902914, "lng": -0.1403578}, "viewport": {"northeast": {"lat": 51.4916049302915, "lng": -0.138933269708498}, "southwest": {"lat": 51.48890696970851, "lng": -0.141631230291502}}}, "name": "VCQ Media Ltd", "place_id": "ChIJ_-f9ojYbdkgRGrGf5brzBdU", "types": ["point_of_interest", "establishment"]}, "ChIJgfqJ2-EEdkgRfJyhVnrvUFo": {"geometry": {"location": {"lat": 51.4902915, "lng": -0.1403578}, "viewport": {"northeast": {"lat": 51.4916050302915, "lng": -0.138933219708498}, "southwest": {"lat": 51.4889070697085, "lng": -0.141631180291502}}}, "name": "METIS Conferences Ltd", "place_id": "ChIJgfqJ2-EEdkgRfJyhVnrvUFo", "types": ["point_of_interest", "establishment"]}, "ChIJNWNj3OEEdkgRh33E3T64d-o": {"geometry": {"location": {"lat": 51.4902717, "lng": -0.1403739}, "viewport": {"northeast": {"lat": 51.49158643029151, "lng": -0.138951869708498}, "southwest": {"lat": 51.48888846970851, "lng": -0.141649830291502}}}, "name": "ONE FOREX ZONE LIMITED", "place_id": "ChIJNWNj3OEEdkgRh33E3T64d-o", "types": ["shopping_mall", "point_of_interest", "establishment"]}, "ChIJ-3vr2-EEdkgRzYrKUTRM4LA": {"geometry": {"location": {"lat": 51.4905002, "lng": -0.1402276}, "viewport": {"northeast": {"lat": 51.49179548029149, "lng": -0.138764019708498}, "southwest": {"lat": 51.48909751970849, "lng": -0.141461980291502}}}, "name": "Kairos Consulting Solutions Ltd", "place_id": "ChIJ-3vr2-EEdkgRzYrKUTRM4LA", "types": ["point_of_interest", "establishment"]}, "ChIJh_oP3OEEdkgRfkdc0NZUA34": {"geometry": {"location": {"lat": 51.4902503, "lng": -0.1404265}, "viewport": {"northeast": {"lat": 51.4915609802915, "lng": -0.138995919708498}, "southwest": {"lat": 51.4888630197085, "lng": -0.141693880291502}}}, "name": "4 Zeros", "place_id": "ChIJh_oP3OEEdkgRfkdc0NZUA34", "types": ["point_of_interest", "establishment"]}, "ChIJiav1uOEEdkgRJ7nhgSdCFaU": {"geometry": {"location": {"lat": 51.4904642, "lng": -0.1393651}, "viewport": {"northeast": {"lat": 51.4918188802915, "lng": -0.137982469708498}, "southwest": {"lat": 51.4891209197085, "lng": -0.140680430291502}}}, "name": "ubitricity Charging Station", "place_id": "ChIJiav1uOEEdkgRJ7nhgSdCFaU", "types": ["point_of_interest", "establishment"]}, "ChIJA9Ix3OEEdkgR62YFDsHCjO4": {"geometry": {"location": {"lat": 51.4901542, "lng": -0.1404255}, "viewport": {"northeast": {"lat": 51.49148248029149, "lng": -0.139032169708498}, "southwest": {"lat": 51.4887845197085, "lng": -0.141730130291502}}}, "name": "Christian Art Today", "place_id": "ChIJA9Ix3OEEdkgR62YFDsHCjO4", "types": ["point_of_interest", "establishment"]}, "ChIJHdIx3OEEdkgRWaNmKOStZvc": {"geometry": {"location": {"lat": 51.4901542, "lng": -0.1404256}, "viewport": {"northeast": {"lat": 51.49148248029149, "lng": -0.139032269708498}, "southwest": {"lat": 51.4887845197085, "lng": -0.141730230291502}}}, "name": "Valuemystuff", "place_id": "ChIJHdIx3OEEdkgRWaNmKOStZvc", "types": ["point_of_interest", "establishment"]}, "ChIJCZ7PH2MFdkgRfl9-0LIfhjc": {"geometry": {"location": {"lat": 51.4906409, "lng": -0.1399464}, "viewport": {"northeast": {"lat": 51.4919528302915, "lng": -0.138518369708498}, "southwest": {"lat": 51.4892548697085, "lng": -0.141216330291502}}}, "name": "EnvisionX Group Limited", "place_id": "ChIJCZ7PH2MFdkgRfl9-0LIfhjc", "types": ["point_of_interest", "establishment"]}, "ChIJOwGs7uEEdkgR501TvMBxIb0": {"geometry": {"location": {"lat": 51.49000640000001, "lng": -0.1394048}, "viewport": {"northeast": {"lat": 51.4913778302915, "lng": -0.138101869708498}, "southwest": {"lat": 51.48867986970851, "lng": -0.140799830291502}}}, "name": "Shel-fit", "place_id": "ChIJOwGs7uEEdkgR501TvMBxIb0", "types": ["painter", "point_of_interest", "establishment"]}, "ChIJVRmCyOEEdkgRzH9zd-qkbKc": {"geometry": {"location": {"lat": 51.4906222, "lng": -0.1395826}, "viewport": {"northeast": {"lat": 51.4919919302915, "lng": -0.138278219708498}, "southwest": {"lat": 51.4892939697085, "lng": -0.140976180291502}}}, "name": "Golden Quill Literary Agency", "place_id": "ChIJVRmCyOEEdkgRzH9zd-qkbKc", "types": ["book_store", "point_of_interest", "store", "establishment"]}, "ChIJe6B93eEEdkgR0swz4y1vkgA": {"geometry": {"location": {"lat": 51.4899663, "lng": -0.1402552}, "viewport": {"northeast": {"lat": 51.49135383029149, "lng": -0.1389888197084979}, "southwest": {"lat": 51.4886558697085, "lng": -0.141686780291502}}}, "name": "Zenith Partners Limited", "place_id": "ChIJe6B93eEEdkgR0swz4y1vkgA", "types": ["point_of_interest", "establishment"]}, "ChIJXxfPWiUEdkgRFiWc9rYOECs": {"geometry": {"location": {"lat": 51.4899663, "lng": -0.1402552}, "viewport": {"northeast": {"lat": 51.4913537802915, "lng": -0.138988769708498}, "southwest": {"lat": 51.4886558197085, "lng": -0.141686730291502}}}, "name": "TOTTENHAM & CO", "place_id": "ChIJXxfPWiUEdkgRFiWc9rYOECs", "types": ["point_of_interest", "establishment"]}, "ChIJVVWA5-EEdkgRBu-KGlYTK5M": {"geometry": {"location": {"lat": 51.4899504, "lng": -0.140278}, "viewport": {"northeast": {"lat": 51.49133738029149, "lng": -0.139010469708498}, "southwest": {"lat": 51.48863941970849, "lng": -0.141708430291502}}}, "name": "Antler Capital Partners Llp", "place_id": "ChIJVVWA5-EEdkgRBu-KGlYTK5M", "types": ["point_of_interest", "establishment"]}, "ChIJxQHPRmgFdkgRgAn2MUwX4uE": {"geometry": {"location": {"lat": 51.4898292, "lng": -0.139642}, "viewport": {"northeast": {"lat": 51.4911947802915, "lng": -0.138331869708498}, "southwest": {"lat": 51.4884968197085, "lng": -0.141029830291502}}}, "name": "S", "place_id": "ChIJxQHPRmgFdkgRgAn2MUwX4uE", "types": ["finance", "point_of_interest", "establishment"]}, "ChIJ7f__v-EEdkgRNYawPKYPAQk": {"geometry": {"location": {"lat": 51.4900422, "lng": -0.1391993}, "viewport": {"northeast": {"lat": 51.4913938802915, "lng": -0.137833719708498}, "southwest": {"lat": 51.4886959197085, "lng": -0.140531680291502}}}, "name": "Egypt Day tours", "place_id": "ChIJ7f__v-EEdkgRNYawPKYPAQk", "types": ["travel_agency", "point_of_interest", "establishment"], "rating": 5, "user_ratings_total": 2}, "ChIJsSxZ43YFdkgRdWuELG-r1kg": {"geometry": {"location": {"lat": 51.49007240000001, "lng": -0.140536}, "viewport": {"northeast": {"lat": 51.49139888029151, "lng": -0.139138819708498}, "southwest": {"lat": 51.48870091970851, "lng": -0.1418367802915021}}}, "name": "Accountant in Pimlico", "place_id": "ChIJsSxZ43YFdkgRdWuELG-r1kg", "types": ["accounting", "finance", "point_of_interest", "establishment"]}, "ChIJqxHHvuEEdkgRlf_wDoTng8s": {"geometry": {"location": {"lat": 51.490236, "lng": -0.139105}, "viewport": {"northeast": {"lat": 51.49157828029149, "lng": -0.137804669708498}, "southwest": {"lat": 51.48888031970849, "lng": -0.140502630291502}}}, "name": "ubitricity Charging Station", "place_id": "ChIJqxHHvuEEdkgRlf_wDoTng8s", "types": ["point_of_interest", "establishment"]}, "ChIJJ4to-uEEdkgRFejwnK1BDjA": {"geometry": {"location": {"lat": 51.48909744152832, "lng": -0.1401615325070233}, "viewport": {"northeast": {"lat": 51.49044523029149, "lng": -0.138814069708498}, "southwest": {"lat": 51.48774726970849, "lng": -0.141512030291502}}}, "name": "60-70 St George's Dr", "place_id": "ChIJJ4to-uEEdkgRFejwnK1BDjA", "types": ["route"]}, "ChIJVxek_eEEdkgRFOiB0aWbYuE": {"geometry": {"location": {"lat": 51.48904710000001, "lng": -0.1404571}, "viewport": {"northeast": {"lat": 51.4904563802915, "lng": -0.139035119708498}, "southwest": {"lat": 51.4877584197085, "lng": -0.141733080291502}}}, "name": "Japan Neko UK office", "place_id": "ChIJVxek_eEEdkgRFOiB0aWbYuE", "types": ["point_of_interest", "establishment"]}, "ChIJG5kT4-EEdkgRWy-ZGDFHu6U": {"geometry": {"location": {"lat": 51.4894185, "lng": -0.1404148}, "viewport": {"northeast": {"lat": 51.4907013802915, "lng": -0.139142719708498}, "southwest": {"lat": 51.48800341970851, "lng": -0.141840680291502}}}, "name": "Real Estate Consultancy Ltd", "place_id": "ChIJG5kT4-EEdkgRWy-ZGDFHu6U", "types": ["real_estate_agency", "point_of_interest", "establishment"]}, "ChIJ_SxtRCIFdkgR1vZjCIkDUxA": {"geometry": {"location": {"lat": 51.48896, "lng": -0.13989}, "viewport": {"northeast": {"lat": 51.4902887802915, "lng": -0.138568019708498}, "southwest": {"lat": 51.4875908197085, "lng": -0.141265980291502}}}, "name": "ARF Private Investigator Pimlico", "place_id": "ChIJ_SxtRCIFdkgR1vZjCIkDUxA", "types": ["point_of_interest", "establishment"]}, "ChIJ0WmZ8-EEdkgRtIinyT6fzLw": {"geometry": {"location": {"lat": 51.4890412, "lng": -0.1395791}, "viewport": {"northeast": {"lat": 51.4904205302915, "lng": -0.138299569708498}, "southwest": {"lat": 51.4877225697085, "lng": -0.140997530291502}}}, "name": "Wolfson Energy Limited", "place_id": "ChIJ0WmZ8-EEdkgRtIinyT6fzLw", "types": ["point_of_interest", "establishment"]}, "ChIJvd0SBJAFdkgRmScL5_vhZ7E": {"geometry": {"location": {"lat": 51.4889986, "lng": -0.1401221}, "viewport": {"northeast": {"lat": 51.4903731802915, "lng": -0.138742119708498}, "southwest": {"lat": 51.4876752197085, "lng": -0.141440080291502}}}, "name": "Green Cab Shelter", "place_id": "ChIJvd0SBJAFdkgRmScL5_vhZ7E", "types": ["point_of_interest", "establishment"]}, "ChIJmaMf-uEEdkgRiq5B0L_1SlQ": {"geometry": {"location": {"lat": 51.488984, "lng": -0.1401859}, "viewport": {"northeast": {"lat": 51.49037278029149, "lng": -0.138788719708498}, "southwest": {"lat": 51.4876748197085, "lng": -0.141486680291502}}}, "name": "Martin Mrzena", "place_id": "ChIJmaMf-uEEdkgRiq5B0L_1SlQ", "types": ["health", "point_of_interest", "establishment"]}, "ChIJg4M6-uEEdkgRnKNP79Rl88M": {"geometry": {"location": {"lat": 51.4890249, "lng": -0.1402376}, "viewport": {"northeast": {"lat": 51.49040838029151, "lng": -0.138846819708498}, "southwest": {"lat": 51.48771041970851, "lng": -0.141544780291502}}}, "name": "Pimlico Advisory Ltd", "place_id": "ChIJg4M6-uEEdkgRnKNP79Rl88M", "types": ["point_of_interest", "establishment"]}, "ChIJz0Gf--EEdkgRpDnacxbC2WY": {"geometry": {"location": {"lat": 51.48912389999999, "lng": -0.140382}, "viewport": {"northeast": {"lat": 51.4904958302915, "lng": -0.138999919708498}, "southwest": {"lat": 51.4877978697085, "lng": -0.141697880291502}}}, "name": "ubitricity Charging Station", "place_id": "ChIJz0Gf--EEdkgRpDnacxbC2WY", "types": ["point_of_interest", "establishment"]}, "ChIJ4RMX7eEEdkgRXmK_Nf7kZsQ": {"geometry": {"location": {"lat": 51.4894216, "lng": -0.1394758}, "viewport": {"northeast": {"lat": 51.4907573302915, "lng": -0.138095119708498}, "southwest": {"lat": 51.4880593697085, "lng": -0.140793080291502}}}, "name": "Milestone Installation Ltd", "place_id": "ChIJ4RMX7eEEdkgRXmK_Nf7kZsQ", "types": ["point_of_interest", "establishment"]}, "ChIJtcZy4-EEdkgRNaEgv7IxOz8": {"geometry": {"location": {"lat": 51.4894504, "lng": -0.1404861}, "viewport": {"northeast": {"lat": 51.49073338029149, "lng": -0.139213919708498}, "southwest": {"lat": 51.4880354197085, "lng": -0.141911880291502}}}, "name": "Cleaners Pimlico", "place_id": "ChIJtcZy4-EEdkgRNaEgv7IxOz8", "types": ["point_of_interest", "establishment"]}, "ChIJx42uEOIEdkgRwP0sIKZa4mE": {"geometry": {"location": {"lat": 51.4879653004262, "lng": -0.1397660002742792}, "viewport": {"northeast": {"lat": 51.4893142802915, "lng": -0.138417019708498}, "southwest": {"lat": 51.4866163197085, "lng": -0.141114980291502}}}, "name": "69-77 Lupus St", "place_id": "ChIJx42uEOIEdkgRwP0sIKZa4mE", "types": ["route"]}, "ChIJHZmII-IEdkgR8XP7Az0Hvb0": {"geometry": {"location": {"lat": 51.48816089999999, "lng": -0.1392964}, "viewport": {"northeast": {"lat": 51.48944838029149, "lng": -0.137895769708498}, "southwest": {"lat": 51.48675041970849, "lng": -0.140593730291502}}}, "name": "Carpet Express", "place_id": "ChIJHZmII-IEdkgR8XP7Az0Hvb0", "types": ["furniture_store", "home_goods_store", "general_contractor", "point_of_interest", "store", "establishment"], "rating": 3.9, "user_ratings_total": 56}, "ChIJdZMpI-IEdkgRXCR7iSql5n0": {"geometry": {"location": {"lat": 51.48816089999999, "lng": -0.1392964}, "viewport": {"northeast": {"lat": 51.4894448302915, "lng": -0.137925519708498}, "southwest": {"lat": 51.4867468697085, "lng": -0.140623480291502}}}, "name": "CXP Contracts", "place_id": "ChIJdZMpI-IEdkgRXCR7iSql5n0", "types": ["general_contractor", "point_of_interest", "establishment"]}, "ChIJY7ZKex4FdkgRzrILzDQtyZQ": {"geometry": {"location": {"lat": 51.4880575, "lng": -0.1403691}, "viewport": {"northeast": {"lat": 51.48937128029151, "lng": -0.139076169708498}, "southwest": {"lat": 51.48667331970851, "lng": -0.141774130291502}}}, "name": "Vanbrugh Public Relations LLP", "place_id": "ChIJY7ZKex4FdkgRzrILzDQtyZQ", "types": ["point_of_interest", "establishment"]}, "ChIJs5WCHOIEdkgRm-KugGe-FpM": {"geometry": {"location": {"lat": 51.4882857, "lng": -0.1400281}, "viewport": {"northeast": {"lat": 51.48966448029149, "lng": -0.138642619708498}, "southwest": {"lat": 51.4869665197085, "lng": -0.141340580291502}}}, "name": "Ruth Finch", "place_id": "ChIJs5WCHOIEdkgRm-KugGe-FpM", "types": ["lawyer", "finance", "point_of_interest", "establishment"]}, "ChIJf6mcBeIEdkgRPnQSWkHzUUM": {"geometry": {"location": {"lat": 51.4880326, "lng": -0.140302}, "viewport": {"northeast": {"lat": 51.48931708029149, "lng": -0.138932269708498}, "southwest": {"lat": 51.48661911970849, "lng": -0.141630230291502}}}, "name": "WS Studios Hair Professionals", "place_id": "ChIJf6mcBeIEdkgRPnQSWkHzUUM", "types": ["beauty_salon", "hair_care", "point_of_interest", "establishment"], "rating": 4.6, "user_ratings_total": 163}, "ChIJ7eXCJOIEdkgRrVC04XBx_t0": {"geometry": {"location": {"lat": 51.48817639999999, "lng": -0.1391098}, "viewport": {"northeast": {"lat": 51.4894645802915, "lng": -0.137740369708498}, "southwest": {"lat": 51.4867666197085, "lng": -0.140438330291502}}}, "name": "Sound Insulation London", "place_id": "ChIJ7eXCJOIEdkgRrVC04XBx_t0", "types": ["point_of_interest", "establishment"]}, "ChIJk1dxOeIEdkgRUkp_KhFpH2A": {"geometry": {"location": {"lat": 51.4879301, "lng": -0.1391086}, "viewport": {"northeast": {"lat": 51.48926838029151, "lng": -0.137826769708498}, "southwest": {"lat": 51.48657041970851, "lng": -0.140524730291502}}}, "name": "Ranelagh International Ltd", "place_id": "ChIJk1dxOeIEdkgRUkp_KhFpH2A", "types": ["point_of_interest", "establishment"]}, "ChIJs-jAPOIEdkgR9VWTttjbDGo": {"geometry": {"location": {"lat": 51.4879237, "lng": -0.139094}, "viewport": {"northeast": {"lat": 51.48927268029149, "lng": -0.137745019708498},