{"E00023542": {"ChIJpYFM3uMEdkgREfISgVGDkBI": {"geometry": {"location": {"lat": 51.48848367755205, "lng": -0.1365211434147427}, "viewport": {"northeast": {"lat": 51.48983073029149, "lng": -0.13495055}, "southwest": {"lat": 51.4871327697085, "lng": -0.13808995}}}, "name": "32-10 Lupus St", "place_id": "ChIJpYFM3uMEdkgREfISgVGDkBI", "types": ["route"]}, "ChIJH-bl1OMEdkgRbt5353omVss": {"geometry": {"location": {"lat": 51.4884222, "lng": -0.1374917}, "viewport": {"northeast": {"lat": 51.4897183302915, "lng": -0.136116819708498}, "southwest": {"lat": 51.4870203697085, "lng": -0.138814780291502}}}, "name": "Goya", "place_id": "ChIJH-bl1OMEdkgRbt5353omVss", "types": ["restaurant", "food", "point_of_interest", "establishment"], "rating": 4.2, "user_ratings_total": 449}, "ChIJ6UiF0OMEdkgR-acT8e3bJMo": {"geometry": {"location": {"lat": 51.4880398, "lng": -0.1371874}, "viewport": {"northeast": {"lat": 51.48953753029149, "lng": -0.136049519708498}, "southwest": {"lat": 51.48683956970849, "lng": -0.138747480291502}}}, "name": "Capital Carboot", "place_id": "ChIJ6UiF0OMEdkgR-acT8e3bJMo", "types": ["point_of_interest", "establishment"], "rating": 3.9, "user_ratings_total": 202}, "ChIJcViTfOEEdkgRpavzoA7wSz4": {"geometry": {"location": {"lat": 51.48889129999999, "lng": -0.1371379}, "viewport": {"northeast": {"lat": 51.4901970302915, "lng": -0.135728369708498}, "southwest": {"lat": 51.4874990697085, "lng": -0.138426330291502}}}, "name": "Pizza Express", "place_id": "ChIJcViTfOEEdkgRpavzoA7wSz4", "types": ["meal_takeaway", "restaurant", "food", "point_of_interest", "establishment"], "rating": 4, "user_ratings_total": 365}, "ChIJxyzR2eMEdkgRbSZyNpOd9JQ": {"geometry": {"location": {"lat": 51.4885226, "lng": -0.13709}, "viewport": {"northeast": {"lat": 51.4898056302915, "lng": -0.135709769708498}, "southwest": {"lat": 51.4871076697085, "lng": -0.138407730291502}}}, "name": "Ringrose Kindergarten", "place_id": "ChIJxyzR2eMEdkgRbSZyNpOd9JQ", "types": ["school", "point_of_interest", "establishment"]}, "ChIJHZsf3uMEdkgRuGIAQT5vkdQ": {"geometry": {"location": {"lat": 51.4882678, "lng": -0.1366178}, "viewport": {"northeast": {"lat": 51.4896283302915, "lng": -0.135764719708498}, "southwest": {"lat": 51.4869303697085, "lng": -0.138462680291502}}}, "name": "Pimlico Primary", "place_id": "ChIJHZsf3uMEdkgRuGIAQT5vkdQ", "types": ["school", "point_of_interest", "establishment"], "rating": 4.9, "user_ratings_total": 10}, "ChIJF6m_2uMEdkgRg21WwKSexxY": {"geometry": {"location": {"lat": 51.4880668, "lng": -0.1370759}, "viewport": {"northeast": {"lat": 51.4895606802915, "lng": -0.135993769708498}, "southwest": {"lat": 51.4868627197085, "lng": -0.138691730291502}}}, "name": "Alpha Church", "place_id": "ChIJF6m_2uMEdkgRg21WwKSexxY", "types": ["point_of_interest", "establishment"], "rating": 4.8, "user_ratings_total": 28}, "ChIJ3QhufeEEdkgRNhFr9YHd89g": {"geometry": {"location": {"lat": 51.48875990000001, "lng": -0.1373009}, "viewport": {"northeast": {"lat": 51.4900748302915, "lng": -0.135889969708498}, "southwest": {"lat": 51.4873768697085, "lng": -0.138587930291502}}}, "name": "Fry & Co", "place_id": "ChIJ3QhufeEEdkgRNhFr9YHd89g", "types": ["point_of_interest", "establishment"], "rating": 5, "user_ratings_total": 4}, "ChIJeyVrY-EEdkgRRqwqQ1j_c6o": {"geometry": {"location": {"lat": 51.4888127, "lng": -0.1371756}, "viewport": {"northeast": {"lat": 51.4901354302915, "lng": -0.135778869708498}, "southwest": {"lat": 51.4874374697085, "lng": -0.138476830291502}}}, "name": "Modes & More", "place_id": "ChIJeyVrY-EEdkgRRqwqQ1j_c6o", "types": ["point_of_interest", "clothing_store", "store", "establishment"]}, "ChIJJ_RvimYEdkgRTHRX41Gy2b8": {"geometry": {"location": {"lat": 51.488087, "lng": -0.137595}, "viewport": {"northeast": {"lat": 51.4895302302915, "lng": -0.136287819708498}, "southwest": {"lat": 51.4868322697085, "lng": -0.138985780291502}}}, "name": "Choice Tutors", "place_id": "ChIJJ_RvimYEdkgRTHRX41Gy2b8", "types": ["point_of_interest", "establishment"], "rating": 3.7, "user_ratings_total": 3}, "ChIJNejl1OMEdkgR_-ba5K7K9OI": {"geometry": {"location": {"lat": 51.4884496, "lng": -0.1377763}, "viewport": {"northeast": {"lat": 51.48970988029149, "lng": -0.136387969708498}, "southwest": {"lat": 51.48701191970849, "lng": -0.139085930291502}}}, "name": "Dr S Neogi - Pimlico Health @ the Marven", "place_id": "ChIJNejl1OMEdkgR_-ba5K7K9OI", "types": ["doctor", "health", "point_of_interest", "establishment"]}, "ChIJG4EIs2MddkgR_TXo0hgeVBw": {"geometry": {"location": {"lat": 51.4884936, "lng": -0.1368608}, "viewport": {"northeast": {"lat": 51.48980933029149, "lng": -0.135496069708498}, "southwest": {"lat": 51.48711136970849, "lng": -0.138194030291502}}}, "name": "ALFA Serviced Apartments", "place_id": "ChIJG4EIs2MddkgR_TXo0hgeVBw", "types": ["lodging", "point_of_interest", "establishment"], "rating": 5, "user_ratings_total": 2}, "ChIJ36T2ncAFdkgRIFI_UKHf854": {"geometry": {"location": {"lat": 51.4885026, "lng": -0.1371347}, "viewport": {"northeast": {"lat": 51.48979103029149, "lng": -0.135757069708498}, "southwest": {"lat": 51.48709306970849, "lng": -0.138455030291502}}}, "name": "Eaton Square School Nursery (Pimlico)", "place_id": "ChIJ36T2ncAFdkgRIFI_UKHf854", "types": ["school", "point_of_interest", "establishment"]}, "ChIJ45of3uMEdkgRWSbPmTPVPpg": {"geometry": {"location": {"lat": 51.4881811, "lng": -0.1371032}, "viewport": {"northeast": {"lat": 51.48958383029151, "lng": -0.136007419708498}, "southwest": {"lat": 51.48688586970851, "lng": -0.138705380291502}}}, "name": "FUTURE", "place_id": "ChIJ45of3uMEdkgRWSbPmTPVPpg", "types": ["point_of_interest", "establishment"]}, "ChIJrc_-gsQFdkgRbUHPpNuK5dg": {"geometry": {"location": {"lat": 51.48826039999999, "lng": -0.1373716}, "viewport": {"northeast": {"lat": 51.4896409302915, "lng": -0.136036519708498}, "southwest": {"lat": 51.4869429697085, "lng": -0.138734480291502}}}, "name": "Future Academies", "place_id": "ChIJrc_-gsQFdkgRbUHPpNuK5dg", "types": ["point_of_interest", "establishment"]}, "ChIJLdCw0OMEdkgRONKzMXKaVYw": {"geometry": {"location": {"lat": 51.48826520000001, "lng": -0.1373765}, "viewport": {"northeast": {"lat": 51.4896422802915, "lng": -0.1360449697084979}, "southwest": {"lat": 51.4869443197085, "lng": -0.138742930291502}}}, "name": "Pimlico Academy & Library (Stop L)", "place_id": "ChIJLdCw0OMEdkgRONKzMXKaVYw", "types": ["bus_station", "transit_station", "point_of_interest", "establishment"]}, "ChIJZ3ugYuEEdkgRmmsv7RqivKU": {"geometry": {"location": {"lat": 51.48866140000001, "lng": -0.1370618}, "viewport": {"northeast": {"lat": 51.49001038029151, "lng": -0.135712819708498}, "southwest": {"lat": 51.48731241970852, "lng": -0.138410780291502}}}, "name": "Swish Salon", "place_id": "ChIJZ3ugYuEEdkgRmmsv7RqivKU", "types": ["hair_care", "point_of_interest", "establishment"], "rating": 4, "user_ratings_total": 12}, "ChIJWyxfYuEEdkgRO6w1TTG528c": {"geometry": {"location": {"lat": 51.4887085, "lng": -0.1369901}, "viewport": {"northeast": {"lat": 51.4900574802915, "lng": -0.135641119708498}, "southwest": {"lat": 51.48735951970851, "lng": -0.138339080291502}}}, "name": "Royal Dry Cleaners", "place_id": "ChIJWyxfYuEEdkgRO6w1TTG528c", "types": ["laundry", "point_of_interest", "establishment"], "rating": 4.4, "user_ratings_total": 41}, "ChIJp1B04i8FdkgR-S3OnrzZb8M": {"geometry": {"location": {"lat": 51.4884413, "lng": -0.1375319}, "viewport": {"northeast": {"lat": 51.48979028029149, "lng": -0.136182919708498}, "southwest": {"lat": 51.48709231970849, "lng": -0.138880880291502}}}, "name": "\u0416\u04b1\u043b\u0434\u044b\u0437-\u0410\u0439", "place_id": "ChIJp1B04i8FdkgR-S3OnrzZb8M", "types": ["point_of_interest", "establishment"]}, "ChIJj1ErnB0FdkgRyqd3CJaEkI0": {"geometry": {"location": {"lat": 51.4884413, "lng": -0.1375319}, "viewport": {"northeast": {"lat": 51.48979028029149, "lng": -0.136182919708498}, "southwest": {"lat": 51.48709231970849, "lng": -0.138880880291502}}}, "name": "Juldyz-Ay, kazakh language lessons", "place_id": "ChIJj1ErnB0FdkgRyqd3CJaEkI0", "types": ["point_of_interest", "establishment"]}, "ChIJXaxcFWEFdkgRO4ldWU4QXaU": {"geometry": {"location": {"lat": 51.48871260000001, "lng": -0.136863}, "viewport": {"northeast": {"lat": 51.4901055302915, "lng": -0.135593969708498}, "southwest": {"lat": 51.4874075697085, "lng": -0.138291930291502}}}, "name": "La Maison du Chat", "place_id": "ChIJXaxcFWEFdkgRO4ldWU4QXaU", "types": ["cafe", "food", "point_of_interest", "store", "establishment"], "rating": 4.4, "user_ratings_total": 21}, "ChIJw5HZ0-MEdkgR3h_dTWGqkF8": {"geometry": {"location": {"lat": 51.4884267, "lng": -0.1375633}, "viewport": {"northeast": {"lat": 51.4897146302915, "lng": -0.136187269708498}, "southwest": {"lat": 51.4870166697085, "lng": -0.138885230291502}}}, "name": "Mercadillo", "place_id": "ChIJw5HZ0-MEdkgR3h_dTWGqkF8", "types": ["clothing_store", "point_of_interest", "store", "establishment"]}, "ChIJ6UiF0OMEdkgRdBo5hJIwY_U": {"geometry": {"location": {"lat": 51.4880378, "lng": -0.1375772}, "viewport": {"northeast": {"lat": 51.48950618029149, "lng": -0.1362758197084979}, "southwest": {"lat": 51.48680821970849, "lng": -0.138973780291502}}}, "name": "Pimlico Academy", "place_id": "ChIJ6UiF0OMEdkgRdBo5hJIwY_U", "types": ["school", "point_of_interest", "establishment"], "rating": 4.1, "user_ratings_total": 61}, "ChIJ72qafeEEdkgR4wpOV-HrC3M": {"geometry": {"location": {"lat": 51.48870650000001, "lng": -0.1373856}, "viewport": {"northeast": {"lat": 51.4900200302915, "lng": -0.135972169708498}, "southwest": {"lat": 51.4873220697085, "lng": -0.138670130291502}}}, "name": "Buck Farm Management Ltd", "place_id": "ChIJ72qafeEEdkgR4wpOV-HrC3M", "types": ["point_of_interest", "establishment"]}, "ChIJQQYOfeEEdkgRNCWzgzs8FGk": {"geometry": {"location": {"lat": 51.4887541, "lng": -0.1373018}, "viewport": {"northeast": {"lat": 51.4900701802915, "lng": -0.135892919708498}, "southwest": {"lat": 51.4873722197085, "lng": -0.1385908802915021}}}, "name": "Pimlico Cleaner", "place_id": "ChIJQQYOfeEEdkgRNCWzgzs8FGk", "types": ["point_of_interest", "establishment"]}, "ChIJQQYOfeEEdkgRyJDszwDGAsU": {"geometry": {"location": {"lat": 51.4887541, "lng": -0.1373018}, "viewport": {"northeast": {"lat": 51.4900701802915, "lng": -0.135892919708498}, "southwest": {"lat": 51.4873722197085, "lng": -0.1385908802915021}}}, "name": "Robin Court (Pimlico) Limited", "place_id": "ChIJQQYOfeEEdkgRyJDszwDGAsU", "types": ["point_of_interest", "establishment"]}, "ChIJd1_yGTMFdkgR8LAmsgFzSek": {"geometry": {"location": {"lat": 51.48878449999999, "lng": -0.1368059}, "viewport": {"northeast": {"lat": 51.49017053029151, "lng": -0.135524269708498}, "southwest": {"lat": 51.48747256970851, "lng": -0.138222230291502}}}, "name": "Beautiful Knitters", "place_id": "ChIJd1_yGTMFdkgR8LAmsgFzSek", "types": ["school", "point_of_interest", "store", "establishment"], "rating": 4.9, "user_ratings_total": 47}, "ChIJrZYqfeEEdkgRSAQdcuNF3no": {"geometry": {"location": {"lat": 51.48881120000001, "lng": -0.137169}, "viewport": {"northeast": {"lat": 51.4901352802915, "lng": -0.135774719708498}, "southwest": {"lat": 51.4874373197085, "lng": -0.138472680291502}}}, "name": "Rubbish Clearance Pimlico Ltd", "place_id": "ChIJrZYqfeEEdkgRSAQdcuNF3no", "types": ["point_of_interest", "establishment"]}, "ChIJAQAbfeEEdkgRfOeXEazy6yk": {"geometry": {"location": {"lat": 51.4887952, "lng": -0.1372561}, "viewport": {"northeast": {"lat": 51.4901093302915, "lng": -0.135843719708498}, "southwest": {"lat": 51.4874113697085, "lng": -0.138541680291502}}}, "name": "Carbara Limited", "place_id": "ChIJAQAbfeEEdkgRfOeXEazy6yk", "types": ["point_of_interest", "establishment"]}, "ChIJFzxt8R0FdkgRYQ7KS7_bTK8": {"geometry": {"location": {"lat": 51.4881138, "lng": -0.1375798}, "viewport": {"northeast": {"lat": 51.4895431802915, "lng": -0.1362676197084979}, "southwest": {"lat": 51.4868452197085, "lng": -0.138965580291502}}}, "name": "Ceroc Pimlico Victoria", "place_id": "ChIJFzxt8R0FdkgRYQ7KS7_bTK8", "types": ["point_of_interest", "establishment"], "rating": 4.8, "user_ratings_total": 12}, "ChIJrV6L1OMEdkgR6mGQZsqdghY": {"geometry": {"location": {"lat": 51.4883999, "lng": -0.1377324}, "viewport": {"northeast": {"lat": 51.4896867802915, "lng": -0.136355869708498}, "southwest": {"lat": 51.4869888197085, "lng": -0.139053830291502}}}, "name": "Poppy Design ltd", "place_id": "ChIJrV6L1OMEdkgR6mGQZsqdghY", "types": ["point_of_interest", "establishment"]}, "ChIJGwjYY-EEdkgRefMQETpDRhU": {"geometry": {"location": {"lat": 51.488845, "lng": -0.1367728}, "viewport": {"northeast": {"lat": 51.4902228802915, "lng": -0.135476369708498}, "southwest": {"lat": 51.4875249197085, "lng": -0.138174330291502}}}, "name": "Open Shut Windows", "place_id": "ChIJGwjYY-EEdkgRefMQETpDRhU", "types": ["general_contractor", "point_of_interest", "establishment"]}, "ChIJ_Q8ZLOIEdkgRGCCriENGXj4": {"geometry": {"location": {"lat": 51.4884496, "lng": -0.1377763}, "viewport": {"northeast": {"lat": 51.48970988029149, "lng": -0.136387969708498}, "southwest": {"lat": 51.48701191970849, "lng": -0.139085930291502}}}, "name": "Jerjian Dr J C", "place_id": "ChIJ_Q8ZLOIEdkgRGCCriENGXj4", "types": ["doctor", "health", "point_of_interest", "establishment"]}, "ChIJ82I3d-MEdkgRX15_-lEAaCI": {"geometry": {"location": {"lat": 51.48886400000001, "lng": -0.137231}, "viewport": {"northeast": {"lat": 51.49016693029151, "lng": -0.135798269708498}, "southwest": {"lat": 51.48746896970851, "lng": -0.138496230291502}}}, "name": "Not Just A Gallery", "place_id": "ChIJ82I3d-MEdkgRX15_-lEAaCI", "types": ["art_gallery", "point_of_interest", "establishment"]}, "ChIJ0Q6bwOMEdkgRqN_Ykj2CS7I": {"geometry": {"location": {"lat": 51.48736118591805, "lng": -0.1366699453754653}, "viewport": {"northeast": {"lat": 51.48871018029151, "lng": -0.1348092500000001}, "southwest": {"lat": 51.48601221970851, "lng": -0.1385306499999999}}}, "name": "2-46 Chichester St", "place_id": "ChIJ0Q6bwOMEdkgRqN_Ykj2CS7I", "types": ["route"]}, "ChIJ2SDiH10OdkgRMCilN79CRe8": {"geometry": {"location": {"lat": 51.48725090000001, "lng": -0.13666}, "viewport": {"northeast": {"lat": 51.4886465302915, "lng": -0.135396569708498}, "southwest": {"lat": 51.4859485697085, "lng": -0.138094530291502}}}, "name": "Dolphin House - Serviced Apartments", "place_id": "ChIJ2SDiH10OdkgRMCilN79CRe8", "types": ["lodging", "point_of_interest", "establishment"], "rating": 4.1, "user_ratings_total": 594}, "ChIJu4XTCuMEdkgR2rsZM6ZaHL0": {"geometry": {"location": {"lat": 51.4870426, "lng": -0.1365423}, "viewport": {"northeast": {"lat": 51.4885497802915, "lng": -0.135337719708498}, "southwest": {"lat": 51.4858518197085, "lng": -0.138035680291502}}}, "name": "DSQ GYM", "place_id": "ChIJu4XTCuMEdkgR2rsZM6ZaHL0", "types": ["gym", "health", "point_of_interest", "establishment"], "rating": 3.8, "user_ratings_total": 165}, "ChIJwxmcwOMEdkgR9cdk6TrsVRE": {"geometry": {"location": {"lat": 51.487354, "lng": -0.13667}, "viewport": {"northeast": {"lat": 51.4887366802915, "lng": -0.135336019708498}, "southwest": {"lat": 51.4860387197085, "lng": -0.138033980291502}}}, "name": "Tai Chi City", "place_id": "ChIJwxmcwOMEdkgR9cdk6TrsVRE", "types": ["school", "health", "point_of_interest", "establishment"], "rating": 4.9, "user_ratings_total": 16}, "ChIJNwmbwOMEdkgRvPQZyiZR_Js": {"geometry": {"location": {"lat": 51.487365, "lng": -0.13666}, "viewport": {"northeast": {"lat": 51.4887423302915, "lng": -0.135323619708498}, "southwest": {"lat": 51.4860443697085, "lng": -0.138021580291502}}}, "name": "Love Swimming", "place_id": "ChIJNwmbwOMEdkgRvPQZyiZR_Js", "types": ["point_of_interest", "establishment"], "rating": 3.7, "user_ratings_total": 3}, "ChIJ___b31wOdkgRQZYmmUNL0QU": {"geometry": {"location": {"lat": 51.4870894, "lng": -0.1374492}, "viewport": {"northeast": {"lat": 51.4885052302915, "lng": -0.135832469708498}, "southwest": {"lat": 51.4858072697085, "lng": -0.138530430291502}}}, "name": "Corporate Living - Dolphin Square", "place_id": "ChIJ___b31wOdkgRQZYmmUNL0QU", "types": ["lodging", "point_of_interest", "establishment"], "rating": 5, "user_ratings_total": 6}, "ChIJ12GxmuMEdkgRIciWi6PFS4I": {"geometry": {"location": {"lat": 51.4870916, "lng": -0.1365107}, "viewport": {"northeast": {"lat": 51.4885785302915, "lng": -0.135321919708498}, "southwest": {"lat": 51.4858805697085, "lng": -0.138019880291502}}}, "name": "The Entertainment Agents' Association", "place_id": "ChIJ12GxmuMEdkgRIciWi6PFS4I", "types": ["point_of_interest", "establishment"]}, "ChIJu4XTCuMEdkgRBTIuTdRWako": {"geometry": {"location": {"lat": 51.4870916, "lng": -0.1365107}, "viewport": {"northeast": {"lat": 51.4885785302915, "lng": -0.135321919708498}, "southwest": {"lat": 51.4858805697085, "lng": -0.138019880291502}}}, "name": "David Propert", "place_id": "ChIJu4XTCuMEdkgRBTIuTdRWako", "types": ["health", "point_of_interest", "establishment"], "rating": 5, "user_ratings_total": 8}, "ChIJS6eKLVEDdkgRlzdZKHdxA44": {"geometry": {"location": {"lat": 51.4870916, "lng": -0.1365107}, "viewport": {"northeast": {"lat": 51.4885785302915, "lng": -0.135321919708498}, "southwest": {"lat": 51.4858805697085, "lng": -0.138019880291502}}}, "name": "Good For The Sole", "place_id": "ChIJS6eKLVEDdkgRlzdZKHdxA44", "types": ["health", "point_of_interest", "establishment"], "rating": 5, "user_ratings_total": 2}, "ChIJPx6jsOMEdkgR8najCw5AuDI": {"geometry": {"location": {"lat": 51.4869372, "lng": -0.1371918}, "viewport": {"northeast": {"lat": 51.4880780802915, "lng": -0.135861219708498}, "southwest": {"lat": 51.4853801197085, "lng": -0.138559180291502}}}, "name": "Integria Consulting Ltd", "place_id": "ChIJPx6jsOMEdkgR8najCw5AuDI", "types": ["point_of_interest", "establishment"]}, "ChIJjepWleMEdkgRPlblQDvZC4Q": {"geometry": {"location": {"lat": 51.48731180000001, "lng": -0.1364031000000001}, "viewport": {"northeast": {"lat": 51.48863248029151, "lng": -0.135287369708498}, "southwest": {"lat": 51.48593451970851, "lng": -0.137985330291502}}}, "name": "Rodney House", "place_id": "ChIJjepWleMEdkgRPlblQDvZC4Q", "types": ["point_of_interest", "establishment"], "rating": 5, "user_ratings_total": 1}, "ChIJ-2l5JOIEdkgRkwZfjUVlJA4": {"geometry": {"location": {"lat": 51.4870916, "lng": -0.1365107}, "viewport": {"northeast": {"lat": 51.4885785302915, "lng": -0.135321919708498}, "southwest": {"lat": 51.4858805697085, "lng": -0.138019880291502}}}, "name": "Ghazaleh Rahimi Podiatry (Pimlico Podiatry)", "place_id": "ChIJ-2l5JOIEdkgRkwZfjUVlJA4", "types": ["doctor", "health", "point_of_interest", "establishment"], "rating": 5, "user_ratings_total": 32}, "ChIJcUaXl-MEdkgRDxvj5xGwTJU": {"geometry": {"location": {"lat": 51.4870989, "lng": -0.136454}, "viewport": {"northeast": {"lat": 51.48858698029149, "lng": -0.135293569708498}, "southwest": {"lat": 51.4858890197085, "lng": -0.137991530291502}}}, "name": "The Spa - In Dolphin Square", "place_id": "ChIJcUaXl-MEdkgRDxvj5xGwTJU", "types": ["beauty_salon", "hair_care", "spa", "point_of_interest", "establishment"], "rating": 4.5, "user_ratings_total": 375}, "ChIJUfpeleMEdkgRAenv5Yp5zQg": {"geometry": {"location": {"lat": 51.4870916, "lng": -0.1365107}, "viewport": {"northeast": {"lat": 51.4885785302915, "lng": -0.135321919708498}, "southwest": {"lat": 51.4858805697085, "lng": -0.138019880291502}}}, "name": "Dolphin Bar and Grill", "place_id": "ChIJUfpeleMEdkgRAenv5Yp5zQg", "types": ["restaurant", "cafe", "bar", "food", "point_of_interest", "store", "establishment"], "rating": 3.5, "user_ratings_total": 56}, "ChIJTc-IvuMEdkgRdniZOyQKTRQ": {"geometry": {"location": {"lat": 51.4869375, "lng": -0.1364365}, "viewport": {"northeast": {"lat": 51.48849703029151, "lng": -0.135211619708498}, "southwest": {"lat": 51.48579906970851, "lng": -0.137909580291502}}}, "name": "Dolphin Square", "place_id": "ChIJTc-IvuMEdkgRdniZOyQKTRQ", "types": ["real_estate_agency", "point_of_interest", "establishment"], "rating": 3.8, "user_ratings_total": 33}, "ChIJRz7hbhUFdkgR7qkGN15FY7s": {"geometry": {"location": {"lat": 51.4872804, "lng": -0.1366785}, "viewport": {"northeast": {"lat": 51.48866623029149, "lng": -0.135345869708498}, "southwest": {"lat": 51.48596826970849, "lng": -0.138043830291502}}}, "name": "You Live Life Well by Michelle Cohen", "place_id": "ChIJRz7hbhUFdkgR7qkGN15FY7s", "types": ["health", "point_of_interest", "establishment"], "rating": 5, "user_ratings_total": 7}, "ChIJKz5g7AYFdkgRmXmHMfjhwdc": {"geometry": {"location": {"lat": 51.48736, "lng": -0.13666}, "viewport": {"northeast": {"lat": 51.48874068029149, "lng": -0.135325119708498}, "southwest": {"lat": 51.4860427197085, "lng": -0.138023080291502}}}, "name": "Clapham Junction", "place_id": "ChIJKz5g7AYFdkgRmXmHMfjhwdc", "types": ["lodging", "point_of_interest", "establishment"]}, "ChIJo_TikPIFdkgRTJ_moPGy0Bo": {"geometry": {"location": {"lat": 51.4872755, "lng": -0.1366204}, "viewport": {"northeast": {"lat": 51.4886505802915, "lng": -0.135376769708498}, "southwest": {"lat": 51.4859526197085, "lng": -0.138074730291502}}}, "name": "Mieke Rainbird Chill, Acupuncturist", "place_id": "ChIJo_TikPIFdkgRTJ_moPGy0Bo", "types": ["health", "point_of_interest", "establishment"]}, "ChIJyRn33Y4FdkgRWwHXkEHS3Xo": {"geometry": {"location": {"lat": 51.4871254, "lng": -0.136602}, "viewport": {"northeast": {"lat": 51.48858933029149, "lng": -0.135367569708498}, "southwest": {"lat": 51.48589136970849, "lng": -0.138065530291502}}}, "name": "Serviced Rentals - Dolphin Square", "place_id": "ChIJyRn33Y4FdkgRWwHXkEHS3Xo", "types": ["real_estate_agency", "point_of_interest", "establishment"]}, "ChIJR4_oGHwFdkgR2LQ2x_xYMMU": {"geometry": {"location": {"lat": 51.4870256, "lng": -0.136727}, "viewport": {"northeast": {"lat": 51.4885258802915, "lng": -0.135445219708498}, "southwest": {"lat": 51.4858279197085, "lng": -0.138143180291502}}}, "name": "Jgfitness360", "place_id": "ChIJR4_oGHwFdkgR2LQ2x_xYMMU", "types": ["health", "point_of_interest", "establishment"], "rating": 5, "user_ratings_total": 4}, "ChIJKdfWveMEdkgR-JIcQ2BfQag": {"geometry": {"location": {"lat": 51.4870916, "lng": -0.1365107}, "viewport": {"northeast": {"lat": 51.4885785302915, "lng": -0.135321919708498}, "southwest": {"lat": 51.4858805697085, "lng": -0.138019880291502}}}, "name": "The Hungry Dolphin Caf\u00e9", "place_id": "ChIJKdfWveMEdkgR-JIcQ2BfQag", "types": ["cafe", "restaurant", "food", "point_of_interest", "store", "establishment"], "rating": 5, "user_ratings_total": 2}, "ChIJhVwH0VoFdkgRSdx4yOoIIrw": {"geometry": {"location": {"lat": 51.4870916, "lng": -0.1365107}, "viewport": {"northeast": {"lat": 51.4885785302915, "lng": -0.135321919708498}, "southwest": {"lat": 51.4858805697085, "lng": -0.138019880291502}}}, "name": "Any London Waste", "place_id": "ChIJhVwH0VoFdkgRSdx4yOoIIrw", "types": ["point_of_interest", "establishment"]}, "ChIJOzg2heMEdkgRxV74lyoC8B8": {"geometry": {"location": {"lat": 51.4870916, "lng": -0.1365107}, "viewport": {"northeast": {"lat": 51.4885785302915, "lng": -0.135321919708498}, "southwest": {"lat": 51.4858805697085, "lng": -0.138019880291502}}}, "name": "Colour Affects", "place_id": "ChIJOzg2heMEdkgRxV74lyoC8B8", "types": ["point_of_interest", "establishment"]}, "ChIJKdfWveMEdkgRae_RBg63Xo8": {"geometry": {"location": {"lat": 51.4870916, "lng": -0.1365107}, "viewport": {"northeast": {"lat": 51.4885785302915, "lng": -0.135321919708498}, "southwest": {"lat": 51.4858805697085, "lng": -0.138019880291502}}}, "name": "Dolphin News", "place_id": "ChIJKdfWveMEdkgRae_RBg63Xo8", "types": ["point_of_interest", "establishment"]}, "ChIJH_BO404FdkgRg-V3uxWjVXE": {"geometry": {"location": {"lat": 51.48696469999999, "lng": -0.1366936}, "viewport": {"northeast": {"lat": 51.4884959302915, "lng": -0.135425619708498}, "southwest": {"lat": 51.4857979697085, "lng": -0.138123580291502}}}, "name": "Dino Chavda Online Coaching", "place_id": "ChIJH_BO404FdkgRg-V3uxWjVXE", "types": ["health", "point_of_interest", "establishment"], "rating": 5, "user_ratings_total": 8}, "ChIJKdfWveMEdkgRTVSzN27YKCs": {"geometry": {"location": {"lat": 51.4869919, "lng": -0.1365441}, "viewport": {"northeast": {"lat": 51.48852248029149, "lng": -0.135338619708498}, "southwest": {"lat": 51.4858245197085, "lng": -0.138036580291502}}}, "name": "Dolphin International Travel", "place_id": "ChIJKdfWveMEdkgRTVSzN27YKCs", "types": ["travel_agency", "point_of_interest", "establishment"]}, "ChIJu4XTCuMEdkgRGPRp1fxjxvM": {"geometry": {"location": {"lat": 51.4872872, "lng": -0.1362381}, "viewport": {"northeast": {"lat": 51.48868158029149, "lng": -0.135185619708498}, "southwest": {"lat": 51.48598361970849, "lng": -0.137883580291502}}}, "name": "Dolphin Square Dry Cleaners", "place_id": "ChIJu4XTCuMEdkgRGPRp1fxjxvM", "types": ["laundry", "point_of_interest", "establishment"], "rating": 2.9, "user_ratings_total": 9}, "ChIJ32GxmuMEdkgRvSksVXAJiko": {"geometry": {"location": {"lat": 51.4870162, "lng": -0.1364477}, "viewport": {"northeast": {"lat": 51.48854318029149, "lng": -0.135290419708498}, "southwest": {"lat": 51.4858452197085, "lng": -0.137988380291502}}}, "name": "Calmer Clinics", "place_id": "ChIJ32GxmuMEdkgRvSksVXAJiko", "types": ["physiotherapist", "health", "point_of_interest", "establishment"], "rating": 4.5, "user_ratings_total": 8}, "ChIJM2xwoogFdkgRAwFdYJwbeLg": {"geometry": {"location": {"lat": 51.48725400000001, "lng": -0.1361915}, "viewport": {"northeast": {"lat": 51.4886841302915, "lng": -0.135162319708498}, "southwest": {"lat": 51.4859861697085, "lng": -0.137860280291502}}}, "name": "Dolphin Square Caf\u00e9", "place_id": "ChIJM2xwoogFdkgRAwFdYJwbeLg", "types": ["cafe", "food", "point_of_interest", "establishment"]}, "ChIJ418Z6-MEdkgRyGiQsSsFmjE": {"geometry": {"location": {"lat": 51.48744070000001, "lng": -0.1362084}, "viewport": {"northeast": {"lat": 51.4888200302915, "lng": -0.134872919708498}, "southwest": {"lat": 51.4861220697085, "lng": -0.1375708802915021}}}, "name": "SW Finance", "place_id": "ChIJ418Z6-MEdkgRyGiQsSsFmjE", "types": ["finance", "point_of_interest", "establishment"]}, "ChIJ418Z6-MEdkgRU5XIJOJbY3Y": {"geometry": {"location": {"lat": 51.48744070000001, "lng": -0.1362084}, "viewport": {"northeast": {"lat": 51.4888200302915, "lng": -0.134872919708498}, "southwest": {"lat": 51.4861220697085, "lng": -0.1375708802915021}}}, "name": "Luxury Timepiece", "place_id": "ChIJ418Z6-MEdkgRU5XIJOJbY3Y", "types": ["point_of_interest", "store", "establishment"]}, "ChIJy4i9BBAFdkgRyqjbvZbYCsk": {"geometry": {"location": {"lat": 51.48744070000001, "lng": -0.1362084}, "viewport": {"northeast": {"lat": 51.4888200302915, "lng": -0.134872919708498}, "southwest": {"lat": 51.4861220697085, "lng": -0.1375708802915021}}}, "name": "Kempo Jujitsu Self Defence (Pimlico)", "place_id": "ChIJy4i9BBAFdkgRyqjbvZbYCsk", "types": ["health", "point_of_interest", "establishment"]}, "ChIJob01vuMEdkgRUxeF_XZk4cg": {"geometry": {"location": {"lat": 51.48744070000001, "lng": -0.1362084}, "viewport": {"northeast": {"lat": 51.4888200302915, "lng": -0.134872919708498}, "southwest": {"lat": 51.4861220697085, "lng": -0.1375708802915021}}}, "name": "My French Physio", "place_id": "ChIJob01vuMEdkgRUxeF_XZk4cg", "types": ["physiotherapist", "health", "point_of_interest", "establishment"], "rating": 4.9, "user_ratings_total": 31}, "ChIJdU80sOMEdkgRJAdp6Se3RcI": {"geometry": {"location": {"lat": 51.4864956, "lng": -0.1372193}, "viewport": {"northeast": {"lat": 51.48760321928631, "lng": -0.1357570783875004}, "southwest": {"lat": 51.48490525870331, "lng": -0.1384550389705044}}}, "name": "Parking lot", "place_id": "ChIJdU80sOMEdkgRJAdp6Se3RcI", "types": ["parking", "premise", "point_of_interest", "establishment"]}, "ChIJFW1RquMEdkgRtC5SrRewfHk": {"geometry": {"location": {"lat": 51.48623985001227, "lng": -0.1376999998417768}, "viewport": {"northeast": {"lat": 51.48758883029151, "lng": -0.136351019708498}, "southwest": {"lat": 51.48489086970851, "lng": -0.139048980291502}}}, "name": "54-64 Claverton St", "place_id": "ChIJFW1RquMEdkgRtC5SrRewfHk", "types": ["route"]}, "ChIJ1UrZuskFdkgRa_xFmSGC7QY": {"geometry": {"location": {"lat": 51.48617400000001, "lng": -0.1373937}, "viewport": {"northeast": {"lat": 51.4875025302915, "lng": -0.136176519708498}, "southwest": {"lat": 51.4848045697085, "lng": -0.138874480291502}}}, "name": "Cleaners R Us Purley", "place_id": "ChIJ1UrZuskFdkgRa_xFmSGC7QY", "types": ["point_of_interest", "establishment"]}, "ChIJny3UqeMEdkgRnpWtxupT1_I": {"geometry": {"location": {"lat": 51.4860343, "lng": -0.1373522}, "viewport": {"northeast": {"lat": 51.48736368029149, "lng": -0.136128019708498}, "southwest": {"lat": 51.4846657197085, "lng": -0.138825980291502}}}, "name": "Digital Direct", "place_id": "ChIJny3UqeMEdkgRnpWtxupT1_I", "types": ["point_of_interest", "establishment"], "rating": 4, "user_ratings_total": 4}, "ChIJnXGHr-MEdkgRs0t1_Js2Hzk": {"geometry": {"location": {"lat": 51.4865458, "lng": -0.1369043}, "viewport": {"northeast": {"lat": 51.4878769802915, "lng": -0.135681319708498}, "southwest": {"lat": 51.4851790197085, "lng": -0.138379280291502}}}, "name": "Beatty House", "place_id": "ChIJnXGHr-MEdkgRs0t1_Js2Hzk", "types": ["lodging", "point_of_interest", "establishment"], "rating": 4, "user_ratings_total": 5}, "ChIJAfjbZe0FdkgRrSuSm7F9cnw": {"geometry": {"location": {"lat": 51.4860263, "lng": -0.1373949}, "viewport": {"northeast": {"lat": 51.4873590802915, "lng": -0.136149119708498}, "southwest": {"lat": 51.4846611197085, "lng": -0.138847080291502}}}, "name": "Happy removal Chelsea", "place_id": "ChIJAfjbZe0FdkgRrSuSm7F9cnw", "types": ["moving_company", "point_of_interest", "establishment"], "rating": 5, "user_ratings_total": 4}, "ChIJo6plYAYFdkgRvlHAM4KR6mU": {"geometry": {"location": {"lat": 51.4860263, "lng": -0.1373949}, "viewport": {"northeast": {"lat": 51.4873590802915, "lng": -0.136149119708498}, "southwest": {"lat": 51.4846611197085, "lng": -0.138847080291502}}}, "name": "Brilliant cleaner Chelsea", "place_id": "ChIJo6plYAYFdkgRvlHAM4KR6mU", "types": ["point_of_interest", "establishment"], "rating": 5, "user_ratings_total": 13}, "ChIJKX2RDwMFdkgRYK80zRUtusw": {"geometry": {"location": {"lat": 51.48642550000001, "lng": -0.1363367}, "viewport": {"northeast": {"lat": 51.4877127802915, "lng": -0.135352069708498}, "southwest": {"lat": 51.4850148197085, "lng": -0.138050030291502}}}, "name": "Ryan McMahon Fitness", "place_id": "ChIJKX2RDwMFdkgRYK80zRUtusw", "types": ["health", "point_of_interest", "establishment"], "rating": 5, "user_ratings_total": 22}, "ChIJMcDnC-MEdkgRqb_Ccax8yb4": {"geometry": {"location": {"lat": 51.4858157, "lng": -0.1367311}, "viewport": {"northeast": {"lat": 51.4871726302915, "lng": -0.135444069708498}, "southwest": {"lat": 51.4844746697085, "lng": -0.138142030291502}}}, "name": "Nelson House", "place_id": "ChIJMcDnC-MEdkgRqb_Ccax8yb4", "types": ["point_of_interest", "establishment"], "rating": 2.5, "user_ratings_total": 6}, "ChIJi-YpVeIEdkgReBVoluSFOuw": {"geometry": {"location": {"lat": 51.4862069, "lng": -0.1377964}, "viewport": {"northeast": {"lat": 51.48756583029149, "lng": -0.136396619708498}, "southwest": {"lat": 51.48486786970849, "lng": -0.139094580291502}}}, "name": "ubitricity Charging Station", "place_id": "ChIJi-YpVeIEdkgReBVoluSFOuw", "types": ["point_of_interest", "establishment"]}, "ChIJAQCCquMEdkgREKp7cR06wkQ": {"geometry": {"location": {"lat": 51.48602299999999, "lng": -0.137722}, "viewport": {"northeast": {"lat": 51.48738003029149, "lng": -0.136321869708498}, "southwest": {"lat": 51.48468206970849, "lng": -0.139019830291502}}}, "name": "Claverton St Churchill Gdns (Stop A)", "place_id": "ChIJAQCCquMEdkgREKp7cR06wkQ", "types": ["transit_station", "point_of_interest", "establishment"], "rating": 5, "user_ratings_total": 1}, "ChIJ4wDsBuMEdkgRx0TC8o79gr0": {"geometry": {"location": {"lat": 51.48579669999999, "lng": -0.1373988}, "viewport": {"northeast": {"lat": 51.48713663029149, "lng": -0.136107469708498}, "southwest": {"lat": 51.48443866970849, "lng": -0.138805430291502}}}, "name": "Yellow Door Impact Ltd", "place_id": "ChIJ4wDsBuMEdkgRx0TC8o79gr0", "types": ["point_of_interest", "establishment"]}, "ChIJcT5P1PIFdkgRvzw_RNkEr34": {"geometry": {"location": {"lat": 51.4858826, "lng": -0.1364269}, "viewport": {"northeast": {"lat": 51.4872002802915, "lng": -0.135292369708498}, "southwest": {"lat": 51.4845023197085, "lng": -0.137990330291502}}}, "name": "Hawkins house", "place_id": "ChIJcT5P1PIFdkgRvzw_RNkEr34", "types": ["point_of_interest", "establishment"]}, "ChIJiw7gmOMEdkgR9sMV-YBbZiI": {"geometry": {"location": {"lat": 51.486437, "lng": -0.1362361}, "viewport": {"northeast": {"lat": 51.4877159802915, "lng": -0.135300669708498}, "southwest": {"lat": 51.4850180197085, "lng": -0.137998630291502}}}, "name": "Dolphin Fountain", "place_id": "ChIJiw7gmOMEdkgR9sMV-YBbZiI", "types": ["point_of_interest", "store", "establishment"], "rating": 1, "user_ratings_total": 2}, "ChIJNZr_TMQFdkgRKy3kWQC1mP4": {"geometry": {"location": {"lat": 51.4867789, "lng": -0.137181}, "viewport": {"northeast": {"lat": 51.4879998802915, "lng": -0.135830969708498}, "southwest": {"lat": 51.4853019197085, "lng": -0.138528930291502}}}, "name": "Duncan House", "place_id": "ChIJNZr_TMQFdkgRKy3kWQC1mP4", "types": ["lodging", "point_of_interest", "establishment"], "rating": 3.5, "user_ratings_total": 2}, "ChIJoTZ0-6QFdkgREGemtL2_1_o": {"geometry": {"location": {"lat": 51.4855325, "lng": -0.1365319}, "viewport": {"northeast": {"lat": 51.4878164, "lng": -0.134730819708498}, "southwest": {"lat": 51.4847712, "lng": -0.137428780291502}}}, "name": "Keyes House", "place_id": "ChIJoTZ0-6QFdkgREGemtL2_1_o", "types": ["lodging", "point_of_interest", "establishment"], "rating": 4.8, "user_ratings_total": 4}, "ChIJFfPqJOIEdkgRq1mcsxUFMyU": {"geometry": {"location": {"lat": 51.48807819933889, "lng": -0.1388736386796531}, "viewport": {"northeast": {"lat": 51.4894292802915, "lng": -0.137525369708498}, "southwest": {"lat": 51.4867313197085, "lng": -0.140223330291502}}}, "name": "51-63 Lupus St", "place_id": "ChIJFfPqJOIEdkgRq1mcsxUFMyU", "types": ["route"]}, "ChIJjaSE9eEEdkgR-b2VthQEfJE": {"geometry": {"location": {"lat": 51.4885476, "lng": -0.1393448}, "viewport": {"northeast": {"lat": 51.48994883029149, "lng": -0.137933319708498}, "southwest": {"lat": 51.4872508697085, "lng": -0.140631280291502}}}, "name": "OYO St George Hotel", "place_id": "ChIJjaSE9eEEdkgR-b2VthQEfJE", "types": ["lodging", "point_of_interest", "establishment"], "rating": 3.5, "user_ratings_total": 361}, "ChIJHZmII-IEdkgR8XP7Az0Hvb0": {"geometry": {"location": {"lat": 51.48816089999999, "lng": -0.1392964}, "viewport": {"northeast": {"lat": 51.48944838029149, "lng": -0.137895769708498}, "southwest": {"lat": 51.48675041970849, "lng": -0.140593730291502}}}, "name": "Carpet Express", "place_id": "ChIJHZmII-IEdkgR8XP7Az0Hvb0", "types": ["furniture_store", "home_goods_store", "general_contractor", "point_of_interest", "store", "establishment"], "rating": 3.9, "user_ratings_total": 56}, "ChIJc6YDJuIEdkgRmG7anuL7vj4": {"geometry": {"location": {"lat": 51.4882961, "lng": -0.1388212}, "viewport": {"northeast": {"lat": 51.4896987302915, "lng": -0.137406719708498}, "southwest": {"lat": 51.4870007697085, "lng": -0.140104680291502}}}, "name": "A & M Campbell", "place_id": "ChIJc6YDJuIEdkgRmG7anuL7vj4", "types": ["painter", "general_contractor", "point_of_interest", "establishment"], "rating": 5, "user_ratings_total": 1}, "ChIJ7eXCJOIEdkgRrVC04XBx_t0": {"geometry": {"location": {"lat": 51.48817639999999, "lng": -0.1391098}, "viewport": {"northeast": {"lat": 51.4894645802915, "lng": -0.137740369708498}, "southwest": {"lat": 51.4867666197085, "lng": -0.140438330291502}}}, "name": "Sound Insulation London", "place_id": "ChIJ7eXCJOIEdkgRrVC04XBx_t0", "types": ["point_of_interest", "establishment"]}, "ChIJiSOqBKgEdkgRHll4v-3eFcc": {"geometry": {"location": {"lat": 51.4883299, "lng": -0.1384788}, "viewport": {"northeast": {"lat": 51.4897037302915, "lng": -0.1371967197084979}, "southwest": {"lat": 51.4870057697085, "lng": -0.139894680291502}}}, "name": "Emma Gibbons", "place_id": "ChIJiSOqBKgEdkgRHll4v-3eFcc", "types": ["health", "point_of_interest", "establishment"]}, "ChIJ-2l5JOIEdkgRiBQZAgqhFdw": {"geometry": {"location": {"lat": 51.4881818, "lng": -0.1389763}, "viewport": {"northeast": {"lat": 51.4894759802915, "lng": -0.137608069708498}, "southwest": {"lat": 51.4867780197085, "lng": -0.140306030291502}}}, "name": "HHbeautyclinic", "place_id": "ChIJ-2l5JOIEdkgRiBQZAgqhFdw", "types": ["point_of_interest", "store", "establishment"]}, "ChIJNTmkI-IEdkgRX7BEkWFNIEw": {"geometry": {"location": {"lat": 51.488134, "lng": -0.1390176}, "viewport": {"northeast": {"lat": 51.4894472302915, "lng": -0.137657169708498}, "southwest": {"lat": 51.4867492697085, "lng": -0.140355130291502}}}, "name": "Flowers by Patricia", "place_id": "ChIJNTmkI-IEdkgRX7BEkWFNIEw", "types": ["florist", "point_of_interest", "store", "establishment"], "rating": 4.6, "user_ratings_total": 9}, "ChIJdZMpI-IEdkgRXCR7iSql5n0": {"geometry": {"location": {"lat": 51.48816089999999, "lng": -0.1392964}, "viewport": {"northeast": {"lat": 51.4894448302915, "lng": -0.137925519708498}, "southwest": {"lat": 51.4867468697085, "lng": -0.140623480291502}}}, "name": "CXP Contracts", "place_id": "ChIJdZMpI-IEdkgRXCR7iSql5n0", "types": ["general_contractor", "point_of_interest", "establishment"]}, "ChIJNejl1OMEdkgRbf4Hdmr57dE": {"geometry": {"location": {"lat": 51.48832119999999, "lng": -0.1381471}, "viewport": {"northeast": {"lat": 51.48961893029149, "lng": -0.136723969708498}, "southwest": {"lat": 51.4869209697085, "lng": -0.139421930291502}}}, "name": "Pimlico Health @ The Marven", "place_id": "ChIJNejl1OMEdkgRbf4Hdmr57dE", "types": ["health", "point_of_interest", "establishment"], "rating": 2.6, "user_ratings_total": 68}, "ChIJU6g5K-IEdkgRkc0EKkhtOvM": {"geometry": {"location": {"lat": 51.48838300000001, "lng": -0.1379631}, "viewport": {"northeast": {"lat": 51.48965938029151, "lng": -0.136579769708498}, "southwest": {"lat": 51.48696141970851, "lng": -0.1392777302915021}}}, "name": "Gray Fulton Ltd", "place_id": "ChIJU6g5K-IEdkgRkc0EKkhtOvM", "types": ["point_of_interest", "establishment"]}, "ChIJiUVEI-IEdkgR-sHNmNFAeE8": {"geometry": {"location": {"lat": 51.48792129999999, "lng": -0.1390124}, "viewport": {"northeast": {"lat": 51.48933773029149, "lng": -0.137686119708498}, "southwest": {"lat": 51.48663976970849, "lng": -0.140384080291502}}}, "name": "Dye-namic Carpet & Rug Colour Restoration", "place_id": "ChIJiUVEI-IEdkgR-sHNmNFAeE8", "types": ["laundry", "point_of_interest", "establishment"], "rating": 5, "user_ratings_total": 5}, "ChIJZTVaK-IEdkgReCeJbcAczpY": {"geometry": {"location": {"lat": 51.4883469, "lng": -0.137951}, "viewport": {"northeast": {"lat": 51.4896458802915, "lng": -0.136549069708498}, "southwest": {"lat": 51.4869479197085, "lng": -0.139247030291502}}}, "name": "Paxall Pharmacy", "place_id": "ChIJZTVaK-IEdkgReCeJbcAczpY", "types": ["pharmacy", "health", "point_of_interest", "store", "establishment"], "rating": 3.6, "user_ratings_total": 15}, "ChIJk1dxOeIEdkgRUkp_KhFpH2A": {"geometry": {"location": {"lat": 51.4879301, "lng": -0.1391086}, "viewport": {"northeast": {"lat": 51.48926838029151, "lng": -0.137826769708498}, "southwest": {"lat": 51.48657041970851, "lng": -0.140524730291502}}}, "name": "Ranelagh International Ltd", "place_id": "ChIJk1dxOeIEdkgRUkp_KhFpH2A", "types": ["point_of_interest", "establishment"]}, "ChIJs-jAPOIEdkgR9VWTttjbDGo": {"geometry": {"location": {"lat": 51.4879237, "lng": -0.139094}, "viewport": {"northeast": {"lat": 51.48927268029149, "lng": -0.137745019708498}, "southwest": {"lat": 51.48657471970849, "lng": -0.140442980291502}}}, "name": "Andrew Reeves Estate Agents Pimlico", "place_id": "ChIJs-jAPOIEdkgR9VWTttjbDGo", "types": ["real_estate_agency", "point_of_interest", "establishment"], "rating": 4.5, "user_ratings_total": 10}, "ChIJW5qLLeIEdkgR0IrYY1NxEtw": {"geometry": {"location": {"lat": 51.48801, "lng": -0.138154}, "viewport": {"northeast": {"lat": 51.48944273029149, "lng": -0.136569719708498}, "southwest": {"lat": 51.4867447697085, "lng": -0.139267680291502}}}, "name": "Amazon Locker - Hayden", "place_id": "ChIJW5qLLeIEdkgR0IrYY1NxEtw", "types": ["point_of_interest", "establishment"], "rating": 4, "user_ratings_total": 1}, "ChIJVX7HJuAEdkgR5v5DsN1OO2o": {"geometry": {"location": {"lat": 51.48818060000001, "lng": -0.1391171}, "viewport": {"northeast": {"lat": 51.4894655302915, "lng": -0.137747619708498}, "southwest": {"lat": 51.4867675697085, "lng": -0.140445580291502}}}, "name": "Delicias Pimlico", "place_id": "ChIJVX7HJuAEdkgR5v5DsN1OO2o", "types": ["food", "point_of_interest", "store", "establishment"], "rating": 4.7, "user_ratings_total": 112}, "ChIJtdNyPFwFdkgRjUIS-rDlWvo": {"geometry": {"location": {"lat": 51.488288, "lng": -0.138721}, "viewport": {"northeast": {"lat": 51.4895468802915, "lng": -0.137340719708498}, "southwest": {"lat": 51.4868489197085, "lng": -0.140038680291502}}}, "name": "Central Health Physiotherapy @ Pimlico", "place_id": "ChIJtdNyPFwFdkgRjUIS-rDlWvo", "types": ["physiotherapist", "gym", "health", "point_of_interest", "establishment"], "rating": 5, "user_ratings_total": 1}, "ChIJ-2l5JOIEdkgRGUX-cInf6PA": {"geometry": {"location": {"lat": 51.48833800000001, "lng": -0.1389815}, "viewport": {"northeast": {"lat": 51.4897513802915, "lng": -0.137553919708498}, "southwest": {"lat": 51.48705341970851, "lng": -0.140251880291502}}}, "name": "Mayfair Aesthetics Laser & Skin Clinic - Pimlico", "place_id": "ChIJ-2l5JOIEdkgRGUX-cInf6PA", "types": ["beauty_salon", "hair_care", "health", "point_of_interest", "establishment"], "rating": 4.8, "user_ratings_total": 25}, "ChIJ-0wOfaoFdkgRmJINXfPz97w": {"geometry": {"location": {"lat": 51.488221, "lng": -0.1386882}, "viewport": {"northeast": {"lat": 51.48951398029149, "lng": -0.137319769708498}, "southwest": {"lat": 51.48681601970849, "lng": -0.140017730291502}}}, "name": "Brewhouse Pimlico", "place_id": "ChIJ-0wOfaoFdkgRmJINXfPz97w", "types": ["cafe", "food", "point_of_interest", "store", "establishment"], "rating": 4.3, "user_ratings_total": 35}, "ChIJQeiaKOIEdkgRFmtlXE6mRTQ": {"geometry": {"location": {"lat": 51.4885586, "lng": -0.1386866}, "viewport": {"northeast": {"lat": 51.4899123802915, "lng": -0.137263419708498}, "southwest": {"lat": 51.4872144197085, "lng": -0.139961380291502}}}, "name": "Thomas Cubitt Statue", "place_id": "ChIJQeiaKOIEdkgRFmtlXE6mRTQ", "types": ["point_of_interest", "establishment"], "rating": 4.1, "user_ratings_total": 7}, "ChIJx-EAI-IEdkgREl-cld7KbI4": {"geometry": {"location": {"lat": 51.4881883, "lng": -0.1388247}, "viewport": {"northeast": {"lat": 51.4894895802915, "lng": -0.137457569708498}, "southwest": {"lat": 51.48679161970851, "lng": -0.140155530291502}}}, "name": "Neate House", "place_id": "ChIJx-EAI-IEdkgREl-cld7KbI4", "types": ["point_of_interest", "establishment"], "rating": 5, "user_ratings_total": 1}, "ChIJ-2l5JOIEdkgR6sgypqRJbnc": {"geometry": {"location": {"lat": 51.48819899999999, "lng": -0.1388923}, "viewport": {"northeast": {"lat": 51.48949043029149, "lng": -0.137523119708498}, "southwest": {"lat": 51.48679246970849, "lng": -0.140221080291502}}}, "name": "Darren Rose Fertility Acupuncture", "place_id": "ChIJ-2l5JOIEdkgR6sgypqRJbnc", "types": ["health", "point_of_interest", "establishment"]}, "ChIJpVP80uMEdkgRDmii5ArNOME": {"geometry": {"location": {"lat": 51.4881514, "lng": -0.1389464}, "viewport": {"northeast": {"lat": 51.48946078029149, "lng": -0.137584219708498}, "southwest": {"lat": 51.4867628197085, "lng": -0.140282180291502}}}, "name": "Phone Box", "place_id": "ChIJpVP80uMEdkgRDmii5ArNOME", "types": ["point_of_interest", "establishment"]}, "ChIJIfgDVzMDdkgRi1qfqEjeZL0": {"geometry": {"location": {"lat": 51.4884249, "lng": -0.139171}, "viewport": {"northeast": {"lat": 51.4898391302915, "lng": -0.137743119708498}, "southwest": {"lat": 51.4871411697085, "lng": -0.140441080291502}}}, "name": "We Trade Forex", "place_id": "ChIJIfgDVzMDdkgRi1qfqEjeZL0", "types": ["finance", "point_of_interest", "establishment"]}, "ChIJv9K5tq8cdkgRHCnGH5OPWT8": {"geometry": {"location": {"lat": 51.48819, "lng": -0.139059}, "viewport": {"northeast": {"lat": 51.48947483029149, "lng": -0.137688419708498}, "southwest": {"lat": 51.48677686970849, "lng": -0.140386380291502}}}, "name": "Pain & Performance NOI Clinic", "place_id": "ChIJv9K5tq8cdkgRHCnGH5OPWT8", "types": ["health", "point_of_interest", "establishment"], "rating": 5, "user_ratings_total": 1}, "ChIJm6SYKeIEdkgRKktR_IXzuGc": {"geometry": {"location": {"lat": 51.48850940000001, "lng": -0.1383516}, "viewport": {"northeast": {"lat": 51.4898635302915, "lng": -0.137092119708498}, "southwest": {"lat": 51.4871655697085, "lng": -0.1397900802915021}}}, "name": "Resource Guru", "place_id": "ChIJm6SYKeIEdkgRKktR_IXzuGc", "types": ["point_of_interest", "establishment"]}, "ChIJaZOulU4FdkgRxPxfpud8TzA": {"geometry": {"location": {"lat": 51.4881879, "lng": -0.1390784}, "viewport": {"northeast": {"lat": 51.48947253029151, "lng": -0.137707769708498}, "southwest": {"lat": 51.48677456970851, "lng": -0.140405730291502}}}, "name": "Sky Bespoke Glass", "place_id": "ChIJaZOulU4FdkgRxPxfpud8TzA", "types": ["point_of_interest", "establishment"]}, "ChIJOcNcI-IEdkgRshW23Dh2D-Q": {"geometry": {"location": {"lat": 51.4881879, "lng": -0.1390784}, "viewport": {"northeast": {"lat": 51.48947253029151, "lng": -0.137707769708498}, "southwest": {"lat": 51.48677456970851, "lng": -0.140405730291502}}}, "name": "Glass Express", "place_id": "ChIJOcNcI-IEdkgRshW23Dh2D-Q", "types": ["transit_station", "point_of_interest", "establishment"]}, "ChIJQxRVlMEFdkgRuyHmxcSkdeQ": {"geometry": {"location": {"lat": 51.48817639999999, "lng": -0.1391098}, "viewport": {"northeast": {"lat": 51.4894645802915, "lng": -0.137740369708498}, "southwest": {"lat": 51.4867666197085, "lng": -0.140438330291502}}}, "name": "Stevie Purcell Yoga", "place_id": "ChIJQxRVlMEFdkgRuyHmxcSkdeQ", "types": ["gym", "health", "point_of_interest", "establishment"], "rating": 5, "user_ratings_total": 1}, "ChIJK-KJWD0FdkgRwePH9OFQy78": {"geometry": {"location": {"lat": 51.48818060000001, "lng": -0.1391171}, "viewport": {"northeast": {"lat": 51.4894655302915, "lng": -0.137747619708498}, "southwest": {"lat": 51.4867675697085, "lng": -0.140445580291502}}}, "name": "Delicias Pimlico", "place_id": "ChIJK-KJWD0FdkgRwePH9OFQy78", "types": ["grocery_or_supermarket", "food", "point_of_interest", "store", "establishment"], "rating": 5, "user_ratings_total": 3}, "ChIJ4-apI-IEdkgRWt6xVX5LuzU": {"geometry": {"location": {"lat": 51.48815749999999, "lng": -0.1391507}, "viewport": {"northeast": {"lat": 51.4894515302915, "lng": -0.137784119708498}, "southwest": {"lat": 51.4867535697085, "lng": -0.1404820802915021}}}, "name": "Ace Carpet Cleaners Ltd", "place_id": "ChIJ4-apI-IEdkgRWt6xVX5LuzU", "types": ["laundry", "point_of_interest", "establishment"]}, "ChIJdyOTLuIEdkgRHL1WodPn08U": {"geometry": {"location": {"lat": 51.4882982, "lng": -0.1381455}, "viewport": {"northeast": {"lat": 51.4895982302915, "lng": -0.136773319708498}, "southwest": {"lat": 51.4869002697085, "lng": -0.139471280291502}}}, "name": "Marven Medical Practice", "place_id": "ChIJdyOTLuIEdkgRHL1WodPn08U", "types": ["doctor", "health", "point_of_interest", "establishment"], "rating": 3, "user_ratings_total": 23}, "ChIJCfvHDQEFdkgR85tyhshYdsQ": {"geometry": {"location": {"lat": 51.4880236, "lng": -0.1385846}, "viewport": {"northeast": {"lat": 51.4894175302915, "lng": -0.137251219708498}, "southwest": {"lat": 51.4867195697085, "lng": -0.139949180291502}}}, "name": "Community English Classes", "place_id": "ChIJCfvHDQEFdkgR85tyhshYdsQ", "types": ["school", "point_of_interest", "establishment"]}, "ChIJAU4BMOIEdkgRuFsJyJWA8g8": {"geometry": {"location": {"lat": 51.487973, "lng": -0.1386067}, "viewport": {"northeast": {"lat": 51.48932198029149, "lng": -0.137257719708498}, "southwest": {"lat": 51.4866240197085, "lng": -0.139955680291502}}}, "name": "EPE SCAFFOLDING", "place_id": "ChIJAU4BMOIEdkgRuFsJyJWA8g8", "types": ["health", "point_of_interest", "establishment"]}, "ChIJA919zqsFdkgRvawtjLfNWkA": {"geometry": {"location": {"lat": 51.4886262, "lng": -0.1393943}, "viewport": {"northeast": {"lat": 51.49000953029149, "lng": -0.138004219708498}, "southwest": {"lat": 51.4873115697085, "lng": -0.140702180291502}}}, "name": "Childminder for early year", "place_id": "ChIJA919zqsFdkgRvawtjLfNWkA", "types": ["point_of_interest", "establishment"]}, "ChIJ6754K-IEdkgR_fRGJztLODg": {"geometry": {"location": {"lat": 51.488301, "lng": -0.1379846}, "viewport": {"northeast": {"lat": 51.4896133302915, "lng": -0.1366182697084979}, "southwest": {"lat": 51.48691536970851, "lng": -0.139316230291502}}}, "name": "Pimlico Academy & Library (Stop D)", "place_id": "ChIJ6754K-IEdkgR_fRGJztLODg", "types": ["transit_station", "point_of_interest", "establishment"]}, "ChIJ51gyNOIEdkgRSNoepD4K_vM": {"geometry": {"location": {"lat": 51.48743500000783, "lng": -0.138178599898291}, "viewport": {"northeast": {"lat": 51.4887839802915, "lng": -0.136829619708498}, "southwest": {"lat": 51.4860860197085, "lng": -0.139527580291502}}}, "name": "4 Claverton St", "place_id": "ChIJ51gyNOIEdkgRSNoepD4K_vM", "types": ["route"]}, "ChIJJdNab-IEdkgRhavMu665IrE": {"geometry": {"location": {"lat": 51.4870506, "lng": -0.1388449}, "viewport": {"northeast": {"lat": 51.4884430802915, "lng": -0.137513719708498}, "southwest": {"lat": 51.4857451197085, "lng": -0.140211680291502}}}, "name": "McCarrick Carpentry and Construction ltd", "place_id": "ChIJJdNab-IEdkgRhavMu665IrE", "types": ["general_contractor", "point_of_interest", "establishment"]}, "ChIJ4WYlOeIEdkgRZ9VMutRsjkg": {"geometry": {"location": {"lat": 51.4875345, "lng": -0.1389441}, "viewport": {"northeast": {"lat": 51.4888726302915, "lng": -0.137663119708498}, "southwest": {"lat": 51.4861746697085, "lng": -0.140361080291502}}}, "name": "Hinton and Seymour Limited", "place_id": "ChIJ4WYlOeIEdkgRZ9VMutRsjkg", "types": ["point_of_interest", "establishment"]}, "ChIJnR77V8oFdkgRh4X5Mo5KIoA": {"geometry": {"location": {"lat": 51.4874513, "lng": -0.1388149}, "viewport": {"northeast": {"lat": 51.48878098029151, "lng": -0.137577919708498}, "southwest": {"lat": 51.48608301970851, "lng": -0.140275880291502}}}, "name": "Douglas Macmillan (1884-1969) Blue Plaque", "place_id": "ChIJnR77V8oFdkgRh4X5Mo5KIoA", "types": ["point_of_interest", "establishment"], "rating": 5, "user_ratings_total": 1}, "ChIJYeI1OeIEdkgRlSYvixPZLkY": {"geometry": {"location": {"lat": 51.4875781, "lng": -0.1389694}, "viewport": {"northeast": {"lat": 51.4889167802915, "lng": -0.137684969708498}, "southwest": {"lat": 51.4862188197085, "lng": -0.140382930291502}}}, "name": "Lyndsey Roome - Permanent Make Up", "place_id": "ChIJYeI1OeIEdkgRlSYvixPZLkY", "types": ["point_of_interest", "establishment"], "rating": 5, "user_ratings_total": 4}, "ChIJEWckIJEFdkgRhwszlvWDNqE": {"geometry": {"location": {"lat": 51.487499, "lng": -0.1392434}, "viewport": {"northeast": {"lat": 51.48886043029149, "lng": -0.137815019708498}, "southwest": {"lat": 51.4861624697085, "lng": -0.140512980291502}}}, "name": "Prime Tutors", "place_id": "ChIJEWckIJEFdkgRhwszlvWDNqE", "types": ["point_of_interest", "establishment"]}, "ChIJy5vRNuIEdkgRhJE84FmiU48": {"geometry": {"location": {"lat": 51.48764, "lng": -0.138405}, "viewport": {"northeast": {"lat": 51.48899948029149, "lng": -0.136987719708498}, "southwest": {"lat": 51.4863015197085, "lng": -0.139685680291502}}}, "name": "Pimlico Academy & Library (Stop B)", "place_id": "ChIJy5vRNuIEdkgRhJE84FmiU48", "types": ["transit_station", "point_of_interest", "establishment"], "rating": 3.3, "user_ratings_total": 4}, "ChIJL41EVIoFdkgRRlIweK5ouEw": {"geometry": {"location": {"lat": 51.4870264, "lng": -0.138307}, "viewport": {"northeast": {"lat": 51.4884703302915, "lng": -0.137004119708498}, "southwest": {"lat": 51.4857723697085, "lng": -0.139702080291502}}}, "name": "Private Investigator Churchill Gardens", "place_id": "ChIJL41EVIoFdkgRRlIweK5ouEw", "types": ["point_of_interest", "establishment"], "rating": 5, "user_ratings_total": 1}, "ChIJEcZUMeIEdkgRopHEkOT7xVc": {"geometry": {"location": {"lat": 51.48766699999999, "lng": -0.138274}, "viewport": {"northeast": {"lat": 51.4890089302915, "lng": -0.136971019708498}, "southwest": {"lat": 51.48631096970851, "lng": -0.139668980291502}}}, "name": "Pimlico - Thames Private Apartment", "place_id": "ChIJEcZUMeIEdkgRopHEkOT7xVc", "types": ["lodging", "point_of_interest", "establishment"]}, "ChIJfcL_MOIEdkgRGzsFCV5ieVg": {"geometry": {"location": {"lat": 51.48761289999999, "lng": -0.1381367}, "viewport": {"northeast": {"lat": 51.48895528029149, "lng": -0.136843669708498}, "southwest": {"lat": 51.48625731970849, "lng": -0.139541630291502}}}, "name": "ubitricity Charging Station", "place_id": "ChIJfcL_MOIEdkgRGzsFCV5ieVg", "types": ["point_of_interest", "establishment"]}, "ChIJhy6ksuMEdkgRBgj67IhROEk": {"geometry": {"location": {"lat": 51.4870082, "lng": -0.1381167}, "viewport": {"northeast": {"lat": 51.48836068029149, "lng": -0.136715619708498}, "southwest": {"lat": 51.48566271970849, "lng": -0.139413580291502}}}, "name": "ubitricity Charging Station", "place_id": "ChIJhy6ksuMEdkgRBgj67IhROEk", "types": ["point_of_interest", "establishment"]}, "ChIJ-39tVOIEdkgR_Eb4CchnNAY": {"geometry": {"location": {"lat": 51.48624911290372, "lng": -0.1385036301615909}, "viewport": {"northeast": {"lat": 51.48759803029149, "lng": -0.137154619708498}, "southwest": {"lat": 51.4849000697085, "lng": -0.139852580291502}}}, "name": "Churchill Gardens Road", "place_id": "ChIJ-39tVOIEdkgR_Eb4CchnNAY", "types": ["route"]}, "ChIJ__8bXOIEdkgRDTEUn01R10Y": {"geometry": {"location": {"lat": 51.4863703, "lng": -0.1390549}, "viewport": {"northeast": {"lat": 51.4876964802915, "lng": -0.137849019708498}, "southwest": {"lat": 51.4849985197085, "lng": -0.140546980291502}}}, "name": "Westminster Apartment", "place_id": "ChIJ__8bXOIEdkgRDTEUn01R10Y", "types": ["lodging", "point_of_interest", "establishment"]}, "ChIJhSkaWeIEdkgRVrKB-gO1948": {"geometry": {"location": {"lat": 51.486218, "lng": -0.13887}, "viewport": {"northeast": {"lat": 51.4875676302915, "lng": -0.137521369708498}, "southwest": {"lat": 51.4848696697085, "lng": -0.140219330291502}}}, "name": "ubitricity Charging Station", "place_id": "ChIJhSkaWeIEdkgRVrKB-gO1948", "types": ["point_of_interest", "establishment"]}, "ChIJu1eZQuIEdkgRe17z7OIG0yc": {"geometry": {"location": {"lat": 51.48628369999999, "lng": -0.1385842}, "viewport": {"northeast": {"lat": 51.4876169802915, "lng": -0.137229469708498}, "southwest": {"lat": 51.4849190197085, "lng": -0.139927430291502}}}, "name": "Bright 3 Bed in Central London", "place_id": "ChIJu1eZQuIEdkgRe17z7OIG0yc", "types": ["lodging", "point_of_interest", "establishment"], "rating": 3.6, "user_ratings_total": 5}, "ChIJiyj7CpcFdkgR7ObRBmUGj2I": {"geometry": {"location": {"lat": 51.4864262, "lng": -0.1385412}, "viewport": {"northeast": {"lat": 51.48769063029149, "lng": -0.137151919708498}, "southwest": {"lat": 51.4849926697085, "lng": -0.139849880291502}}}, "name": "Moyle House", "place_id": "ChIJiyj7CpcFdkgR7ObRBmUGj2I", "types": ["point_of_interest", "establishment"]}, "ChIJjVE_suoFdkgRd9_6_NWsW_Y": {"geometry": {"location": {"lat": 51.4859464, "lng": -0.1389706}, "viewport": {"northeast": {"lat": 51.4873115802915, "lng": -0.137516119708498}, "southwest": {"lat": 51.4846136197085, "lng": -0.140214080291502}}}, "name": "Pimlico. Temp", "place_id": "ChIJjVE_suoFdkgRd9_6_NWsW_Y", "types": ["lodging", "point_of_interest", "establishment"]}, "ChIJ2TNLlBkFdkgRq4WjwHdhMV4": {"geometry": {"location": {"lat": 51.4859412, "lng": -0.1389883}, "viewport": {"northeast": {"lat": 51.4873078302915, "lng": -0.1375245197084979}, "southwest": {"lat": 51.4846098697085, "lng": -0.140222480291502}}}, "name": "Pest control London", "place_id": "ChIJ2TNLlBkFdkgRq4WjwHdhMV4", "types": ["home_goods_store", "point_of_interest", "store", "establishment"]}, "ChIJKwzg9eIEdkgRmYTc6AjHu1U": {"geometry": {"location": {"lat": 51.4859412, "lng": -0.1389883}, "viewport": {"northeast": {"lat": 51.4873078302915, "lng": -0.1375245197084979}, "southwest": {"lat": 51.4846098697085, "lng": -0.140222480291502}}}, "name": "Kulta Helmi", "place_id": "ChIJKwzg9eIEdkgRmYTc6AjHu1U", "types": ["point_of_interest", "establishment"]}, "ChIJKwzg9eIEdkgROz-Xx3uHCjM": {"geometry": {"location": {"lat": 51.4859412, "lng": -0.1389883}, "viewport": {"northeast": {"lat": 51.4873078302915, "lng": -0.1375245197084979}, "southwest": {"lat": 51.4846098697085, "lng": -0.140222480291502}}}, "name": "Ness Dieudonnee", "place_id": "ChIJKwzg9eIEdkgROz-Xx3uHCjM", "types": ["physiotherapist", "health", "point_of_interest", "establishment"]}, "ChIJKwzg9eIEdkgRJlC42PaMCwU": {"geometry": {"location": {"lat": 51.4859412, "lng": -0.1389883}, "viewport": {"northeast": {"lat": 51.4873078302915, "lng": -0.1375245197084979}, "southwest": {"lat": 51.4846098697085, "lng": -0.140222480291502}}}, "name": "U K Damp-Proofing & Timber", "place_id": "ChIJKwzg9eIEdkgRJlC42PaMCwU", "types": ["general_contractor", "point_of_interest", "establishment"]}, "ChIJHz3gJOsFdkgRhMhhJ4ISVXA": {"geometry": {"location": {"lat": 51.486495, "lng": -0.1382301}, "viewport": {"northeast": {"lat": 51.4878753802915, "lng": -0.136679869708498}, "southwest": {"lat": 51.4851774197085, "lng": -0.139377830291502}}}, "name": "Lowther House", "place_id": "ChIJHz3gJOsFdkgRhMhhJ4ISVXA", "types": ["point_of_interest", "establishment"]}, "ChIJyXj8X-IEdkgRK7Y2NwMaJX8": {"geometry": {"location": {"lat": 51.4860327, "lng": -0.1393261}, "viewport": {"northeast": {"lat": 51.4874255802915, "lng": -0.137986869708498}, "southwest": {"lat": 51.4847276197085, "lng": -0.140684830291502}}}, "name": "Churchill Gardens Youth Club", "place_id": "ChIJyXj8X-IEdkgRK7Y2NwMaJX8", "types": ["point_of_interest", "establishment"], "rating": 4.5, "user_ratings_total": 2}, "ChIJVz-YqdAFdkgRm5ng1uBnEkg": {"geometry": {"location": {"lat": 51.4858074, "lng": -0.1387174}, "viewport": {"northeast": {"lat": 51.4871525302915, "lng": -0.137393319708498}, "southwest": {"lat": 51.4844545697085, "lng": -0.140091280291502}}}, "name": "loud and clear speech", "place_id": "ChIJVz-YqdAFdkgRm5ng1uBnEkg", "types": ["school", "point_of_interest", "establishment"]}, "ChIJq-iru1AFdkgRTZcSNN7I2lI": {"geometry": {"location": {"lat": 51.4861246, "lng": -0.1380536}, "viewport": {"northeast": {"lat": 51.4875667302915, "lng": -0.136741619708498}, "southwest": {"lat": 51.4848687697085, "lng": -0.139439580291502}}}, "name": "Alexandra Tosto Design", "place_id": "ChIJq-iru1AFdkgRTZcSNN7I2lI", "types": ["jewelry_store", "point_of_interest", "store", "establishment"]}, "ChIJ-wRGVeIEdkgRgw7oEIr44q4": {"geometry": {"location": {"lat": 51.4861246, "lng": -0.1380536}, "viewport": {"northeast": {"lat": 51.4875667302915, "lng": -0.136741619708498}, "southwest": {"lat": 51.4848687697085, "lng": -0.139439580291502}}}, "name": "Stead's Clearances", "place_id": "ChIJ-wRGVeIEdkgRgw7oEIr44q4", "types": ["point_of_interest", "establishment"]}, "ChIJSXt5i-IEdkgRkzTODN4kzjs": {"geometry": {"location": {"lat": 51.485754, "lng": -0.1395109}, "viewport": {"northeast": {"lat": 51.48706759818107, "lng": -0.1381629069736988}, "southwest": {"lat": 51.48436963759807, "lng": -0.1408608675567028}}}, "name": "Parking lot", "place_id": "ChIJSXt5i-IEdkgRkzTODN4kzjs", "types": ["parking", "premise", "point_of_interest", "establishment"]}, "ChIJwVSiD-IEdkgRbCDy5o3urko": {"geometry": {"location": {"lat": 51.48790415012821, "lng": -0.1402562500824549}, "viewport": {"northeast": {"lat": 51.4892531302915, "lng": -0.138907269708498}, "southwest": {"lat": 51.4865551697085, "lng": -0.141605230291502}}}, "name": "79-85 Lupus St", "place_id": "ChIJwVSiD-IEdkgRbCDy5o3urko", "types": ["route"]}, "ChIJY7ZKex4FdkgRzrILzDQtyZQ": {"geometry": {"location": {"lat": 51.4880575, "lng": -0.1403691}, "viewport": {"northeast": {"lat": 51.48937128029151, "lng": -0.139076169708498}, "southwest": {"lat": 51.48667331970851, "lng": -0.141774130291502}}}, "name": "Vanbrugh Public Relations LLP", "place_id": "ChIJY7ZKex4FdkgRzrILzDQtyZQ", "types": ["point_of_interest", "establishment"]}, "ChIJs5WCHOIEdkgRm-KugGe-FpM": {"geometry": {"location": {"lat": 51.4882857, "lng": -0.1400281}, "viewport": {"northeast": {"lat": 51.48966448029149, "lng": -0.138642619708498}, "southwest": {"lat": 51.4869665197085, "lng": -0.141340580291502}}}, "name": "Ruth Finch", "place_id": "ChIJs5WCHOIEdkgRm-KugGe-FpM", "types": ["lawyer", "finance", "point_of_interest", "establishment"]}, "ChIJf6mcBeIEdkgRPnQSWkHzUUM": {"geometry": {"location": {"lat": 51.4880326, "lng": -0.140302}, "viewport": {"northeast": {"lat": 51.48931708029149, "lng": -0.138932269708498}, "southwest": {"lat": 51.48661911970849, "lng": -0.141630230291502}}}, "name": "WS Studios Hair Professionals", "place_id": "ChIJf6mcBeIEdkgRPnQSWkHzUUM", "types": ["beauty_salon", "hair_care", "point_of_interest", "establishment"], "rating": 4.6, "user_ratings_total": 163}, "ChIJy4NtAeIEdkgRw56ScUsosCY": {"geometry": {"location": {"lat": 51.4884399, "lng": -0.1405451}, "viewport": {"northeast": {"lat": 51.4897945802915, "lng": -0.139210069708498}, "southwest": {"lat": 51.4870966197085, "lng": -0.141908030291502}}}, "name": "Zipcar", "place_id": "ChIJy4NtAeIEdkgRw56ScUsosCY", "types": ["car_rental", "point_of_interest", "establishment"], "rating": 4, "user_ratings_total": 2}, "ChIJd0-SA-IEdkgRnbDWFAbikps": {"geometry": {"location": {"lat": 51.4883675, "lng": -0.1403582}, "viewport": {"northeast": {"lat": 51.4897717302915, "lng": -0.138947569708498}, "southwest": {"lat": 51.4870737697085, "lng": -0.141645530291502}}}, "name": "Embev Ltd", "place_id": "ChIJd0-SA-IEdkgRnbDWFAbikps", "types": ["point_of_interest", "establishment"]}, "ChIJDcvIHOIEdkgRRfxykuiBHPg": {"geometry": {"location": {"lat": 51.48844109999999, "lng": -0.1400683}, "viewport": {"northeast": {"lat": 51.4897757802915, "lng": -0.138733269708498}, "southwest": {"lat": 51.4870778197085, "lng": -0.141431230291502}}}, "name": "ubitricity Charging Station", "place_id": "ChIJDcvIHOIEdkgRRfxykuiBHPg", "types": ["point_of_interest", "establishment"]}, "ChIJVVVpBeIEdkgRR5DYB4xUvgI": {"geometry": {"location": {"lat": 51.48806689999999, "lng": -0.1401697}, "viewport": {"northeast": {"lat": 51.48934283029149, "lng": -0.138797219708498}, "southwest": {"lat": 51.48664486970849, "lng": -0.141495180291502}}}, "name": "C G L Change Grow Live", "place_id": "ChIJVVVpBeIEdkgRR5DYB4xUvgI", "types": ["health", "point_of_interest", "establishment"]}, "ChIJn912COIEdkgRFcRDqZVEvgI": {"geometry": {"location": {"lat": 51.48802779999999, "lng": -0.1402965}, "viewport": {"northeast": {"lat": 51.48931493029149, "lng": -0.138927619708498}, "southwest": {"lat": 51.4866169697085, "lng": -0.141625580291502}}}, "name": "Manuela's Cake", "place_id": "ChIJn912COIEdkgRFcRDqZVEvgI", "types": ["bakery", "food", "point_of_interest", "store", "establishment"], "rating": 5, "user_ratings_total": 6}, "ChIJW3eg6xoFdkgRqBAdDuXYz5I": {"geometry": {"location": {"lat": 51.4879258, "lng": -0.1400826}, "viewport": {"northeast": {"lat": 51.4892747802915, "lng": -0.138733619708498}, "southwest": {"lat": 51.4865768197085, "lng": -0.141431580291502}}}, "name": "urlifeurbusiness.com", "place_id": "ChIJW3eg6xoFdkgRqBAdDuXYz5I", "types": ["health", "point_of_interest", "establishment"]}, "ChIJvafECOIEdkgRFVZ0MCmqBD4": {"geometry": {"location": {"lat": 51.48786980004355, "lng": -0.1405311000281882}, "viewport": {"northeast": {"lat": 51.4892187802915, "lng": -0.139182119708498}, "southwest": {"lat": 51.4865208197085, "lng": -0.141880080291502}}}, "name": "85-89 Lupus St", "place_id": "ChIJvafECOIEdkgRFVZ0MCmqBD4", "types": ["route"]}, "ChIJ0w9CaIcFdkgRimoNNCD0j1M": {"geometry": {"location": {"lat": 51.4877824, "lng": -0.1404431}, "viewport": {"northeast": {"lat": 51.4891799302915, "lng": -0.139090119708498}, "southwest": {"lat": 51.4864819697085, "lng": -0.141788080291502}}}, "name": "Alhayat Grocery", "place_id": "ChIJ0w9CaIcFdkgRimoNNCD0j1M", "types": ["grocery_or_supermarket", "supermarket", "food", "point_of_interest", "store", "establishment"], "rating": 4.1, "user_ratings_total": 40}, "ChIJU_v8KAIFdkgRYtqhd9BUZvs": {"geometry": {"location": {"lat": 51.487795, "lng": -0.140247}, "viewport": {"northeast": {"lat": 51.48919328029149, "lng": -0.138986619708498}, "southwest": {"lat": 51.48649531970849, "lng": -0.141684580291502}}}, "name": "pStruble Mdoor Fkoiasghasf", "place_id": "ChIJU_v8KAIFdkgRYtqhd9BUZvs", "types": ["point_of_interest", "establishment"], "rating": 5, "user_ratings_total": 1}, "ChIJxRfzqsIFdkgRsQkKBaqGwak": {"geometry": {"location": {"lat": 51.4877951, "lng": -0.1402474}, "viewport": {"northeast": {"lat": 51.48919323029149, "lng": -0.138986819708498}, "southwest": {"lat": 51.48649526970849, "lng": -0.141684780291502}}}, "name": "Coral", "place_id": "ChIJxRfzqsIFdkgRsQkKBaqGwak", "types": ["point_of_interest", "establishment"], "rating": 2.4, "user_ratings_total": 9}, "ChIJk1dxOeIEdkgRGm0KFSCiOh8": {"geometry": {"location": {"lat": 51.4875225, "lng": -0.1396902}, "viewport": {"northeast": {"lat": 51.48887148029149, "lng": -0.138341219708498}, "southwest": {"lat": 51.4861735197085, "lng": -0.141039180291502}}}, "name": "Churchill Gardens Primary Academy", "place_id": "ChIJk1dxOeIEdkgRGm0KFSCiOh8", "types": ["primary_school", "school", "point_of_interest", "establishment"], "rating": 5, "user_ratings_total": 14}, "ChIJISH4c-IEdkgRNLHfbmrHDoA": {"geometry": {"location": {"lat": 51.4870254, "lng": -0.1404354}, "viewport": {"northeast": {"lat": 51.48839417903029, "lng": -0.1391026894188409}, "southwest": {"lat": 51.48569621844729, "lng": -0.1418006500018449}}}, "name": "Parking lot", "place_id": "ChIJISH4c-IEdkgRNLHfbmrHDoA", "types": ["parking", "premise", "point_of_interest", "establishment"]}, "ChIJ4X6PYuIEdkgR7aJjsXtaEOA": {"geometry": {"location": {"lat": 51.48603685000242, "lng": -0.1401156000018607}, "viewport": {"northeast": {"lat": 51.4873858302915, "lng": -0.138766619708498}, "southwest": {"lat": 51.4846878697085, "lng": -0.141464580291502}}}, "name": "Churchill Gardens Road", "place_id": "ChIJ4X6PYuIEdkgR7aJjsXtaEOA", "types": ["route"]}, "ChIJLwaafuIEdkgRdFFbGY0-9SA": {"geometry": {"location": {"lat": 51.48624299999999, "lng": -0.1404995}, "viewport": {"northeast": {"lat": 51.48759198029149, "lng": -0.139150519708498}, "southwest": {"lat": 51.4848940197085, "lng": -0.1418484802915021}}}, "name": "LondonApex Structual Engineering", "place_id": "ChIJLwaafuIEdkgRdFFbGY0-9SA", "types": ["point_of_interest", "establishment"]}, "ChIJszBC0HoFdkgR--rgFU0exKk": {"geometry": {"location": {"lat": 51.486243, "lng": -0.1405}, "viewport": {"northeast": {"lat": 51.4875919802915, "lng": -0.139151019708498}, "southwest": {"lat": 51.48489401970851, "lng": -0.1418489802915021}}}, "name": "london Galaxy FC", "place_id": "ChIJszBC0HoFdkgR--rgFU0exKk", "types": ["point_of_interest", "establishment"]}, "ChIJgS56KqoFdkgRn4R38oOf9gQ": {"geometry": {"location": {"lat": 51.4862354, "lng": -0.1404341}, "viewport": {"northeast": {"lat": 51.4875843802915, "lng": -0.139085119708498}, "southwest": {"lat": 51.4848864197085, "lng": -0.141783080291502}}}, "name": "Aaron Charity", "place_id": "ChIJgS56KqoFdkgRn4R38oOf9gQ", "types": ["point_of_interest", "establishment"]}, "ChIJyx3DU0IFdkgR3kbBveTmtM8": {"geometry": {"location": {"lat": 51.48590110000001, "lng": -0.1403315}, "viewport": {"northeast": {"lat": 51.4872961302915, "lng": -0.139002969708498}, "southwest": {"lat": 51.4845981697085, "lng": -0.141700930291502}}}, "name": "Churchill Gardens Road Pump Station", "place_id": "ChIJyx3DU0IFdkgR3kbBveTmtM8", "types": ["point_of_interest", "establishment"]}, "ChIJLdQgYuIEdkgRmeHA8r52n-E": {"geometry": {"location": {"lat": 51.4861407, "lng": -0.1397354}, "viewport": {"northeast": {"lat": 51.4874721802915, "lng": -0.138381219708498}, "southwest": {"lat": 51.48477421970851, "lng": -0.141079180291502}}}, "name": "ubitricity Charging Station", "place_id": "ChIJLdQgYuIEdkgRmeHA8r52n-E", "types": ["point_of_interest", "establishment"]}, "ChIJc9bYY-EEdkgRcJwl7RUElKs": {"geometry": {"location": {"lat": 51.488917, "lng": -0.1365984}, "viewport": {"northeast": {"lat": 51.4903060302915, "lng": -0.135322319708498}, "southwest": {"lat": 51.4876080697085, "lng": -0.138020280291502}}}, "name": "Pimlico Centre for the Alexander Technique", "place_id": "ChIJc9bYY-EEdkgRcJwl7RUElKs", "types": ["health", "point_of_interest", "establishment"], "rating": 5, "user_ratings_total": 4}, "ChIJU4DSZuEEdkgRGfiwswzffaI": {"geometry": {"location": {"lat": 51.48890789999999, "lng": -0.1366}, "viewport": {"northeast": {"lat": 51.4902986802915, "lng": -0.1353270697084979}, "southwest": {"lat": 51.4876007197085, "lng": -0.138025030291502}}}, "name": "Invisible Training", "place_id": "ChIJU4DSZuEEdkgRGfiwswzffaI", "types": ["point_of_interest", "establishment"]}, "ChIJ7x8SH4MPdkgRcsQ978sg9m4": {"geometry": {"location": {"lat": 51.488917, "lng": -0.1365984}, "viewport": {"northeast": {"lat": 51.4903060302915, "lng": -0.135322319708498}, "southwest": {"lat": 51.4876080697085, "lng": -0.138020280291502}}}, "name": "Alexander Technique in London", "place_id": "ChIJ7x8SH4MPdkgRcsQ978sg9m4", "types": ["health", "point_of_interest", "establishment"]}, "ChIJ-9PeYOEEdkgRoCUzdpHxjIY": {"geometry": {"location": {"lat": 51.488917, "lng": -0.1365984}, "viewport": {"northeast": {"lat": 51.4903060302915, "lng": -0.135322319708498}, "southwest": {"lat": 51.4876080697085, "lng": -0.138020280291502}}}, "name": "Arabella Lennox-Boyd Landscape Design", "place_id": "ChIJ-9PeYOEEdkgRoCUzdpHxjIY", "types": ["general_contractor", "point_of_interest", "establishment"]}, "ChIJ220q98oPdkgRmIGCLYEpTv4": {"geometry": {"location": {"lat": 51.48890789999999, "lng": -0.1366}, "viewport": {"northeast": {"lat": 51.4902986802915, "lng": -0.1353270697084979}, "southwest": {"lat": 51.4876007197085, "lng": -0.138025030291502}}}, "name": "Alex Dixon Psychotherapy and Counselling", "place_id": "ChIJ220q98oPdkgRmIGCLYEpTv4", "types": ["health", "point_of_interest", "establishment"]}, "ChIJTxeCX-EEdkgRejgRyy-ksBU": {"geometry": {"location": {"lat": 51.48867509999999, "lng": -0.1362475}, "viewport": {"northeast": {"lat": 51.4899587802915, "lng": -0.134868569708498}, "southwest": {"lat": 51.4872608197085, "lng": -0.137566530291502}}}, "name": "Your Workplace Supplies Ltd", "place_id": "ChIJTxeCX-EEdkgRejgRyy-ksBU", "types": ["point_of_interest", "establishment"]}, "ChIJPagB8vMEdkgRgjkQjSQYpfg": {"geometry": {"location": {"lat": 51.48867509999999, "lng": -0.1362475}, "viewport": {"northeast": {"lat": 51.4900240802915, "lng": -0.134898519708498}, "southwest": {"lat": 51.4873261197085, "lng": -0.137596480291502}}}, "name": "Culture Consultants Ltd", "place_id": "ChIJPagB8vMEdkgRgjkQjSQYpfg", "types": ["point_of_interest", "establishment"]}, "ChIJ49E3YeEEdkgRmF6PXjV99Ew": {"geometry": {"location": {"lat": 51.48891709999999, "lng": -0.1366975}, "viewport": {"northeast": {"lat": 51.49029083029149, "lng": -0.135393519708498}, "southwest": {"lat": 51.4875928697085, "lng": -0.138091480291502}}}, "name": "Ulrich Engler", "place_id": "ChIJ49E3YeEEdkgRmF6PXjV99Ew", "types": ["point_of_interest", "clothing_store", "store", "establishment"], "rating": 1, "user_ratings_total": 1}, "ChIJr8XGlOMEdkgRT_izjLM60l0": {"geometry": {"location": {"lat": 51.4872798, "lng": -0.1361597}, "viewport": {"northeast": {"lat": 51.4886876302915, "lng": -0.1351464197084979}, "southwest": {"lat": 51.4859896697085, "lng": -0.137844380291502}}}, "name": "Newsagents - Dolphin Square Arcade", "place_id": "ChIJr8XGlOMEdkgRT_izjLM60l0", "types": ["point_of_interest", "store", "establishment"]}, "ChIJD3zWcOMEdkgRsrz3pVOsaNw": {"geometry": {"location": {"lat": 51.48551550000001, "lng": -0.1362362}, "viewport": {"northeast": {"lat": 51.4868199802915, "lng": -0.134868319708498}, "southwest": {"lat": 51.4841220197085, "lng": -0.1375662802915021}}}, "name": "Raleigh House", "place_id": "ChIJD3zWcOMEdkgRsrz3pVOsaNw", "types": ["point_of_interest", "establishment"], "rating": 3.3, "user_ratings_total": 4}, "ChIJ8wNH0-MEdkgRkl477PsfXNo": {"geometry": {"location": {"lat": 51.48824598197771, "lng": -0.1378500219772755}, "viewport": {"northeast": {"lat": 51.4895932802915, "lng": -0.136500269708498}, "southwest": {"lat": 51.4868953197085, "lng": -0.139198230291502}}}, "name": "46-34 Lupus St", "place_id": "ChIJ8wNH0-MEdkgRkl477PsfXNo", "types": ["route"]}, "ChIJv1SiD-IEdkgRfmZZPFR_mos": {"geometry": {"location": {"lat": 51.4877469, "lng": -0.1377993}, "viewport": {"northeast": {"lat": 51.48932973029149, "lng": -0.136466219708498}, "southwest": {"lat": 51.4866317697085, "lng": -0.139164180291502}}}, "name": "Star Bright Tuition", "place_id": "ChIJv1SiD-IEdkgRfmZZPFR_mos", "types": ["point_of_interest", "establishment"]}, "ChIJq7KnzOMEdkgRU1Ityc-Yc-A": {"geometry": {"location": {"lat": 51.487675, "lng": -0.1378363}, "viewport": {"northeast": {"lat": 51.48928778029149, "lng": -0.136498869708498}, "southwest": {"lat": 51.48658981970849, "lng": -0.139196830291502}}}, "name": "PMACA", "place_id": "ChIJq7KnzOMEdkgRU1Ityc-Yc-A", "types": ["point_of_interest", "establishment"]}, "ChIJ0z9zLeIEdkgRMAfQpd0TMU8": {"geometry": {"location": {"lat": 51.48802449999999, "lng": -0.1380043}, "viewport": {"northeast": {"lat": 51.4894660302915, "lng": -0.136663869708498}, "southwest": {"lat": 51.4867680697085, "lng": -0.139361830291502}}}, "name": "Westminster Adult Education Service", "place_id": "ChIJ0z9zLeIEdkgRMAfQpd0TMU8", "types": ["university", "point_of_interest", "establishment"], "rating": 3.8, "user_ratings_total": 24}, "ChIJ8Xt90uMEdkgRJr_JIqDoj88": {"geometry": {"location": {"lat": 51.48802560000001, "lng": -0.1377073}, "viewport": {"northeast": {"lat": 51.4894883802915, "lng": -0.136359919708498}, "southwest": {"lat": 51.48679041970851, "lng": -0.139057880291502}}}, "name": "AlManhaj Arabic Academy", "place_id": "ChIJ8Xt90uMEdkgRJr_JIqDoj88", "types": ["school", "point_of_interest", "establishment"], "rating": 2.5, "user_ratings_total": 2}, "ChIJ0fpZlOYEdkgRax_Dd-gcVyw": {"geometry": {"location": {"lat": 51.4880672, "lng": -0.1379298}, "viewport": {"northeast": {"lat": 51.48947003029149, "lng": -0.136677119708498}, "southwest": {"lat": 51.48677206970849, "lng": -0.139375080291502}}}, "name": "Pimlico Library", "place_id": "ChIJ0fpZlOYEdkgRax_Dd-gcVyw", "types": ["library", "point_of_interest", "establishment"], "rating": 3.8, "user_ratings_total": 53}, "ChIJj2JfzeMEdkgR9cowcm9unps": {"geometry": {"location": {"lat": 51.487993, "lng": -0.1378155}, "viewport": {"northeast": {"lat": 51.4894612802915, "lng": -0.136420069708498}, "southwest": {"lat": 51.4867633197085, "lng": -0.139118030291502}}}, "name": "Pimlico Academy & Library", "place_id": "ChIJj2JfzeMEdkgR9cowcm9unps", "types": ["transit_station", "point_of_interest", "establishment"]}, "ChIJXTO52xEFdkgRxYnifCk3f94": {"geometry": {"location": {"lat": 51.487675, "lng": -0.1378363}, "viewport": {"northeast": {"lat": 51.48928778029149, "lng": -0.136498869708498}, "southwest": {"lat": 51.48658981970849, "lng": -0.139196830291502}}}, "name": "Powerplay Netball at Pimlico Academy", "place_id": "ChIJXTO52xEFdkgRxYnifCk3f94", "types": ["point_of_interest", "establishment"]}, "ChIJs1P3LEkFdkgRSjnF3-sckkU": {"geometry": {"location": {"lat": 51.487675, "lng": -0.1378363}, "viewport": {"northeast": {"lat": 51.48928778029149, "lng": -0.136498869708498}, "southwest": {"lat": 51.48658981970849, "lng": -0.139196830291502}}}, "name": "RCCGSGLG", "place_id": "ChIJs1P3LEkFdkgRSjnF3-sckkU", "types": ["place_of_worship", "point_of_interest", "establishment"]}, "ChIJq7KnzOMEdkgRDyIOCUHTXkc": {"geometry": {"location": {"lat": 51.487675, "lng": -0.1378363}, "viewport": {"northeast": {"lat": 51.48928778029149, "lng": -0.136498869708498}, "southwest": {"lat": 51.48658981970849, "lng": -0.139196830291502}}}, "name": "Pimlico-London SCITT", "place_id": "ChIJq7KnzOMEdkgRDyIOCUHTXkc", "types": ["university", "point_of_interest", "establishment"]}, "ChIJb43Zi2YEdkgRWTopWg2cjlA": {"geometry": {"location": {"lat": 51.4880516, "lng": -0.1377607}, "viewport": {"northeast": {"lat": 51.4894975302915, "lng": -0.136382069708498}, "southwest": {"lat": 51.4867995697085, "lng": -0.139080030291502}}}, "name": "Keen Learners", "place_id": "ChIJb43Zi2YEdkgRWTopWg2cjlA", "types": ["point_of_interest", "establishment"], "rating": 5, "user_ratings_total": 12}, "ChIJKZAruVkFdkgR7ulGtnwbYIs": {"geometry": {"location": {"lat": 51.4880697, "lng": -0.1377272}, "viewport": {"northeast": {"lat": 51.48951038029149, "lng": -0.136360069708498}, "southwest": {"lat": 51.48681241970849, "lng": -0.139058030291502}}}, "name": "The Coffee Shop", "place_id": "ChIJKZAruVkFdkgR7ulGtnwbYIs", "types": ["food", "point_of_interest", "store", "establishment"], "rating": 3, "user_ratings_total": 1}, "ChIJ-39tVOIEdkgRzxjpBbc6KB0": {"geometry": {"location": {"lat": 51.48631545013481, "lng": -0.1380969893166394}, "viewport": {"northeast": {"lat": 51.4876663302915, "lng": -0.136748869708498}, "southwest": {"lat": 51.4849683697085, "lng": -0.139446830291502}}}, "name": "Churchill Gardens Road", "place_id": "ChIJ-39tVOIEdkgRzxjpBbc6KB0", "types": ["route"]}, "ChIJ-wRGVeIEdkgRSIgFbn__LYk": {"geometry": {"location": {"lat": 51.4866297, "lng": -0.1381048}, "viewport": {"northeast": {"lat": 51.4879969302915, "lng": -0.136639019708498}, "southwest": {"lat": 51.4852989697085, "lng": -0.139336980291502}}}, "name": "Super Mega Action Plus Limited", "place_id": "ChIJ-wRGVeIEdkgRSIgFbn__LYk", "types": ["point_of_interest", "establishment"]}, "ChIJHQcPsuMEdkgRhyldFotC0UI": {"geometry": {"location": {"lat": 51.48664900000001, "lng": -0.1376218}, "viewport": {"northeast": {"lat": 51.4879801802915, "lng": -0.1363868697084979}, "southwest": {"lat": 51.4852822197085, "lng": -0.139084830291502}}}, "name": "Page Property Services", "place_id": "ChIJHQcPsuMEdkgRhyldFotC0UI", "types": ["finance", "point_of_interest", "establishment"]}, "ChIJl_Zqp-MEdkgR_cw0CdhuMX0": {"geometry": {"location": {"lat": 51.48672879999999, "lng": -0.1376861}, "viewport": {"northeast": {"lat": 51.48806233029149, "lng": -0.136436069708498}, "southwest": {"lat": 51.4853643697085, "lng": -0.139134030291502}}}, "name": "Howard House", "place_id": "ChIJl_Zqp-MEdkgR_cw0CdhuMX0", "types": ["lodging", "point_of_interest", "establishment"]}, "ChIJEWhiUuIEdkgR3rDrrqB2OX0": {"geometry": {"location": {"lat": 51.4866252, "lng": -0.1380747}, "viewport": {"northeast": {"lat": 51.4882660802915, "lng": -0.136903669708498}, "southwest": {"lat": 51.4855681197085, "lng": -0.139601630291502}}}, "name": "Lenthall House", "place_id": "ChIJEWhiUuIEdkgR3rDrrqB2OX0", "types": ["point_of_interest", "establishment"], "rating": 5, "user_ratings_total": 2}, "ChIJkybRTeIEdkgR8B_OmjdyBrA": {"geometry": {"location": {"lat": 51.4868135, "lng": -0.138227}, "viewport": {"northeast": {"lat": 51.4883633302915, "lng": -0.136964119708498}, "southwest": {"lat": 51.4856653697085, "lng": -0.139662080291502}}}, "name": "AGM Strategic Solutions", "place_id": "ChIJkybRTeIEdkgR8B_OmjdyBrA", "types": ["point_of_interest", "establishment"]}, "ChIJo8JpAeMEdkgRevRQqMYIRvs": {"geometry": {"location": {"lat": 51.48575100000001, "lng": -0.137609}, "viewport": {"northeast": {"lat": 51.48710783029151, "lng": -0.136210119708498}, "southwest": {"lat": 51.48440986970851, "lng": -0.138908080291502}}}, "name": "ubitricity Charging Station", "place_id": "ChIJo8JpAeMEdkgRevRQqMYIRvs", "types": ["point_of_interest", "establishment"]}, "ChIJ60OeiuEEdkgRLGpEcsGM2uA": {"geometry": {"location": {"lat": 51.48866578435486, "lng": -0.1392491894360779}, "viewport": {"northeast": {"lat": 51.4900144802915, "lng": -0.137900369708498}, "southwest": {"lat": 51.4873165197085, "lng": -0.140598330291502}}}, "name": "129-99 St George's Dr", "place_id": "ChIJ60OeiuEEdkgRLGpEcsGM2uA", "types": ["route"]}, "ChIJx42uEOIEdkgRwP0sIKZa4mE": {"geometry": {"location": {"lat": 51.4879653004262, "lng": -0.1397660002742792}, "viewport": {"northeast": {"lat": 51.4893142802915, "lng": -0.138417019708498}, "southwest": {"lat": 51.4866163197085, "lng": -0.141114980291502}}}, "name": "69-77 Lupus St", "place_id": "ChIJx42uEOIEdkgRwP0sIKZa4mE", "types": ["route"]}, "ChIJW3FyF-IEdkgRH0P98lNZ_eg": {"geometry": {"location": {"lat": 51.48792299999999, "lng": -0.139589}, "viewport": {"northeast": {"lat": 51.4893029302915, "lng": -0.138249969708498}, "southwest": {"lat": 51.4866049697085, "lng": -0.140947930291502}}}, "name": "Alderney Street (Stop M)", "place_id": "ChIJW3FyF-IEdkgRH0P98lNZ_eg", "types": ["transit_station", "point_of_interest", "establishment"]}, "ChIJoYVf9AgFdkgRAtCwfJLT2l4": {"geometry": {"location": {"lat": 51.4879653, "lng": -0.139766}, "viewport": {"northeast": {"lat": 51.4892833802915, "lng": -0.138407069708498}, "southwest": {"lat": 51.4865854197085, "lng": -0.141105030291502}}}, "name": "Blossom Upper School, Pimlico", "place_id": "ChIJoYVf9AgFdkgRAtCwfJLT2l4", "types": ["school", "point_of_interest", "establishment"]}, "ChIJj2_01o8FdkgRkKK2y3xY3J4": {"geometry": {"location": {"lat": 51.4878438, "lng": -0.1399249}, "viewport": {"northeast": {"lat": 51.4891927802915, "lng": -0.138575919708498}, "southwest": {"lat": 51.4864948197085, "lng": -0.141273880291502}}}, "name": "\ub7f0\ub358 \uac10\uc131\ubbfc\ubc15", "place_id": "ChIJj2_01o8FdkgRkKK2y3xY3J4", "types": ["lodging", "point_of_interest", "establishment"]}, "ChIJh4oyDuIEdkgRoSpWBGwDcig": {"geometry": {"location": {"lat": 51.4878161, "lng": -0.1401461}, "viewport": {"northeast": {"lat": 51.48919973029149, "lng": -0.138936169708498}, "southwest": {"lat": 51.48650176970849, "lng": -0.141634130291502}}}, "name": "Expert Cleaners", "place_id": "ChIJh4oyDuIEdkgRoSpWBGwDcig", "types": ["laundry", "point_of_interest", "establishment"]}, "ChIJB2i8Z-IEdkgR7XHrNA6dT9Q": {"geometry": {"location": {"lat": 51.48651646223868, "lng": -0.1394187976774277}, "viewport": {"northeast": {"lat": 51.4878642802915, "lng": -0.138076119708498}, "southwest": {"lat": 51.4851663197085, "lng": -0.140774080291502}}}, "name": "Johnson's Place", "place_id": "ChIJB2i8Z-IEdkgR7XHrNA6dT9Q", "types": ["route"]}, "ChIJ4X6PYuIEdkgRZ48s_Bus0i8": {"geometry": {"location": {"lat": 51.48606678357337, "lng": -0.1399127915723758}, "viewport": {"northeast": {"lat": 51.48741483029151, "lng": -0.138563469708498}, "southwest": {"lat": 51.48471686970851, "lng": -0.141261430291502}}}, "name": "7 Churchill Gardens Rd", "place_id": "ChIJ4X6PYuIEdkgRZ48s_Bus0i8", "types": ["route"]}, "ChIJJzx_ebtqdkgRfEFujn0tItU": {"geometry": {"location": {"lat": 51.48565110000001, "lng": -0.1397629}, "viewport": {"northeast": {"lat": 51.48698778029149, "lng": -0.138509569708498}, "southwest": {"lat": 51.4842898197085, "lng": -0.141207530291502}}}, "name": "M A S Accountant & Consultant Ltd", "place_id": "ChIJJzx_ebtqdkgRfEFujn0tItU", "types": ["point_of_interest", "establishment"]}}}