{"E00023691": {"ChIJrzG9bP8PdkgRoB5nLb44bto": {"geometry": {"location": {"lat": 51.51131577423139, "lng": -0.1894187330185528}, "viewport": {"northeast": {"lat": 51.5126643802915, "lng": -0.188072369708498}, "southwest": {"lat": 51.5099664197085, "lng": -0.190770330291502}}}, "name": "39 Bark Pl", "place_id": "ChIJrzG9bP8PdkgRoB5nLb44bto", "types": ["route"]}, "ChIJtTG7FP8PdkgRdJtY_fGiCmw": {"geometry": {"location": {"lat": 51.51121149999999, "lng": -0.1896364}, "viewport": {"northeast": {"lat": 51.51258093029149, "lng": -0.188167119708498}, "southwest": {"lat": 51.5098829697085, "lng": -0.190865080291502}}}, "name": "Lansdowne College", "place_id": "ChIJtTG7FP8PdkgRdJtY_fGiCmw", "types": ["university", "point_of_interest", "establishment"], "rating": 3.8, "user_ratings_total": 4}, "ChIJi9Zhfv8PdkgRdadAUJRfcPc": {"geometry": {"location": {"lat": 51.5115719, "lng": -0.1886516}, "viewport": {"northeast": {"lat": 51.51291368029149, "lng": -0.187359369708498}, "southwest": {"lat": 51.5102157197085, "lng": -0.190057330291502}}}, "name": "Robin Lee Architecture", "place_id": "ChIJi9Zhfv8PdkgRdadAUJRfcPc", "types": ["point_of_interest", "establishment"], "rating": 2, "user_ratings_total": 1}, "ChIJi3uIa_8PdkgRMbiRj2FNIOo": {"geometry": {"location": {"lat": 51.5112315, "lng": -0.1892296}, "viewport": {"northeast": {"lat": 51.5125701302915, "lng": -0.187956419708498}, "southwest": {"lat": 51.50987216970851, "lng": -0.190654380291502}}}, "name": "Coachinglives", "place_id": "ChIJi3uIa_8PdkgRMbiRj2FNIOo", "types": ["point_of_interest", "establishment"]}, "ChIJpeXh9P4PdkgRsHsCZ_TLS1Q": {"geometry": {"location": {"lat": 51.5116373, "lng": -0.1894743}, "viewport": {"northeast": {"lat": 51.5129852302915, "lng": -0.188133319708498}, "southwest": {"lat": 51.5102872697085, "lng": -0.190831280291502}}}, "name": "Link Tutors", "place_id": "ChIJpeXh9P4PdkgRsHsCZ_TLS1Q", "types": ["point_of_interest", "establishment"]}, "ChIJPQQNwlUFdkgR2DYaJeMVEig": {"geometry": {"location": {"lat": 51.5120644, "lng": -0.1898986}, "viewport": {"northeast": {"lat": 51.51342603029149, "lng": -0.1884450697084979}, "southwest": {"lat": 51.5107280697085, "lng": -0.191143030291502}}}, "name": "Food Hygiene Centre", "place_id": "ChIJPQQNwlUFdkgR2DYaJeMVEig", "types": ["point_of_interest", "establishment"]}, "ChIJFz_OC_8PdkgRoWcy-uSZyEc": {"geometry": {"location": {"lat": 51.5120355, "lng": -0.1898162}, "viewport": {"northeast": {"lat": 51.5133943302915, "lng": -0.188397869708498}, "southwest": {"lat": 51.5106963697085, "lng": -0.191095830291502}}}, "name": "Absolutely Relocation", "place_id": "ChIJFz_OC_8PdkgRoWcy-uSZyEc", "types": ["point_of_interest", "establishment"]}, "ChIJm2DPCv8PdkgRwyG-ZOCaslo": {"geometry": {"location": {"lat": 51.5121236, "lng": -0.189546}, "viewport": {"northeast": {"lat": 51.5134636302915, "lng": -0.188271219708498}, "southwest": {"lat": 51.5107656697085, "lng": -0.190969180291502}}}, "name": "Lansk Properties", "place_id": "ChIJm2DPCv8PdkgRwyG-ZOCaslo", "types": ["point_of_interest", "establishment"]}, "ChIJjSRTOw0PdkgROwNP8Tx4lko": {"geometry": {"location": {"lat": 51.5112146, "lng": -0.1896073}, "viewport": {"northeast": {"lat": 51.5125880302915, "lng": -0.1881545697084979}, "southwest": {"lat": 51.5098900697085, "lng": -0.190852530291502}}}, "name": "Kensington Park School", "place_id": "ChIJjSRTOw0PdkgROwNP8Tx4lko", "types": ["school", "point_of_interest", "establishment"]}, "ChIJeyCFFP8PdkgRKWwO4I7VD-I": {"geometry": {"location": {"lat": 51.51121020000001, "lng": -0.189637}, "viewport": {"northeast": {"lat": 51.5125758302915, "lng": -0.188165869708498}, "southwest": {"lat": 51.5098778697085, "lng": -0.1908638302915021}}}, "name": "Eman school", "place_id": "ChIJeyCFFP8PdkgRKWwO4I7VD-I", "types": ["school", "point_of_interest", "establishment"]}, "ChIJjVlUSP8PdkgRAbSd2ucqWr4": {"geometry": {"location": {"lat": 51.51011649836263, "lng": -0.189308058196332}, "viewport": {"northeast": {"lat": 51.5114668302915, "lng": -0.187959269708498}, "southwest": {"lat": 51.50876886970851, "lng": -0.1906572302915021}}}, "name": "Bayswater Road", "place_id": "ChIJjVlUSP8PdkgRAbSd2ucqWr4", "types": ["route"]}, "ChIJK74OQv8PdkgRQfZEmvIuLbs": {"geometry": {"location": {"lat": 51.51072929999999, "lng": -0.1889842}, "viewport": {"northeast": {"lat": 51.5120671802915, "lng": -0.187744969708498}, "southwest": {"lat": 51.5093692197085, "lng": -0.190442930291502}}}, "name": "Opus Dei Information Office", "place_id": "ChIJK74OQv8PdkgRQfZEmvIuLbs", "types": ["church", "place_of_worship", "point_of_interest", "establishment"], "rating": 4.7, "user_ratings_total": 12}, "ChIJ3yXLUakadkgRXBLk-RJDJxg": {"geometry": {"location": {"lat": 51.5108909, "lng": -0.1890692}, "viewport": {"northeast": {"lat": 51.5122261802915, "lng": -0.187813469708498}, "southwest": {"lat": 51.5095282197085, "lng": -0.1905114302915021}}}, "name": "Cognitive Behavioural Therapy Workshops with Lynn Somerfield", "place_id": "ChIJ3yXLUakadkgRXBLk-RJDJxg", "types": ["health", "point_of_interest", "establishment"]}, "ChIJ3yXLUakadkgRNtR5GSvOnXU": {"geometry": {"location": {"lat": 51.5108909, "lng": -0.1890692}, "viewport": {"northeast": {"lat": 51.5122261802915, "lng": -0.187813469708498}, "southwest": {"lat": 51.5095282197085, "lng": -0.1905114302915021}}}, "name": "Lynn Somerfield", "place_id": "ChIJ3yXLUakadkgRNtR5GSvOnXU", "types": ["art_gallery", "health", "point_of_interest", "establishment"]}, "ChIJ3yXLUakadkgRyJfQaeoZATE": {"geometry": {"location": {"lat": 51.5108909, "lng": -0.1890692}, "viewport": {"northeast": {"lat": 51.5122261802915, "lng": -0.187813469708498}, "southwest": {"lat": 51.5095282197085, "lng": -0.1905114302915021}}}, "name": "Chakra Master Classes", "place_id": "ChIJ3yXLUakadkgRyJfQaeoZATE", "types": ["health", "point_of_interest", "establishment"]}, "ChIJK74OQv8PdkgRmnRH-TLdqJg": {"geometry": {"location": {"lat": 51.5108929, "lng": -0.1891008}, "viewport": {"northeast": {"lat": 51.51223033029151, "lng": -0.187830469708498}, "southwest": {"lat": 51.50953236970851, "lng": -0.190528430291502}}}, "name": "The Bayswater Institute", "place_id": "ChIJK74OQv8PdkgRmnRH-TLdqJg", "types": ["point_of_interest", "establishment"]}, "ChIJFSz4Qf8PdkgRBoLh9bEKVBM": {"geometry": {"location": {"lat": 51.51090119999999, "lng": -0.1890192}, "viewport": {"northeast": {"lat": 51.51223273029149, "lng": -0.187789019708498}, "southwest": {"lat": 51.5095347697085, "lng": -0.190486980291502}}}, "name": "Spike Milligan Productions Ltd", "place_id": "ChIJFSz4Qf8PdkgRBoLh9bEKVBM", "types": ["point_of_interest", "establishment"]}, "ChIJ__8DQv8PdkgRyAsirnesmNk": {"geometry": {"location": {"lat": 51.5108929, "lng": -0.1891008}, "viewport": {"northeast": {"lat": 51.5122309302915, "lng": -0.1878307197084979}, "southwest": {"lat": 51.5095329697085, "lng": -0.190528680291502}}}, "name": "SupremePA", "place_id": "ChIJ__8DQv8PdkgRyAsirnesmNk", "types": ["point_of_interest", "establishment"], "rating": 4.5, "user_ratings_total": 8}, "ChIJ__8DQv8PdkgRBrg_LnsszTs": {"geometry": {"location": {"lat": 51.5108929, "lng": -0.1891008}, "viewport": {"northeast": {"lat": 51.51223033029151, "lng": -0.187830469708498}, "southwest": {"lat": 51.50953236970851, "lng": -0.190528430291502}}}, "name": "Celtic Films Ent", "place_id": "ChIJ__8DQv8PdkgRBrg_LnsszTs", "types": ["point_of_interest", "establishment"]}, "ChIJpSRbra4adkgRq9jyeg1oOpQ": {"geometry": {"location": {"lat": 51.5108929, "lng": -0.1891008}, "viewport": {"northeast": {"lat": 51.51223033029151, "lng": -0.187830469708498}, "southwest": {"lat": 51.50953236970851, "lng": -0.190528430291502}}}, "name": "Georgina Grout-Smith MA", "place_id": "ChIJpSRbra4adkgRq9jyeg1oOpQ", "types": ["health", "point_of_interest", "establishment"]}, "ChIJA4H2Qf8PdkgRskX65t1KXoI": {"geometry": {"location": {"lat": 51.510852, "lng": -0.1890085}, "viewport": {"northeast": {"lat": 51.5121840802915, "lng": -0.187774519708498}, "southwest": {"lat": 51.5094861197085, "lng": -0.190472480291502}}}, "name": "Elmore", "place_id": "ChIJA4H2Qf8PdkgRskX65t1KXoI", "types": ["point_of_interest", "establishment"]}, "ChIJFSz4Qf8PdkgRuw37CEVPW_M": {"geometry": {"location": {"lat": 51.51090119999999, "lng": -0.1890193}, "viewport": {"northeast": {"lat": 51.51223273029149, "lng": -0.187789069708498}, "southwest": {"lat": 51.5095347697085, "lng": -0.190487030291502}}}, "name": "Dulafield Ltd", "place_id": "ChIJFSz4Qf8PdkgRuw37CEVPW_M", "types": ["point_of_interest", "establishment"]}, "ChIJMTvy2BcFdkgRK5i3OZDi14w": {"geometry": {"location": {"lat": 51.510901, "lng": -0.189019}, "viewport": {"northeast": {"lat": 51.5122324802915, "lng": -0.187788869708498}, "southwest": {"lat": 51.5095345197085, "lng": -0.190486830291502}}}, "name": "Nanny & Butler", "place_id": "ChIJMTvy2BcFdkgRK5i3OZDi14w", "types": ["point_of_interest", "establishment"], "rating": 4, "user_ratings_total": 33}, "ChIJPVd0Qv8PdkgRqZeBuSt6YzU": {"geometry": {"location": {"lat": 51.510901, "lng": -0.189019}, "viewport": {"northeast": {"lat": 51.5122324802915, "lng": -0.187788869708498}, "southwest": {"lat": 51.5095345197085, "lng": -0.190486830291502}}}, "name": "Sigillus", "place_id": "ChIJPVd0Qv8PdkgRqZeBuSt6YzU", "types": ["point_of_interest", "establishment"], "rating": 4.7, "user_ratings_total": 3}, "ChIJA2GkQf8PdkgRGbVPaCUlbpk": {"geometry": {"location": {"lat": 51.5109015, "lng": -0.1890183}, "viewport": {"northeast": {"lat": 51.5122329302915, "lng": -0.187788619708498}, "southwest": {"lat": 51.5095349697085, "lng": -0.190486580291502}}}, "name": "MAD Productions", "place_id": "ChIJA2GkQf8PdkgRGbVPaCUlbpk", "types": ["point_of_interest", "establishment"]}, "ChIJF1d0Qv8PdkgRBdFGRdvQVgk": {"geometry": {"location": {"lat": 51.5110087, "lng": -0.1890395}, "viewport": {"northeast": {"lat": 51.51234243029149, "lng": -0.1878205697084979}, "southwest": {"lat": 51.5096444697085, "lng": -0.190518530291502}}}, "name": "Compton Associates", "place_id": "ChIJF1d0Qv8PdkgRBdFGRdvQVgk", "types": ["point_of_interest", "establishment"]}, "ChIJi4QYJuMPdkgRXRMnCLRTlDM": {"geometry": {"location": {"lat": 51.5108909, "lng": -0.1890692}, "viewport": {"northeast": {"lat": 51.5122261802915, "lng": -0.187813469708498}, "southwest": {"lat": 51.5095282197085, "lng": -0.1905114302915021}}}, "name": "Help Counselling Centre", "place_id": "ChIJi4QYJuMPdkgRXRMnCLRTlDM", "types": ["health", "point_of_interest", "establishment"], "rating": 5, "user_ratings_total": 3}, "ChIJFSz4Qf8PdkgRNKi_DQcKUhw": {"geometry": {"location": {"lat": 51.51090119999999, "lng": -0.1890192}, "viewport": {"northeast": {"lat": 51.51223273029149, "lng": -0.187789019708498}, "southwest": {"lat": 51.5095347697085, "lng": -0.190486980291502}}}, "name": "Toby Eady Associates Ltd", "place_id": "ChIJFSz4Qf8PdkgRNKi_DQcKUhw", "types": ["point_of_interest", "establishment"]}, "ChIJG7WRCosPdkgRQvob2zp5MBU": {"geometry": {"location": {"lat": 51.5106226, "lng": -0.1895235}, "viewport": {"northeast": {"lat": 51.5119653302915, "lng": -0.188233769708498}, "southwest": {"lat": 51.50926736970851, "lng": -0.190931730291502}}}, "name": "Rowland Hill Blue Plaque", "place_id": "ChIJG7WRCosPdkgRQvob2zp5MBU", "types": ["point_of_interest", "establishment"], "rating": 4, "user_ratings_total": 1}, "ChIJVVWBQ_8PdkgRxQRbyPvRmAI": {"geometry": {"location": {"lat": 51.5106057, "lng": -0.1889608}, "viewport": {"northeast": {"lat": 51.51194398029151, "lng": -0.187717219708498}, "southwest": {"lat": 51.50924601970851, "lng": -0.190415180291502}}}, "name": "Opus Dei Charitable Trust", "place_id": "ChIJVVWBQ_8PdkgRxQRbyPvRmAI", "types": ["point_of_interest", "establishment"]}, "ChIJq40kXrkPdkgRB7QilTek4ik": {"geometry": {"location": {"lat": 51.5105921, "lng": -0.188907}, "viewport": {"northeast": {"lat": 51.5119279302915, "lng": -0.187687919708498}, "southwest": {"lat": 51.50922996970851, "lng": -0.190385880291502}}}, "name": "Prelature of Opus Dei", "place_id": "ChIJq40kXrkPdkgRB7QilTek4ik", "types": ["church", "place_of_worship", "point_of_interest", "establishment"], "rating": 5, "user_ratings_total": 1}, "ChIJ__8DQv8PdkgROfBXIMC9pds": {"geometry": {"location": {"lat": 51.5108929, "lng": -0.1891008}, "viewport": {"northeast": {"lat": 51.51223033029151, "lng": -0.187830469708498}, "southwest": {"lat": 51.50953236970851, "lng": -0.190528430291502}}}, "name": "WL WILLIAM LARA", "place_id": "ChIJ__8DQv8PdkgROfBXIMC9pds", "types": ["furniture_store", "home_goods_store", "point_of_interest", "store", "establishment"]}, "ChIJ__8DQv8PdkgRpElnvCzF2nM": {"geometry": {"location": {"lat": 51.5108929, "lng": -0.1891008}, "viewport": {"northeast": {"lat": 51.51223033029151, "lng": -0.187830469708498}, "southwest": {"lat": 51.50953236970851, "lng": -0.190528430291502}}}, "name": "Fiona Morgan", "place_id": "ChIJ__8DQv8PdkgRpElnvCzF2nM", "types": ["health", "point_of_interest", "establishment"]}, "ChIJgZdP2DcPdkgREks3Q5por48": {"geometry": {"location": {"lat": 51.5108909, "lng": -0.1890692}, "viewport": {"northeast": {"lat": 51.5122398802915, "lng": -0.187720219708498}, "southwest": {"lat": 51.5095419197085, "lng": -0.190418180291502}}}, "name": "MAD Global", "place_id": "ChIJgZdP2DcPdkgREks3Q5por48", "types": ["point_of_interest", "establishment"]}, "ChIJ6yFnvdUPdkgRqIEOV11p_Y0": {"geometry": {"location": {"lat": 51.5108909, "lng": -0.1890692}, "viewport": {"northeast": {"lat": 51.5122261802915, "lng": -0.187813469708498}, "southwest": {"lat": 51.5095282197085, "lng": -0.1905114302915021}}}, "name": "MAD XR", "place_id": "ChIJ6yFnvdUPdkgRqIEOV11p_Y0", "types": ["point_of_interest", "establishment"]}, "ChIJY6vT7joPdkgR0c9pMRcXHOs": {"geometry": {"location": {"lat": 51.5108909, "lng": -0.1890692}, "viewport": {"northeast": {"lat": 51.5122261802915, "lng": -0.187813469708498}, "southwest": {"lat": 51.5095282197085, "lng": -0.1905114302915021}}}, "name": "Robert Cuming Therapy", "place_id": "ChIJY6vT7joPdkgR0c9pMRcXHOs", "types": ["doctor", "health", "point_of_interest", "establishment"]}, "ChIJW53W9CEPdkgRABq4KObEeSY": {"geometry": {"location": {"lat": 51.5108909, "lng": -0.1890692}, "viewport": {"northeast": {"lat": 51.5122261802915, "lng": -0.187813469708498}, "southwest": {"lat": 51.5095282197085, "lng": -0.1905114302915021}}}, "name": "helen hawkins therapy", "place_id": "ChIJW53W9CEPdkgRABq4KObEeSY", "types": ["health", "point_of_interest", "establishment"]}, "ChIJWwKhV3kbdkgRjlVtojGD7Lk": {"geometry": {"location": {"lat": 51.5108909, "lng": -0.1890692}, "viewport": {"northeast": {"lat": 51.5122261802915, "lng": -0.187813469708498}, "southwest": {"lat": 51.5095282197085, "lng": -0.1905114302915021}}}, "name": "Lynn Somerfield", "place_id": "ChIJWwKhV3kbdkgRjlVtojGD7Lk", "types": ["health", "point_of_interest", "establishment"]}, "ChIJ5X8Z82sPdkgRhKN5mjgyCsw": {"geometry": {"location": {"lat": 51.5108909, "lng": -0.1890692}, "viewport": {"northeast": {"lat": 51.5122261802915, "lng": -0.187813469708498}, "southwest": {"lat": 51.5095282197085, "lng": -0.1905114302915021}}}, "name": "Daniela Schlingmann Literary Scouting Ltd.", "place_id": "ChIJ5X8Z82sPdkgRhKN5mjgyCsw", "types": ["point_of_interest", "establishment"]}, "ChIJEZg3GZ0PdkgRSDkijK251TQ": {"geometry": {"location": {"lat": 51.51090149999999, "lng": -0.1890187}, "viewport": {"northeast": {"lat": 51.51223298029149, "lng": -0.187788819708498}, "southwest": {"lat": 51.50953501970849, "lng": -0.190486780291502}}}, "name": "J & L Studio Ltd", "place_id": "ChIJEZg3GZ0PdkgRSDkijK251TQ", "types": ["point_of_interest", "establishment"]}, "ChIJjxrrlJQPdkgRJeJdf4XHRX4": {"geometry": {"location": {"lat": 51.5109603, "lng": -0.1890697}, "viewport": {"northeast": {"lat": 51.5122928802915, "lng": -0.187826319708498}, "southwest": {"lat": 51.5095949197085, "lng": -0.190524280291502}}}, "name": "Bayswater Grab Hire and Skips", "place_id": "ChIJjxrrlJQPdkgRJeJdf4XHRX4", "types": ["general_contractor", "point_of_interest", "establishment"]}, "ChIJXbR3SP8PdkgRNTh8EYRQJIk": {"geometry": {"location": {"lat": 51.5101938, "lng": -0.1893897}, "viewport": {"northeast": {"lat": 51.5115024302915, "lng": -0.1880348697084979}, "southwest": {"lat": 51.5088044697085, "lng": -0.190732830291502}}}, "name": "Orme Square (Stop T)", "place_id": "ChIJXbR3SP8PdkgRNTh8EYRQJIk", "types": ["bus_station", "transit_station", "point_of_interest", "establishment"]}, "ChIJA_PhLP8PdkgRQ3xOmfdtLtg": {"geometry": {"location": {"lat": 51.5097616, "lng": -0.1904039}, "viewport": {"northeast": {"lat": 51.51104977890282, "lng": -0.1890368963539418}, "southwest": {"lat": 51.50835181831982, "lng": -0.1917348569369458}}}, "name": "Parking lot", "place_id": "ChIJA_PhLP8PdkgRQ3xOmfdtLtg", "types": ["parking", "premise", "point_of_interest", "establishment"]}, "ChIJqfQjA_8PdkgRq5JAh7_xfPs": {"geometry": {"location": {"lat": 51.51154318259254, "lng": -0.1907277743363328}, "viewport": {"northeast": {"lat": 51.51289233029149, "lng": -0.189377769708498}, "southwest": {"lat": 51.51019436970849, "lng": -0.192075730291502}}}, "name": "48-10 St Petersburgh Pl", "place_id": "ChIJqfQjA_8PdkgRq5JAh7_xfPs", "types": ["route"]}, "ChIJhwS6_P4PdkgRoVufguY-k5Q": {"geometry": {"location": {"lat": 51.5116731, "lng": -0.1911718}, "viewport": {"northeast": {"lat": 51.5130476802915, "lng": -0.189632819708498}, "southwest": {"lat": 51.5103497197085, "lng": -0.192330780291502}}}, "name": "Maria Montessori School - Bayswater", "place_id": "ChIJhwS6_P4PdkgRoVufguY-k5Q", "types": ["school", "point_of_interest", "establishment"]}, "ChIJW4Li-v4PdkgRfUup0z4ICWo": {"geometry": {"location": {"lat": 51.5115719, "lng": -0.1915514}, "viewport": {"northeast": {"lat": 51.5129218302915, "lng": -0.190173369708498}, "southwest": {"lat": 51.5102238697085, "lng": -0.192871330291502}}}, "name": "McKenzie F J", "place_id": "ChIJW4Li-v4PdkgRfUup0z4ICWo", "types": ["health", "point_of_interest", "establishment"]}, "ChIJT_Cv_P4PdkgRikTYnI2-f88": {"geometry": {"location": {"lat": 51.51218309999999, "lng": -0.1912024}, "viewport": {"northeast": {"lat": 51.5135492302915, "lng": -0.189739719708498}, "southwest": {"lat": 51.5108512697085, "lng": -0.192437680291502}}}, "name": "Paradigm Communications", "place_id": "ChIJT_Cv_P4PdkgRikTYnI2-f88", "types": ["point_of_interest", "clothing_store", "store", "establishment"]}, "ChIJe7q5_P4PdkgR_mJyIQZUgGg": {"geometry": {"location": {"lat": 51.511615, "lng": -0.191259}, "viewport": {"northeast": {"lat": 51.5129965302915, "lng": -0.1896687197084979}, "southwest": {"lat": 51.5102985697085, "lng": -0.192366680291502}}}, "name": "St Matthew's, Bayswater", "place_id": "ChIJe7q5_P4PdkgR_mJyIQZUgGg", "types": ["church", "place_of_worship", "point_of_interest", "establishment"], "rating": 4.6, "user_ratings_total": 33}, "ChIJHf9yAf8PdkgRwH3tX6_-kyQ": {"geometry": {"location": {"lat": 51.51196789999999, "lng": -0.1906221}, "viewport": {"northeast": {"lat": 51.5132989302915, "lng": -0.189394419708498}, "southwest": {"lat": 51.5106009697085, "lng": -0.192092380291502}}}, "name": "Good London Builders", "place_id": "ChIJHf9yAf8PdkgRwH3tX6_-kyQ", "types": ["point_of_interest", "establishment"]}, "ChIJF33T_v4PdkgRr1UVfOZgToM": {"geometry": {"location": {"lat": 51.5120622, "lng": -0.1913403}, "viewport": {"northeast": {"lat": 51.51344143029149, "lng": -0.189790269708498}, "southwest": {"lat": 51.51074346970849, "lng": -0.1924882302915021}}}, "name": "Biolumina London", "place_id": "ChIJF33T_v4PdkgRr1UVfOZgToM", "types": ["point_of_interest", "establishment"]}, "ChIJB-vG__4PdkgRie0M6XXFGjs": {"geometry": {"location": {"lat": 51.51211579999999, "lng": -0.1910472999999999}, "viewport": {"northeast": {"lat": 51.51347273029149, "lng": -0.1896455197084979}, "southwest": {"lat": 51.51077476970849, "lng": -0.192343480291502}}}, "name": "Mc Cue", "place_id": "ChIJB-vG__4PdkgRie0M6XXFGjs", "types": ["point_of_interest", "establishment"]}, "ChIJF1zt0W8PdkgRBORGl09sLmw": {"geometry": {"location": {"lat": 51.5116997, "lng": -0.1904008}, "viewport": {"northeast": {"lat": 51.51302253029149, "lng": -0.189234769708498}, "southwest": {"lat": 51.51032456970849, "lng": -0.191932730291502}}}, "name": "Amelia Pink London", "place_id": "ChIJF1zt0W8PdkgRBORGl09sLmw", "types": ["jewelry_store", "point_of_interest", "store", "establishment"], "rating": 5, "user_ratings_total": 2}, "ChIJYRvMDZYPdkgRE_gu3_UvjfA": {"geometry": {"location": {"lat": 51.5121276, "lng": -0.1912895}, "viewport": {"northeast": {"lat": 51.51350143029151, "lng": -0.189775519708498}, "southwest": {"lat": 51.51080346970851, "lng": -0.192473480291502}}}, "name": "Guillam Coffee House", "place_id": "ChIJYRvMDZYPdkgRE_gu3_UvjfA", "types": ["cafe", "food", "point_of_interest", "establishment"], "rating": 5, "user_ratings_total": 19}, "ChIJT8E5__4PdkgRK0Fp7Aku1nc": {"geometry": {"location": {"lat": 51.5121276, "lng": -0.1912895}, "viewport": {"northeast": {"lat": 51.5134999802915, "lng": -0.189774919708498}, "southwest": {"lat": 51.5108020197085, "lng": -0.192472880291502}}}, "name": "Wolff Olins", "place_id": "ChIJT8E5__4PdkgRK0Fp7Aku1nc", "types": ["point_of_interest", "establishment"]}, "ChIJz8QAW1YPdkgRL-S4yzGNZ70": {"geometry": {"location": {"lat": 51.5121668, "lng": -0.1906934}, "viewport": {"northeast": {"lat": 51.5134971802915, "lng": -0.189468169708498}, "southwest": {"lat": 51.51079921970851, "lng": -0.192166130291502}}}, "name": "Pc and Laptop Repairs", "place_id": "ChIJz8QAW1YPdkgRL-S4yzGNZ70", "types": ["point_of_interest", "establishment"], "rating": 5, "user_ratings_total": 3}, "ChIJ9yqNJP8PdkgR6ravWX7GZVY": {"geometry": {"location": {"lat": 51.5106347817998, "lng": -0.1904006836584265}, "viewport": {"northeast": {"lat": 51.5119836302915, "lng": -0.189052869708498}, "southwest": {"lat": 51.5092856697085, "lng": -0.191750830291502}}}, "name": "8-4 St Petersburgh Pl", "place_id": "ChIJ9yqNJP8PdkgR6ravWX7GZVY", "types": ["route"]}, "ChIJO7VMLv8PdkgRlhWmgC-2q4s": {"geometry": {"location": {"lat": 51.510377, "lng": -0.1905689}, "viewport": {"northeast": {"lat": 51.5118959302915, "lng": -0.1890968697084979}, "southwest": {"lat": 51.5091979697085, "lng": -0.191794830291502}}}, "name": "DoubleTree by Hilton Hotel London - Hyde Park", "place_id": "ChIJO7VMLv8PdkgRlhWmgC-2q4s", "types": ["lodging", "point_of_interest", "establishment"], "rating": 4.1, "user_ratings_total": 1061}, "ChIJD6D8x5cPdkgRcWFK6T6pXuE": {"geometry": {"location": {"lat": 51.5105357, "lng": -0.1917929}, "viewport": {"northeast": {"lat": 51.51188468029149, "lng": -0.190443919708498}, "southwest": {"lat": 51.5091867197085, "lng": -0.193141880291502}}}, "name": "Talking Time Therapy", "place_id": "ChIJD6D8x5cPdkgRcWFK6T6pXuE", "types": ["health", "point_of_interest", "establishment"]}, "ChIJXUnPdNUadkgRCclssWggU00": {"geometry": {"location": {"lat": 51.5104245, "lng": -0.1918930999999999}, "viewport": {"northeast": {"lat": 51.5117848302915, "lng": -0.1904752197084979}, "southwest": {"lat": 51.5090868697085, "lng": -0.193173180291502}}}, "name": "Chelsea Education Ltd.", "place_id": "ChIJXUnPdNUadkgRCclssWggU00", "types": ["point_of_interest", "establishment"]}, "ChIJW_VDlC4FdkgRgivmQ23oPZE": {"geometry": {"location": {"lat": 51.5104245, "lng": -0.1918930999999999}, "viewport": {"northeast": {"lat": 51.5117848302915, "lng": -0.1904752197084979}, "southwest": {"lat": 51.5090868697085, "lng": -0.193173180291502}}}, "name": "Dover Construction", "place_id": "ChIJW_VDlC4FdkgRgivmQ23oPZE", "types": ["point_of_interest", "establishment"], "rating": 3, "user_ratings_total": 6}, "ChIJo44qDCIFdkgR8skZy3EorMU": {"geometry": {"location": {"lat": 51.5104245, "lng": -0.1918930999999999}, "viewport": {"northeast": {"lat": 51.5117848302915, "lng": -0.1904752197084979}, "southwest": {"lat": 51.5090868697085, "lng": -0.193173180291502}}}, "name": "Wholistic Body Life", "place_id": "ChIJo44qDCIFdkgR8skZy3EorMU", "types": ["health", "point_of_interest", "establishment"], "rating": 5, "user_ratings_total": 24}, "ChIJfXDtIf8PdkgR8mUAGVV0Oqc": {"geometry": {"location": {"lat": 51.5108372, "lng": -0.1906442}, "viewport": {"northeast": {"lat": 51.5121978802915, "lng": -0.189211819708498}, "southwest": {"lat": 51.5094999197085, "lng": -0.191909780291502}}}, "name": "St Olaves Court", "place_id": "ChIJfXDtIf8PdkgR8mUAGVV0Oqc", "types": ["point_of_interest", "establishment"]}, "ChIJAXT04P4PdkgRFdqP3Hrumpc": {"geometry": {"location": {"lat": 51.5110064, "lng": -0.1911699}, "viewport": {"northeast": {"lat": 51.5123951802915, "lng": -0.1895132697084979}, "southwest": {"lat": 51.5096972197085, "lng": -0.192211230291502}}}, "name": "Debra Press Fine Art", "place_id": "ChIJAXT04P4PdkgRFdqP3Hrumpc", "types": ["art_gallery", "point_of_interest", "establishment"]}, "ChIJfXlbnIgPdkgRd9nKRYg4ZXc": {"geometry": {"location": {"lat": 51.5110064, "lng": -0.1911699}, "viewport": {"northeast": {"lat": 51.5123951802915, "lng": -0.1895132697084979}, "southwest": {"lat": 51.5096972197085, "lng": -0.192211230291502}}}, "name": "Kankoor Education", "place_id": "ChIJfXlbnIgPdkgRd9nKRYg4ZXc", "types": ["point_of_interest", "establishment"]}, "ChIJXTk1qvUPdkgRj-3_fok_ALo": {"geometry": {"location": {"lat": 51.5109532, "lng": -0.1907306}, "viewport": {"northeast": {"lat": 51.5120280802915, "lng": -0.189240569708498}, "southwest": {"lat": 51.5093301197085, "lng": -0.191938530291502}}}, "name": "Royal Dent", "place_id": "ChIJXTk1qvUPdkgRj-3_fok_ALo", "types": ["dentist", "health", "point_of_interest", "establishment"], "rating": 5, "user_ratings_total": 3}, "ChIJ1Uggw_4PdkgRrw27qj86akQ": {"geometry": {"location": {"lat": 51.51073659999999, "lng": -0.1917833}, "viewport": {"northeast": {"lat": 51.5120793302915, "lng": -0.190473169708498}, "southwest": {"lat": 51.5093813697085, "lng": -0.193171130291502}}}, "name": "Zipcar", "place_id": "ChIJ1Uggw_4PdkgRrw27qj86akQ", "types": ["car_rental", "point_of_interest", "establishment"]}, "ChIJ0XL5ziAPdkgRD6IQymDXRCc": {"geometry": {"location": {"lat": 51.5102857, "lng": -0.1906145}, "viewport": {"northeast": {"lat": 51.5117666302915, "lng": -0.189145169708498}, "southwest": {"lat": 51.5090686697085, "lng": -0.191843130291502}}}, "name": "\u0641\u0646\u062f\u0642 \u0644\u0646\u062f\u0646", "place_id": "ChIJ0XL5ziAPdkgRD6IQymDXRCc", "types": ["lodging", "point_of_interest", "establishment"]}, "ChIJFRuFxxEPdkgRVQFagBokRN4": {"geometry": {"location": {"lat": 51.51092269999999, "lng": -0.1917547}, "viewport": {"northeast": {"lat": 51.5122564802915, "lng": -0.190499469708498}, "southwest": {"lat": 51.5095585197085, "lng": -0.193197430291502}}}, "name": "EPC Matter", "place_id": "ChIJFRuFxxEPdkgRVQFagBokRN4", "types": ["point_of_interest", "establishment"]}, "ChIJfW0-9EYPdkgRyRoLx2YYGCA": {"geometry": {"location": {"lat": 51.51092269999999, "lng": -0.1917547}, "viewport": {"northeast": {"lat": 51.5122564802915, "lng": -0.190499469708498}, "southwest": {"lat": 51.5095585197085, "lng": -0.193197430291502}}}, "name": "Polanco Sunglasses", "place_id": "ChIJfW0-9EYPdkgRyRoLx2YYGCA", "types": ["point_of_interest", "store", "establishment"]}, "ChIJVbRSlLUPdkgRk_PCkgvIsmI": {"geometry": {"location": {"lat": 51.5104245, "lng": -0.1918930999999999}, "viewport": {"northeast": {"lat": 51.5117848302915, "lng": -0.1904752197084979}, "southwest": {"lat": 51.5090868697085, "lng": -0.193173180291502}}}, "name": "Tati Silva Private Psychotherapist", "place_id": "ChIJVbRSlLUPdkgRk_PCkgvIsmI", "types": ["health", "point_of_interest", "establishment"], "rating": 5, "user_ratings_total": 5}, "ChIJfyrn1cEPdkgRg3USH2Pq6eE": {"geometry": {"location": {"lat": 51.5104245, "lng": -0.1918930999999999}, "viewport": {"northeast": {"lat": 51.5117848302915, "lng": -0.1904752197084979}, "southwest": {"lat": 51.5090868697085, "lng": -0.193173180291502}}}, "name": "Uberpay365", "place_id": "ChIJfyrn1cEPdkgRg3USH2Pq6eE", "types": ["finance", "point_of_interest", "establishment"], "rating": 5, "user_ratings_total": 1}, "ChIJy9Ia3T4PdkgRDbSSGwJ--rQ": {"geometry": {"location": {"lat": 51.5104245, "lng": -0.1918930999999999}, "viewport": {"northeast": {"lat": 51.5117848302915, "lng": -0.1904752197084979}, "southwest": {"lat": 51.5090868697085, "lng": -0.193173180291502}}}, "name": "SNAP-IT - Plumbing supplies - Download our app for instant delivery", "place_id": "ChIJy9Ia3T4PdkgRDbSSGwJ--rQ", "types": ["point_of_interest", "store", "establishment"], "rating": 4.9, "user_ratings_total": 49}, "ChIJJydZp94PdkgR5aynjaj5H64": {"geometry": {"location": {"lat": 51.5104245, "lng": -0.1918930999999999}, "viewport": {"northeast": {"lat": 51.5117848302915, "lng": -0.1904752197084979}, "southwest": {"lat": 51.5090868697085, "lng": -0.193173180291502}}}, "name": "HotelSEO", "place_id": "ChIJJydZp94PdkgR5aynjaj5H64", "types": ["point_of_interest", "establishment"]}, "ChIJFxpDxeQPdkgRgwtBHUWqVYQ": {"geometry": {"location": {"lat": 51.5104245, "lng": -0.1918930999999999}, "viewport": {"northeast": {"lat": 51.5117848302915, "lng": -0.1904752197084979}, "southwest": {"lat": 51.5090868697085, "lng": -0.193173180291502}}}, "name": "Nammu Workplace", "place_id": "ChIJFxpDxeQPdkgRgwtBHUWqVYQ", "types": ["point_of_interest", "establishment"]}, "ChIJAY2_YUkPdkgRu06UwnJSy_Y": {"geometry": {"location": {"lat": 51.5104245, "lng": -0.1918930999999999}, "viewport": {"northeast": {"lat": 51.5117848302915, "lng": -0.1904752197084979}, "southwest": {"lat": 51.5090868697085, "lng": -0.193173180291502}}}, "name": "The Mindful Practice", "place_id": "ChIJAY2_YUkPdkgRu06UwnJSy_Y", "types": ["health", "point_of_interest", "establishment"]}, "ChIJGzSCVH8FdkgR2fMgA9fPGLU": {"geometry": {"location": {"lat": 51.5104245, "lng": -0.1918930999999999}, "viewport": {"northeast": {"lat": 51.5117848302915, "lng": -0.1904752197084979}, "southwest": {"lat": 51.5090868697085, "lng": -0.193173180291502}}}, "name": "Solvid", "place_id": "ChIJGzSCVH8FdkgR2fMgA9fPGLU", "types": ["point_of_interest", "establishment"], "rating": 5, "user_ratings_total": 6}, "ChIJj1xUxP4PdkgR4HT3RaoF374": {"geometry": {"location": {"lat": 51.5104285, "lng": -0.1918963}, "viewport": {"northeast": {"lat": 51.5117889302915, "lng": -0.1904777197084979}, "southwest": {"lat": 51.5090909697085, "lng": -0.193175680291502}}}, "name": "Blixt Group Limited", "place_id": "ChIJj1xUxP4PdkgR4HT3RaoF374", "types": ["point_of_interest", "establishment"]}, "ChIJow0f6P4PdkgR-4uECgpAyGA": {"geometry": {"location": {"lat": 51.5109216, "lng": -0.1917851}, "viewport": {"northeast": {"lat": 51.51225773029149, "lng": -0.190515419708498}, "southwest": {"lat": 51.5095597697085, "lng": -0.193213380291502}}}, "name": "Manuel Rico Freire", "place_id": "ChIJow0f6P4PdkgR-4uECgpAyGA", "types": ["point_of_interest", "establishment"]}, "ChIJZb24KP8PdkgRX-iXCOprr-s": {"geometry": {"location": {"lat": 51.5102594, "lng": -0.1904782}, "viewport": {"northeast": {"lat": 51.51175348029149, "lng": -0.189077019708498}, "southwest": {"lat": 51.50905551970849, "lng": -0.191774980291502}}}, "name": "Urban Meadow Cafe", "place_id": "ChIJZb24KP8PdkgRX-iXCOprr-s", "types": ["restaurant", "cafe", "food", "point_of_interest", "establishment"], "rating": 3.9, "user_ratings_total": 641}, "ChIJ12Sk2_4PdkgRPQuAJySNIgA": {"geometry": {"location": {"lat": 51.510458, "lng": -0.1914665}, "viewport": {"northeast": {"lat": 51.51182477782496, "lng": -0.1901313255248487}, "southwest": {"lat": 51.50912681724196, "lng": -0.1928292861078527}}}, "name": "Parking lot", "place_id": "ChIJ12Sk2_4PdkgRPQuAJySNIgA", "types": ["parking", "premise", "point_of_interest", "establishment"]}, "ChIJx8tR0f4PdkgRvTBXXSSbdGw": {"geometry": {"location": {"lat": 51.50998479064372, "lng": -0.1913420299125306}, "viewport": {"northeast": {"lat": 51.51133188029151, "lng": -0.189992569708498}, "southwest": {"lat": 51.50863391970851, "lng": -0.192690530291502}}}, "name": "Bayswater Road", "place_id": "ChIJx8tR0f4PdkgRvTBXXSSbdGw", "types": ["route"]}, "ChIJm9rh0v4PdkgRi1pBqguK9_U": {"geometry": {"location": {"lat": 51.50973079999999, "lng": -0.1915089}, "viewport": {"northeast": {"lat": 51.51097823029149, "lng": -0.190614719708498}, "southwest": {"lat": 51.50828026970849, "lng": -0.193312680291502}}}, "name": "Consular Section of the Russian Embassy", "place_id": "ChIJm9rh0v4PdkgRi1pBqguK9_U", "types": ["embassy", "point_of_interest", "establishment"], "rating": 3.9, "user_ratings_total": 18}, "ChIJC-BL0f4PdkgRSJeWmLtKFso": {"geometry": {"location": {"lat": 51.5099297, "lng": -0.1910666}, "viewport": {"northeast": {"lat": 51.5113187302915, "lng": -0.189701669708498}, "southwest": {"lat": 51.5086207697085, "lng": -0.192399630291502}}}, "name": "Palace Court (Stop S)", "place_id": "ChIJC-BL0f4PdkgRSJeWmLtKFso", "types": ["bus_station", "transit_station", "point_of_interest", "establishment"]}, "ChIJ7fwrMvkPdkgRNGwhZ80AaOg": {"geometry": {"location": {"lat": 51.5092871, "lng": -0.1918035}, "viewport": {"northeast": {"lat": 51.51064160526454, "lng": -0.1904580167410186}, "southwest": {"lat": 51.50794364468155, "lng": -0.1931559773240226}}}, "name": "Parking lot", "place_id": "ChIJ7fwrMvkPdkgRNGwhZ80AaOg", "types": ["parking", "premise", "point_of_interest", "establishment"]}, "ChIJhSc6iP4PdkgRLKFXJJF_rNQ": {"geometry": {"location": {"lat": 51.51217789810889, "lng": -0.1929904320082919}, "viewport": {"northeast": {"lat": 51.5135274302915, "lng": -0.191638419708498}, "southwest": {"lat": 51.5108294697085, "lng": -0.194336380291502}}}, "name": "Hereford Road", "place_id": "ChIJhSc6iP4PdkgRLKFXJJF_rNQ", "types": ["route"]}, "ChIJrRPekv4PdkgR3LyggebbVsQ": {"geometry": {"location": {"lat": 51.51175199999999, "lng": -0.1924279}, "viewport": {"northeast": {"lat": 51.51311028029149, "lng": -0.191022269708498}, "southwest": {"lat": 51.51041231970849, "lng": -0.193720230291502}}}, "name": "Tiko Construction", "place_id": "ChIJrRPekv4PdkgR3LyggebbVsQ", "types": ["general_contractor", "point_of_interest", "establishment"]}, "ChIJk8Bnkf4PdkgRJwt3i1zx42Q": {"geometry": {"location": {"lat": 51.511667, "lng": -0.1929699}, "viewport": {"northeast": {"lat": 51.5130732802915, "lng": -0.191595219708498}, "southwest": {"lat": 51.5103753197085, "lng": -0.194293180291502}}}, "name": "The Watch Men Agency", "place_id": "ChIJk8Bnkf4PdkgRJwt3i1zx42Q", "types": ["point_of_interest", "establishment"]}, "ChIJwa0fjv4PdkgRb-qGCL1CXXQ": {"geometry": {"location": {"lat": 51.51159349999999, "lng": -0.1929288}, "viewport": {"northeast": {"lat": 51.51295143029149, "lng": -0.191523319708498}, "southwest": {"lat": 51.51025346970849, "lng": -0.194221280291502}}}, "name": "Santamaria Shirtmakers. Open by appointment.", "place_id": "ChIJwa0fjv4PdkgRb-qGCL1CXXQ", "types": ["point_of_interest", "clothing_store", "store", "establishment"], "rating": 5, "user_ratings_total": 45}, "ChIJwa0fjv4PdkgRJSJ9WlgjOtE": {"geometry": {"location": {"lat": 51.5115724, "lng": -0.1928897000000001}, "viewport": {"northeast": {"lat": 51.5129270302915, "lng": -0.191505369708498}, "southwest": {"lat": 51.5102290697085, "lng": -0.194203330291502}}}, "name": "Bric Travel", "place_id": "ChIJwa0fjv4PdkgRJSJ9WlgjOtE", "types": ["travel_agency", "point_of_interest", "establishment"], "rating": 5, "user_ratings_total": 2}, "ChIJGeSSkf4PdkgRH3szs_CybpA": {"geometry": {"location": {"lat": 51.5114757, "lng": -0.1928632}, "viewport": {"northeast": {"lat": 51.5128322302915, "lng": -0.191466669708498}, "southwest": {"lat": 51.5101342697085, "lng": -0.194164630291502}}}, "name": "Peter Mann", "place_id": "ChIJGeSSkf4PdkgRH3szs_CybpA", "types": ["point_of_interest", "establishment"]}, "ChIJtxdYhf4PdkgRR4597ucPphg": {"geometry": {"location": {"lat": 51.51163150000001, "lng": -0.1931515}, "viewport": {"northeast": {"lat": 51.51304458029151, "lng": -0.191839319708498}, "southwest": {"lat": 51.51034661970851, "lng": -0.1945372802915021}}}, "name": "The Hill Cafe", "place_id": "ChIJtxdYhf4PdkgRR4597ucPphg", "types": ["cafe", "meal_takeaway", "restaurant", "food", "point_of_interest", "store", "establishment"], "rating": 4.2, "user_ratings_total": 56}, "ChIJJ2NBjv4PdkgRdyQ6oHGcC4k": {"geometry": {"location": {"lat": 51.51166629999999, "lng": -0.1929153}, "viewport": {"northeast": {"lat": 51.51307293029149, "lng": -0.191595219708498}, "southwest": {"lat": 51.51037496970849, "lng": -0.194293180291502}}}, "name": "Yoga Ride", "place_id": "ChIJJ2NBjv4PdkgRdyQ6oHGcC4k", "types": ["gym", "health", "point_of_interest", "establishment"]}, "ChIJAQBMjv4PdkgRmWOlhu-BO4c": {"geometry": {"location": {"lat": 51.51166689999999, "lng": -0.1929698}, "viewport": {"northeast": {"lat": 51.5130732302915, "lng": -0.191595219708498}, "southwest": {"lat": 51.5103752697085, "lng": -0.194293180291502}}}, "name": "YOGA-WOOD", "place_id": "ChIJAQBMjv4PdkgRmWOlhu-BO4c", "types": ["gym", "health", "point_of_interest", "establishment"]}, "ChIJAQBMjv4PdkgRtuzjBsACTRI": {"geometry": {"location": {"lat": 51.51166689999999, "lng": -0.1929698}, "viewport": {"northeast": {"lat": 51.51308298029149, "lng": -0.191655069708498}, "southwest": {"lat": 51.51038501970849, "lng": -0.194353030291502}}}, "name": "Heartcore", "place_id": "ChIJAQBMjv4PdkgRtuzjBsACTRI", "types": ["gym", "health", "point_of_interest", "establishment"], "rating": 4.7, "user_ratings_total": 15}, "ChIJ_RB4jf4PdkgRiAHRBwUjiUo": {"geometry": {"location": {"lat": 51.51160269999999, "lng": -0.1926206}, "viewport": {"northeast": {"lat": 51.51298068029149, "lng": -0.191095319708498}, "southwest": {"lat": 51.51028271970849, "lng": -0.193793280291502}}}, "name": "47 Palace Court", "place_id": "ChIJ_RB4jf4PdkgRiAHRBwUjiUo", "types": ["point_of_interest", "establishment"]}, "ChIJjR-e6bsPdkgRb2dXPbInyKY": {"geometry": {"location": {"lat": 51.51161800000001, "lng": -0.1925687}, "viewport": {"northeast": {"lat": 51.5129914802915, "lng": -0.1910707197084979}, "southwest": {"lat": 51.5102935197085, "lng": -0.193768680291502}}}, "name": "Alice Meynell Blue Plaque", "place_id": "ChIJjR-e6bsPdkgRb2dXPbInyKY", "types": ["point_of_interest", "establishment"], "rating": 4, "user_ratings_total": 1}, "ChIJf-FIj_4PdkgR4ffiuLd5P1k": {"geometry": {"location": {"lat": 51.511861, "lng": -0.193102}, "viewport": {"northeast": {"lat": 51.5131771302915, "lng": -0.1917340197084979}, "southwest": {"lat": 51.5104791697085, "lng": -0.194431980291502}}}, "name": "ubitricity Charging Station", "place_id": "ChIJf-FIj_4PdkgR4ffiuLd5P1k", "types": ["point_of_interest", "establishment"]}, "ChIJ0VNnhf4PdkgRwH6iV-T1ljk": {"geometry": {"location": {"lat": 51.51164780000001, "lng": -0.1932009}, "viewport": {"northeast": {"lat": 51.51304878029151, "lng": -0.191881769708498}, "southwest": {"lat": 51.51035081970851, "lng": -0.1945797302915021}}}, "name": "Central Wash", "place_id": "ChIJ0VNnhf4PdkgRwH6iV-T1ljk", "types": ["laundry", "point_of_interest", "establishment"], "rating": 4, "user_ratings_total": 29}, "ChIJob3x8v4PdkgRisgY7H1s8fc": {"geometry": {"location": {"lat": 51.51161219999999, "lng": -0.1924721}, "viewport": {"northeast": {"lat": 51.5129784302915, "lng": -0.1910181197084979}, "southwest": {"lat": 51.5102804697085, "lng": -0.193716080291502}}}, "name": "Capellania Catolica Espa\u00f1ola", "place_id": "ChIJob3x8v4PdkgRisgY7H1s8fc", "types": ["church", "place_of_worship", "point_of_interest", "establishment"], "rating": 4.5, "user_ratings_total": 4}, "ChIJs6jzW0cPdkgRljF8gRCAwzE": {"geometry": {"location": {"lat": 51.5116366, "lng": -0.1932851}, "viewport": {"northeast": {"lat": 51.5130343302915, "lng": -0.191963569708498}, "southwest": {"lat": 51.5103363697085, "lng": -0.194661530291502}}}, "name": "Notting Hill Residences", "place_id": "ChIJs6jzW0cPdkgRljF8gRCAwzE", "types": ["lodging", "point_of_interest", "establishment"], "rating": 4.5, "user_ratings_total": 4}, "ChIJY14-hf4PdkgRbAcvM7ilSXQ": {"geometry": {"location": {"lat": 51.5116366, "lng": -0.1932851}, "viewport": {"northeast": {"lat": 51.5130342302915, "lng": -0.191964069708498}, "southwest": {"lat": 51.5103362697085, "lng": -0.194662030291502}}}, "name": "Tracing Services", "place_id": "ChIJY14-hf4PdkgRbAcvM7ilSXQ", "types": ["point_of_interest", "establishment"]}, "ChIJqW288v4PdkgR9XdeuM8kgFo": {"geometry": {"location": {"lat": 51.511621, "lng": -0.192368}, "viewport": {"northeast": {"lat": 51.51297898029149, "lng": -0.190964419708498}, "southwest": {"lat": 51.5102810197085, "lng": -0.193662380291502}}}, "name": "ubitricity Charging Station", "place_id": "ChIJqW288v4PdkgR9XdeuM8kgFo", "types": ["point_of_interest", "establishment"]}, "ChIJsxFxaCAPdkgR5l5Y5V_8bhA": {"geometry": {"location": {"lat": 51.5118814, "lng": -0.1924177}, "viewport": {"northeast": {"lat": 51.5132309802915, "lng": -0.191065019708498}, "southwest": {"lat": 51.5105330197085, "lng": -0.193762980291502}}}, "name": "Recycling", "place_id": "ChIJsxFxaCAPdkgR5l5Y5V_8bhA", "types": ["point_of_interest", "establishment"]}, "ChIJRcxJhP4PdkgRryqLPJhZJTE": {"geometry": {"location": {"lat": 51.5118065, "lng": -0.1933953}, "viewport": {"northeast": {"lat": 51.51311793029149, "lng": -0.192024769708498}, "southwest": {"lat": 51.51041996970849, "lng": -0.194722730291502}}}, "name": "Prince Edward Mansions", "place_id": "ChIJRcxJhP4PdkgRryqLPJhZJTE", "types": ["point_of_interest", "establishment"], "rating": 4.5, "user_ratings_total": 2}, "ChIJX1zaYf4PdkgRPaEhNA-1lF4": {"geometry": {"location": {"lat": 51.5120591, "lng": -0.1925846}, "viewport": {"northeast": {"lat": 51.51337048029151, "lng": -0.191209919708498}, "southwest": {"lat": 51.51067251970851, "lng": -0.193907880291502}}}, "name": "Palace Court", "place_id": "ChIJX1zaYf4PdkgRPaEhNA-1lF4", "types": ["point_of_interest", "establishment"]}, "ChIJ0Vm9QPwPdkgRVY6ahLI9T1I": {"geometry": {"location": {"lat": 51.51159029999999, "lng": -0.1935174}, "viewport": {"northeast": {"lat": 51.51299523029149, "lng": -0.1921935697084979}, "southwest": {"lat": 51.5102972697085, "lng": -0.194891530291502}}}, "name": "Pembridge Hall School", "place_id": "ChIJ0Vm9QPwPdkgRVY6ahLI9T1I", "types": ["school", "point_of_interest", "establishment"], "rating": 4.5, "user_ratings_total": 2}, "ChIJe-PJif4PdkgRv7JI7TaqEyQ": {"geometry": {"location": {"lat": 51.5121396, "lng": -0.192973}, "viewport": {"northeast": {"lat": 51.5134799802915, "lng": -0.191672719708498}, "southwest": {"lat": 51.5107820197085, "lng": -0.194370680291502}}}, "name": "Savana Urban Spa", "place_id": "ChIJe-PJif4PdkgRv7JI7TaqEyQ", "types": ["spa", "health", "point_of_interest", "establishment"]}, "ChIJ57AB7v4PdkgRhkfuPKV9quc": {"geometry": {"location": {"lat": 51.5115589, "lng": -0.1920583}, "viewport": {"northeast": {"lat": 51.5128950802915, "lng": -0.190787119708498}, "southwest": {"lat": 51.5101971197085, "lng": -0.193485080291502}}}, "name": "Dp Music Limited", "place_id": "ChIJ57AB7v4PdkgRhkfuPKV9quc", "types": ["point_of_interest", "establishment"]}, "ChIJ2-Rflf4PdkgRVkTr-nIvWiw": {"geometry": {"location": {"lat": 51.51064166121266, "lng": -0.1924193290750132}, "viewport": {"northeast": {"lat": 51.5119900802915, "lng": -0.1910740197084979}, "southwest": {"lat": 51.5092921197085, "lng": -0.193771980291502}}}, "name": "20-2 Ossington St", "place_id": "ChIJ2-Rflf4PdkgRVkTr-nIvWiw", "types": ["route"]}, "ChIJkzoUsP4PdkgRAeahj89gtuk": {"geometry": {"location": {"lat": 51.5102207, "lng": -0.1930007}, "viewport": {"northeast": {"lat": 51.51155608029151, "lng": -0.191755369708498}, "southwest": {"lat": 51.50885811970851, "lng": -0.1944533302915021}}}, "name": "Notting Hill Gate Hotel", "place_id": "ChIJkzoUsP4PdkgRAeahj89gtuk", "types": ["lodging", "point_of_interest", "establishment"], "rating": 3.4, "user_ratings_total": 359}, "ChIJAVMq6MIPdkgRCUlDiAA_KAc": {"geometry": {"location": {"lat": 51.51056790000001, "lng": -0.1931365}, "viewport": {"northeast": {"lat": 51.51190408029151, "lng": -0.191882719708498}, "southwest": {"lat": 51.50920611970852, "lng": -0.194580680291502}}}, "name": "we.are.DESI Ltd", "place_id": "ChIJAVMq6MIPdkgRCUlDiAA_KAc", "types": ["point_of_interest", "establishment"]}, "ChIJuyB0uP4PdkgR0pOeOvW3E5A": {"geometry": {"location": {"lat": 51.51034780000001, "lng": -0.1924666}, "viewport": {"northeast": {"lat": 51.5117109802915, "lng": -0.191034019708498}, "southwest": {"lat": 51.5090130197085, "lng": -0.193731980291502}}}, "name": "Paul Raw", "place_id": "ChIJuyB0uP4PdkgR0pOeOvW3E5A", "types": ["health", "point_of_interest", "establishment"], "rating": 5, "user_ratings_total": 1}, "ChIJIz-Ipv4PdkgRVj_ACbP1FoI": {"geometry": {"location": {"lat": 51.5104707, "lng": -0.1934562}, "viewport": {"northeast": {"lat": 51.5118295802915, "lng": -0.192033619708498}, "southwest": {"lat": 51.5091316197085, "lng": -0.194731580291502}}}, "name": "RH RUBBISH CLEARANCE (Richard Horsted Property)intenance \"", "place_id": "ChIJIz-Ipv4PdkgRVj_ACbP1FoI", "types": ["point_of_interest", "establishment"]}, "ChIJ5Rs_wf4PdkgRVVoN4SOJmT8": {"geometry": {"location": {"lat": 51.5103829, "lng": -0.1920411}, "viewport": {"northeast": {"lat": 51.5117559802915, "lng": -0.190545769708498}, "southwest": {"lat": 51.5090580197085, "lng": -0.193243730291502}}}, "name": "Kromat Trading Ltd", "place_id": "ChIJ5Rs_wf4PdkgRVVoN4SOJmT8", "types": ["point_of_interest", "establishment"]}, "ChIJx_l2zO0PdkgRUPm71UH6Ios": {"geometry": {"location": {"lat": 51.51049980000001, "lng": -0.1930928}, "viewport": {"northeast": {"lat": 51.5118347302915, "lng": -0.191848669708498}, "southwest": {"lat": 51.5091367697085, "lng": -0.194546630291502}}}, "name": "EComputers repairs", "place_id": "ChIJx_l2zO0PdkgRUPm71UH6Ios", "types": ["point_of_interest", "establishment"]}, "ChIJl7JjlmAPdkgRS-1EpTdG80Y": {"geometry": {"location": {"lat": 51.5105417, "lng": -0.1934986}, "viewport": {"northeast": {"lat": 51.5119016802915, "lng": -0.1920675197084979}, "southwest": {"lat": 51.5092037197085, "lng": -0.194765480291502}}}, "name": "Incubator", "place_id": "ChIJl7JjlmAPdkgRS-1EpTdG80Y", "types": ["point_of_interest", "establishment"]}, "ChIJGW6oq_4PdkgRb7bw4o_xt2I": {"geometry": {"location": {"lat": 51.51055729999999, "lng": -0.1935141}, "viewport": {"northeast": {"lat": 51.5119179302915, "lng": -0.192078169708498}, "southwest": {"lat": 51.5092199697085, "lng": -0.194776130291502}}}, "name": "hotel fire safety", "place_id": "ChIJGW6oq_4PdkgRb7bw4o_xt2I", "types": ["point_of_interest", "establishment"]}, "ChIJF_Vi8rIcdkgR-Izp1llhyWQ": {"geometry": {"location": {"lat": 51.5108468, "lng": -0.1922280999999999}, "viewport": {"northeast": {"lat": 51.5122189302915, "lng": -0.190736369708498}, "southwest": {"lat": 51.5095209697085, "lng": -0.193434330291502}}}, "name": "The 48 Group Club", "place_id": "ChIJF_Vi8rIcdkgR-Izp1llhyWQ", "types": ["point_of_interest", "establishment"], "rating": 5, "user_ratings_total": 2}, "ChIJOdV2pv4PdkgRr9oIRJ9A8io": {"geometry": {"location": {"lat": 51.51036180000001, "lng": -0.1935585}, "viewport": {"northeast": {"lat": 51.51172923029149, "lng": -0.192069069708498}, "southwest": {"lat": 51.50903126970849, "lng": -0.194767030291502}}}, "name": "Glissen Management Ltd", "place_id": "ChIJOdV2pv4PdkgRr9oIRJ9A8io", "types": ["point_of_interest", "establishment"]}, "ChIJY0SGpf4PdkgRtHx6R1kQKd0": {"geometry": {"location": {"lat": 51.5102699, "lng": -0.1934661}, "viewport": {"northeast": {"lat": 51.5116334802915, "lng": -0.192005969708498}, "southwest": {"lat": 51.5089355197085, "lng": -0.1947039302915021}}}, "name": "Notting Hill Studio", "place_id": "ChIJY0SGpf4PdkgRtHx6R1kQKd0", "types": ["health", "point_of_interest", "establishment"]}, "ChIJN7dh6v4PdkgRAtQFNOIZH28": {"geometry": {"location": {"lat": 51.51097799999999, "lng": -0.192245}, "viewport": {"northeast": {"lat": 51.51234738029149, "lng": -0.1907711697084979}, "southwest": {"lat": 51.5096494197085, "lng": -0.193469130291502}}}, "name": "Brigham Young University", "place_id": "ChIJN7dh6v4PdkgRAtQFNOIZH28", "types": ["university", "point_of_interest", "establishment"], "rating": 5, "user_ratings_total": 8}, "ChIJhzRsyv4PdkgRI8kvHwtJg_M": {"geometry": {"location": {"lat": 51.50983825021017, "lng": -0.1923483502271862}, "viewport": {"northeast": {"lat": 51.5111872302915, "lng": -0.190999369708498}, "southwest": {"lat": 51.5084892697085, "lng": -0.193697330291502}}}, "name": "6-2 Bayswater Rd", "place_id": "ChIJhzRsyv4PdkgRI8kvHwtJg_M", "types": ["route"]}, "ChIJGW6oq_4PdkgR38lFK8g8yJ0": {"geometry": {"location": {"lat": 51.50989920000001, "lng": -0.1929262}, "viewport": {"northeast": {"lat": 51.51116618029149, "lng": -0.191535469708498}, "southwest": {"lat": 51.5084682197085, "lng": -0.194233430291502}}}, "name": "Zizzi", "place_id": "ChIJGW6oq_4PdkgR38lFK8g8yJ0", "types": ["restaurant", "food", "point_of_interest", "store", "establishment"], "rating": 4, "user_ratings_total": 799}, "ChIJzR8nTPkPdkgRotvywb4etIQ": {"geometry": {"location": {"lat": 51.509387, "lng": -0.193483}, "viewport": {"northeast": {"lat": 51.5108151302915, "lng": -0.192174769708498}, "southwest": {"lat": 51.50811716970851, "lng": -0.194872730291502}}}, "name": "Embassy of the Czech Republic", "place_id": "ChIJzR8nTPkPdkgRotvywb4etIQ", "types": ["embassy", "point_of_interest", "establishment"], "rating": 3.4, "user_ratings_total": 191}, "ChIJYXn2rP4PdkgRczTXygmdEg8": {"geometry": {"location": {"lat": 51.5097828, "lng": -0.1934808}, "viewport": {"northeast": {"lat": 51.5110658802915, "lng": -0.1921001697084979}, "southwest": {"lat": 51.5083679197085, "lng": -0.194798130291502}}}, "name": "De Amicis", "place_id": "ChIJYXn2rP4PdkgRczTXygmdEg8", "types": ["meal_takeaway", "restaurant", "food", "point_of_interest", "establishment"], "rating": 4.3, "user_ratings_total": 255}, "ChIJT8Rttv4PdkgRoVr_ggPuB3g": {"geometry": {"location": {"lat": 51.5099872, "lng": -0.192386}, "viewport": {"northeast": {"lat": 51.5112655302915, "lng": -0.190998069708498}, "southwest": {"lat": 51.5085675697085, "lng": -0.193696030291502}}}, "name": "London Premier Laser Notting Hill Gate", "place_id": "ChIJT8Rttv4PdkgRoVr_ggPuB3g", "types": ["beauty_salon", "hair_care", "health", "point_of_interest", "establishment"], "rating": 4.5, "user_ratings_total": 142}, "ChIJ92z7sP4PdkgRxTHyQf9FwKU": {"geometry": {"location": {"lat": 51.50980079999999, "lng": -0.193227}, "viewport": {"northeast": {"lat": 51.5111594302915, "lng": -0.191805119708498}, "southwest": {"lat": 51.5084614697085, "lng": -0.194503080291502}}}, "name": "TVT Lettings", "place_id": "ChIJ92z7sP4PdkgRxTHyQf9FwKU", "types": ["real_estate_agency", "point_of_interest", "establishment"]}, "ChIJ_6GcU_kPdkgRvDlDWCeI-uw": {"geometry": {"location": {"lat": 51.5094088, "lng": -0.1934774}, "viewport": {"northeast": {"lat": 51.51082753029149, "lng": -0.192164319708498}, "southwest": {"lat": 51.50812956970849, "lng": -0.194862280291502}}}, "name": "Czech Trade", "place_id": "ChIJ_6GcU_kPdkgRvDlDWCeI-uw", "types": ["point_of_interest", "establishment"]}, "ChIJXRhAh_cPdkgRlu7C_31hGog": {"geometry": {"location": {"lat": 51.5099285, "lng": -0.1925029}, "viewport": {"northeast": {"lat": 51.5112224302915, "lng": -0.1911303197084979}, "southwest": {"lat": 51.5085244697085, "lng": -0.193828280291502}}}, "name": "Embassy of the Russian Federation", "place_id": "ChIJXRhAh_cPdkgRlu7C_31hGog", "types": ["embassy", "local_government_office", "point_of_interest", "establishment"], "rating": 3.9, "user_ratings_total": 206}, "ChIJT8Rttv4PdkgRXLeJ0TRtjkM": {"geometry": {"location": {"lat": 51.50995640000001, "lng": -0.1925265}, "viewport": {"northeast": {"lat": 51.51122203029151, "lng": -0.191209219708498}, "southwest": {"lat": 51.50852406970851, "lng": -0.193907180291502}}}, "name": "Cafe Diana", "place_id": "ChIJT8Rttv4PdkgRXLeJ0TRtjkM", "types": ["cafe", "night_club", "bar", "restaurant", "food", "point_of_interest", "establishment"], "rating": 4.2, "user_ratings_total": 661}, "ChIJGW6oq_4PdkgRvFsIgHS-Vy0": {"geometry": {"location": {"lat": 51.50973949999999, "lng": -0.1935456}, "viewport": {"northeast": {"lat": 51.51104003029149, "lng": -0.192174219708498}, "southwest": {"lat": 51.5083420697085, "lng": -0.194872180291502}}}, "name": "Embassy News", "place_id": "ChIJGW6oq_4PdkgRvFsIgHS-Vy0", "types": ["point_of_interest", "store", "establishment"], "rating": 4.5, "user_ratings_total": 10}, "ChIJcxnEK9sPdkgR1gOFBWE2Kes": {"geometry": {"location": {"lat": 51.50977570000001, "lng": -0.1933874}, "viewport": {"northeast": {"lat": 51.5110629302915, "lng": -0.192034219708498}, "southwest": {"lat": 51.5083649697085, "lng": -0.194732180291502}}}, "name": "Pro Waxing", "place_id": "ChIJcxnEK9sPdkgR1gOFBWE2Kes", "types": ["beauty_salon", "hair_care", "point_of_interest", "establishment"], "rating": 4.4, "user_ratings_total": 24}, "ChIJzR8nTPkPdkgRLhbmUl-XQeA": {"geometry": {"location": {"lat": 51.50994, "lng": -0.1924481}, "viewport": {"northeast": {"lat": 51.5112148302915, "lng": -0.191160419708498}, "southwest": {"lat": 51.5085168697085, "lng": -0.193858380291502}}}, "name": "Embassy of Slovakia", "place_id": "ChIJzR8nTPkPdkgRLhbmUl-XQeA", "types": ["embassy", "point_of_interest", "establishment"], "rating": 3.5, "user_ratings_total": 180}, "ChIJTfHVsv4PdkgRMlxCZ_35D1g": {"geometry": {"location": {"lat": 51.509602, "lng": -0.192963}, "viewport": {"northeast": {"lat": 51.5110011302915, "lng": -0.191633819708498}, "southwest": {"lat": 51.5083031697085, "lng": -0.194331780291502}}}, "name": "Notting Hill Gate Station (Stop N)", "place_id": "ChIJTfHVsv4PdkgRMlxCZ_35D1g", "types": ["transit_station", "point_of_interest", "establishment"], "rating": 3, "user_ratings_total": 3}, "ChIJxesrUiAPdkgRQfBXV-AbM4M": {"geometry": {"location": {"lat": 51.5096152, "lng": -0.1929736}, "viewport": {"northeast": {"lat": 51.5110069802915, "lng": -0.191646419708498}, "southwest": {"lat": 51.50830901970851, "lng": -0.1943443802915021}}}, "name": "\u725b\u6d25\u6c7d\u8f66\u4e2d\u9014\u505c\u8f66\u5730\u65b9", "place_id": "ChIJxesrUiAPdkgRQfBXV-AbM4M", "types": ["lodging", "point_of_interest", "establishment"]}, "ChIJ28IbOGkPdkgRu6WDeeQ_iNg": {"geometry": {"location": {"lat": 51.50967499999999, "lng": -0.1929762}, "viewport": {"northeast": {"lat": 51.5110247302915, "lng": -0.191627619708498}, "southwest": {"lat": 51.5083267697085, "lng": -0.194325580291502}}}, "name": "Notting Hill Gate N ( for Oxford Tube)", "place_id": "ChIJ28IbOGkPdkgRu6WDeeQ_iNg", "types": ["point_of_interest", "establishment"]}, "ChIJG7Hxqv4PdkgRwBg7oqHmSTM": {"geometry": {"location": {"lat": 51.5095201, "lng": -0.1931781}, "viewport": {"northeast": {"lat": 51.5109146802915, "lng": -0.191890769708498}, "southwest": {"lat": 51.5082167197085, "lng": -0.194588730291502}}}, "name": "NOTTING HILL FINANCE", "place_id": "ChIJG7Hxqv4PdkgRwBg7oqHmSTM", "types": ["finance", "point_of_interest", "establishment"], "rating": 3.3, "user_ratings_total": 3}, "ChIJ695oGj0PdkgR1G_8KlYnHjE": {"geometry": {"location": {"lat": 51.50978490000001, "lng": -0.1925936}, "viewport": {"northeast": {"lat": 51.5111643302915, "lng": -0.191257619708498}, "southwest": {"lat": 51.5084663697085, "lng": -0.193955580291502}}}, "name": "Holland Park Electricians", "place_id": "ChIJ695oGj0PdkgR1G_8KlYnHjE", "types": ["electrician", "point_of_interest", "establishment"], "rating": 5, "user_ratings_total": 1}, "ChIJgegQtP4PdkgRf3nKacPJpXo": {"geometry": {"location": {"lat": 51.5098733, "lng": -0.192734}, "viewport": {"northeast": {"lat": 51.5111694802915, "lng": -0.191357719708498}, "southwest": {"lat": 51.5084715197085, "lng": -0.194055680291502}}}, "name": "Nature Chinese Medicine Centre", "place_id": "ChIJgegQtP4PdkgRf3nKacPJpXo", "types": ["store", "point_of_interest", "establishment"]}, "ChIJOdXxrP4PdkgRP3y4KJcOPdc": {"geometry": {"location": {"lat": 51.50972960000001, "lng": -0.1933566}, "viewport": {"northeast": {"lat": 51.5110396802915, "lng": -0.191994619708498}, "southwest": {"lat": 51.5083417197085, "lng": -0.194692580291502}}}, "name": "Palace Gardens Terrace (Stop M)", "place_id": "ChIJOdXxrP4PdkgRP3y4KJcOPdc", "types": ["bus_station", "transit_station", "point_of_interest", "establishment"], "rating": 3, "user_ratings_total": 1}, "ChIJy9hZtP4PdkgRKvjkR8_OOHw": {"geometry": {"location": {"lat": 51.50993419999999, "lng": -0.1927903}, "viewport": {"northeast": {"lat": 51.51119768029149, "lng": -0.191397069708498}, "southwest": {"lat": 51.50849971970849, "lng": -0.194095030291502}}}, "name": "Nature Chinese Medicine Centre", "place_id": "ChIJy9hZtP4PdkgRKvjkR8_OOHw", "types": ["spa", "point_of_interest", "establishment"]}, "ChIJGW6oq_4PdkgRCtpMz-lz3J0": {"geometry": {"location": {"lat": 51.50979719999999, "lng": -0.1933981}, "viewport": {"northeast": {"lat": 51.5110736802915, "lng": -0.192039569708498}, "southwest": {"lat": 51.5083757197085, "lng": -0.194737530291502}}}, "name": "The Tanning Shop Notting Hill", "place_id": "ChIJGW6oq_4PdkgRCtpMz-lz3J0", "types": ["beauty_salon", "point_of_interest", "establishment"], "rating": 3.9, "user_ratings_total": 37}, "ChIJJXDu4pAPdkgRdAnAGAK4-80": {"geometry": {"location": {"lat": 51.509387, "lng": -0.193483}, "viewport": {"northeast": {"lat": 51.5108151302915, "lng": -0.192174769708498}, "southwest": {"lat": 51.50811716970851, "lng": -0.194872730291502}}}, "name": "Vitr\u00ednka Gallery", "place_id": "ChIJJXDu4pAPdkgRdAnAGAK4-80", "types": ["art_gallery", "point_of_interest", "establishment"]}, "ChIJfdF_2zsPdkgRRIG4xSKWL10": {"geometry": {"location": {"lat": 51.509387, "lng": -0.193483}, "viewport": {"northeast": {"lat": 51.5108151302915, "lng": -0.192174769708498}, "southwest": {"lat": 51.50811716970851, "lng": -0.194872730291502}}}, "name": "Sokolnice CZ", "place_id": "ChIJfdF_2zsPdkgRRIG4xSKWL10", "types": ["point_of_interest", "establishment"]}, "ChIJIyoaWAMbdkgRTMOeNwdUqJU": {"geometry": {"location": {"lat": 51.50979719999999, "lng": -0.1933981}, "viewport": {"northeast": {"lat": 51.5110736802915, "lng": -0.192045019708498}, "southwest": {"lat": 51.5083757197085, "lng": -0.194742980291502}}}, "name": "Kr\u0119garz", "place_id": "ChIJIyoaWAMbdkgRTMOeNwdUqJU", "types": ["physiotherapist", "health", "point_of_interest", "establishment"], "rating": 5, "user_ratings_total": 182}, "ChIJf2xOrP4PdkgRW-gdaFBEpfY": {"geometry": {"location": {"lat": 51.50979719999999, "lng": -0.1933981}, "viewport": {"northeast": {"lat": 51.5110736802915, "lng": -0.192046169708498}, "southwest": {"lat": 51.5083757197085, "lng": -0.194744130291502}}}, "name": "True Look", "place_id": "ChIJf2xOrP4PdkgRW-gdaFBEpfY", "types": ["point_of_interest", "establishment"], "rating": 5, "user_ratings_total": 1}, "ChIJz4qgziQbdkgRnbtkAShpv1k": {"geometry": {"location": {"lat": 51.50979719999999, "lng": -0.1933981}, "viewport": {"northeast": {"lat": 51.5110736802915, "lng": -0.192045019708498}, "southwest": {"lat": 51.5083757197085, "lng": -0.194742980291502}}}, "name": "Pro massage", "place_id": "ChIJz4qgziQbdkgRnbtkAShpv1k", "types": ["health", "point_of_interest", "establishment"], "rating": 5, "user_ratings_total": 126}, "ChIJT8Rttv4PdkgR79vRZWksUhw": {"geometry": {"location": {"lat": 51.5099718, "lng": -0.192516}, "viewport": {"northeast": {"lat": 51.51124183029151, "lng": -0.191138019708498}, "southwest": {"lat": 51.50854386970851, "lng": -0.1938359802915021}}}, "name": "Bruten & Co", "place_id": "ChIJT8Rttv4PdkgR79vRZWksUhw", "types": ["real_estate_agency", "point_of_interest", "establishment"], "rating": 1, "user_ratings_total": 23}, "ChIJGWDlVfkPdkgR8zSCuKbcojU": {"geometry": {"location": {"lat": 51.5093179, "lng": -0.1934703}, "viewport": {"northeast": {"lat": 51.5107784802915, "lng": -0.192178769708498}, "southwest": {"lat": 51.5080805197085, "lng": -0.194876730291502}}}, "name": "Czech Tourist Authority - CzechTourism", "place_id": "ChIJGWDlVfkPdkgR8zSCuKbcojU", "types": ["point_of_interest", "establishment"]}, "ChIJqcoVdpAPdkgRiwSELIZdn8U": {"geometry": {"location": {"lat": 51.5099705, "lng": -0.1925403}, "viewport": {"northeast": {"lat": 51.5112415802915, "lng": -0.191148319708498}, "southwest": {"lat": 51.5085436197085, "lng": -0.193846280291502}}}, "name": "Diana Lounge | Shisha | Hookah", "place_id": "ChIJqcoVdpAPdkgRiwSELIZdn8U", "types": ["restaurant", "food", "point_of_interest", "establishment"], "rating": 5, "user_ratings_total": 5}, "ChIJtQWEq_4PdkgRbbH0TPr3ARo": {"geometry": {"location": {"lat": 51.5097358, "lng": -0.1935444}, "viewport": {"northeast": {"lat": 51.5110381302915, "lng": -0.192173869708498}, "southwest": {"lat": 51.5083401697085, "lng": -0.194871830291502}}}, "name": "Embassy Net", "place_id": "ChIJtQWEq_4PdkgRbbH0TPr3ARo", "types": ["point_of_interest", "store", "establishment"], "rating": 4.5, "user_ratings_total": 57}, "ChIJmR4Q_9APdkgRy6bdzLDV0jg": {"geometry": {"location": {"lat": 51.5099438, "lng": -0.1924083}, "viewport": {"northeast": {"lat": 51.5112394302915, "lng": -0.191029869708498}, "southwest": {"lat": 51.5085414697085, "lng": -0.193727830291502}}}, "name": "Notting Hill Housing Charity Shop", "place_id": "ChIJmR4Q_9APdkgRy6bdzLDV0jg", "types": ["clothing_store", "point_of_interest", "store", "establishment"], "rating": 3, "user_ratings_total": 1}, "ChIJs8Vttv4PdkgRniwYO8jN7qY": {"geometry": {"location": {"lat": 51.50995529999999, "lng": -0.1923425}, "viewport": {"northeast": {"lat": 51.5112520802915, "lng": -0.190964619708498}, "southwest": {"lat": 51.5085541197085, "lng": -0.193662580291502}}}, "name": "GA Notting Hill", "place_id": "ChIJs8Vttv4PdkgRniwYO8jN7qY", "types": ["hair_care", "point_of_interest", "establishment"], "rating": 4.8, "user_ratings_total": 91}, "ChIJg5AU2WwPdkgRv0CdaWavO24": {"geometry": {"location": {"lat": 51.5097603, "lng": -0.1935661}, "viewport": {"northeast": {"lat": 51.51104953029149, "lng": -0.192189469708498}, "southwest": {"lat": 51.50835156970849, "lng": -0.194887430291502}}}, "name": "Bounce - Luggage Storage Notting Hill Gate", "place_id": "ChIJg5AU2WwPdkgRv0CdaWavO24", "types": ["storage", "point_of_interest", "store", "establishment"]}, "ChIJg1U40OUPdkgR9sPOAU35Yj4": {"geometry": {"location": {"lat": 51.5096036, "lng": -0.1936524999999999}, "viewport": {"northeast": {"lat": 51.5109322802915, "lng": -0.192293069708498}, "southwest": {"lat": 51.5082343197085, "lng": -0.194991030291502}}}, "name": "Alex Q Plumbing", "place_id": "ChIJg1U40OUPdkgR9sPOAU35Yj4", "types": ["plumber", "point_of_interest", "establishment"]}, "ChIJ_eEaOPkPdkgRSKHa3v-HTAk": {"geometry": {"location": {"lat": 51.5088917, "lng": -0.192539}, "viewport": {"northeast": {"lat": 51.5102790302915, "lng": -0.190975969708498}, "southwest": {"lat": 51.5075810697085, "lng": -0.193673930291502}}}, "name": "Saudi Palace", "place_id": "ChIJ_eEaOPkPdkgRSKHa3v-HTAk", "types": ["point_of_interest", "establishment"]}, "ChIJ3f6sNvEPdkgR3an40OkqYU4": {"geometry": {"location": {"lat": 51.5114593, "lng": -0.1943483}, "viewport": {"northeast": {"lat": 51.5128943302915, "lng": -0.193031119708498}, "southwest": {"lat": 51.5101963697085, "lng": -0.195729080291502}}}, "name": "otel", "place_id": "ChIJ3f6sNvEPdkgR3an40OkqYU4", "types": ["lodging", "point_of_interest", "establishment"], "rating": 1, "user_ratings_total": 1}, "ChIJT7HcG_wPdkgRPbLAv0YLV7M": {"geometry": {"location": {"lat": 51.5106393, "lng": -0.1941678}, "viewport": {"northeast": {"lat": 51.5119662302915, "lng": -0.192986869708498}, "southwest": {"lat": 51.5092682697085, "lng": -0.195684830291502}}}, "name": "The Limes", "place_id": "ChIJT7HcG_wPdkgRPbLAv0YLV7M", "types": ["point_of_interest", "establishment"], "rating": 1, "user_ratings_total": 1}, "ChIJZ0sA_s0PdkgRePVs1jCMqRQ": {"geometry": {"location": {"lat": 51.51016969999999, "lng": -0.1942804999999999}, "viewport": {"northeast": {"lat": 51.51151463029149, "lng": -0.192957269708498}, "southwest": {"lat": 51.5088166697085, "lng": -0.195655230291502}}}, "name": "Homeopathy Healing", "place_id": "ChIJZ0sA_s0PdkgRePVs1jCMqRQ", "types": ["health", "point_of_interest", "establishment"]}, "ChIJm84rAhAbdkgRV2A5DpA8wME": {"geometry": {"location": {"lat": 51.5101258, "lng": -0.1942405}, "viewport": {"northeast": {"lat": 51.5114675302915, "lng": -0.1929387697084979}, "southwest": {"lat": 51.50876956970851, "lng": -0.195636730291502}}}, "name": "Housego Solutions Limited - Real Estate Financial Modelling, London UK", "place_id": "ChIJm84rAhAbdkgRV2A5DpA8wME", "types": ["finance", "point_of_interest", "establishment"]}, "ChIJm84rAhAbdkgR3haSaWmQ7YU": {"geometry": {"location": {"lat": 51.5101255, "lng": -0.1942403}, "viewport": {"northeast": {"lat": 51.5114672302915, "lng": -0.192938669708498}, "southwest": {"lat": 51.5087692697085, "lng": -0.195636630291502}}}, "name": "Teymour Housego - bansuri player, London UK", "place_id": "ChIJm84rAhAbdkgR3haSaWmQ7YU", "types": ["electronics_store", "home_goods_store", "point_of_interest", "store", "establishment"], "rating": 5, "user_ratings_total": 1}, "ChIJVbahoP4PdkgRYLZz8CUDi-Q": {"geometry": {"location": {"lat": 51.5106183, "lng": -0.1938595}, "viewport": {"northeast": {"lat": 51.51200253685343, "lng": -0.1925431063159927}, "southwest": {"lat": 51.50930457627043, "lng": -0.1952410668989967}}}, "name": "Parking lot", "place_id": "ChIJVbahoP4PdkgRYLZz8CUDi-Q", "types": ["parking", "premise", "point_of_interest", "establishment"]}, "ChIJR1T_EvsPdkgRxQSr7hmH8HA": {"geometry": {"location": {"lat": 51.50927540000001, "lng": -0.1943358}, "viewport": {"northeast": {"lat": 51.51067198029151, "lng": -0.193008219708498}, "southwest": {"lat": 51.50797401970851, "lng": -0.1957061802915021}}}, "name": "Eat Tokyo (Notting Hill Gate)", "place_id": "ChIJR1T_EvsPdkgRxQSr7hmH8HA", "types": ["restaurant", "food", "point_of_interest", "establishment"], "rating": 4.2, "user_ratings_total": 1039}, "ChIJ8ePL_fsPdkgRfo8R9RBbYQ0": {"geometry": {"location": {"lat": 51.509227, "lng": -0.194153}, "viewport": {"northeast": {"lat": 51.51052183029149, "lng": -0.192859269708498}, "southwest": {"lat": 51.5078238697085, "lng": -0.195557230291502}}}, "name": "Barclays Eagle Lab Notting Hill Gate", "place_id": "ChIJ8ePL_fsPdkgRfo8R9RBbYQ0", "types": ["point_of_interest", "establishment"], "rating": 4.4, "user_ratings_total": 22}, "ChIJr4Ht__sPdkgRI0uHXEuNMNI": {"geometry": {"location": {"lat": 51.509657, "lng": -0.1938773000000001}, "viewport": {"northeast": {"lat": 51.5109663302915, "lng": -0.192508019708498}, "southwest": {"lat": 51.5082683697085, "lng": -0.1952059802915021}}}, "name": "London Heritage Design", "place_id": "ChIJr4Ht__sPdkgRI0uHXEuNMNI", "types": ["point_of_interest", "establishment"], "rating": 5, "user_ratings_total": 1}, "ChIJo8BT8swEdkgRjRQSnOZAjWY": {"geometry": {"location": {"lat": 51.509352, "lng": -0.1938469999999999}, "viewport": {"northeast": {"lat": 51.51075778029149, "lng": -0.1925356697084979}, "southwest": {"lat": 51.50805981970849, "lng": -0.195233630291502}}}, "name": "Czech Centre", "place_id": "ChIJo8BT8swEdkgRjRQSnOZAjWY", "types": ["point_of_interest", "establishment"], "rating": 4.6, "user_ratings_total": 15}, "ChIJGW6oq_4PdkgR3EJJQRxVkwA": {"geometry": {"location": {"lat": 51.5097315, "lng": -0.1937692}, "viewport": {"northeast": {"lat": 51.51101673029149, "lng": -0.192387619708498}, "southwest": {"lat": 51.5083187697085, "lng": -0.195085580291502}}}, "name": "Mail Boxes Etc. Notting Hill Gate", "place_id": "ChIJGW6oq_4PdkgR3EJJQRxVkwA", "types": ["point_of_interest", "store", "establishment"], "rating": 3.3, "user_ratings_total": 39}, "ChIJSwDxqv4PdkgRVd7J8-WfCyg": {"geometry": {"location": {"lat": 51.5097191, "lng": -0.1937914}, "viewport": {"northeast": {"lat": 51.5110680802915, "lng": -0.1924424197084979}, "southwest": {"lat": 51.5083701197085, "lng": -0.195140380291502}}}, "name": "Xlantic", "place_id": "ChIJSwDxqv4PdkgRVd7J8-WfCyg", "types": ["point_of_interest", "establishment"]}, "ChIJdy-U_vsPdkgRsrT6AOWQudg": {"geometry": {"location": {"lat": 51.5092607, "lng": -0.1942101}, "viewport": {"northeast": {"lat": 51.5105277302915, "lng": -0.192904869708498}, "southwest": {"lat": 51.5078297697085, "lng": -0.195602830291502}}}, "name": "Chancellors - Notting Hill Estate Agents", "place_id": "ChIJdy-U_vsPdkgRsrT6AOWQudg", "types": ["finance", "real_estate_agency", "point_of_interest", "establishment"], "rating": 4.8, "user_ratings_total": 149}, "ChIJGW6oq_4PdkgR0vKUCrgIsFE": {"geometry": {"location": {"lat": 51.50973560000001, "lng": -0.1937844}, "viewport": {"northeast": {"lat": 51.51101763029151, "lng": -0.192401169708498}, "southwest": {"lat": 51.50831966970851, "lng": -0.1950991302915021}}}, "name": "A to E Action Commercial Vehicles", "place_id": "ChIJGW6oq_4PdkgR0vKUCrgIsFE", "types": ["car_rental", "point_of_interest", "establishment"]}, "ChIJGW6oq_4PdkgRO0Dn3SOzzTc": {"geometry": {"location": {"lat": 51.50973560000001, "lng": -0.1937844}, "viewport": {"northeast": {"lat": 51.51101763029151, "lng": -0.192401169708498}, "southwest": {"lat": 51.50831966970851, "lng": -0.1950991302915021}}}, "name": "Swan Nanny Agency Limited", "place_id": "ChIJGW6oq_4PdkgRO0Dn3SOzzTc", "types": ["point_of_interest", "establishment"]}, "ChIJGW6oq_4PdkgRF4vKlsUZv6w": {"geometry": {"location": {"lat": 51.50973560000001, "lng": -0.1937844}, "viewport": {"northeast": {"lat": 51.51101763029151, "lng": -0.192401169708498}, "southwest": {"lat": 51.50831966970851, "lng": -0.1950991302915021}}}, "name": "Get Found London", "place_id": "ChIJGW6oq_4PdkgRF4vKlsUZv6w", "types": ["point_of_interest", "establishment"]}, "ChIJGW6oq_4PdkgR8LJzWIvj99A": {"geometry": {"location": {"lat": 51.50973560000001, "lng": -0.1937844}, "viewport": {"northeast": {"lat": 51.51101763029151, "lng": -0.192401169708498}, "southwest": {"lat": 51.50831966970851, "lng": -0.1950991302915021}}}, "name": "Nottinghill Cleaning & Maintenance Service", "place_id": "ChIJGW6oq_4PdkgR8LJzWIvj99A", "types": ["point_of_interest", "establishment"]}, "ChIJY6Kaqv4PdkgRD_izNUKZRn4": {"geometry": {"location": {"lat": 51.50973560000001, "lng": -0.1937844}, "viewport": {"northeast": {"lat": 51.51101763029151, "lng": -0.192401169708498}, "southwest": {"lat": 51.50831966970851, "lng": -0.1950991302915021}}}, "name": "Synaptic Media Ltd", "place_id": "ChIJY6Kaqv4PdkgRD_izNUKZRn4", "types": ["point_of_interest", "establishment"]}, "ChIJja-ClxsQdkgRNwirAH7jdzg": {"geometry": {"location": {"lat": 51.50973560000001, "lng": -0.1937844}, "viewport": {"northeast": {"lat": 51.51101763029151, "lng": -0.192401169708498}, "southwest": {"lat": 51.50831966970851, "lng": -0.1950991302915021}}}, "name": "Notting Hill Web Design", "place_id": "ChIJja-ClxsQdkgRNwirAH7jdzg", "types": ["point_of_interest", "establishment"], "rating": 5, "user_ratings_total": 11}, "ChIJg2Fnrf4PdkgRRD-IfQmlD-k": {"geometry": {"location": {"lat": 51.50973560000001, "lng": -0.1937844}, "viewport": {"northeast": {"lat": 51.51101763029151, "lng": -0.192401169708498}, "southwest": {"lat": 51.50831966970851, "lng": -0.1950991302915021}}}, "name": "CHRYSALIS ENGINEERING LTD", "place_id": "ChIJg2Fnrf4PdkgRRD-IfQmlD-k", "types": ["point_of_interest", "establishment"]}, "ChIJv3vyZDgKdkgRAZjzPajMBXY": {"geometry": {"location": {"lat": 51.50973560000001, "lng": -0.1937844}, "viewport": {"northeast": {"lat": 51.51101763029151, "lng": -0.192401169708498}, "southwest": {"lat": 51.50831966970851, "lng": -0.1950991302915021}}}, "name": "KS Windows", "place_id": "ChIJv3vyZDgKdkgRAZjzPajMBXY", "types": ["point_of_interest", "establishment"], "rating": 4.4, "user_ratings_total": 7}, "ChIJG7Hxqv4PdkgROwH1eIgA70M": {"geometry": {"location": {"lat": 51.5097219, "lng": -0.1937748}, "viewport": {"northeast": {"lat": 51.5110110302915, "lng": -0.192395169708498}, "southwest": {"lat": 51.5083130697085, "lng": -0.195093130291502}}}, "name": "Aiga Ceramics", "place_id": "ChIJG7Hxqv4PdkgROwH1eIgA70M", "types": ["point_of_interest", "establishment"]}, "ChIJG7Hxqv4PdkgR3FmqKkG1S1g": {"geometry": {"location": {"lat": 51.5097219, "lng": -0.1937748}, "viewport": {"northeast": {"lat": 51.5110110302915, "lng": -0.192395169708498}, "southwest": {"lat": 51.5083130697085, "lng": -0.195093130291502}}}, "name": "Pest Removals", "place_id": "ChIJG7Hxqv4PdkgR3FmqKkG1S1g", "types": ["home_goods_store", "point_of_interest", "store", "establishment"], "rating": 5, "user_ratings_total": 1}, "ChIJG7Hxqv4PdkgRL59BZk1VMuM": {"geometry": {"location": {"lat": 51.5097219, "lng": -0.1937748}, "viewport": {"northeast": {"lat": 51.5110110302915, "lng": -0.192395169708498}, "southwest": {"lat": 51.5083130697085, "lng": -0.195093130291502}}}, "name": "james stevens group", "place_id": "ChIJG7Hxqv4PdkgRL59BZk1VMuM", "types": ["point_of_interest", "establishment"], "rating": 5, "user_ratings_total": 25}, "ChIJG7Hxqv4PdkgRheYIDquBtf0": {"geometry": {"location": {"lat": 51.5097219, "lng": -0.1937748}, "viewport": {"northeast": {"lat": 51.5110110302915, "lng": -0.192395169708498}, "southwest": {"lat": 51.5083130697085, "lng": -0.195093130291502}}}, "name": "LMW Design", "place_id": "ChIJG7Hxqv4PdkgRheYIDquBtf0", "types": ["point_of_interest", "establishment"]}, "ChIJG7Hxqv4PdkgRI-jsQPOt89E": {"geometry": {"location": {"lat": 51.5097219, "lng": -0.1937748}, "viewport": {"northeast": {"lat": 51.5110110302915, "lng": -0.192395169708498}, "southwest": {"lat": 51.5083130697085, "lng": -0.195093130291502}}}, "name": "Notting Hill Renovation", "place_id": "ChIJG7Hxqv4PdkgRI-jsQPOt89E", "types": ["general_contractor", "point_of_interest", "establishment"]}, "ChIJG7Hxqv4PdkgRtOPWZFcMDZQ": {"geometry": {"location": {"lat": 51.5097219, "lng": -0.1937748}, "viewport": {"northeast": {"lat": 51.5110110302915, "lng": -0.192395169708498}, "southwest": {"lat": 51.5083130697085, "lng": -0.195093130291502}}}, "name": "Afilias India Private Limited", "place_id": "ChIJG7Hxqv4PdkgRtOPWZFcMDZQ", "types": ["point_of_interest", "establishment"]}, "ChIJs1H6XCEGdkgR5YqVc5ADuYY": {"geometry": {"location": {"lat": 51.5097219, "lng": -0.1937748}, "viewport": {"northeast": {"lat": 51.5110110302915, "lng": -0.192395169708498}, "southwest": {"lat": 51.5083130697085, "lng": -0.195093130291502}}}, "name": "Agnes & Pavel", "place_id": "ChIJs1H6XCEGdkgR5YqVc5ADuYY", "types": ["point_of_interest", "establishment"], "rating": 5, "user_ratings_total": 13}, "ChIJRdxfVC0DdkgRbOIDm7WjEgQ": {"geometry": {"location": {"lat": 51.5097219, "lng": -0.1937748}, "viewport": {"northeast": {"lat": 51.5110110302915, "lng": -0.192395169708498}, "southwest": {"lat": 51.5083130697085, "lng": -0.195093130291502}}}, "name": "LEARNING THAT WORKS LTD", "place_id": "ChIJRdxfVC0DdkgRbOIDm7WjEgQ", "types": ["point_of_interest", "establishment"]}, "ChIJG7Hxqv4PdkgR8X_PbUdCssU": {"geometry": {"location": {"lat": 51.5097219, "lng": -0.1937748}, "viewport": {"northeast": {"lat": 51.5110110302915, "lng": -0.192395169708498}, "southwest": {"lat": 51.5083130697085, "lng": -0.195093130291502}}}, "name": "Gas & Electricity Engineers", "place_id": "ChIJG7Hxqv4PdkgR8X_PbUdCssU", "types": ["electrician", "point_of_interest", "establishment"], "rating": 2.8, "user_ratings_total": 5}, "ChIJG7Hxqv4PdkgRxCvi6kFWQHU": {"geometry": {"location": {"lat": 51.5097219, "lng": -0.1937748}, "viewport": {"northeast": {"lat": 51.5110110302915, "lng": -0.192395169708498}, "southwest": {"lat": 51.5083130697085, "lng": -0.195093130291502}}}, "name": "WhyNotArt.com", "place_id": "ChIJG7Hxqv4PdkgRxCvi6kFWQHU", "types": ["art_gallery", "point_of_interest", "establishment"], "rating": 5, "user_ratings_total": 1}, "ChIJG7Hxqv4PdkgRee-ntFH1oZY": {"geometry": {"location": {"lat": 51.5097219, "lng": -0.1937748}, "viewport": {"northeast": {"lat": 51.5110110302915, "lng": -0.192395169708498}, "southwest": {"lat": 51.5083130697085, "lng": -0.195093130291502}}}, "name": "Seacrest", "place_id": "ChIJG7Hxqv4PdkgRee-ntFH1oZY", "types": ["point_of_interest", "establishment"]}, "ChIJG7Hxqv4PdkgRsSroE72S6jU": {"geometry": {"location": {"lat": 51.5097219, "lng": -0.1937748}, "viewport": {"northeast": {"lat": 51.5110110302915, "lng": -0.192395169708498}, "southwest": {"lat": 51.5083130697085, "lng": -0.195093130291502}}}, "name": "Britannica Capital", "place_id": "ChIJG7Hxqv4PdkgRsSroE72S6jU", "types": ["finance", "point_of_interest", "establishment"]}, "ChIJG7Hxqv4PdkgRXSCxPxBAZUI": {"geometry": {"location": {"lat": 51.5097219, "lng": -0.1937748}, "viewport": {"northeast": {"lat": 51.5110110302915, "lng": -0.192395169708498}, "southwest": {"lat": 51.5083130697085, "lng": -0.195093130291502}}}, "name": "Merconorte", "place_id": "ChIJG7Hxqv4PdkgRXSCxPxBAZUI", "types": ["point_of_interest", "establishment"]}, "ChIJSwDxqv4PdkgRlwMTXT6hnMc": {"geometry": {"location": {"lat": 51.5097259, "lng": -0.1937732}, "viewport": {"northeast": {"lat": 51.5110133302915, "lng": -0.192392719708498}, "southwest": {"lat": 51.5083153697085, "lng": -0.195090680291502}}}, "name": "PosterFriend", "place_id": "ChIJSwDxqv4PdkgRlwMTXT6hnMc", "types": ["point_of_interest", "establishment"]}, "ChIJSwDxqv4PdkgR9sHnvgLo7zA": {"geometry": {"location": {"lat": 51.5097259, "lng": -0.1937732}, "viewport": {"northeast": {"lat": 51.5110133302915, "lng": -0.192392719708498}, "southwest": {"lat": 51.5083153697085, "lng": -0.195090680291502}}}, "name": "MAE", "place_id": "ChIJSwDxqv4PdkgR9sHnvgLo7zA", "types": ["health", "point_of_interest", "establishment"]}, "ChIJ4VGOqv4PdkgRTdLrQGdXFhk": {"geometry": {"location": {"lat": 51.5097259, "lng": -0.1937732}, "viewport": {"northeast": {"lat": 51.5110133302915, "lng": -0.192392719708498}, "southwest": {"lat": 51.5083153697085, "lng": -0.195090680291502}}}, "name": "I L M M Ltd", "place_id": "ChIJ4VGOqv4PdkgRTdLrQGdXFhk", "types": ["point_of_interest", "establishment"]}, "ChIJ0bPQxjUSdkgR-RWiOEMbRYA": {"geometry": {"location": {"lat": 51.5097259, "lng": -0.1937732}, "viewport": {"northeast": {"lat": 51.5110133302915, "lng": -0.192392719708498}, "southwest": {"lat": 51.5083153697085, "lng": -0.195090680291502}}}, "name": "Microvera Ltd.", "place_id": "ChIJ0bPQxjUSdkgR-RWiOEMbRYA", "types": ["point_of_interest", "establishment"], "rating": 5, "user_ratings_total": 50}, "ChIJGW6oq_4PdkgRd2w8qfNmM3A": {"geometry": {"location": {"lat": 51.50964880000001, "lng": -0.1940115}, "viewport": {"northeast": {"lat": 51.5109497802915, "lng": -0.192637969708498}, "southwest": {"lat": 51.5082518197085, "lng": -0.195335930291502}}}, "name": "Britain Change ltd", "place_id": "ChIJGW6oq_4PdkgRd2w8qfNmM3A", "types": ["finance", "travel_agency", "point_of_interest", "store", "establishment"], "rating": 3.9, "user_ratings_total": 11}, "ChIJqa624vsPdkgRNH3hhjfdYAw": {"geometry": {"location": {"lat": 51.50887220000001, "lng": -0.1942122}, "viewport": {"northeast": {"lat": 51.51026618029151, "lng": -0.192712619708498}, "southwest": {"lat": 51.50756821970851, "lng": -0.195410580291502}}}, "name": "Marta M. Pires", "place_id": "ChIJqa624vsPdkgRNH3hhjfdYAw", "types": ["health", "point_of_interest", "establishment"], "rating": 5, "user_ratings_total": 1}, "ChIJ4aZE4_sPdkgRwPA3MbepAO8": {"geometry": {"location": {"lat": 51.5088732, "lng": -0.1942114}, "viewport": {"northeast": {"lat": 51.5102666802915, "lng": -0.192712369708498}, "southwest": {"lat": 51.5075687197085, "lng": -0.195410330291502}}}, "name": "Freelance Makeup Artist at FTMakeup London", "place_id": "ChIJ4aZE4_sPdkgRwPA3MbepAO8", "types": ["point_of_interest", "establishment"], "rating": 5, "user_ratings_total": 10}, "ChIJO1hD4_sPdkgRjBBNmTG-ztw": {"geometry": {"location": {"lat": 51.50887099999999, "lng": -0.194212}, "viewport": {"northeast": {"lat": 51.5102655802915, "lng": -0.1927122697084979}, "southwest": {"lat": 51.5075676197085, "lng": -0.195410230291502}}}, "name": "The K9 to 5 Club", "place_id": "ChIJO1hD4_sPdkgRjBBNmTG-ztw", "types": ["point_of_interest", "establishment"], "rating": 4.4, "user_ratings_total": 5}, "ChIJUz2hoAEFdkgRpziW19lADaQ": {"geometry": {"location": {"lat": 51.5121864, "lng": -0.1889494}, "viewport": {"northeast": {"lat": 51.5135296802915, "lng": -0.187654469708498}, "southwest": {"lat": 51.5108317197085, "lng": -0.190352430291502}}}, "name": "Smart City Weddings", "place_id": "ChIJUz2hoAEFdkgRpziW19lADaQ", "types": ["point_of_interest", "establishment"], "rating": 5, "user_ratings_total": 10}, "ChIJrzG9bP8PdkgRvcUIrRpXzEk": {"geometry": {"location": {"lat": 51.5111034500005, "lng": -0.189343399992571}, "viewport": {"northeast": {"lat": 51.5124524302915, "lng": -0.187994419708498}, "southwest": {"lat": 51.5097544697085, "lng": -0.190692380291502}}}, "name": "1 Bark Pl", "place_id": "ChIJrzG9bP8PdkgRvcUIrRpXzEk", "types": ["route"]}, "ChIJrcI6UP8PdkgRzjX5c0DgrTU": {"geometry": {"location": {"lat": 51.51015220067763, "lng": -0.1886718501875378}, "viewport": {"northeast": {"lat": 51.5115011802915, "lng": -0.187322869708498}, "southwest": {"lat": 51.50880321970851, "lng": -0.190020830291502}}}, "name": "135 Bayswater Rd", "place_id": "ChIJrcI6UP8PdkgRzjX5c0DgrTU", "types": ["route"]}, "ChIJ8dK8CP8PdkgRUOyNiNH2mG4": {"geometry": {"location": {"lat": 51.511967, "lng": -0.1901884}, "viewport": {"northeast": {"lat": 51.5133160302915, "lng": -0.1888387197084979}, "southwest": {"lat": 51.5106180697085, "lng": -0.191536680291502}}}, "name": "Drop Box", "place_id": "ChIJ8dK8CP8PdkgRUOyNiNH2mG4", "types": ["point_of_interest", "establishment"]}, "ChIJqem1GP8PdkgR4uTPgXzr4qg": {"geometry": {"location": {"lat": 51.51111, "lng": -0.1902035000000001}, "viewport": {"northeast": {"lat": 51.5124256802915, "lng": -0.189022969708498}, "southwest": {"lat": 51.5097277197085, "lng": -0.191720930291502}}}, "name": "New West End Synagogue", "place_id": "ChIJqem1GP8PdkgR4uTPgXzr4qg", "types": ["synagogue", "tourist_attraction", "place_of_worship", "point_of_interest", "establishment"], "rating": 4.5, "user_ratings_total": 43}, "ChIJRz8WKf8PdkgRh7f0bRGbyZs": {"geometry": {"location": {"lat": 51.51005472282967, "lng": -0.1903826981793441}, "viewport": {"northeast": {"lat": 51.51140398029151, "lng": -0.189033769708498}, "southwest": {"lat": 51.50870601970851, "lng": -0.191731730291502}}}, "name": "154 Bayswater Rd", "place_id": "ChIJRz8WKf8PdkgRh7f0bRGbyZs", "types": ["route"]}, "ChIJKQNyLf8PdkgR3lFsnZEjRcI": {"geometry": {"location": {"lat": 51.5097232, "lng": -0.1902894}, "viewport": {"northeast": {"lat": 51.5112336802915, "lng": -0.189050269708498}, "southwest": {"lat": 51.5085357197085, "lng": -0.191748230291502}}}, "name": "Euro Car Parks", "place_id": "ChIJKQNyLf8PdkgR3lFsnZEjRcI", "types": ["parking", "point_of_interest", "establishment"], "rating": 3.8, "user_ratings_total": 193}, "ChIJ0dF79v4PdkgRVnwXrixBvr8": {"geometry": {"location": {"lat": 51.5121929, "lng": -0.1920699}, "viewport": {"northeast": {"lat": 51.5135024302915, "lng": -0.190697069708498}, "southwest": {"lat": 51.5108044697085, "lng": -0.193395030291502}}}, "name": "Bayswater Telephone Exchange", "place_id": "ChIJ0dF79v4PdkgRVnwXrixBvr8", "types": ["point_of_interest", "establishment"], "rating": 5, "user_ratings_total": 3}, "ChIJ_Q4QGVcPdkgRin4ukBfk0LE": {"geometry": {"location": {"lat": 51.5120949, "lng": -0.1917714}, "viewport": {"northeast": {"lat": 51.5134772302915, "lng": -0.190441169708498}, "southwest": {"lat": 51.5107792697085, "lng": -0.193139130291502}}}, "name": "Cocktails Brew", "place_id": "ChIJ_Q4QGVcPdkgRin4ukBfk0LE", "types": ["meal_takeaway", "restaurant", "food", "point_of_interest", "establishment"]}, "ChIJkY7s7f4PdkgR40jO7_siEcw": {"geometry": {"location": {"lat": 51.5113196, "lng": -0.1919479}, "viewport": {"northeast": {"lat": 51.51265508029149, "lng": -0.190680769708498}, "southwest": {"lat": 51.5099571197085, "lng": -0.193378730291502}}}, "name": "claramoda ltd", "place_id": "ChIJkY7s7f4PdkgR40jO7_siEcw", "types": ["point_of_interest", "establishment"]}, "ChIJ1U1Z6P4PdkgR5zjsu6P3eqE": {"geometry": {"location": {"lat": 51.511056, "lng": -0.191817}, "viewport": {"northeast": {"lat": 51.5123901302915, "lng": -0.190558719708498}, "southwest": {"lat": 51.5096921697085, "lng": -0.193256680291502}}}, "name": "Zipcar - Palace Ct", "place_id": "ChIJ1U1Z6P4PdkgR5zjsu6P3eqE", "types": ["car_rental", "point_of_interest", "establishment"]}, "ChIJ8VgcI1kFdkgR831TulDinq8": {"geometry": {"location": {"lat": 51.51132, "lng": -0.191948}, "viewport": {"northeast": {"lat": 51.51265548029149, "lng": -0.190680869708498}, "southwest": {"lat": 51.5099575197085, "lng": -0.193378830291502}}}, "name": "Alexandra Lewis Divorce and Family Mediation", "place_id": "ChIJ8VgcI1kFdkgR831TulDinq8", "types": ["lawyer", "point_of_interest", "establishment"]}, "ChIJVcXip9EEdkgRyrH4KQfKpvc": {"geometry": {"location": {"lat": 51.5111235, "lng": -0.1918711}, "viewport": {"northeast": {"lat": 51.5124595302915, "lng": -0.190600869708498}, "southwest": {"lat": 51.5097615697085, "lng": -0.193298830291502}}}, "name": "Stephen Wiltshire", "place_id": "ChIJVcXip9EEdkgRyrH4KQfKpvc", "types": ["art_gallery", "point_of_interest", "establishment"], "rating": 4.9, "user_ratings_total": 112}, "ChIJJ-yz6f4PdkgRApwMmiPuJ_w": {"geometry": {"location": {"lat": 51.511015, "lng": -0.191903}, "viewport": {"northeast": {"lat": 51.5123581302915, "lng": -0.190589969708498}, "southwest": {"lat": 51.5096601697085, "lng": -0.193287930291502}}}, "name": "ubitricity Charging Station", "place_id": "ChIJJ-yz6f4PdkgRApwMmiPuJ_w", "types": ["point_of_interest", "establishment"]}, "ChIJ_yaR6f4PdkgR25rbGBVjZV0": {"geometry": {"location": {"lat": 51.51100549999999, "lng": -0.1921076}, "viewport": {"northeast": {"lat": 51.51236273029149, "lng": -0.190703119708498}, "southwest": {"lat": 51.50966476970849, "lng": -0.193401080291502}}}, "name": "ubitricity Charging Station", "place_id": "ChIJ_yaR6f4PdkgR25rbGBVjZV0", "types": ["point_of_interest", "establishment"]}, "ChIJ00jHycMPdkgRSSet6vc8nGI": {"geometry": {"location": {"lat": 51.5113196, "lng": -0.1919479}, "viewport": {"northeast": {"lat": 51.51265508029149, "lng": -0.190680769708498}, "southwest": {"lat": 51.5099571197085, "lng": -0.193378730291502}}}, "name": "Alexandra Lewis Family Law", "place_id": "ChIJ00jHycMPdkgRSSet6vc8nGI", "types": ["lawyer", "point_of_interest", "establishment"]}, "ChIJyYWRAY4PdkgRt5-QILmMsCY": {"geometry": {"location": {"lat": 51.51092990000001, "lng": -0.1919052}, "viewport": {"northeast": {"lat": 51.5122788302915, "lng": -0.190556669708498}, "southwest": {"lat": 51.5095808697085, "lng": -0.193254630291502}}}, "name": "Bayswater Skips", "place_id": "ChIJyYWRAY4PdkgRt5-QILmMsCY", "types": ["point_of_interest", "establishment"], "rating": 5, "user_ratings_total": 2}, "ChIJJ3vUzf4PdkgR6Yn5uNzYBt8": {"geometry": {"location": {"lat": 51.5099285862427, "lng": -0.1918404707750027}, "viewport": {"northeast": {"lat": 51.5112723802915, "lng": -0.190489719708498}, "southwest": {"lat": 51.5085744197085, "lng": -0.193187680291502}}}, "name": "Bayswater Road", "place_id": "ChIJJ3vUzf4PdkgR6Yn5uNzYBt8", "types": ["route"]}, "ChIJT8Rttv4PdkgR2QsDEzqgKyo": {"geometry": {"location": {"lat": 51.50999729999999, "lng": -0.192242}, "viewport": {"northeast": {"lat": 51.5113500802915, "lng": -0.190861619708498}, "southwest": {"lat": 51.5086521197085, "lng": -0.193559580291502}}}, "name": "The Champion", "place_id": "ChIJT8Rttv4PdkgR2QsDEzqgKyo", "types": ["bar", "restaurant", "food", "point_of_interest", "establishment"], "rating": 4.4, "user_ratings_total": 1018}, "ChIJR6CBxv4PdkgRyXEvqXm4Xqk": {"geometry": {"location": {"lat": 51.5101065, "lng": -0.1920171}, "viewport": {"northeast": {"lat": 51.5113588802915, "lng": -0.190628569708498}, "southwest": {"lat": 51.5086609197085, "lng": -0.193326530291502}}}, "name": "Guyana High Commission", "place_id": "ChIJR6CBxv4PdkgRyXEvqXm4Xqk", "types": ["embassy", "point_of_interest", "establishment"], "rating": 4.5, "user_ratings_total": 17}, "ChIJfYMxyf4PdkgRLn638rohZpo": {"geometry": {"location": {"lat": 51.5100373, "lng": -0.1920869}, "viewport": {"northeast": {"lat": 51.5113818802915, "lng": -0.190769369708498}, "southwest": {"lat": 51.5086839197085, "lng": -0.193467330291502}}}, "name": "B&G", "place_id": "ChIJfYMxyf4PdkgRLn638rohZpo", "types": ["point_of_interest", "establishment"]}, "ChIJ4dnoz_4PdkgRyuMLD2cJqPI": {"geometry": {"location": {"lat": 51.5101907, "lng": -0.1917639}, "viewport": {"northeast": {"lat": 51.51155028029149, "lng": -0.190358919708498}, "southwest": {"lat": 51.5088523197085, "lng": -0.193056880291502}}}, "name": "ubitricity Charging Station", "place_id": "ChIJ4dnoz_4PdkgRyuMLD2cJqPI", "types": ["point_of_interest", "establishment"]}, "ChIJhzAq8ZAPdkgRQfjrc8cD-nk": {"geometry": {"location": {"lat": 51.5102906, "lng": -0.1920061}, "viewport": {"northeast": {"lat": 51.5116639802915, "lng": -0.190508819708498}, "southwest": {"lat": 51.5089660197085, "lng": -0.193206780291502}}}, "name": "John Henderson Music", "place_id": "ChIJhzAq8ZAPdkgRQfjrc8cD-nk", "types": ["electronics_store", "home_goods_store", "point_of_interest", "store", "establishment"]}, "ChIJW5a8L_kPdkgRue2Ade9-QDM": {"geometry": {"location": {"lat": 51.5090377, "lng": -0.1915551}, "viewport": {"northeast": {"lat": 51.51035733029151, "lng": -0.190315919708498}, "southwest": {"lat": 51.50765936970851, "lng": -0.193013880291502}}}, "name": "K P G Investments Ltd", "place_id": "ChIJW5a8L_kPdkgRue2Ade9-QDM", "types": ["point_of_interest", "establishment"]}, "ChIJRZa8L_kPdkgR32pyJ_huXLo": {"geometry": {"location": {"lat": 51.5090377, "lng": -0.191555}, "viewport": {"northeast": {"lat": 51.51035728029149, "lng": -0.190315819708498}, "southwest": {"lat": 51.5076593197085, "lng": -0.193013780291502}}}, "name": "PRAN", "place_id": "ChIJRZa8L_kPdkgR32pyJ_huXLo", "types": ["point_of_interest", "establishment"]}, "ChIJ6y4Mh_4PdkgR37iG-vTx3vs": {"geometry": {"location": {"lat": 51.5121195, "lng": -0.1933966}, "viewport": {"northeast": {"lat": 51.5135037802915, "lng": -0.191847319708498}, "southwest": {"lat": 51.5108058197085, "lng": -0.194545280291502}}}, "name": "MyAppConverter Ltd", "place_id": "ChIJ6y4Mh_4PdkgR37iG-vTx3vs", "types": ["point_of_interest", "establishment"]}, "ChIJq6p6h_4PdkgRxYChAWOpgcc": {"geometry": {"location": {"lat": 51.51217949999999, "lng": -0.1934103}, "viewport": {"northeast": {"lat": 51.51356268029149, "lng": -0.191867319708498}, "southwest": {"lat": 51.5108647197085, "lng": -0.194565280291502}}}, "name": "PABLO DE LABORDE LASCARIS", "place_id": "ChIJq6p6h_4PdkgRxYChAWOpgcc", "types": ["point_of_interest", "establishment"]}, "ChIJryX8gv4PdkgRiSi7F2gvN9w": {"geometry": {"location": {"lat": 51.51171242180821, "lng": -0.1937448323399092}, "viewport": {"northeast": {"lat": 51.5130538302915, "lng": -0.192394969708498}, "southwest": {"lat": 51.5103558697085, "lng": -0.195092930291502}}}, "name": "Moscow Road", "place_id": "ChIJryX8gv4PdkgRiSi7F2gvN9w", "types": ["route"]}, "ChIJoYV9mf4PdkgRY6yjKq2b4AE": {"geometry": {"location": {"lat": 51.51123310000001, "lng": -0.1933898}, "viewport": {"northeast": {"lat": 51.5125693802915, "lng": -0.192125619708498}, "southwest": {"lat": 51.5098714197085, "lng": -0.194823580291502}}}, "name": "Urban Apartments Notting Hill", "place_id": "ChIJoYV9mf4PdkgRY6yjKq2b4AE", "types": ["lodging", "point_of_interest", "establishment"]}, "ChIJZ5iTnP4PdkgREUDrfzPYUss": {"geometry": {"location": {"lat": 51.5114556, "lng": -0.1936215}, "viewport": {"northeast": {"lat": 51.5127754802915, "lng": -0.192230519708498}, "southwest": {"lat": 51.5100775197085, "lng": -0.194928480291502}}}, "name": "Josephine Cicero Design", "place_id": "ChIJZ5iTnP4PdkgREUDrfzPYUss", "types": ["general_contractor", "point_of_interest", "establishment"]}, "ChIJDyc6jcgPdkgRa5M24JmX8PM": {"geometry": {"location": {"lat": 51.5110278, "lng": -0.1936589}, "viewport": {"northeast": {"lat": 51.5123872802915, "lng": -0.192231669708498}, "southwest": {"lat": 51.5096893197085, "lng": -0.194929630291502}}}, "name": "Sif N\u00f8rskov | Architectural & Interiors Photography", "place_id": "ChIJDyc6jcgPdkgRa5M24JmX8PM", "types": ["point_of_interest", "establishment"], "rating": 5, "user_ratings_total": 1}, "ChIJv6-uJncPdkgR19q1ILsZwRY": {"geometry": {"location": {"lat": 51.51123310000001, "lng": -0.1933898}, "viewport": {"northeast": {"lat": 51.5125693802915, "lng": -0.192125619708498}, "southwest": {"lat": 51.5098714197085, "lng": -0.194823580291502}}}, "name": "Massage Girl London", "place_id": "ChIJv6-uJncPdkgR19q1ILsZwRY", "types": ["point_of_interest", "establishment"], "rating": 5, "user_ratings_total": 2}, "ChIJeRvYof4PdkgRcfKHxT8QwTg": {"geometry": {"location": {"lat": 51.5109029, "lng": -0.1936759}, "viewport": {"northeast": {"lat": 51.5122662302915, "lng": -0.192219869708498}, "southwest": {"lat": 51.5095682697085, "lng": -0.194917830291502}}}, "name": "The Dome Apartments Notting Hill", "place_id": "ChIJeRvYof4PdkgRcfKHxT8QwTg", "types": ["lodging", "point_of_interest", "establishment"], "rating": 3.4, "user_ratings_total": 58}, "ChIJC81Tq_4PdkgRSBmdbOBmBDg": {"geometry": {"location": {"lat": 51.50963022528381, "lng": -0.1935698476139987}, "viewport": {"northeast": {"lat": 51.51095878029282, "lng": -0.192215319708498}, "southwest": {"lat": 51.50826081970982, "lng": -0.194913280291502}}}, "name": "Notting Hill Gate", "place_id": "ChIJC81Tq_4PdkgRSBmdbOBmBDg", "types": ["route"]}, "ChIJoWkJq_4PdkgRHdgp5rAaBEU": {"geometry": {"location": {"lat": 51.5097415, "lng": -0.1936503}, "viewport": {"northeast": {"lat": 51.51103293029149, "lng": -0.192271869708498}, "southwest": {"lat": 51.50833496970849, "lng": -0.194969830291502}}}, "name": "finebody\u2122 Personal Training", "place_id": "ChIJoWkJq_4PdkgRHdgp5rAaBEU", "types": ["gym", "health", "point_of_interest", "establishment"], "rating": 5, "user_ratings_total": 15}, "ChIJGW6oq_4PdkgR8aluuoGc7NE": {"geometry": {"location": {"lat": 51.50970909999999, "lng": -0.1936998}, "viewport": {"northeast": {"lat": 51.5110107802915, "lng": -0.192326619708498}, "southwest": {"lat": 51.5083128197085, "lng": -0.195024580291502}}}, "name": "Royal Trinity Hospice - Notting Hill", "place_id": "ChIJGW6oq_4PdkgR8aluuoGc7NE", "types": ["point_of_interest", "clothing_store", "store", "establishment"], "rating": 3.4, "user_ratings_total": 7}, "ChIJGW6oq_4PdkgRfUhOjQSfgvg": {"geometry": {"location": {"lat": 51.50970459999999, "lng": -0.1938646}, "viewport": {"northeast": {"lat": 51.5109934802915, "lng": -0.192484869708498}, "southwest": {"lat": 51.5082955197085, "lng": -0.195182830291502}}}, "name": "Nick & Co", "place_id": "ChIJGW6oq_4PdkgRfUhOjQSfgvg", "types": ["point_of_interest", "establishment"]}, "ChIJPxaTrv4PdkgRttsPuCHYtFs": {"geometry": {"location": {"lat": 51.50999769999999, "lng": -0.1934106}, "viewport": {"northeast": {"lat": 51.51136358029149, "lng": -0.191932869708498}, "southwest": {"lat": 51.50866561970849, "lng": -0.194630830291502}}}, "name": "Be Essence", "place_id": "ChIJPxaTrv4PdkgRttsPuCHYtFs", "types": ["health", "point_of_interest", "establishment"]}, "ChIJo-n6AvwPdkgR6gykV9KEPoc": {"geometry": {"location": {"lat": 51.5101196, "lng": -0.1940476}, "viewport": {"northeast": {"lat": 51.51141423029149, "lng": -0.192672019708498}, "southwest": {"lat": 51.50871626970849, "lng": -0.195369980291502}}}, "name": "Energy Healing London - Healing Meditation & Chakra Balancing", "place_id": "ChIJo-n6AvwPdkgR6gykV9KEPoc", "types": ["health", "point_of_interest", "establishment"], "rating": 5, "user_ratings_total": 7}, "ChIJwYXvRUUPdkgRM3H_7AhV2OI": {"geometry": {"location": {"lat": 51.5098382, "lng": -0.1938081}, "viewport": {"northeast": {"lat": 51.5110715302915, "lng": -0.192399919708498}, "southwest": {"lat": 51.5083735697085, "lng": -0.195097880291502}}}, "name": "Nibble Group Ltd", "place_id": "ChIJwYXvRUUPdkgRM3H_7AhV2OI", "types": ["point_of_interest", "establishment"]}, "ChIJk6r2qv4PdkgRty64cCqNPXA": {"geometry": {"location": {"lat": 51.5097594, "lng": -0.1937035}, "viewport": {"northeast": {"lat": 51.5110378802915, "lng": -0.192318469708498}, "southwest": {"lat": 51.5083399197085, "lng": -0.195016430291502}}}, "name": "Aspect", "place_id": "ChIJk6r2qv4PdkgRty64cCqNPXA", "types": ["painter", "electrician", "plumber", "roofing_contractor", "general_contractor", "point_of_interest", "establishment"], "rating": 1.9, "user_ratings_total": 8}, "ChIJSRC0UvkPdkgRDWbz4w-XsRc": {"geometry": {"location": {"lat": 51.5097526, "lng": -0.1936339}, "viewport": {"northeast": {"lat": 51.5110397802915, "lng": -0.192256319708498}, "southwest": {"lat": 51.5083418197085, "lng": -0.194954280291502}}}, "name": "Par M", "place_id": "ChIJSRC0UvkPdkgRDWbz4w-XsRc", "types": ["bar", "point_of_interest", "establishment"]}, "ChIJJW6oq_4PdkgRdh39o6vn4c4": {"geometry": {"location": {"lat": 51.509736, "lng": -0.1937168}, "viewport": {"northeast": {"lat": 51.51102393029149, "lng": -0.192336569708498}, "southwest": {"lat": 51.50832596970849, "lng": -0.195034530291502}}}, "name": "Notting Hill Gate Opticians", "place_id": "ChIJJW6oq_4PdkgRdh39o6vn4c4", "types": ["health", "point_of_interest", "store", "establishment"], "rating": 4.9, "user_ratings_total": 102}, "ChIJa-pBQ10FdkgRWbyMNp0W-5g": {"geometry": {"location": {"lat": 51.509736, "lng": -0.193784}, "viewport": {"northeast": {"lat": 51.5110178802915, "lng": -0.192400669708498}, "southwest": {"lat": 51.5083199197085, "lng": -0.195098630291502}}}, "name": "UKIFF", "place_id": "ChIJa-pBQ10FdkgRWbyMNp0W-5g", "types": ["movie_theater", "point_of_interest", "establishment"]}, "ChIJ7xOmGbUPdkgRtVI6c8FaxC0": {"geometry": {"location": {"lat": 51.50973560000001, "lng": -0.1937844}, "viewport": {"northeast": {"lat": 51.51101763029151, "lng": -0.192401169708498}, "southwest": {"lat": 51.50831966970851, "lng": -0.1950991302915021}}}, "name": "InterCapital Ventures", "place_id": "ChIJ7xOmGbUPdkgRtVI6c8FaxC0", "types": ["real_estate_agency", "point_of_interest", "establishment"]}, "ChIJAQD0qv4PdkgRKtMl5jPs-PI": {"geometry": {"location": {"lat": 51.50973560000001, "lng": -0.1937844}, "viewport": {"northeast": {"lat": 51.51101763029151, "lng": -0.192401169708498}, "southwest": {"lat": 51.50831966970851, "lng": -0.1950991302915021}}}, "name": "One Pointis", "place_id": "ChIJAQD0qv4PdkgRKtMl5jPs-PI", "types": ["point_of_interest", "establishment"]}, "ChIJAQD0qv4PdkgRmYEhBbvXTnA": {"geometry": {"location": {"lat": 51.50973560000001, "lng": -0.1937844}, "viewport": {"northeast": {"lat": 51.51101763029151, "lng": -0.192401169708498}, "southwest": {"lat": 51.50831966970851, "lng": -0.1950991302915021}}}, "name": "Bahl Dental Practice", "place_id": "ChIJAQD0qv4PdkgRmYEhBbvXTnA", "types": ["dentist", "health", "point_of_interest", "establishment"]}, "ChIJAQD0qv4PdkgREnGBS46kHxg": {"geometry": {"location": {"lat": 51.50973560000001, "lng": -0.1937844}, "viewport": {"northeast": {"lat": 51.51101763029151, "lng": -0.192401169708498}, "southwest": {"lat": 51.50831966970851, "lng": -0.1950991302915021}}}, "name": "Curlsmith", "place_id": "ChIJAQD0qv4PdkgREnGBS46kHxg", "types": ["point_of_interest", "establishment"]}, "ChIJGR22__sPdkgR9vnvoZwOcFk": {"geometry": {"location": {"lat": 51.5094479500234, "lng": -0.1939976000282568}, "viewport": {"northeast": {"lat": 51.5107969302915, "lng": -0.192648619708498}, "southwest": {"lat": 51.50809896970851, "lng": -0.195346580291502}}}, "name": "Notting Hill Gate", "place_id": "ChIJGR22__sPdkgR9vnvoZwOcFk", "types": ["route"]}, "ChIJQWkQX_kPdkgRWuaxzbPSYBQ": {"geometry": {"location": {"lat": 51.5090215, "lng": -0.1938101}, "viewport": {"northeast": {"lat": 51.5103616302915, "lng": -0.192528369708498}, "southwest": {"lat": 51.5076636697085, "lng": -0.195226330291502}}}, "name": "The Shed", "place_id": "ChIJQWkQX_kPdkgRWuaxzbPSYBQ", "types": ["restaurant", "food", "point_of_interest", "establishment"], "rating": 4.4, "user_ratings_total": 720}, "ChIJI-_JWfkPdkgRIyjFw4tF85w": {"geometry": {"location": {"lat": 51.508802, "lng": -0.193746}, "viewport": {"northeast": {"lat": 51.51014153029151, "lng": -0.192449969708498}, "southwest": {"lat": 51.50744356970851, "lng": -0.195147930291502}}}, "name": "Master Tse's Wing Chun", "place_id": "ChIJI-_JWfkPdkgRIyjFw4tF85w", "types": ["health", "point_of_interest", "establishment"], "rating": 5, "user_ratings_total": 1}, "ChIJjSDqV_kPdkgRAhHwTqnLkCs": {"geometry": {"location": {"lat": 51.509011, "lng": -0.193825}, "viewport": {"northeast": {"lat": 51.5103522802915, "lng": -0.192534419708498}, "southwest": {"lat": 51.50765431970851, "lng": -0.1952323802915021}}}, "name": "Kensington Yoga Therapy", "place_id": "ChIJjSDqV_kPdkgRAhHwTqnLkCs", "types": ["gym", "health", "point_of_interest", "establishment"]}, "ChIJ4VLNWfkPdkgRw7R7gDuCtlg": {"geometry": {"location": {"lat": 51.50881740000001, "lng": -0.1937177}, "viewport": {"northeast": {"lat": 51.5101540302915, "lng": -0.192438019708498},