{"E00175202": {"ChIJFwOvcuQEdkgRr6gqo-9gXdk": {"geometry": {"location": {"lat": 51.48798329336206, "lng": -0.134569153056305}, "viewport": {"northeast": {"lat": 51.48933323029149, "lng": -0.133214569708498}, "southwest": {"lat": 51.4866352697085, "lng": -0.135912530291502}}}, "name": "73-35 St.George's Square", "place_id": "ChIJFwOvcuQEdkgRr6gqo-9gXdk", "types": ["route"]}, "ChIJUe-4BeQEdkgRHzUdQKWVaEY": {"geometry": {"location": {"lat": 51.4880642, "lng": -0.1344588}, "viewport": {"northeast": {"lat": 51.48940143029149, "lng": -0.133177769708498}, "southwest": {"lat": 51.48670346970849, "lng": -0.135875730291502}}}, "name": "EagleCrown", "place_id": "ChIJUe-4BeQEdkgRHzUdQKWVaEY", "types": ["point_of_interest", "establishment"]}, "ChIJGVAqbeQEdkgRi2_nAHS0u1Q": {"geometry": {"location": {"lat": 51.4874412, "lng": -0.1341605}, "viewport": {"northeast": {"lat": 51.48877683029149, "lng": -0.132887219708498}, "southwest": {"lat": 51.4860788697085, "lng": -0.135585180291502}}}, "name": "Woolf Therapy", "place_id": "ChIJGVAqbeQEdkgRi2_nAHS0u1Q", "types": ["health", "point_of_interest", "establishment"], "rating": 5, "user_ratings_total": 3}, "ChIJCZp98OMEdkgRd84SdRotpyM": {"geometry": {"location": {"lat": 51.4878344, "lng": -0.1345786}, "viewport": {"northeast": {"lat": 51.48918708029149, "lng": -0.133208069708498}, "southwest": {"lat": 51.48648911970849, "lng": -0.135906030291502}}}, "name": "Zipcar", "place_id": "ChIJCZp98OMEdkgRd84SdRotpyM", "types": ["car_rental", "point_of_interest", "establishment"]}, "ChIJQ1dzdOQEdkgRFf7sZZVLH34": {"geometry": {"location": {"lat": 51.4872585, "lng": -0.1347219}, "viewport": {"northeast": {"lat": 51.4885750802915, "lng": -0.133553069708498}, "southwest": {"lat": 51.4858771197085, "lng": -0.136251030291502}}}, "name": "St George's Square", "place_id": "ChIJQ1dzdOQEdkgRFf7sZZVLH34", "types": ["park", "point_of_interest", "establishment"], "rating": 4.4, "user_ratings_total": 284}, "ChIJY1CLB-QEdkgRupKRTDly-I4": {"geometry": {"location": {"lat": 51.4880406, "lng": -0.1344343}, "viewport": {"northeast": {"lat": 51.4893717302915, "lng": -0.133157569708498}, "southwest": {"lat": 51.4866737697085, "lng": -0.135855530291502}}}, "name": "ubitricity Charging Station", "place_id": "ChIJY1CLB-QEdkgRupKRTDly-I4", "types": ["point_of_interest", "establishment"]}, "ChIJYTz19OMEdkgRV_sF2HtddRE": {"geometry": {"location": {"lat": 51.4874966, "lng": -0.1352228}, "viewport": {"northeast": {"lat": 51.4888368302915, "lng": -0.133922419708498}, "southwest": {"lat": 51.4861388697085, "lng": -0.136620380291502}}}, "name": "Pimlico Chess Club", "place_id": "ChIJYTz19OMEdkgRV_sF2HtddRE", "types": ["point_of_interest", "establishment"], "rating": 5, "user_ratings_total": 1}, "ChIJQaMjTuEEdkgRb9Pd8eevCxk": {"geometry": {"location": {"lat": 51.48731249999999, "lng": -0.1351373}, "viewport": {"northeast": {"lat": 51.48865273029149, "lng": -0.133836919708498}, "southwest": {"lat": 51.48595476970849, "lng": -0.136534880291502}}}, "name": "flats4U London", "place_id": "ChIJQaMjTuEEdkgRb9Pd8eevCxk", "types": ["point_of_interest", "establishment"]}, "ChIJ5V_kieMEdkgRbzV0-YJR1w8": {"geometry": {"location": {"lat": 51.4867578967851, "lng": -0.1348838492310858}, "viewport": {"northeast": {"lat": 51.48810693029149, "lng": -0.133534569708498}, "southwest": {"lat": 51.48540896970849, "lng": -0.136232530291502}}}, "name": "94-64 St.George's Square", "place_id": "ChIJ5V_kieMEdkgRbzV0-YJR1w8", "types": ["route"]}, "ChIJvf1HheMEdkgRnikCSg7uPng": {"geometry": {"location": {"lat": 51.4866833, "lng": -0.1350045}, "viewport": {"northeast": {"lat": 51.4880448302915, "lng": -0.133583969708498}, "southwest": {"lat": 51.4853468697085, "lng": -0.136281930291502}}}, "name": "Hy Consulting", "place_id": "ChIJvf1HheMEdkgRnikCSg7uPng", "types": ["point_of_interest", "establishment"]}, "ChIJN6DxiyUFdkgR916qdJo1f-U": {"geometry": {"location": {"lat": 51.4865609, "lng": -0.1349237}, "viewport": {"northeast": {"lat": 51.48792038029151, "lng": -0.133514919708498}, "southwest": {"lat": 51.48522241970851, "lng": -0.136212880291502}}}, "name": "Roman's Turo Car-Sharing", "place_id": "ChIJN6DxiyUFdkgR916qdJo1f-U", "types": ["car_rental", "point_of_interest", "establishment"]}, "ChIJ1cM3Gc4FdkgRC8u3auIU3uE": {"geometry": {"location": {"lat": 51.4865609, "lng": -0.1349237}, "viewport": {"northeast": {"lat": 51.48792038029151, "lng": -0.133514919708498}, "southwest": {"lat": 51.48522241970851, "lng": -0.136212880291502}}}, "name": "Roman's Neighbourhood Car Rental", "place_id": "ChIJ1cM3Gc4FdkgRC8u3auIU3uE", "types": ["car_rental", "point_of_interest", "establishment"]}, "ChIJLRi0ZuQEdkgRPBZpKSVn-K8": {"geometry": {"location": {"lat": 51.486374, "lng": -0.133771}, "viewport": {"northeast": {"lat": 51.4877216802915, "lng": -0.132428919708498}, "southwest": {"lat": 51.4850237197085, "lng": -0.135126880291502}}}, "name": "ubitricity Charging Station", "place_id": "ChIJLRi0ZuQEdkgRPBZpKSVn-K8", "types": ["point_of_interest", "establishment"]}, "ChIJ7f-_5kEFdkgRZntBl4ge4cI": {"geometry": {"location": {"lat": 51.48637300000001, "lng": -0.1349996}, "viewport": {"northeast": {"lat": 51.48774608029149, "lng": -0.133516119708498}, "southwest": {"lat": 51.4850481197085, "lng": -0.136214080291502}}}, "name": "Cloud Zones Ltd", "place_id": "ChIJ7f-_5kEFdkgRZntBl4ge4cI", "types": ["point_of_interest", "establishment"]}, "ChIJiw8Ngr0FdkgRq_8v26QciFU": {"geometry": {"location": {"lat": 51.48613739999999, "lng": -0.1347421}, "viewport": {"northeast": {"lat": 51.4874981802915, "lng": -0.133327269708498}, "southwest": {"lat": 51.4848002197085, "lng": -0.136025230291502}}}, "name": "Petit Bonheurs", "place_id": "ChIJiw8Ngr0FdkgRq_8v26QciFU", "types": ["bakery", "food", "point_of_interest", "store", "establishment"]}, "ChIJ-y4pYeQEdkgRBdWl1dDonFo": {"geometry": {"location": {"lat": 51.486327, "lng": -0.133682}, "viewport": {"northeast": {"lat": 51.4876652802915, "lng": -0.132391419708498}, "southwest": {"lat": 51.4849673197085, "lng": -0.1350893802915021}}}, "name": "Turenne Consulting Ltd", "place_id": "ChIJ-y4pYeQEdkgRBdWl1dDonFo", "types": ["point_of_interest", "establishment"]}, "ChIJRztdgeQEdkgRa1V3qQAa81s": {"geometry": {"location": {"lat": 51.48570320023603, "lng": -0.134654400227341}, "viewport": {"northeast": {"lat": 51.4870521802915, "lng": -0.133305419708498}, "southwest": {"lat": 51.4843542197085, "lng": -0.136003380291502}}}, "name": "Grosvenor Road", "place_id": "ChIJRztdgeQEdkgRa1V3qQAa81s", "types": ["route"]}, "ChIJ4ZhffeMEdkgRGzMZ9xk4-vE": {"geometry": {"location": {"lat": 51.4852664, "lng": -0.1347711}, "viewport": {"northeast": {"lat": 51.4866153802915, "lng": -0.133422119708498}, "southwest": {"lat": 51.4839174197085, "lng": -0.136120080291502}}}, "name": "Westminster Boating Base", "place_id": "ChIJ4ZhffeMEdkgRGzMZ9xk4-vE", "types": ["point_of_interest", "establishment"], "rating": 4.9, "user_ratings_total": 78}, "ChIJI3a0juQEdkgRKGLilR4dAjo": {"geometry": {"location": {"lat": 51.4855426, "lng": -0.1343666}, "viewport": {"northeast": {"lat": 51.4868915802915, "lng": -0.133017619708498}, "southwest": {"lat": 51.4841936197085, "lng": -0.135715580291502}}}, "name": "The Helmsman", "place_id": "ChIJI3a0juQEdkgRKGLilR4dAjo", "types": ["point_of_interest", "establishment"], "rating": 5, "user_ratings_total": 1}, "ChIJDV1lcAoFdkgR9CtrnsoxWhw": {"geometry": {"location": {"lat": 51.4852909, "lng": -0.1347908}, "viewport": {"northeast": {"lat": 51.4868160302915, "lng": -0.133530119708498}, "southwest": {"lat": 51.4841180697085, "lng": -0.136228080291502}}}, "name": "Warships museum", "place_id": "ChIJDV1lcAoFdkgR9CtrnsoxWhw", "types": ["museum", "point_of_interest", "establishment"]}, "ChIJc-_jjuQEdkgRhk1bnqFjkr4": {"geometry": {"location": {"lat": 51.4855934, "lng": -0.1340055}, "viewport": {"northeast": {"lat": 51.4869423802915, "lng": -0.132656519708498}, "southwest": {"lat": 51.4842444197085, "lng": -0.135354480291502}}}, "name": "Pimlico Gardens", "place_id": "ChIJc-_jjuQEdkgRhk1bnqFjkr4", "types": ["tourist_attraction", "park", "point_of_interest", "establishment"], "rating": 4.4, "user_ratings_total": 54}, "ChIJ4RiPjOQEdkgRc4GQn7jnM9A": {"geometry": {"location": {"lat": 51.4856168, "lng": -0.1339331}, "viewport": {"northeast": {"lat": 51.48696301457204, "lng": -0.1326969358683757}, "southwest": {"lat": 51.48426505398904, "lng": -0.1353948964513798}}}, "name": "Pimlico Garden & Shrubbery", "place_id": "ChIJ4RiPjOQEdkgRc4GQn7jnM9A", "types": ["park", "premise", "point_of_interest", "establishment"]}, "ChIJ36BM8uMEdkgRxZCdDEns6I0": {"geometry": {"location": {"lat": 51.48753720003086, "lng": -0.1356544000293372}, "viewport": {"northeast": {"lat": 51.4888861802915, "lng": -0.134305419708498}, "southwest": {"lat": 51.4861882197085, "lng": -0.137003380291502}}}, "name": "54 Chichester St", "place_id": "ChIJ36BM8uMEdkgRxZCdDEns6I0", "types": ["route"]}, "ChIJ2SDiH10OdkgRMCilN79CRe8": {"geometry": {"location": {"lat": 51.48725090000001, "lng": -0.13666}, "viewport": {"northeast": {"lat": 51.4886465302915, "lng": -0.135396569708498}, "southwest": {"lat": 51.4859485697085, "lng": -0.138094530291502}}}, "name": "Dolphin House - Serviced Apartments", "place_id": "ChIJ2SDiH10OdkgRMCilN79CRe8", "types": ["lodging", "point_of_interest", "establishment"], "rating": 4.1, "user_ratings_total": 594}, "ChIJr8XGlOMEdkgRT_izjLM60l0": {"geometry": {"location": {"lat": 51.4872798, "lng": -0.1361597}, "viewport": {"northeast": {"lat": 51.4886876302915, "lng": -0.1351464197084979}, "southwest": {"lat": 51.4859896697085, "lng": -0.137844380291502}}}, "name": "Newsagents - Dolphin Square Arcade", "place_id": "ChIJr8XGlOMEdkgRT_izjLM60l0", "types": ["point_of_interest", "store", "establishment"]}, "ChIJjepWleMEdkgRPlblQDvZC4Q": {"geometry": {"location": {"lat": 51.48731180000001, "lng": -0.1364031000000001}, "viewport": {"northeast": {"lat": 51.48863248029151, "lng": -0.135287369708498}, "southwest": {"lat": 51.48593451970851, "lng": -0.137985330291502}}}, "name": "Rodney House", "place_id": "ChIJjepWleMEdkgRPlblQDvZC4Q", "types": ["point_of_interest", "establishment"], "rating": 5, "user_ratings_total": 1}, "ChIJq5OLbfMEdkgRiP9iwSjoKu0": {"geometry": {"location": {"lat": 51.4874417, "lng": -0.1355256}, "viewport": {"northeast": {"lat": 51.4888188802915, "lng": -0.134025569708498}, "southwest": {"lat": 51.4861209197085, "lng": -0.136723530291502}}}, "name": "London Mobile Disco", "place_id": "ChIJq5OLbfMEdkgRiP9iwSjoKu0", "types": ["point_of_interest", "establishment"], "rating": 4, "user_ratings_total": 1}, "ChIJNwmbwOMEdkgRvPQZyiZR_Js": {"geometry": {"location": {"lat": 51.487365, "lng": -0.13666}, "viewport": {"northeast": {"lat": 51.4887423302915, "lng": -0.135323619708498}, "southwest": {"lat": 51.4860443697085, "lng": -0.138021580291502}}}, "name": "Love Swimming", "place_id": "ChIJNwmbwOMEdkgRvPQZyiZR_Js", "types": ["point_of_interest", "establishment"], "rating": 3.7, "user_ratings_total": 3}, "ChIJwxmcwOMEdkgR9cdk6TrsVRE": {"geometry": {"location": {"lat": 51.487354, "lng": -0.13667}, "viewport": {"northeast": {"lat": 51.4887366802915, "lng": -0.135336019708498}, "southwest": {"lat": 51.4860387197085, "lng": -0.138033980291502}}}, "name": "Tai Chi City", "place_id": "ChIJwxmcwOMEdkgR9cdk6TrsVRE", "types": ["school", "health", "point_of_interest", "establishment"], "rating": 4.9, "user_ratings_total": 16}, "ChIJp9Nm8-MEdkgRPr-L64QCvlM": {"geometry": {"location": {"lat": 51.48745180000001, "lng": -0.1354882000000001}, "viewport": {"northeast": {"lat": 51.4888253302915, "lng": -0.134007569708498}, "southwest": {"lat": 51.48612736970851, "lng": -0.136705530291502}}}, "name": "Fides Fortis Limited", "place_id": "ChIJp9Nm8-MEdkgRPr-L64QCvlM", "types": ["point_of_interest", "establishment"]}, "ChIJcUaXl-MEdkgRDxvj5xGwTJU": {"geometry": {"location": {"lat": 51.4870989, "lng": -0.136454}, "viewport": {"northeast": {"lat": 51.48858698029149, "lng": -0.135293569708498}, "southwest": {"lat": 51.4858890197085, "lng": -0.137991530291502}}}, "name": "The Spa - In Dolphin Square", "place_id": "ChIJcUaXl-MEdkgRDxvj5xGwTJU", "types": ["beauty_salon", "hair_care", "spa", "point_of_interest", "establishment"], "rating": 4.5, "user_ratings_total": 375}, "ChIJ12GxmuMEdkgRIciWi6PFS4I": {"geometry": {"location": {"lat": 51.4870916, "lng": -0.1365107}, "viewport": {"northeast": {"lat": 51.4885785302915, "lng": -0.135321919708498}, "southwest": {"lat": 51.4858805697085, "lng": -0.138019880291502}}}, "name": "The Entertainment Agents' Association", "place_id": "ChIJ12GxmuMEdkgRIciWi6PFS4I", "types": ["point_of_interest", "establishment"]}, "ChIJu4XTCuMEdkgRBTIuTdRWako": {"geometry": {"location": {"lat": 51.4870916, "lng": -0.1365107}, "viewport": {"northeast": {"lat": 51.4885785302915, "lng": -0.135321919708498}, "southwest": {"lat": 51.4858805697085, "lng": -0.138019880291502}}}, "name": "David Propert", "place_id": "ChIJu4XTCuMEdkgRBTIuTdRWako", "types": ["health", "point_of_interest", "establishment"], "rating": 5, "user_ratings_total": 8}, "ChIJS6eKLVEDdkgRlzdZKHdxA44": {"geometry": {"location": {"lat": 51.4870916, "lng": -0.1365107}, "viewport": {"northeast": {"lat": 51.4885785302915, "lng": -0.135321919708498}, "southwest": {"lat": 51.4858805697085, "lng": -0.138019880291502}}}, "name": "Good For The Sole", "place_id": "ChIJS6eKLVEDdkgRlzdZKHdxA44", "types": ["health", "point_of_interest", "establishment"], "rating": 5, "user_ratings_total": 2}, "ChIJ-2l5JOIEdkgRkwZfjUVlJA4": {"geometry": {"location": {"lat": 51.4870916, "lng": -0.1365107}, "viewport": {"northeast": {"lat": 51.4885785302915, "lng": -0.135321919708498}, "southwest": {"lat": 51.4858805697085, "lng": -0.138019880291502}}}, "name": "Ghazaleh Rahimi Podiatry (Pimlico Podiatry)", "place_id": "ChIJ-2l5JOIEdkgRkwZfjUVlJA4", "types": ["doctor", "health", "point_of_interest", "establishment"], "rating": 5, "user_ratings_total": 32}, "ChIJu4XTCuMEdkgRGPRp1fxjxvM": {"geometry": {"location": {"lat": 51.4872872, "lng": -0.1362381}, "viewport": {"northeast": {"lat": 51.48868158029149, "lng": -0.135185619708498}, "southwest": {"lat": 51.48598361970849, "lng": -0.137883580291502}}}, "name": "Dolphin Square Dry Cleaners", "place_id": "ChIJu4XTCuMEdkgRGPRp1fxjxvM", "types": ["laundry", "point_of_interest", "establishment"], "rating": 2.9, "user_ratings_total": 9}, "ChIJ418Z6-MEdkgRyGiQsSsFmjE": {"geometry": {"location": {"lat": 51.48744070000001, "lng": -0.1362084}, "viewport": {"northeast": {"lat": 51.4888200302915, "lng": -0.134872919708498}, "southwest": {"lat": 51.4861220697085, "lng": -0.1375708802915021}}}, "name": "SW Finance", "place_id": "ChIJ418Z6-MEdkgRyGiQsSsFmjE", "types": ["finance", "point_of_interest", "establishment"]}, "ChIJ418Z6-MEdkgRU5XIJOJbY3Y": {"geometry": {"location": {"lat": 51.48744070000001, "lng": -0.1362084}, "viewport": {"northeast": {"lat": 51.4888200302915, "lng": -0.134872919708498}, "southwest": {"lat": 51.4861220697085, "lng": -0.1375708802915021}}}, "name": "Luxury Timepiece", "place_id": "ChIJ418Z6-MEdkgRU5XIJOJbY3Y", "types": ["point_of_interest", "store", "establishment"]}, "ChIJy4i9BBAFdkgRyqjbvZbYCsk": {"geometry": {"location": {"lat": 51.48744070000001, "lng": -0.1362084}, "viewport": {"northeast": {"lat": 51.4888200302915, "lng": -0.134872919708498}, "southwest": {"lat": 51.4861220697085, "lng": -0.1375708802915021}}}, "name": "Kempo Jujitsu Self Defence (Pimlico)", "place_id": "ChIJy4i9BBAFdkgRyqjbvZbYCsk", "types": ["health", "point_of_interest", "establishment"]}, "ChIJob01vuMEdkgRUxeF_XZk4cg": {"geometry": {"location": {"lat": 51.48744070000001, "lng": -0.1362084}, "viewport": {"northeast": {"lat": 51.4888200302915, "lng": -0.134872919708498}, "southwest": {"lat": 51.4861220697085, "lng": -0.1375708802915021}}}, "name": "My French Physio", "place_id": "ChIJob01vuMEdkgRUxeF_XZk4cg", "types": ["physiotherapist", "health", "point_of_interest", "establishment"], "rating": 4.9, "user_ratings_total": 31}, "ChIJV8gP0ykFdkgRnQW6XhtmmxQ": {"geometry": {"location": {"lat": 51.4873829, "lng": -0.1359522}, "viewport": {"northeast": {"lat": 51.48861288029149, "lng": -0.134500219708498}, "southwest": {"lat": 51.4859149197085, "lng": -0.137198180291502}}}, "name": "Collum Hair Co", "place_id": "ChIJV8gP0ykFdkgRnQW6XhtmmxQ", "types": ["hair_care", "point_of_interest", "establishment"]}, "ChIJ0y15w6kFdkgRlDMareXmPoA": {"geometry": {"location": {"lat": 51.4872944, "lng": -0.1358957}, "viewport": {"northeast": {"lat": 51.4885212802915, "lng": -0.1344251697084979}, "southwest": {"lat": 51.48582331970851, "lng": -0.137123130291502}}}, "name": "Hotel Dolphin", "place_id": "ChIJ0y15w6kFdkgRlDMareXmPoA", "types": ["lodging", "point_of_interest", "establishment"]}, "ChIJM2xwoogFdkgRAwFdYJwbeLg": {"geometry": {"location": {"lat": 51.48725400000001, "lng": -0.1361915}, "viewport": {"northeast": {"lat": 51.4886841302915, "lng": -0.135162319708498}, "southwest": {"lat": 51.4859861697085, "lng": -0.137860280291502}}}, "name": "Dolphin Square Caf\u00e9", "place_id": "ChIJM2xwoogFdkgRAwFdYJwbeLg", "types": ["cafe", "food", "point_of_interest", "establishment"]}, "ChIJPZfQg7UFdkgRvb_bbJLsyQw": {"geometry": {"location": {"lat": 51.4874417, "lng": -0.1355255}, "viewport": {"northeast": {"lat": 51.4888188802915, "lng": -0.134025519708498}, "southwest": {"lat": 51.4861209197085, "lng": -0.136723480291502}}}, "name": "Green Plaque: Francis Crick", "place_id": "ChIJPZfQg7UFdkgRvb_bbJLsyQw", "types": ["point_of_interest", "establishment"]}, "ChIJKz5g7AYFdkgRmXmHMfjhwdc": {"geometry": {"location": {"lat": 51.48736, "lng": -0.13666}, "viewport": {"northeast": {"lat": 51.48874068029149, "lng": -0.135325119708498}, "southwest": {"lat": 51.4860427197085, "lng": -0.138023080291502}}}, "name": "Clapham Junction", "place_id": "ChIJKz5g7AYFdkgRmXmHMfjhwdc", "types": ["lodging", "point_of_interest", "establishment"]}, "ChIJo_TikPIFdkgRTJ_moPGy0Bo": {"geometry": {"location": {"lat": 51.4872755, "lng": -0.1366204}, "viewport": {"northeast": {"lat": 51.4886505802915, "lng": -0.135376769708498}, "southwest": {"lat": 51.4859526197085, "lng": -0.138074730291502}}}, "name": "Mieke Rainbird Chill, Acupuncturist", "place_id": "ChIJo_TikPIFdkgRTJ_moPGy0Bo", "types": ["health", "point_of_interest", "establishment"]}, "ChIJRz7hbhUFdkgR7qkGN15FY7s": {"geometry": {"location": {"lat": 51.4872804, "lng": -0.1366785}, "viewport": {"northeast": {"lat": 51.48866623029149, "lng": -0.135345869708498}, "southwest": {"lat": 51.48596826970849, "lng": -0.138043830291502}}}, "name": "You Live Life Well by Michelle Cohen", "place_id": "ChIJRz7hbhUFdkgR7qkGN15FY7s", "types": ["health", "point_of_interest", "establishment"], "rating": 5, "user_ratings_total": 7}, "ChIJYYtLi-MEdkgR5mOZLhp7Fck": {"geometry": {"location": {"lat": 51.4873349, "lng": -0.1354239}, "viewport": {"northeast": {"lat": 51.4887068302915, "lng": -0.1339474697084979}, "southwest": {"lat": 51.4860088697085, "lng": -0.136645430291502}}}, "name": "Legal Proposals", "place_id": "ChIJYYtLi-MEdkgR5mOZLhp7Fck", "types": ["point_of_interest", "establishment"]}, "ChIJUfpeleMEdkgRAenv5Yp5zQg": {"geometry": {"location": {"lat": 51.4870916, "lng": -0.1365107}, "viewport": {"northeast": {"lat": 51.4885785302915, "lng": -0.135321919708498}, "southwest": {"lat": 51.4858805697085, "lng": -0.138019880291502}}}, "name": "Dolphin Bar and Grill", "place_id": "ChIJUfpeleMEdkgRAenv5Yp5zQg", "types": ["restaurant", "cafe", "bar", "food", "point_of_interest", "store", "establishment"], "rating": 3.5, "user_ratings_total": 56}, "ChIJKdfWveMEdkgR-JIcQ2BfQag": {"geometry": {"location": {"lat": 51.4870916, "lng": -0.1365107}, "viewport": {"northeast": {"lat": 51.4885785302915, "lng": -0.135321919708498}, "southwest": {"lat": 51.4858805697085, "lng": -0.138019880291502}}}, "name": "The Hungry Dolphin Caf\u00e9", "place_id": "ChIJKdfWveMEdkgR-JIcQ2BfQag", "types": ["cafe", "restaurant", "food", "point_of_interest", "store", "establishment"], "rating": 5, "user_ratings_total": 2}, "ChIJyRn33Y4FdkgRWwHXkEHS3Xo": {"geometry": {"location": {"lat": 51.4871254, "lng": -0.136602}, "viewport": {"northeast": {"lat": 51.48858933029149, "lng": -0.135367569708498}, "southwest": {"lat": 51.48589136970849, "lng": -0.138065530291502}}}, "name": "Serviced Rentals - Dolphin Square", "place_id": "ChIJyRn33Y4FdkgRWwHXkEHS3Xo", "types": ["real_estate_agency", "point_of_interest", "establishment"]}, "ChIJhVwH0VoFdkgRSdx4yOoIIrw": {"geometry": {"location": {"lat": 51.4870916, "lng": -0.1365107}, "viewport": {"northeast": {"lat": 51.4885785302915, "lng": -0.135321919708498}, "southwest": {"lat": 51.4858805697085, "lng": -0.138019880291502}}}, "name": "Any London Waste", "place_id": "ChIJhVwH0VoFdkgRSdx4yOoIIrw", "types": ["point_of_interest", "establishment"]}, "ChIJOzg2heMEdkgRxV74lyoC8B8": {"geometry": {"location": {"lat": 51.4870916, "lng": -0.1365107}, "viewport": {"northeast": {"lat": 51.4885785302915, "lng": -0.135321919708498}, "southwest": {"lat": 51.4858805697085, "lng": -0.138019880291502}}}, "name": "Colour Affects", "place_id": "ChIJOzg2heMEdkgRxV74lyoC8B8", "types": ["point_of_interest", "establishment"]}, "ChIJKdfWveMEdkgRae_RBg63Xo8": {"geometry": {"location": {"lat": 51.4870916, "lng": -0.1365107}, "viewport": {"northeast": {"lat": 51.4885785302915, "lng": -0.135321919708498}, "southwest": {"lat": 51.4858805697085, "lng": -0.138019880291502}}}, "name": "Dolphin News", "place_id": "ChIJKdfWveMEdkgRae_RBg63Xo8", "types": ["point_of_interest", "establishment"]}, "ChIJScUk7OMEdkgRxiKmRzgaLls": {"geometry": {"location": {"lat": 51.4876259, "lng": -0.1359166}, "viewport": {"northeast": {"lat": 51.48897777804937, "lng": -0.1345821269674574}, "southwest": {"lat": 51.48627981746637, "lng": -0.1372800875504614}}}, "name": "Parking lot", "place_id": "ChIJScUk7OMEdkgRxiKmRzgaLls", "types": ["parking", "premise", "point_of_interest", "establishment"]}, "ChIJ3RWwhuMEdkgRi0WrUifk0CU": {"geometry": {"location": {"lat": 51.48662411523227, "lng": -0.1354439088670334}, "viewport": {"northeast": {"lat": 51.4879833802915, "lng": -0.134053819708498}, "southwest": {"lat": 51.4852854197085, "lng": -0.136751780291502}}}, "name": "278-404 Dolphin Square East Side", "place_id": "ChIJ3RWwhuMEdkgRi0WrUifk0CU", "types": ["route"]}, "ChIJ0RacwOMEdkgRFLownbCR6BI": {"geometry": {"location": {"lat": 51.48660529999999, "lng": -0.1355797}, "viewport": {"northeast": {"lat": 51.4880420302915, "lng": -0.134165019708498}, "southwest": {"lat": 51.4853440697085, "lng": -0.136862980291502}}}, "name": "Designers Forum Ltd", "place_id": "ChIJ0RacwOMEdkgRFLownbCR6BI", "types": ["point_of_interest", "establishment"], "rating": 3, "user_ratings_total": 2}, "ChIJTc-IvuMEdkgRdniZOyQKTRQ": {"geometry": {"location": {"lat": 51.4869375, "lng": -0.1364365}, "viewport": {"northeast": {"lat": 51.48849703029151, "lng": -0.135211619708498}, "southwest": {"lat": 51.48579906970851, "lng": -0.137909580291502}}}, "name": "Dolphin Square", "place_id": "ChIJTc-IvuMEdkgRdniZOyQKTRQ", "types": ["real_estate_agency", "point_of_interest", "establishment"], "rating": 3.8, "user_ratings_total": 33}, "ChIJiw7gmOMEdkgR9sMV-YBbZiI": {"geometry": {"location": {"lat": 51.486437, "lng": -0.1362361}, "viewport": {"northeast": {"lat": 51.4877159802915, "lng": -0.135300669708498}, "southwest": {"lat": 51.4850180197085, "lng": -0.137998630291502}}}, "name": "Dolphin Fountain", "place_id": "ChIJiw7gmOMEdkgR9sMV-YBbZiI", "types": ["point_of_interest", "store", "establishment"], "rating": 1, "user_ratings_total": 2}, "ChIJKX2RDwMFdkgRYK80zRUtusw": {"geometry": {"location": {"lat": 51.48642550000001, "lng": -0.1363367}, "viewport": {"northeast": {"lat": 51.4877127802915, "lng": -0.135352069708498}, "southwest": {"lat": 51.4850148197085, "lng": -0.138050030291502}}}, "name": "Ryan McMahon Fitness", "place_id": "ChIJKX2RDwMFdkgRYK80zRUtusw", "types": ["health", "point_of_interest", "establishment"], "rating": 5, "user_ratings_total": 22}, "ChIJf5c2heMEdkgRjycwv5WXsEo": {"geometry": {"location": {"lat": 51.4865853, "lng": -0.1356561}, "viewport": {"northeast": {"lat": 51.4880320302915, "lng": -0.134200569708498}, "southwest": {"lat": 51.48533406970851, "lng": -0.136898530291502}}}, "name": "Personal Time Saver Ltd", "place_id": "ChIJf5c2heMEdkgRjycwv5WXsEo", "types": ["point_of_interest", "establishment"]}, "ChIJvf1HheMEdkgRzfvNtAejoSY": {"geometry": {"location": {"lat": 51.4866018, "lng": -0.1356358}, "viewport": {"northeast": {"lat": 51.4880402802915, "lng": -0.134193119708498}, "southwest": {"lat": 51.4853423197085, "lng": -0.136891080291502}}}, "name": "USA/UK Financial Concierge Ltd.", "place_id": "ChIJvf1HheMEdkgRzfvNtAejoSY", "types": ["finance", "point_of_interest", "establishment"]}, "ChIJAdaLxfYFdkgRYrBC6KmNN7k": {"geometry": {"location": {"lat": 51.4866018, "lng": -0.1356358}, "viewport": {"northeast": {"lat": 51.4880402802915, "lng": -0.134193119708498}, "southwest": {"lat": 51.4853423197085, "lng": -0.136891080291502}}}, "name": "Arkerton", "place_id": "ChIJAdaLxfYFdkgRYrBC6KmNN7k", "types": ["point_of_interest", "establishment"], "rating": 5, "user_ratings_total": 3}, "ChIJ05Q_heMEdkgReBfOg1CFM38": {"geometry": {"location": {"lat": 51.4865957, "lng": -0.135596}, "viewport": {"northeast": {"lat": 51.4880372302915, "lng": -0.134170519708498}, "southwest": {"lat": 51.4853392697085, "lng": -0.136868480291502}}}, "name": "South East Diagnostic", "place_id": "ChIJ05Q_heMEdkgReBfOg1CFM38", "types": ["health", "point_of_interest", "establishment"]}, "ChIJ1ZEKhOMEdkgRibXusCoITNU": {"geometry": {"location": {"lat": 51.4862733, "lng": -0.1355277}, "viewport": {"northeast": {"lat": 51.4878815302915, "lng": -0.134218569708498}, "southwest": {"lat": 51.4851835697085, "lng": -0.136916530291502}}}, "name": "Collingwood House", "place_id": "ChIJ1ZEKhOMEdkgRibXusCoITNU", "types": ["point_of_interest", "establishment"], "rating": 3, "user_ratings_total": 2}, "ChIJZwSkBLUFdkgRudqy2qMPkdc": {"geometry": {"location": {"lat": 51.4863203, "lng": -0.1354412}, "viewport": {"northeast": {"lat": 51.48789953029149, "lng": -0.1341010697084979}, "southwest": {"lat": 51.48520156970849, "lng": -0.136799030291502}}}, "name": "Haynes\u2019 London Stay", "place_id": "ChIJZwSkBLUFdkgRudqy2qMPkdc", "types": ["night_club", "point_of_interest", "establishment"]}, "ChIJnXGHr-MEdkgRs0t1_Js2Hzk": {"geometry": {"location": {"lat": 51.4865458, "lng": -0.1369043}, "viewport": {"northeast": {"lat": 51.4878769802915, "lng": -0.135681319708498}, "southwest": {"lat": 51.4851790197085, "lng": -0.138379280291502}}}, "name": "Beatty House", "place_id": "ChIJnXGHr-MEdkgRs0t1_Js2Hzk", "types": ["lodging", "point_of_interest", "establishment"], "rating": 4, "user_ratings_total": 5}, "ChIJp-KRnrAFdkgRdYGDk7VvOkA": {"geometry": {"location": {"lat": 51.486265, "lng": -0.1353369}, "viewport": {"northeast": {"lat": 51.48761408029149, "lng": -0.1339872197084979}, "southwest": {"lat": 51.4849161197085, "lng": -0.136685180291502}}}, "name": "Cliden Construction (London) Ltd.", "place_id": "ChIJp-KRnrAFdkgRdYGDk7VvOkA", "types": ["general_contractor", "point_of_interest", "establishment"]}, "ChIJSWAYcuMEdkgRoZVmSJF0nR0": {"geometry": {"location": {"lat": 51.48544711879729, "lng": -0.136078180284067}, "viewport": {"northeast": {"lat": 51.48679558029151, "lng": -0.134728969708498}, "southwest": {"lat": 51.48409761970851, "lng": -0.137426930291502}}}, "name": "132-144 Grosvenor Rd", "place_id": "ChIJSWAYcuMEdkgRoZVmSJF0nR0", "types": ["route"]}, "ChIJD3zWcOMEdkgRsrz3pVOsaNw": {"geometry": {"location": {"lat": 51.48551550000001, "lng": -0.1362362}, "viewport": {"northeast": {"lat": 51.4868199802915, "lng": -0.134868319708498}, "southwest": {"lat": 51.4841220197085, "lng": -0.1375662802915021}}}, "name": "Raleigh House", "place_id": "ChIJD3zWcOMEdkgRsrz3pVOsaNw", "types": ["point_of_interest", "establishment"], "rating": 3.3, "user_ratings_total": 4}, "ChIJpSFBheMEdkgRX_p4FgoicsQ": {"geometry": {"location": {"lat": 51.4856145, "lng": -0.1360155}, "viewport": {"northeast": {"lat": 51.48699703029149, "lng": -0.135066169708498}, "southwest": {"lat": 51.4842990697085, "lng": -0.137764130291502}}}, "name": "Dolphin Square Trust Ltd", "place_id": "ChIJpSFBheMEdkgRX_p4FgoicsQ", "types": ["finance", "point_of_interest", "establishment"]}, "ChIJqdkcE-MEdkgRFoIThty1AzU": {"geometry": {"location": {"lat": 51.4851923, "lng": -0.1365438}, "viewport": {"northeast": {"lat": 51.48662283029149, "lng": -0.135232519708498}, "southwest": {"lat": 51.4839248697085, "lng": -0.137930480291502}}}, "name": "Shop'n Drive", "place_id": "ChIJqdkcE-MEdkgRFoIThty1AzU", "types": ["convenience_store", "food", "point_of_interest", "store", "establishment"], "rating": 3, "user_ratings_total": 2}, "ChIJz94TfhgFdkgRpy0fG0qAYFE": {"geometry": {"location": {"lat": 51.48525369999999, "lng": -0.1363485}, "viewport": {"northeast": {"lat": 51.4866715802915, "lng": -0.135029469708498}, "southwest": {"lat": 51.4839736197085, "lng": -0.137727430291502}}}, "name": "Shell", "place_id": "ChIJz94TfhgFdkgRpy0fG0qAYFE", "types": ["gas_station", "convenience_store", "food", "point_of_interest", "store", "establishment"], "rating": 3, "user_ratings_total": 35}, "ChIJy4qbEuMEdkgRTNbXYb0JUoI": {"geometry": {"location": {"lat": 51.4852664, "lng": -0.1362442}, "viewport": {"northeast": {"lat": 51.48668668029151, "lng": -0.134925469708498}, "southwest": {"lat": 51.48398871970851, "lng": -0.137623430291502}}}, "name": "nubeginningsfrance", "place_id": "ChIJy4qbEuMEdkgRTNbXYb0JUoI", "types": ["health", "point_of_interest", "establishment"]}, "ChIJXZAabeMEdkgRuIjhD8llvt8": {"geometry": {"location": {"lat": 51.48518129999999, "lng": -0.1362528}, "viewport": {"northeast": {"lat": 51.48663998029149, "lng": -0.134954619708498}, "southwest": {"lat": 51.48394201970849, "lng": -0.137652580291502}}}, "name": "ATM", "place_id": "ChIJXZAabeMEdkgRuIjhD8llvt8", "types": ["atm", "finance", "point_of_interest", "establishment"], "rating": 5, "user_ratings_total": 1}, "ChIJF-f9tdgFdkgRUq4FRomCGvs": {"geometry": {"location": {"lat": 51.4852672, "lng": -0.1357768}, "viewport": {"northeast": {"lat": 51.4867227802915, "lng": -0.134471919708498}, "southwest": {"lat": 51.48402481970851, "lng": -0.137169880291502}}}, "name": "Tennis Court", "place_id": "ChIJF-f9tdgFdkgRUq4FRomCGvs", "types": ["point_of_interest", "establishment"], "rating": 5, "user_ratings_total": 2}, "ChIJPWfAKagFdkgRLYkWph1HzaI": {"geometry": {"location": {"lat": 51.4852599, "lng": -0.1357258}, "viewport": {"northeast": {"lat": 51.4867239302915, "lng": -0.134427369708498}, "southwest": {"lat": 51.4840259697085, "lng": -0.137125330291502}}}, "name": "Grosvenor Road - Riverside Tennis Court", "place_id": "ChIJPWfAKagFdkgRLYkWph1HzaI", "types": ["point_of_interest", "establishment"]}, "ChIJoTZ0-6QFdkgREGemtL2_1_o": {"geometry": {"location": {"lat": 51.4855325, "lng": -0.1365319}, "viewport": {"northeast": {"lat": 51.4878164, "lng": -0.134730819708498}, "southwest": {"lat": 51.4847712, "lng": -0.137428780291502}}}, "name": "Keyes House", "place_id": "ChIJoTZ0-6QFdkgREGemtL2_1_o", "types": ["lodging", "point_of_interest", "establishment"], "rating": 4.8, "user_ratings_total": 4}, "ChIJ82I3d-MEdkgRxpCuRy7rFg0": {"geometry": {"location": {"lat": 51.4857375, "lng": -0.1357846}, "viewport": {"northeast": {"lat": 51.4869742802915, "lng": -0.134382719708498}, "southwest": {"lat": 51.4842763197085, "lng": -0.137080680291502}}}, "name": "Pimlico resource centre Aylesford Street SW1V 3LR", "place_id": "ChIJ82I3d-MEdkgRxpCuRy7rFg0", "types": ["point_of_interest", "establishment"]}, "ChIJcT5P1PIFdkgRvzw_RNkEr34": {"geometry": {"location": {"lat": 51.4858826, "lng": -0.1364269}, "viewport": {"northeast": {"lat": 51.4872002802915, "lng": -0.135292369708498}, "southwest": {"lat": 51.4845023197085, "lng": -0.137990330291502}}}, "name": "Hawkins house", "place_id": "ChIJcT5P1PIFdkgRvzw_RNkEr34", "types": ["point_of_interest", "establishment"]}, "ChIJq7KnzOMEdkgRU1Ityc-Yc-A": {"geometry": {"location": {"lat": 51.487675, "lng": -0.1378363}, "viewport": {"northeast": {"lat": 51.48928778029149, "lng": -0.136498869708498}, "southwest": {"lat": 51.48658981970849, "lng": -0.139196830291502}}}, "name": "PMACA", "place_id": "ChIJq7KnzOMEdkgRU1Ityc-Yc-A", "types": ["point_of_interest", "establishment"]}, "ChIJv1SiD-IEdkgRfmZZPFR_mos": {"geometry": {"location": {"lat": 51.4877469, "lng": -0.1377993}, "viewport": {"northeast": {"lat": 51.48932973029149, "lng": -0.136466219708498}, "southwest": {"lat": 51.4866317697085, "lng": -0.139164180291502}}}, "name": "Star Bright Tuition", "place_id": "ChIJv1SiD-IEdkgRfmZZPFR_mos", "types": ["point_of_interest", "establishment"]}, "ChIJ8Xt90uMEdkgRJr_JIqDoj88": {"geometry": {"location": {"lat": 51.48802560000001, "lng": -0.1377073}, "viewport": {"northeast": {"lat": 51.4894883802915, "lng": -0.136359919708498}, "southwest": {"lat": 51.48679041970851, "lng": -0.139057880291502}}}, "name": "AlManhaj Arabic Academy", "place_id": "ChIJ8Xt90uMEdkgRJr_JIqDoj88", "types": ["school", "point_of_interest", "establishment"], "rating": 2.5, "user_ratings_total": 2}, "ChIJ___b31wOdkgRQZYmmUNL0QU": {"geometry": {"location": {"lat": 51.4870894, "lng": -0.1374492}, "viewport": {"northeast": {"lat": 51.4885052302915, "lng": -0.135832469708498}, "southwest": {"lat": 51.4858072697085, "lng": -0.138530430291502}}}, "name": "Corporate Living - Dolphin Square", "place_id": "ChIJ___b31wOdkgRQZYmmUNL0QU", "types": ["lodging", "point_of_interest", "establishment"], "rating": 5, "user_ratings_total": 6}, "ChIJXTO52xEFdkgRxYnifCk3f94": {"geometry": {"location": {"lat": 51.487675, "lng": -0.1378363}, "viewport": {"northeast": {"lat": 51.48928778029149, "lng": -0.136498869708498}, "southwest": {"lat": 51.48658981970849, "lng": -0.139196830291502}}}, "name": "Powerplay Netball at Pimlico Academy", "place_id": "ChIJXTO52xEFdkgRxYnifCk3f94", "types": ["point_of_interest", "establishment"]}, "ChIJs1P3LEkFdkgRSjnF3-sckkU": {"geometry": {"location": {"lat": 51.487675, "lng": -0.1378363}, "viewport": {"northeast": {"lat": 51.48928778029149, "lng": -0.136498869708498}, "southwest": {"lat": 51.48658981970849, "lng": -0.139196830291502}}}, "name": "RCCGSGLG", "place_id": "ChIJs1P3LEkFdkgRSjnF3-sckkU", "types": ["place_of_worship", "point_of_interest", "establishment"]}, "ChIJq7KnzOMEdkgRDyIOCUHTXkc": {"geometry": {"location": {"lat": 51.487675, "lng": -0.1378363}, "viewport": {"northeast": {"lat": 51.48928778029149, "lng": -0.136498869708498}, "southwest": {"lat": 51.48658981970849, "lng": -0.139196830291502}}}, "name": "Pimlico-London SCITT", "place_id": "ChIJq7KnzOMEdkgRDyIOCUHTXkc", "types": ["university", "point_of_interest", "establishment"]}, "ChIJ6UiF0OMEdkgRdBo5hJIwY_U": {"geometry": {"location": {"lat": 51.4880378, "lng": -0.1375772}, "viewport": {"northeast": {"lat": 51.48950618029149, "lng": -0.1362758197084979}, "southwest": {"lat": 51.48680821970849, "lng": -0.138973780291502}}}, "name": "Pimlico Academy", "place_id": "ChIJ6UiF0OMEdkgRdBo5hJIwY_U", "types": ["school", "point_of_interest", "establishment"], "rating": 4.1, "user_ratings_total": 61}, "ChIJj2JfzeMEdkgR9cowcm9unps": {"geometry": {"location": {"lat": 51.487993, "lng": -0.1378155}, "viewport": {"northeast": {"lat": 51.4894612802915, "lng": -0.136420069708498}, "southwest": {"lat": 51.4867633197085, "lng": -0.139118030291502}}}, "name": "Pimlico Academy & Library", "place_id": "ChIJj2JfzeMEdkgR9cowcm9unps", "types": ["transit_station", "point_of_interest", "establishment"]}, "ChIJb43Zi2YEdkgRWTopWg2cjlA": {"geometry": {"location": {"lat": 51.4880516, "lng": -0.1377607}, "viewport": {"northeast": {"lat": 51.4894975302915, "lng": -0.136382069708498}, "southwest": {"lat": 51.4867995697085, "lng": -0.139080030291502}}}, "name": "Keen Learners", "place_id": "ChIJb43Zi2YEdkgRWTopWg2cjlA", "types": ["point_of_interest", "establishment"], "rating": 5, "user_ratings_total": 12}, "ChIJKZAruVkFdkgR7ulGtnwbYIs": {"geometry": {"location": {"lat": 51.4880697, "lng": -0.1377272}, "viewport": {"northeast": {"lat": 51.48951038029149, "lng": -0.136360069708498}, "southwest": {"lat": 51.48681241970849, "lng": -0.139058030291502}}}, "name": "The Coffee Shop", "place_id": "ChIJKZAruVkFdkgR7ulGtnwbYIs", "types": ["food", "point_of_interest", "store", "establishment"], "rating": 3, "user_ratings_total": 1}, "ChIJHQcPsuMEdkgRhyldFotC0UI": {"geometry": {"location": {"lat": 51.48664900000001, "lng": -0.1376218}, "viewport": {"northeast": {"lat": 51.4879801802915, "lng": -0.1363868697084979}, "southwest": {"lat": 51.4852822197085, "lng": -0.139084830291502}}}, "name": "Page Property Services", "place_id": "ChIJHQcPsuMEdkgRhyldFotC0UI", "types": ["finance", "point_of_interest", "establishment"]}, "ChIJl_Zqp-MEdkgR_cw0CdhuMX0": {"geometry": {"location": {"lat": 51.48672879999999, "lng": -0.1376861}, "viewport": {"northeast": {"lat": 51.48806233029149, "lng": -0.136436069708498}, "southwest": {"lat": 51.4853643697085, "lng": -0.139134030291502}}}, "name": "Howard House", "place_id": "ChIJl_Zqp-MEdkgR_cw0CdhuMX0", "types": ["lodging", "point_of_interest", "establishment"]}, "ChIJi-YpVeIEdkgReBVoluSFOuw": {"geometry": {"location": {"lat": 51.4862069, "lng": -0.1377964}, "viewport": {"northeast": {"lat": 51.48756583029149, "lng": -0.136396619708498}, "southwest": {"lat": 51.48486786970849, "lng": -0.139094580291502}}}, "name": "ubitricity Charging Station", "place_id": "ChIJi-YpVeIEdkgReBVoluSFOuw", "types": ["point_of_interest", "establishment"]}, "ChIJ1UrZuskFdkgRa_xFmSGC7QY": {"geometry": {"location": {"lat": 51.48617400000001, "lng": -0.1373937}, "viewport": {"northeast": {"lat": 51.4875025302915, "lng": -0.136176519708498}, "southwest": {"lat": 51.4848045697085, "lng": -0.138874480291502}}}, "name": "Cleaners R Us Purley", "place_id": "ChIJ1UrZuskFdkgRa_xFmSGC7QY", "types": ["point_of_interest", "establishment"]}, "ChIJAQCCquMEdkgREKp7cR06wkQ": {"geometry": {"location": {"lat": 51.48602299999999, "lng": -0.137722}, "viewport": {"northeast": {"lat": 51.48738003029149, "lng": -0.136321869708498}, "southwest": {"lat": 51.48468206970849, "lng": -0.139019830291502}}}, "name": "Claverton St Churchill Gdns (Stop A)", "place_id": "ChIJAQCCquMEdkgREKp7cR06wkQ", "types": ["transit_station", "point_of_interest", "establishment"], "rating": 5, "user_ratings_total": 1}, "ChIJNZr_TMQFdkgRKy3kWQC1mP4": {"geometry": {"location": {"lat": 51.4867789, "lng": -0.137181}, "viewport": {"northeast": {"lat": 51.4879998802915, "lng": -0.135830969708498}, "southwest": {"lat": 51.4853019197085, "lng": -0.138528930291502}}}, "name": "Duncan House", "place_id": "ChIJNZr_TMQFdkgRKy3kWQC1mP4", "types": ["lodging", "point_of_interest", "establishment"], "rating": 3.5, "user_ratings_total": 2}, "ChIJAfjbZe0FdkgRrSuSm7F9cnw": {"geometry": {"location": {"lat": 51.4860263, "lng": -0.1373949}, "viewport": {"northeast": {"lat": 51.4873590802915, "lng": -0.136149119708498}, "southwest": {"lat": 51.4846611197085, "lng": -0.138847080291502}}}, "name": "Happy removal Chelsea", "place_id": "ChIJAfjbZe0FdkgRrSuSm7F9cnw", "types": ["moving_company", "point_of_interest", "establishment"], "rating": 5, "user_ratings_total": 4}, "ChIJo6plYAYFdkgRvlHAM4KR6mU": {"geometry": {"location": {"lat": 51.4860263, "lng": -0.1373949}, "viewport": {"northeast": {"lat": 51.4873590802915, "lng": -0.136149119708498}, "southwest": {"lat": 51.4846611197085, "lng": -0.138847080291502}}}, "name": "Brilliant cleaner Chelsea", "place_id": "ChIJo6plYAYFdkgRvlHAM4KR6mU", "types": ["point_of_interest", "establishment"], "rating": 5, "user_ratings_total": 13}, "ChIJdU80sOMEdkgRJAdp6Se3RcI": {"geometry": {"location": {"lat": 51.4864956, "lng": -0.1372193}, "viewport": {"northeast": {"lat": 51.48760321928631, "lng": -0.1357570783875004}, "southwest": {"lat": 51.48490525870331, "lng": -0.1384550389705044}}}, "name": "Parking lot", "place_id": "ChIJdU80sOMEdkgRJAdp6Se3RcI", "types": ["parking", "premise", "point_of_interest", "establishment"]}, "ChIJebpqHOMEdkgRvk-CREYjM8s": {"geometry": {"location": {"lat": 51.48518365036877, "lng": -0.1375860003639325}, "viewport": {"northeast": {"lat": 51.4865326302915, "lng": -0.136237019708498}, "southwest": {"lat": 51.4838346697085, "lng": -0.138934980291502}}}, "name": "Grosvenor Road", "place_id": "ChIJebpqHOMEdkgRvk-CREYjM8s", "types": ["route"]}, "ChIJydrmfOMEdkgRtoN9Qb3ke28": {"geometry": {"location": {"lat": 51.4851831, "lng": -0.1372874}, "viewport": {"northeast": {"lat": 51.4865550802915, "lng": -0.135949819708498}, "southwest": {"lat": 51.4838571197085, "lng": -0.138647780291502}}}, "name": "Logic ICT Ltd", "place_id": "ChIJydrmfOMEdkgRtoN9Qb3ke28", "types": ["point_of_interest", "establishment"]}, "ChIJ1WtvBeMEdkgRjON0T8xcHVM": {"geometry": {"location": {"lat": 51.4854699, "lng": -0.1371429}, "viewport": {"northeast": {"lat": 51.4867236802915, "lng": -0.135752369708498}, "southwest": {"lat": 51.4840257197085, "lng": -0.138450330291502}}}, "name": "Holistic Health Consultancy & College", "place_id": "ChIJ1WtvBeMEdkgRjON0T8xcHVM", "types": ["health", "point_of_interest", "establishment"]}, "ChIJO_iJD-MEdkgRJhdRgqFpJzE": {"geometry": {"location": {"lat": 51.4854699, "lng": -0.1371428}, "viewport": {"northeast": {"lat": 51.4867236802915, "lng": -0.135752269708498}, "southwest": {"lat": 51.4840257197085, "lng": -0.1384502302915021}}}, "name": "Decibel Designs", "place_id": "ChIJO_iJD-MEdkgRJhdRgqFpJzE", "types": ["general_contractor", "point_of_interest", "establishment"]}, "ChIJIVVBA-MEdkgRu3MagEjF3yk": {"geometry": {"location": {"lat": 51.4854521, "lng": -0.1376121}, "viewport": {"northeast": {"lat": 51.48680108029149, "lng": -0.136263119708498}, "southwest": {"lat": 51.48410311970849, "lng": -0.138961080291502}}}, "name": "Hungerford House", "place_id": "ChIJIVVBA-MEdkgRu3MagEjF3yk", "types": ["point_of_interest", "establishment"], "rating": 4.5, "user_ratings_total": 15}, "ChIJQyIw9UwFdkgRyRkJfxQtFIw": {"geometry": {"location": {"lat": 51.4854969, "lng": -0.1373999}, "viewport": {"northeast": {"lat": 51.4868390802915, "lng": -0.1361001697084979}, "southwest": {"lat": 51.4841411197085, "lng": -0.138798130291502}}}, "name": "SW1V 3BQ", "place_id": "ChIJQyIw9UwFdkgRyRkJfxQtFIw", "types": ["point_of_interest", "establishment"], "rating": 5, "user_ratings_total": 1}, "ChIJo8JpAeMEdkgRevRQqMYIRvs": {"geometry": {"location": {"lat": 51.48575100000001, "lng": -0.137609}, "viewport": {"northeast": {"lat": 51.48710783029151, "lng": -0.136210119708498}, "southwest": {"lat": 51.48440986970851, "lng": -0.138908080291502}}}, "name": "ubitricity Charging Station", "place_id": "ChIJo8JpAeMEdkgRevRQqMYIRvs", "types": ["point_of_interest", "establishment"]}, "ChIJ4wDsBuMEdkgRx0TC8o79gr0": {"geometry": {"location": {"lat": 51.48579669999999, "lng": -0.1373988}, "viewport": {"northeast": {"lat": 51.48713663029149, "lng": -0.136107469708498}, "southwest": {"lat": 51.48443866970849, "lng": -0.138805430291502}}}, "name": "Yellow Door Impact Ltd", "place_id": "ChIJ4wDsBuMEdkgRx0TC8o79gr0", "types": ["point_of_interest", "establishment"]}, "ChIJQzxNF-QEdkgRZsMJEb1DWMI": {"geometry": {"location": {"lat": 51.48793142719275, "lng": -0.1339036978332304}, "viewport": {"northeast": {"lat": 51.4892988302915, "lng": -0.1324987697084979}, "southwest": {"lat": 51.4866008697085, "lng": -0.135196730291502}}}, "name": "39-5 Aylesford St", "place_id": "ChIJQzxNF-QEdkgRZsMJEb1DWMI", "types": ["route"]}, "ChIJzSuIZeQEdkgRKw3pCy-ywos": {"geometry": {"location": {"lat": 51.48690667083626, "lng": -0.1340802147206429}, "viewport": {"northeast": {"lat": 51.48825603029149, "lng": -0.132729119708498}, "southwest": {"lat": 51.4855580697085, "lng": -0.135427080291502}}}, "name": "79-109 St.George's Square", "place_id": "ChIJzSuIZeQEdkgRKw3pCy-ywos", "types": ["route"]}, "ChIJp8B_iuQEdkgR9-FqEFDXV08": {"geometry": {"location": {"lat": 51.48602140000001, "lng": -0.1336653}, "viewport": {"northeast": {"lat": 51.48737868029149, "lng": -0.132269569708498}, "southwest": {"lat": 51.48468071970849, "lng": -0.134967530291502}}}, "name": "Stentor Finance Ltd", "place_id": "ChIJp8B_iuQEdkgR9-FqEFDXV08", "types": ["point_of_interest", "establishment"]}, "ChIJ12GxmuMEdkgRyL8RoNmg3Bc": {"geometry": {"location": {"lat": 51.48704300000001, "lng": -0.1357533}, "viewport": {"northeast": {"lat": 51.48839803029151, "lng": -0.134341519708498}, "southwest": {"lat": 51.48570006970851, "lng": -0.137039480291502}}}, "name": "Genever & Partners Ltd.", "place_id": "ChIJ12GxmuMEdkgRyL8RoNmg3Bc", "types": ["point_of_interest", "establishment"]}, "ChIJxVDSi-MEdkgRR4id6RVNHqY": {"geometry": {"location": {"lat": 51.4871619, "lng": -0.1353422}, "viewport": {"northeast": {"lat": 51.48853368029149, "lng": -0.133866419708498}, "southwest": {"lat": 51.48583571970849, "lng": -0.136564380291502}}}, "name": "Spanish Gospel Mission", "place_id": "ChIJxVDSi-MEdkgRR4id6RVNHqY", "types": ["point_of_interest", "establishment"]}, "ChIJg50p-MwEdkgRieuCP1Py5C0": {"geometry": {"location": {"lat": 51.4873901, "lng": -0.135223}, "viewport": {"northeast": {"lat": 51.48873853029149, "lng": -0.133876819708498}, "southwest": {"lat": 51.48604056970849, "lng": -0.136574780291502}}}, "name": "Lucky 8 PR", "place_id": "ChIJg50p-MwEdkgRieuCP1Py5C0", "types": ["point_of_interest", "establishment"], "rating": 1, "user_ratings_total": 1}, "ChIJLTdQieMEdkgRIJwSxlcJPwM": {"geometry": {"location": {"lat": 51.48697379999999, "lng": -0.1352799}, "viewport": {"northeast": {"lat": 51.4883470802915, "lng": -0.133792869708498}, "southwest": {"lat": 51.4856491197085, "lng": -0.1364908302915021}}}, "name": "Pimlico Man and Van", "place_id": "ChIJLTdQieMEdkgRIJwSxlcJPwM", "types": ["moving_company", "point_of_interest", "establishment"]}, "ChIJ21DSi-MEdkgR-cIZgEd2pas": {"geometry": {"location": {"lat": 51.4870439, "lng": -0.1351465}, "viewport": {"northeast": {"lat": 51.48840373029149, "lng": -0.133735969708498}, "southwest": {"lat": 51.4857057697085, "lng": -0.1364339302915021}}}, "name": "The Sheldon Trust", "place_id": "ChIJ21DSi-MEdkgR-cIZgEd2pas", "types": ["point_of_interest", "establishment"]}, "ChIJ21DSi-MEdkgRmCy9cnPwTgk": {"geometry": {"location": {"lat": 51.4870439, "lng": -0.1351465}, "viewport": {"northeast": {"lat": 51.48840373029149, "lng": -0.133735969708498}, "southwest": {"lat": 51.4857057697085, "lng": -0.1364339302915021}}}, "name": "Ulting Overseas Trust", "place_id": "ChIJ21DSi-MEdkgRmCy9cnPwTgk", "types": ["point_of_interest", "establishment"]}, "ChIJ21DSi-MEdkgRKRO6uJzeioI": {"geometry": {"location": {"lat": 51.4870439, "lng": -0.1351465}, "viewport": {"northeast": {"lat": 51.48840373029149, "lng": -0.133735969708498}, "southwest": {"lat": 51.4857057697085, "lng": -0.1364339302915021}}}, "name": "The Field Family Charitable Trust", "place_id": "ChIJ21DSi-MEdkgRKRO6uJzeioI", "types": ["point_of_interest", "establishment"]}, "ChIJ21DSi-MEdkgREP9182rCceg": {"geometry": {"location": {"lat": 51.4870439, "lng": -0.1351465}, "viewport": {"northeast": {"lat": 51.48840373029149, "lng": -0.133735969708498}, "southwest": {"lat": 51.4857057697085, "lng": -0.1364339302915021}}}, "name": "Veneziana Fund", "place_id": "ChIJ21DSi-MEdkgREP9182rCceg", "types": ["point_of_interest", "establishment"]}, "ChIJ21DSi-MEdkgRwirR-Z3BHUg": {"geometry": {"location": {"lat": 51.4870439, "lng": -0.1351465}, "viewport": {"northeast": {"lat": 51.48840373029149, "lng": -0.133735969708498}, "southwest": {"lat": 51.4857057697085, "lng": -0.1364339302915021}}}, "name": "The Simpson Foundation", "place_id": "ChIJ21DSi-MEdkgRwirR-Z3BHUg", "types": ["point_of_interest", "establishment"]}, "ChIJ21DSi-MEdkgRm2RUn6DzPV8": {"geometry": {"location": {"lat": 51.4870439, "lng": -0.1351465}, "viewport": {"northeast": {"lat": 51.48840373029149, "lng": -0.133735969708498}, "southwest": {"lat": 51.4857057697085, "lng": -0.1364339302915021}}}, "name": "Holy Rood Trust", "place_id": "ChIJ21DSi-MEdkgRm2RUn6DzPV8", "types": ["point_of_interest", "establishment"]}, "ChIJ21DSi-MEdkgRKAO5Etp7VdI": {"geometry": {"location": {"lat": 51.4870439, "lng": -0.1351465}, "viewport": {"northeast": {"lat": 51.48840373029149, "lng": -0.133735969708498}, "southwest": {"lat": 51.4857057697085, "lng": -0.1364339302915021}}}, "name": "Jm-Ca (1931)", "place_id": "ChIJ21DSi-MEdkgRKAO5Etp7VdI", "types": ["point_of_interest", "establishment"]}, "ChIJxVDSi-MEdkgRaWoSPtmQ1VY": {"geometry": {"location": {"lat": 51.4870317, "lng": -0.1351316}, "viewport": {"northeast": {"lat": 51.4883907302915, "lng": -0.133725419708498}, "southwest": {"lat": 51.4856927697085, "lng": -0.136423380291502}}}, "name": "Luxury Homes Turkey Ltd", "place_id": "ChIJxVDSi-MEdkgRaWoSPtmQ1VY", "types": ["point_of_interest", "establishment"]}, "ChIJ_YwZB4IFdkgRNsuCP44kGEA": {"geometry": {"location": {"lat": 51.48688790000001, "lng": -0.1351785}, "viewport": {"northeast": {"lat": 51.4882560802915, "lng": -0.133720369708498}, "southwest": {"lat": 51.48555811970851, "lng": -0.136418330291502}}}, "name": "secretstudio", "place_id": "ChIJ_YwZB4IFdkgRNsuCP44kGEA", "types": ["point_of_interest", "establishment"]}, "ChIJral5e-MEdkgRSaFBHPBY93g": {"geometry": {"location": {"lat": 51.48557521431262, "lng": -0.135349063886243}, "viewport": {"northeast": {"lat": 51.4869250802915, "lng": -0.134000519708498}, "southwest": {"lat": 51.4842271197085, "lng": -0.136698480291502}}}, "name": "136-135 Grosvenor Rd", "place_id": "ChIJral5e-MEdkgRSaFBHPBY93g", "types": ["route"]}, "ChIJLb8il-MEdkgRCe1PxRoDZj0": {"geometry": {"location": {"lat": 51.486144, "lng": -0.1352627}, "viewport": {"northeast": {"lat": 51.4874921802915, "lng": -0.133908069708498}, "southwest": {"lat": 51.4847942197085, "lng": -0.136606030291502}}}, "name": "TCS Groundworks", "place_id": "ChIJLb8il-MEdkgRCe1PxRoDZj0", "types": ["point_of_interest", "establishment"]}, "ChIJf88sc-MEdkgRvSireXpZDEM": {"geometry": {"location": {"lat": 51.48578329999999, "lng": -0.1351747}, "viewport": {"northeast": {"lat": 51.48715133029149, "lng": -0.133721719708498}, "southwest": {"lat": 51.4844533697085, "lng": -0.136419680291502}}}, "name": "Grenville House", "place_id": "ChIJf88sc-MEdkgRvSireXpZDEM", "types": ["point_of_interest", "establishment"]}, "ChIJibYUoOgFdkgRjfyi2DU2Aac": {"geometry": {"location": {"lat": 51.4860531, "lng": -0.1353537}, "viewport": {"northeast": {"lat": 51.4874534802915, "lng": -0.133931419708498}, "southwest": {"lat": 51.4847555197085, "lng": -0.136629380291502}}}, "name": "videography Pimlico", "place_id": "ChIJibYUoOgFdkgRjfyi2DU2Aac", "types": ["point_of_interest", "establishment"]}, "ChIJz5YFguMEdkgRvDXmMuuFevY": {"geometry": {"location": {"lat": 51.4860531, "lng": -0.1353537}, "viewport": {"northeast": {"lat": 51.4874534802915, "lng": -0.133931419708498}, "southwest": {"lat": 51.4847555197085, "lng": -0.136629380291502}}}, "name": "Frobisher House", "place_id": "ChIJz5YFguMEdkgRvDXmMuuFevY", "types": ["point_of_interest", "establishment"], "rating": 4, "user_ratings_total": 1}, "ChIJEbBJeeMEdkgROQUQtsfznCg": {"geometry": {"location": {"lat": 51.4857352, "lng": -0.1353522}, "viewport": {"northeast": {"lat": 51.4871201302915, "lng": -0.133807119708498}, "southwest": {"lat": 51.4844221697085, "lng": -0.136505080291502}}}, "name": "Drake House", "place_id": "ChIJEbBJeeMEdkgROQUQtsfznCg", "types": ["point_of_interest", "establishment"]}, "ChIJ53UcfOMEdkgRz4MYQ-rVhcY": {"geometry": {"location": {"lat": 51.4856772, "lng": -0.1352486}, "viewport": {"northeast": {"lat": 51.48698738029149, "lng": -0.133881719708498}, "southwest": {"lat": 51.4842894197085, "lng": -0.136579680291502}}}, "name": "OC SPORTS & MANAGEMENT", "place_id": "ChIJ53UcfOMEdkgRz4MYQ-rVhcY", "types": ["point_of_interest", "establishment"]}, "ChIJF-ViHHUFdkgRSF6yOWDpQeA": {"geometry": {"location": {"lat": 51.4859387, "lng": -0.1347978}, "viewport": {"northeast": {"lat": 51.4873116802915, "lng": -0.133314919708498}, "southwest": {"lat": 51.4846137197085, "lng": -0.136012880291502}}}, "name": "The Metis Institute", "place_id": "ChIJF-ViHHUFdkgRSF6yOWDpQeA", "types": ["point_of_interest", "establishment"]}, "ChIJv1hngOQEdkgRjbIfWzz6u2o": {"geometry": {"location": {"lat": 51.4859445, "lng": -0.1347878}, "viewport": {"northeast": {"lat": 51.48731643029149, "lng": -0.133310769708498}, "southwest": {"lat": 51.48461846970849, "lng": -0.136008730291502}}}, "name": "The Levantine Foundation", "place_id": "ChIJv1hngOQEdkgRjbIfWzz6u2o", "types": ["point_of_interest", "establishment"]}, "ChIJ6UiF0OMEdkgR-acT8e3bJMo": {"geometry": {"location": {"lat": 51.4880398, "lng": -0.1371874}, "viewport": {"northeast": {"lat": 51.48953753029149, "lng": -0.136049519708498}, "southwest": {"lat": 51.48683956970849, "lng": -0.138747480291502}}}, "name": "Capital Carboot", "place_id": "ChIJ6UiF0OMEdkgR-acT8e3bJMo", "types": ["point_of_interest", "establishment"], "rating": 3.9, "user_ratings_total": 202}, "ChIJF6m_2uMEdkgRg21WwKSexxY": {"geometry": {"location": {"lat": 51.4880668, "lng": -0.1370759}, "viewport": {"northeast": {"lat": 51.4895606802915, "lng": -0.135993769708498}, "southwest": {"lat": 51.4868627197085, "lng": -0.138691730291502}}}, "name": "Alpha Church", "place_id": "ChIJF6m_2uMEdkgRg21WwKSexxY", "types": ["point_of_interest", "establishment"], "rating": 4.8, "user_ratings_total": 28}, "ChIJJ_RvimYEdkgRTHRX41Gy2b8": {"geometry": {"location": {"lat": 51.488087, "lng": -0.137595}, "viewport": {"northeast": {"lat": 51.4895302302915, "lng": -0.136287819708498}, "southwest": {"lat": 51.4868322697085, "lng": -0.138985780291502}}}, "name": "Choice Tutors", "place_id": "ChIJJ_RvimYEdkgRTHRX41Gy2b8", "types": ["point_of_interest", "establishment"], "rating": 3.7, "user_ratings_total": 3}, "ChIJTTWnqOMEdkgRBWTwOJYQ1tc": {"geometry": {"location": {"lat": 51.48630991498616, "lng": -0.137068848081647}, "viewport": {"northeast": {"lat": 51.48767075000006, "lng": -0.135808969708498}, "southwest": {"lat": 51.48491054999994, "lng": -0.138506930291502}}}, "name": "42 Dolphin Square West Side", "place_id": "ChIJTTWnqOMEdkgRBWTwOJYQ1tc", "types": ["route"]}, "ChIJu4XTCuMEdkgR2rsZM6ZaHL0": {"geometry": {"location": {"lat": 51.4870426, "lng": -0.1365423}, "viewport": {"northeast": {"lat": 51.4885497802915, "lng": -0.135337719708498}, "southwest": {"lat": 51.4858518197085, "lng": -0.138035680291502}}}, "name": "DSQ GYM", "place_id": "ChIJu4XTCuMEdkgR2rsZM6ZaHL0", "types": ["gym", "health", "point_of_interest", "establishment"], "rating": 3.8, "user_ratings_total": 165}, "ChIJPx6jsOMEdkgR8najCw5AuDI": {"geometry": {"location": {"lat": 51.4869372, "lng": -0.1371918}, "viewport": {"northeast": {"lat": 51.4880780802915, "lng": -0.135861219708498}, "southwest": {"lat": 51.4853801197085, "lng": -0.138559180291502}}}, "name": "Integria Consulting Ltd", "place_id": "ChIJPx6jsOMEdkgR8najCw5AuDI", "types": ["point_of_interest", "establishment"]}, "ChIJR4_oGHwFdkgR2LQ2x_xYMMU": {"geometry": {"location": {"lat": 51.4870256, "lng": -0.136727}, "viewport": {"northeast": {"lat": 51.4885258802915, "lng": -0.135445219708498}, "southwest": {"lat": 51.4858279197085, "lng": -0.138143180291502}}}, "name": "Jgfitness360", "place_id": "ChIJR4_oGHwFdkgR2LQ2x_xYMMU", "types": ["health", "point_of_interest", "establishment"], "rating": 5, "user_ratings_total": 4}, "ChIJH_BO404FdkgRg-V3uxWjVXE": {"geometry": {"location": {"lat": 51.48696469999999, "lng": -0.1366936}, "viewport": {"northeast": {"lat": 51.4884959302915, "lng": -0.135425619708498}, "southwest": {"lat": 51.4857979697085, "lng": -0.138123580291502}}}, "name": "Dino Chavda Online Coaching", "place_id": "ChIJH_BO404FdkgRg-V3uxWjVXE", "types": ["health", "point_of_interest", "establishment"], "rating": 5, "user_ratings_total": 8}, "ChIJKdfWveMEdkgRTVSzN27YKCs": {"geometry": {"location": {"lat": 51.4869919, "lng": -0.1365441}, "viewport": {"northeast": {"lat": 51.48852248029149, "lng": -0.135338619708498}, "southwest": {"lat": 51.4858245197085, "lng": -0.138036580291502}}}, "name": "Dolphin International Travel", "place_id": "ChIJKdfWveMEdkgRTVSzN27YKCs", "types": ["travel_agency", "point_of_interest", "establishment"]}, "ChIJ32GxmuMEdkgRvSksVXAJiko": {"geometry": {"location": {"lat": 51.4870162, "lng": -0.1364477}, "viewport": {"northeast": {"lat": 51.48854318029149, "lng": -0.135290419708498}, "southwest": {"lat": 51.4858452197085, "lng": -0.137988380291502}}}, "name": "Calmer Clinics", "place_id": "ChIJ32GxmuMEdkgRvSksVXAJiko", "types": ["physiotherapist", "health", "point_of_interest", "establishment"], "rating": 4.5, "user_ratings_total": 8}, "ChIJk0nFAOMEdkgRkzdJAbGv3bM": {"geometry": {"location": {"lat": 51.48568960353913, "lng": -0.1374780110920807}, "viewport": {"northeast": {"lat": 51.4870381802915, "lng": -0.136131919708498}, "southwest": {"lat": 51.4843402197085, "lng": -0.138829880291502}}}, "name": "72-92 Claverton St", "place_id": "ChIJk0nFAOMEdkgRkzdJAbGv3bM", "types": ["route"]}, "ChIJMcDnC-MEdkgRqb_Ccax8yb4": {"geometry": {"location": {"lat": 51.4858157, "lng": -0.1367311}, "viewport": {"northeast": {"lat": 51.4871726302915, "lng": -0.135444069708498}, "southwest": {"lat": 51.4844746697085, "lng": -0.138142030291502}}}, "name": "Nelson House", "place_id": "ChIJMcDnC-MEdkgRqb_Ccax8yb4", "types": ["point_of_interest", "establishment"], "rating": 2.5, "user_ratings_total": 6}, "ChIJny3UqeMEdkgRnpWtxupT1_I": {"geometry": {"location": {"lat": 51.4860343, "lng": -0.1373522}, "viewport": {"northeast": {"lat": 51.48736368029149, "lng": -0.136128019708498}, "southwest": {"lat": 51.4846657197085, "lng": -0.138825980291502}}}, "name": "Digital Direct", "place_id": "ChIJny3UqeMEdkgRnpWtxupT1_I", "types": ["point_of_interest", "establishment"], "rating": 4, "user_ratings_total": 4}, "ChIJV3U9EOMEdkgRxgJyHxeAp7E": {"geometry": {"location": {"lat": 51.48528595031112, "lng": -0.1370210002725813}, "viewport": {"northeast": {"lat": 51.4866349302915, "lng": -0.135672019708498}, "southwest": {"lat": 51.4839369697085, "lng": -0.138369980291502}}}, "name": "94-92 Grosvenor Rd", "place_id": "ChIJV3U9EOMEdkgRxgJyHxeAp7E", "types": ["route"]}}}