{"E00175273": {"ChIJ2772XrcadkgRlCaD3leGrrY": {"geometry": {"location": {"lat": 51.52521865494378, "lng": -0.1692709382262759}, "viewport": {"northeast": {"lat": 51.52656813029149, "lng": -0.167921369708498}, "southwest": {"lat": 51.5238701697085, "lng": -0.170619330291502}}}, "name": "153-159 B507", "place_id": "ChIJ2772XrcadkgRlCaD3leGrrY", "types": ["route"]}, "ChIJ72YAMuUPdkgR-dhuGrJRtnU": {"geometry": {"location": {"lat": 51.525566, "lng": -0.1690808}, "viewport": {"northeast": {"lat": 51.5269016802915, "lng": -0.167757619708498}, "southwest": {"lat": 51.5242037197085, "lng": -0.170455580291502}}}, "name": "Bayswater Driving School", "place_id": "ChIJ72YAMuUPdkgR-dhuGrJRtnU", "types": ["point_of_interest", "establishment"], "rating": 5, "user_ratings_total": 1}, "ChIJ_Vg8fw4bdkgRiylpVZYfZek": {"geometry": {"location": {"lat": 51.5253142, "lng": -0.1690814}, "viewport": {"northeast": {"lat": 51.52660428029149, "lng": -0.167803219708498}, "southwest": {"lat": 51.5239063197085, "lng": -0.170501180291502}}}, "name": "Electrician Lisson Grove", "place_id": "ChIJ_Vg8fw4bdkgRiylpVZYfZek", "types": ["electrician", "point_of_interest", "establishment"]}, "ChIJSSGIR_sbdkgRCpLUPrfYUgA": {"geometry": {"location": {"lat": 51.52528950000001, "lng": -0.1686424}, "viewport": {"northeast": {"lat": 51.5266109802915, "lng": -0.1673468197084979}, "southwest": {"lat": 51.5239130197085, "lng": -0.170044780291502}}}, "name": "Regeneration Properties Ltd", "place_id": "ChIJSSGIR_sbdkgRCpLUPrfYUgA", "types": ["point_of_interest", "establishment"], "rating": 3, "user_ratings_total": 1}, "ChIJN7Pp3bkadkgReDmJV15Nsyw": {"geometry": {"location": {"lat": 51.5258712, "lng": -0.1686569}, "viewport": {"northeast": {"lat": 51.5272450302915, "lng": -0.1674216197084979}, "southwest": {"lat": 51.5245470697085, "lng": -0.170119580291502}}}, "name": "Turville House", "place_id": "ChIJN7Pp3bkadkgReDmJV15Nsyw", "types": ["point_of_interest", "establishment"], "rating": 4, "user_ratings_total": 1}, "ChIJFTqecTYbdkgRsD8sJPOUg-I": {"geometry": {"location": {"lat": 51.52591109999999, "lng": -0.1690916}, "viewport": {"northeast": {"lat": 51.5272310302915, "lng": -0.167702519708498}, "southwest": {"lat": 51.5245330697085, "lng": -0.170400480291502}}}, "name": "pro maintenance 247", "place_id": "ChIJFTqecTYbdkgRsD8sJPOUg-I", "types": ["point_of_interest", "establishment"]}, "ChIJTSplANcbdkgRmd3Blmc1OBI": {"geometry": {"location": {"lat": 51.52591109999999, "lng": -0.1690916}, "viewport": {"northeast": {"lat": 51.5272310302915, "lng": -0.167702519708498}, "southwest": {"lat": 51.5245330697085, "lng": -0.170400480291502}}}, "name": "emergency electricians 247", "place_id": "ChIJTSplANcbdkgRmd3Blmc1OBI", "types": ["electrician", "point_of_interest", "establishment"], "rating": 5, "user_ratings_total": 1}, "ChIJM45o2RkbdkgRTIVOocmXUSw": {"geometry": {"location": {"lat": 51.52503769999999, "lng": -0.1689597}, "viewport": {"northeast": {"lat": 51.5263851802915, "lng": -0.167612569708498}, "southwest": {"lat": 51.5236872197085, "lng": -0.170310530291502}}}, "name": "Akhi Garms", "place_id": "ChIJM45o2RkbdkgRTIVOocmXUSw", "types": ["clothing_store", "point_of_interest", "store", "establishment"]}, "ChIJz-sua-cbdkgRdG5wdgPwtsg": {"geometry": {"location": {"lat": 51.5250486, "lng": -0.1693557}, "viewport": {"northeast": {"lat": 51.5264647802915, "lng": -0.167925969708498}, "southwest": {"lat": 51.5237668197085, "lng": -0.170623930291502}}}, "name": "Property Accountant Lisson Grove", "place_id": "ChIJz-sua-cbdkgRdG5wdgPwtsg", "types": ["accounting", "finance", "point_of_interest", "establishment"]}, "ChIJUYu5ZbcadkgR-xTmC5TWvYE": {"geometry": {"location": {"lat": 51.52490245030884, "lng": -0.1685842492680303}, "viewport": {"northeast": {"lat": 51.5262514302915, "lng": -0.167235269708498}, "southwest": {"lat": 51.5235534697085, "lng": -0.169933230291502}}}, "name": "118 B507", "place_id": "ChIJUYu5ZbcadkgR-xTmC5TWvYE", "types": ["route"]}, "ChIJqbxNFbcadkgRI0eOwkhzl4U": {"geometry": {"location": {"lat": 51.5241255, "lng": -0.1688334}, "viewport": {"northeast": {"lat": 51.52539763029149, "lng": -0.167568769708498}, "southwest": {"lat": 51.52269966970849, "lng": -0.170266730291502}}}, "name": "Alfies Antique Market", "place_id": "ChIJqbxNFbcadkgRI0eOwkhzl4U", "types": ["furniture_store", "home_goods_store", "point_of_interest", "store", "establishment"], "rating": 4.3, "user_ratings_total": 326}, "ChIJqbxNFbcadkgREFtLvPD4fvU": {"geometry": {"location": {"lat": 51.5240017, "lng": -0.1689054}, "viewport": {"northeast": {"lat": 51.5254956802915, "lng": -0.167668269708498}, "southwest": {"lat": 51.5227977197085, "lng": -0.170366230291502}}}, "name": "Dodo", "place_id": "ChIJqbxNFbcadkgREFtLvPD4fvU", "types": ["home_goods_store", "point_of_interest", "store", "establishment"]}, "ChIJQ_UHRbcadkgR4v1aHkoyGuc": {"geometry": {"location": {"lat": 51.524475, "lng": -0.169555}, "viewport": {"northeast": {"lat": 51.5259022802915, "lng": -0.168152969708498}, "southwest": {"lat": 51.5232043197085, "lng": -0.1708509302915021}}}, "name": "The Cockpit", "place_id": "ChIJQ_UHRbcadkgR4v1aHkoyGuc", "types": ["point_of_interest", "establishment"], "rating": 4.4, "user_ratings_total": 364}, "ChIJVXkDb7cadkgRubYcD32ouI0": {"geometry": {"location": {"lat": 51.524581, "lng": -0.168397}, "viewport": {"northeast": {"lat": 51.5259662302915, "lng": -0.167095819708498}, "southwest": {"lat": 51.5232682697085, "lng": -0.169793780291502}}}, "name": "Number One Church Street", "place_id": "ChIJVXkDb7cadkgRubYcD32ouI0", "types": ["cafe", "bar", "food", "point_of_interest", "establishment"], "rating": 4.4, "user_ratings_total": 205}, "ChIJ--BlkywFdkgRZMJGyYy8aLs": {"geometry": {"location": {"lat": 51.5241568, "lng": -0.1690248}, "viewport": {"northeast": {"lat": 51.5255732302915, "lng": -0.167648119708498}, "southwest": {"lat": 51.5228752697085, "lng": -0.170346080291502}}}, "name": "Gillian Horsup", "place_id": "ChIJ--BlkywFdkgRZMJGyYy8aLs", "types": ["jewelry_store", "home_goods_store", "point_of_interest", "clothing_store", "store", "establishment"], "rating": 5, "user_ratings_total": 22}, "ChIJnW512LAadkgR7PK4ONYVxDY": {"geometry": {"location": {"lat": 51.5243626, "lng": -0.1692367}, "viewport": {"northeast": {"lat": 51.5256625302915, "lng": -0.167800669708498}, "southwest": {"lat": 51.52296456970851, "lng": -0.170498630291502}}}, "name": "Caribbean Steel Band", "place_id": "ChIJnW512LAadkgR7PK4ONYVxDY", "types": ["electronics_store", "home_goods_store", "point_of_interest", "store", "establishment"]}, "ChIJD_UjQbcadkgRXouM7oeAE2U": {"geometry": {"location": {"lat": 51.52440920000001, "lng": -0.1695107}, "viewport": {"northeast": {"lat": 51.5258461802915, "lng": -0.168064719708498}, "southwest": {"lat": 51.5231482197085, "lng": -0.170762680291502}}}, "name": "Farah UK Ltd", "place_id": "ChIJD_UjQbcadkgRXouM7oeAE2U", "types": ["clothing_store", "point_of_interest", "store", "establishment"], "rating": 5, "user_ratings_total": 1}, "ChIJQ6evaLcadkgRqd8B7Nkh0G4": {"geometry": {"location": {"lat": 51.5247085, "lng": -0.1687565}, "viewport": {"northeast": {"lat": 51.52600468029149, "lng": -0.167311419708498}, "southwest": {"lat": 51.52330671970849, "lng": -0.170009380291502}}}, "name": "James Worrall", "place_id": "ChIJQ6evaLcadkgRqd8B7Nkh0G4", "types": ["home_goods_store", "point_of_interest", "store", "establishment"]}, "ChIJqbxNFbcadkgRjaP_o8JapTM": {"geometry": {"location": {"lat": 51.5241287, "lng": -0.1690963}, "viewport": {"northeast": {"lat": 51.52545563029151, "lng": -0.167763669708498}, "southwest": {"lat": 51.52275766970851, "lng": -0.170461630291502}}}, "name": "Tin Tin Collectables", "place_id": "ChIJqbxNFbcadkgRjaP_o8JapTM", "types": ["home_goods_store", "point_of_interest", "store", "establishment"], "rating": 5, "user_ratings_total": 1}, "ChIJP_F1QbcadkgRavaL-GiYtwY": {"geometry": {"location": {"lat": 51.524399, "lng": -0.1691282}, "viewport": {"northeast": {"lat": 51.5257479802915, "lng": -0.167779219708498}, "southwest": {"lat": 51.5230500197085, "lng": -0.170477180291502}}}, "name": "Young & Son", "place_id": "ChIJP_F1QbcadkgRavaL-GiYtwY", "types": ["store", "point_of_interest", "establishment"]}, "ChIJqbxNFbcadkgR6JvqlN0B5_Y": {"geometry": {"location": {"lat": 51.5241523, "lng": -0.168852}, "viewport": {"northeast": {"lat": 51.5255709802915, "lng": -0.167605769708498}, "southwest": {"lat": 51.5228730197085, "lng": -0.170303730291502}}}, "name": "Wordville", "place_id": "ChIJqbxNFbcadkgR6JvqlN0B5_Y", "types": ["point_of_interest", "establishment"], "rating": 3, "user_ratings_total": 2}, "ChIJMZT4N7cadkgRxTgRxQITNuI": {"geometry": {"location": {"lat": 51.52428649999999, "lng": -0.1692935}, "viewport": {"northeast": {"lat": 51.52563548029149, "lng": -0.167944519708498}, "southwest": {"lat": 51.52293751970849, "lng": -0.170642480291502}}}, "name": "Schmid McDonagh", "place_id": "ChIJMZT4N7cadkgRxTgRxQITNuI", "types": ["home_goods_store", "point_of_interest", "store", "establishment"], "rating": 4, "user_ratings_total": 2}, "ChIJG6be6ywFdkgRVgVKBNMdfMk": {"geometry": {"location": {"lat": 51.5241887, "lng": -0.1688101}, "viewport": {"northeast": {"lat": 51.5255938302915, "lng": -0.167560819708498}, "southwest": {"lat": 51.52289586970851, "lng": -0.170258780291502}}}, "name": "Linda Bee", "place_id": "ChIJG6be6ywFdkgRVgVKBNMdfMk", "types": ["home_goods_store", "point_of_interest", "store", "establishment"], "rating": 5, "user_ratings_total": 2}, "ChIJMZT4N7cadkgRCLd59y666Pc": {"geometry": {"location": {"lat": 51.5243638, "lng": -0.1691784}, "viewport": {"northeast": {"lat": 51.5256725302915, "lng": -0.167757919708498}, "southwest": {"lat": 51.5229745697085, "lng": -0.170455880291502}}}, "name": "Hudson Grove Antiques", "place_id": "ChIJMZT4N7cadkgRCLd59y666Pc", "types": ["home_goods_store", "point_of_interest", "store", "establishment"]}, "ChIJSTy25r4BdkgR_0Eu4AmkD-s": {"geometry": {"location": {"lat": 51.5241255, "lng": -0.1688334}, "viewport": {"northeast": {"lat": 51.5255246302915, "lng": -0.167585769708498}, "southwest": {"lat": 51.5228266697085, "lng": -0.170283730291502}}}, "name": "Arabella Bianco", "place_id": "ChIJSTy25r4BdkgR_0Eu4AmkD-s", "types": ["jewelry_store", "home_goods_store", "point_of_interest", "store", "establishment"], "rating": 5, "user_ratings_total": 7}, "ChIJqbxNFbcadkgRn_wCjf2BfIc": {"geometry": {"location": {"lat": 51.524127, "lng": -0.1688328}, "viewport": {"northeast": {"lat": 51.5255583302915, "lng": -0.167602469708498}, "southwest": {"lat": 51.5228603697085, "lng": -0.170300430291502}}}, "name": "SyrupBucketRecords", "place_id": "ChIJqbxNFbcadkgRn_wCjf2BfIc", "types": ["home_goods_store", "point_of_interest", "store", "establishment"]}, "ChIJqbxNFbcadkgRSbLP1KK7jRQ": {"geometry": {"location": {"lat": 51.5243153, "lng": -0.1688275}, "viewport": {"northeast": {"lat": 51.5256776802915, "lng": -0.167520819708498}, "southwest": {"lat": 51.5229797197085, "lng": -0.170218780291502}}}, "name": "Clive", "place_id": "ChIJqbxNFbcadkgRSbLP1KK7jRQ", "types": ["point_of_interest", "establishment"]}, "ChIJs__uQrcadkgRJaqPi_cWrkc": {"geometry": {"location": {"lat": 51.5245688, "lng": -0.1688589}, "viewport": {"northeast": {"lat": 51.5259468802915, "lng": -0.167696769708498}, "southwest": {"lat": 51.5232489197085, "lng": -0.170394730291502}}}, "name": "Newpin!!!", "place_id": "ChIJs__uQrcadkgRJaqPi_cWrkc", "types": ["school", "point_of_interest", "establishment"], "rating": 5, "user_ratings_total": 4}, "ChIJwbO8abcadkgRrW7T7PzmRhw": {"geometry": {"location": {"lat": 51.5245933, "lng": -0.168926}, "viewport": {"northeast": {"lat": 51.52588858029149, "lng": -0.167479219708498}, "southwest": {"lat": 51.5231906197085, "lng": -0.170177180291502}}}, "name": "Shepherds Bush Housing Association", "place_id": "ChIJwbO8abcadkgRrW7T7PzmRhw", "types": ["local_government_office", "point_of_interest", "establishment"], "rating": 1, "user_ratings_total": 1}, "ChIJ2UNxQbcadkgRwvW0Od6QN64": {"geometry": {"location": {"lat": 51.524356, "lng": -0.169184}, "viewport": {"northeast": {"lat": 51.5257049802915, "lng": -0.167835019708498}, "southwest": {"lat": 51.5230070197085, "lng": -0.1705329802915021}}}, "name": "Rare Rugs", "place_id": "ChIJ2UNxQbcadkgRwvW0Od6QN64", "types": ["point_of_interest", "store", "establishment"]}, "ChIJl2ZhabcadkgR25AQxQYRS34": {"geometry": {"location": {"lat": 51.52441779999999, "lng": -0.1686705}, "viewport": {"northeast": {"lat": 51.52579093029149, "lng": -0.167365519708498}, "southwest": {"lat": 51.52309296970849, "lng": -0.170063480291502}}}, "name": "Patrick Heide Contemporary Art", "place_id": "ChIJl2ZhabcadkgR25AQxQYRS34", "types": ["art_gallery", "tourist_attraction", "point_of_interest", "establishment"], "rating": 4.5, "user_ratings_total": 2}, "ChIJ7cyta7cadkgRVQv07Daw9Ig": {"geometry": {"location": {"lat": 51.52428629999999, "lng": -0.1687705}, "viewport": {"northeast": {"lat": 51.5256270302915, "lng": -0.167407969708498}, "southwest": {"lat": 51.5229290697085, "lng": -0.170105930291502}}}, "name": "Handmade by You", "place_id": "ChIJ7cyta7cadkgRVQv07Daw9Ig", "types": ["point_of_interest", "establishment"]}, "ChIJv_aVbrcadkgR7vpNOPYacvc": {"geometry": {"location": {"lat": 51.524127, "lng": -0.1688328}, "viewport": {"northeast": {"lat": 51.5255583302915, "lng": -0.167602469708498}, "southwest": {"lat": 51.5228603697085, "lng": -0.170300430291502}}}, "name": "Modo Italia", "place_id": "ChIJv_aVbrcadkgR7vpNOPYacvc", "types": ["point_of_interest", "establishment"]}, "ChIJ55lDaLcadkgRd1AMo06sEt4": {"geometry": {"location": {"lat": 51.5246445, "lng": -0.1688501}, "viewport": {"northeast": {"lat": 51.5259402802915, "lng": -0.167404269708498}, "southwest": {"lat": 51.5232423197085, "lng": -0.170102230291502}}}, "name": "Retrospective Interiors", "place_id": "ChIJ55lDaLcadkgRd1AMo06sEt4", "types": ["home_goods_store", "point_of_interest", "store", "establishment"], "rating": 5, "user_ratings_total": 2}, "ChIJTbtNFbcadkgRW9OEGm2sMGw": {"geometry": {"location": {"lat": 51.5242137, "lng": -0.1689728}, "viewport": {"northeast": {"lat": 51.5255921802915, "lng": -0.167613569708498}, "southwest": {"lat": 51.5228942197085, "lng": -0.170311530291502}}}, "name": "Stephen Lazarus", "place_id": "ChIJTbtNFbcadkgRW9OEGm2sMGw", "types": ["home_goods_store", "point_of_interest", "store", "establishment"], "rating": 5, "user_ratings_total": 1}, "ChIJt_vJbrcadkgRb5rjCoD7k6E": {"geometry": {"location": {"lat": 51.52448099999999, "lng": -0.1685579}, "viewport": {"northeast": {"lat": 51.52582998029149, "lng": -0.167208919708498}, "southwest": {"lat": 51.52313201970849, "lng": -0.169906880291502}}}, "name": "Philip Garrick Antiques", "place_id": "ChIJt_vJbrcadkgRb5rjCoD7k6E", "types": ["home_goods_store", "point_of_interest", "store", "establishment"]}, "ChIJ-__jarcadkgRs3y32-dyBqU": {"geometry": {"location": {"lat": 51.5241888, "lng": -0.16881}, "viewport": {"northeast": {"lat": 51.5255939302915, "lng": -0.167560719708498}, "southwest": {"lat": 51.5228959697085, "lng": -0.170258680291502}}}, "name": "MARTIN-ROONEY.COM", "place_id": "ChIJ-__jarcadkgRs3y32-dyBqU", "types": ["furniture_store", "home_goods_store", "point_of_interest", "store", "establishment"]}, "ChIJ___jarcadkgR07SVVbFq99c": {"geometry": {"location": {"lat": 51.5241887, "lng": -0.1688101}, "viewport": {"northeast": {"lat": 51.5255938302915, "lng": -0.167560819708498}, "southwest": {"lat": 51.52289586970851, "lng": -0.170258780291502}}}, "name": "Martinez Negrillo Antiques", "place_id": "ChIJ___jarcadkgR07SVVbFq99c", "types": ["home_goods_store", "point_of_interest", "store", "establishment"], "rating": 5, "user_ratings_total": 5}, "ChIJXUWJarcadkgR_92rK5NzEgs": {"geometry": {"location": {"lat": 51.5241887, "lng": -0.1688101}, "viewport": {"northeast": {"lat": 51.5255815802915, "lng": -0.167536969708498}, "southwest": {"lat": 51.5228836197085, "lng": -0.170234930291502}}}, "name": "The Moderns", "place_id": "ChIJXUWJarcadkgR_92rK5NzEgs", "types": ["furniture_store", "home_goods_store", "point_of_interest", "store", "establishment"], "rating": 3.5, "user_ratings_total": 2}, "ChIJu8uiarcadkgRblHiOYw3b_Q": {"geometry": {"location": {"lat": 51.5241705, "lng": -0.1689336}, "viewport": {"northeast": {"lat": 51.5255599302915, "lng": -0.167622269708498}, "southwest": {"lat": 51.5228619697085, "lng": -0.170320230291502}}}, "name": "Charles Fine Art", "place_id": "ChIJu8uiarcadkgRblHiOYw3b_Q", "types": ["art_gallery", "point_of_interest", "establishment"]}, "ChIJpRDYarcadkgRU9s3M57OB-0": {"geometry": {"location": {"lat": 51.5241639, "lng": -0.1687778}, "viewport": {"northeast": {"lat": 51.5255747302915, "lng": -0.167546519708498}, "southwest": {"lat": 51.5228767697085, "lng": -0.170244480291502}}}, "name": "Quad", "place_id": "ChIJpRDYarcadkgRU9s3M57OB-0", "types": ["point_of_interest", "establishment"]}, "ChIJwbbMmBkFdkgR5GbpVCyclBY": {"geometry": {"location": {"lat": 51.52445549999999, "lng": -0.1685003}, "viewport": {"northeast": {"lat": 51.5258044802915, "lng": -0.167151319708498}, "southwest": {"lat": 51.5231065197085, "lng": -0.169849280291502}}}, "name": "Retro Living", "place_id": "ChIJwbbMmBkFdkgR5GbpVCyclBY", "types": ["furniture_store", "home_goods_store", "point_of_interest", "store", "establishment"], "rating": 4.7, "user_ratings_total": 15}, "ChIJY1rCbrcadkgRrstSUfX5F88": {"geometry": {"location": {"lat": 51.524525, "lng": -0.1685196}, "viewport": {"northeast": {"lat": 51.52589973029149, "lng": -0.167209719708498}, "southwest": {"lat": 51.52320176970849, "lng": -0.169907680291502}}}, "name": "Les Couilles Du Chien", "place_id": "ChIJY1rCbrcadkgRrstSUfX5F88", "types": ["home_goods_store", "point_of_interest", "store", "establishment"], "rating": 5, "user_ratings_total": 1}, "ChIJMWkwR7cadkgRncoga9iH6Cg": {"geometry": {"location": {"lat": 51.5242186, "lng": -0.1694428}, "viewport": {"northeast": {"lat": 51.52551793029151, "lng": -0.168007269708498}, "southwest": {"lat": 51.52281996970851, "lng": -0.170705230291502}}}, "name": "Norwegian Log Buildings", "place_id": "ChIJMWkwR7cadkgRncoga9iH6Cg", "types": ["point_of_interest", "establishment"]}, "ChIJG8-oarcadkgR7wX00QmA2ZU": {"geometry": {"location": {"lat": 51.52412, "lng": -0.16895}, "viewport": {"northeast": {"lat": 51.5255548302915, "lng": -0.167646119708498}, "southwest": {"lat": 51.52285686970851, "lng": -0.170344080291502}}}, "name": "Kingsman", "place_id": "ChIJG8-oarcadkgR7wX00QmA2ZU", "types": ["moving_company", "storage", "point_of_interest", "establishment"], "rating": 3.8, "user_ratings_total": 5}, "ChIJy_3ParcadkgR66ohUQrBazs": {"geometry": {"location": {"lat": 51.5241255, "lng": -0.1688334}, "viewport": {"northeast": {"lat": 51.5255575802915, "lng": -0.167603469708498}, "southwest": {"lat": 51.5228596197085, "lng": -0.170301430291502}}}, "name": "Paola Bazzoli", "place_id": "ChIJy_3ParcadkgR66ohUQrBazs", "types": ["point_of_interest", "establishment"]}, "ChIJ4RUgxqIPdkgRipp6dVmsBiQ": {"geometry": {"location": {"lat": 51.52422000000001, "lng": -0.1693925}, "viewport": {"northeast": {"lat": 51.5255281802915, "lng": -0.167968069708498}, "southwest": {"lat": 51.5228302197085, "lng": -0.170666030291502}}}, "name": "Dorian Caffot de Fawes Antiques", "place_id": "ChIJ4RUgxqIPdkgRipp6dVmsBiQ", "types": ["home_goods_store", "point_of_interest", "store", "establishment"], "rating": 4.8, "user_ratings_total": 5}, "ChIJAaQlR7cadkgRcbY0rGzmqc4": {"geometry": {"location": {"lat": 51.52422000000001, "lng": -0.1693925}, "viewport": {"northeast": {"lat": 51.52556898029151, "lng": -0.168043519708498}, "southwest": {"lat": 51.52287101970851, "lng": -0.170741480291502}}}, "name": "Sans Pretention", "place_id": "ChIJAaQlR7cadkgRcbY0rGzmqc4", "types": ["home_goods_store", "point_of_interest", "store", "establishment"]}, "ChIJAaQlR7cadkgRW6wWpyvuG28": {"geometry": {"location": {"lat": 51.52422000000001, "lng": -0.1693925}, "viewport": {"northeast": {"lat": 51.52556898029151, "lng": -0.168043519708498}, "southwest": {"lat": 51.52287101970851, "lng": -0.170741480291502}}}, "name": "Stephen Sprake", "place_id": "ChIJAaQlR7cadkgRW6wWpyvuG28", "types": ["home_goods_store", "point_of_interest", "store", "establishment"]}, "ChIJW-XRZ7cadkgRvb_hAF8Gg2U": {"geometry": {"location": {"lat": 51.5247818, "lng": -0.1688168}, "viewport": {"northeast": {"lat": 51.5260049802915, "lng": -0.167675719708498}, "southwest": {"lat": 51.5233070197085, "lng": -0.170373680291502}}}, "name": "Church Street Nursery", "place_id": "ChIJW-XRZ7cadkgRvb_hAF8Gg2U", "types": ["school", "point_of_interest", "establishment"], "rating": 5, "user_ratings_total": 1}, "ChIJqbxNFbcadkgRJGFh_l2ssY4": {"geometry": {"location": {"lat": 51.5240247, "lng": -0.1688729}, "viewport": {"northeast": {"lat": 51.5255020802915, "lng": -0.167666619708498}, "southwest": {"lat": 51.5228041197085, "lng": -0.1703645802915021}}}, "name": "THIRTEEN INTERIORS", "place_id": "ChIJqbxNFbcadkgRJGFh_l2ssY4", "types": ["furniture_store", "home_goods_store", "point_of_interest", "store", "establishment"], "rating": 4.7, "user_ratings_total": 7}, "ChIJJTKQQ7cadkgRReCIjwOGBEI": {"geometry": {"location": {"lat": 51.524745, "lng": -0.169356}, "viewport": {"northeast": {"lat": 51.5260438802915, "lng": -0.168067619708498}, "southwest": {"lat": 51.5233459197085, "lng": -0.170765580291502}}}, "name": "Lisson Grove Orthodontics Clinic", "place_id": "ChIJJTKQQ7cadkgRReCIjwOGBEI", "types": ["hospital", "health", "point_of_interest", "establishment"]}, "ChIJR0GwQbcadkgR1hOq1JAt4T0": {"geometry": {"location": {"lat": 51.52402939999999, "lng": -0.1688724}, "viewport": {"northeast": {"lat": 51.5255020802915, "lng": -0.167660169708498}, "southwest": {"lat": 51.5228041197085, "lng": -0.170358130291502}}}, "name": "Louise Verber Antiques", "place_id": "ChIJR0GwQbcadkgR1hOq1JAt4T0", "types": ["home_goods_store", "point_of_interest", "store", "establishment"]}, "ChIJwT-rdLcadkgR6RfwW8sW0d4": {"geometry": {"location": {"lat": 51.5244862, "lng": -0.1682866}, "viewport": {"northeast": {"lat": 51.52589433029149, "lng": -0.166820419708498}, "southwest": {"lat": 51.52319636970849, "lng": -0.169518380291502}}}, "name": "Alan Stirling Technology Ltd", "place_id": "ChIJwT-rdLcadkgR6RfwW8sW0d4", "types": ["point_of_interest", "establishment"]}, "ChIJTbtNFbcadkgRCB7kuwYMquo": {"geometry": {"location": {"lat": 51.5240296, "lng": -0.1687804}, "viewport": {"northeast": {"lat": 51.52536973029149, "lng": -0.167417419708498}, "southwest": {"lat": 51.5226717697085, "lng": -0.170115380291502}}}, "name": "Christopher Hall", "place_id": "ChIJTbtNFbcadkgRCB7kuwYMquo", "types": ["home_goods_store", "point_of_interest", "store", "establishment"]}, "ChIJs_ccRbcadkgRUX-vW_ocGwY": {"geometry": {"location": {"lat": 51.52461330000001, "lng": -0.1695597}, "viewport": {"northeast": {"lat": 51.52598193029149, "lng": -0.168187069708498}, "southwest": {"lat": 51.52328396970849, "lng": -0.170885030291502}}}, "name": "Dr A A Bakker - Lisson Grove Health Centre", "place_id": "ChIJs_ccRbcadkgRUX-vW_ocGwY", "types": ["doctor", "health", "point_of_interest", "establishment"], "rating": 2, "user_ratings_total": 4}, "ChIJaa3hFLcadkgRns0e24FR3wc": {"geometry": {"location": {"lat": 51.5240045, "lng": -0.1687555}, "viewport": {"northeast": {"lat": 51.5253405302915, "lng": -0.167387269708498}, "southwest": {"lat": 51.5226425697085, "lng": -0.170085230291502}}}, "name": "Robinson Antiques", "place_id": "ChIJaa3hFLcadkgRns0e24FR3wc", "types": ["home_goods_store", "point_of_interest", "store", "establishment"], "rating": 3, "user_ratings_total": 3}, "ChIJtzrlQ7cadkgRVCG9_EaiPhs": {"geometry": {"location": {"lat": 51.52457, "lng": -0.169129}, "viewport": {"northeast": {"lat": 51.5258488302915, "lng": -0.167620619708498}, "southwest": {"lat": 51.52315086970851, "lng": -0.170318580291502}}}, "name": "Original Lahore", "place_id": "ChIJtzrlQ7cadkgRVCG9_EaiPhs", "types": ["meal_takeaway", "restaurant", "food", "point_of_interest", "establishment"], "rating": 3.7, "user_ratings_total": 422}, "ChIJz_KwOLcadkgRs1D0J8syUxU": {"geometry": {"location": {"lat": 51.5241026, "lng": -0.1695451}, "viewport": {"northeast": {"lat": 51.5254515802915, "lng": -0.168196119708498}, "southwest": {"lat": 51.5227536197085, "lng": -0.170894080291502}}}, "name": "Deborah Woolf Vintage", "place_id": "ChIJz_KwOLcadkgRs1D0J8syUxU", "types": ["jewelry_store", "point_of_interest", "clothing_store", "store", "establishment"], "rating": 4, "user_ratings_total": 4}, "ChIJuy__QrcadkgRnmsTyf3qQ6Y": {"geometry": {"location": {"lat": 51.52468429999999, "lng": -0.1694148}, "viewport": {"northeast": {"lat": 51.5260144302915, "lng": -0.168088269708498}, "southwest": {"lat": 51.5233164697085, "lng": -0.170786230291502}}}, "name": "Lisson Grove Health Centre", "place_id": "ChIJuy__QrcadkgRnmsTyf3qQ6Y", "types": ["hospital", "health", "point_of_interest", "establishment"], "rating": 2.3, "user_ratings_total": 31}, "ChIJDUNWaLcadkgRCQz4hrlHFR4": {"geometry": {"location": {"lat": 51.5246445, "lng": -0.1688501}, "viewport": {"northeast": {"lat": 51.5259402802915, "lng": -0.167404269708498}, "southwest": {"lat": 51.5232423197085, "lng": -0.170102230291502}}}, "name": "Marylebone Antiques (Formerly Church Street Antiques)", "place_id": "ChIJDUNWaLcadkgRCQz4hrlHFR4", "types": ["home_goods_store", "point_of_interest", "store", "establishment"], "rating": 4.7, "user_ratings_total": 7}, "ChIJkcyAC-QadkgRVWMTgDcWd5s": {"geometry": {"location": {"lat": 51.5241377, "lng": -0.168796}, "viewport": {"northeast": {"lat": 51.5255636802915, "lng": -0.167571019708498}, "southwest": {"lat": 51.52286571970851, "lng": -0.170268980291502}}}, "name": "Planet Bazaar", "place_id": "ChIJkcyAC-QadkgRVWMTgDcWd5s", "types": ["art_gallery", "home_goods_store", "point_of_interest", "store", "establishment"], "rating": 2.1, "user_ratings_total": 10}, "ChIJqbxNFbcadkgR33P2SsnKTBM": {"geometry": {"location": {"lat": 51.52417490000001, "lng": -0.1687428}, "viewport": {"northeast": {"lat": 51.52558673029149, "lng": -0.167509269708498}, "southwest": {"lat": 51.52288876970849, "lng": -0.170207230291502}}}, "name": "Alfies Roof Top Kitchen.", "place_id": "ChIJqbxNFbcadkgR33P2SsnKTBM", "types": ["cafe", "restaurant", "food", "point_of_interest", "establishment"], "rating": 4.5, "user_ratings_total": 115}, "ChIJGTKQQ7cadkgRMMD-Nqhli44": {"geometry": {"location": {"lat": 51.5245012, "lng": -0.1689285}, "viewport": {"northeast": {"lat": 51.5258162802915, "lng": -0.167517769708498}, "southwest": {"lat": 51.5231183197085, "lng": -0.170215730291502}}}, "name": "The Salon Collective", "place_id": "ChIJGTKQQ7cadkgRMMD-Nqhli44", "types": ["university", "point_of_interest", "establishment"], "rating": 5, "user_ratings_total": 25}, "ChIJbSk1arcadkgRjDdoYxpt2LM": {"geometry": {"location": {"lat": 51.5243376, "lng": -0.1687823}, "viewport": {"northeast": {"lat": 51.5256777802915, "lng": -0.167446719708498}, "southwest": {"lat": 51.5229798197085, "lng": -0.170144680291502}}}, "name": "Symphony of Shadows - Dressmaker", "place_id": "ChIJbSk1arcadkgRjDdoYxpt2LM", "types": ["point_of_interest", "establishment"]}, "ChIJibxcarcadkgRK9p14xYHTDc": {"geometry": {"location": {"lat": 51.52429009999999, "lng": -0.1688628}, "viewport": {"northeast": {"lat": 51.5256597302915, "lng": -0.167528669708498}, "southwest": {"lat": 51.52296176970851, "lng": -0.170226630291502}}}, "name": "Moe Heidarieh", "place_id": "ChIJibxcarcadkgRK9p14xYHTDc", "types": ["point_of_interest", "establishment"]}, "ChIJ1eOiEbQbdkgRABqlFWpja8A": {"geometry": {"location": {"lat": 51.52434119999999, "lng": -0.1687512}, "viewport": {"northeast": {"lat": 51.52572153029149, "lng": -0.167451769708498}, "southwest": {"lat": 51.52302356970849, "lng": -0.170149730291502}}}, "name": "GRIFFIN ART", "place_id": "ChIJ1eOiEbQbdkgRABqlFWpja8A", "types": ["home_goods_store", "point_of_interest", "store", "establishment"]}, "ChIJDb7P60kbdkgRad9naTfakcA": {"geometry": {"location": {"lat": 51.5243435, "lng": -0.1687478}, "viewport": {"northeast": {"lat": 51.5256924802915, "lng": -0.167398819708498}, "southwest": {"lat": 51.5229945197085, "lng": -0.170096780291502}}}, "name": "Al Fayez", "place_id": "ChIJDb7P60kbdkgRad9naTfakcA", "types": ["home_goods_store", "point_of_interest", "store", "establishment"], "rating": 5, "user_ratings_total": 3}, "ChIJv0-0FrcadkgR6x_BkwkQhRg": {"geometry": {"location": {"lat": 51.52368999715448, "lng": -0.1686052871645527}, "viewport": {"northeast": {"lat": 51.5250388802915, "lng": -0.167256469708498}, "southwest": {"lat": 51.5223409197085, "lng": -0.169954430291502}}}, "name": "48-46 Ashbridge St", "place_id": "ChIJv0-0FrcadkgR6x_BkwkQhRg", "types": ["route"]}, "ChIJ4Ze8IrcadkgRYPdVR7D0w-Q": {"geometry": {"location": {"lat": 51.52338750000001, "lng": -0.1690123}, "viewport": {"northeast": {"lat": 51.52468338029151, "lng": -0.167586069708498}, "southwest": {"lat": 51.52198541970851, "lng": -0.1702840302915021}}}, "name": "Smudged Publications", "place_id": "ChIJ4Ze8IrcadkgRYPdVR7D0w-Q", "types": ["point_of_interest", "establishment"]}, "ChIJYb28IrcadkgR2Nw4yGgQdlY": {"geometry": {"location": {"lat": 51.52338750000001, "lng": -0.1690123}, "viewport": {"northeast": {"lat": 51.52468338029151, "lng": -0.167586069708498}, "southwest": {"lat": 51.52198541970851, "lng": -0.1702840302915021}}}, "name": "Physical Functionality", "place_id": "ChIJYb28IrcadkgR2Nw4yGgQdlY", "types": ["gym", "health", "point_of_interest", "establishment"], "rating": 4, "user_ratings_total": 1}, "ChIJa192GLcadkgRcRtPdbGN-mw": {"geometry": {"location": {"lat": 51.5233199, "lng": -0.1689547}, "viewport": {"northeast": {"lat": 51.52466888029149, "lng": -0.167605719708498}, "southwest": {"lat": 51.52197091970849, "lng": -0.170303680291502}}}, "name": "Blanche Court", "place_id": "ChIJa192GLcadkgRcRtPdbGN-mw", "types": ["point_of_interest", "establishment"]}, "ChIJK3TOIbcadkgR5MqjL_84z8o": {"geometry": {"location": {"lat": 51.5229569, "lng": -0.1690168}, "viewport": {"northeast": {"lat": 51.52426253029151, "lng": -0.167741069708498}, "southwest": {"lat": 51.52156456970851, "lng": -0.170439030291502}}}, "name": "A Nice Man With a Van", "place_id": "ChIJK3TOIbcadkgR5MqjL_84z8o", "types": ["point_of_interest", "establishment"]}, "ChIJtxmMH7cadkgRvdmq_DSQ7sQ": {"geometry": {"location": {"lat": 51.52287200000001, "lng": -0.1689353}, "viewport": {"northeast": {"lat": 51.5241891802915, "lng": -0.167536719708498}, "southwest": {"lat": 51.5214912197085, "lng": -0.170234680291502}}}, "name": "Portman Nursery School", "place_id": "ChIJtxmMH7cadkgRvdmq_DSQ7sQ", "types": ["school", "point_of_interest", "establishment"]}, "ChIJjdYfILcadkgR4TM2ciwIIj0": {"geometry": {"location": {"lat": 51.52284490000001, "lng": -0.1689638}, "viewport": {"northeast": {"lat": 51.5241688802915, "lng": -0.167657019708498}, "southwest": {"lat": 51.52147091970851, "lng": -0.170354980291502}}}, "name": "Diamond Build Plc", "place_id": "ChIJjdYfILcadkgR4TM2ciwIIj0", "types": ["point_of_interest", "establishment"]}, "ChIJM5eB4bYadkgRyVBPSUWVtnY": {"geometry": {"location": {"lat": 51.52261499999999, "lng": -0.1686123}, "viewport": {"northeast": {"lat": 51.5239374302915, "lng": -0.167311019708498}, "southwest": {"lat": 51.5212394697085, "lng": -0.170008980291502}}}, "name": "Al Noore Ibrahim Ltd", "place_id": "ChIJM5eB4bYadkgRyVBPSUWVtnY", "types": ["convenience_store", "food", "point_of_interest", "store", "establishment"], "rating": 4.5, "user_ratings_total": 2}, "ChIJsy2MELsbdkgR-KCO3v9It28": {"geometry": {"location": {"lat": 51.52264419999999, "lng": -0.1686349}, "viewport": {"northeast": {"lat": 51.5239636302915, "lng": -0.167339019708498}, "southwest": {"lat": 51.5212656697085, "lng": -0.170036980291502}}}, "name": "Somali Music", "place_id": "ChIJsy2MELsbdkgR-KCO3v9It28", "types": ["electronics_store", "home_goods_store", "point_of_interest", "store", "establishment"]}, "ChIJR4AL37YadkgRgErpdUETHBw": {"geometry": {"location": {"lat": 51.5226784, "lng": -0.1691685}, "viewport": {"northeast": {"lat": 51.5240207802915, "lng": -0.167809969708498}, "southwest": {"lat": 51.52132281970851, "lng": -0.170507930291502}}}, "name": "ubitricity Charging Station", "place_id": "ChIJR4AL37YadkgRgErpdUETHBw", "types": ["point_of_interest", "establishment"]}, "ChIJyaFJfUobdkgRmu8GPH_W7j8": {"geometry": {"location": {"lat": 51.52274509999999, "lng": -0.1692041}, "viewport": {"northeast": {"lat": 51.5240553802915, "lng": -0.167798619708498}, "southwest": {"lat": 51.5213574197085, "lng": -0.170496580291502}}}, "name": "Parking", "place_id": "ChIJyaFJfUobdkgRmu8GPH_W7j8", "types": ["pharmacy", "health", "point_of_interest", "store", "establishment"]}, "ChIJKYso_7kadkgReO2tRTHKsT4": {"geometry": {"location": {"lat": 51.52567593827767, "lng": -0.1702564495664451}, "viewport": {"northeast": {"lat": 51.5270265802915, "lng": -0.168905469708498}, "southwest": {"lat": 51.5243286197085, "lng": -0.171603430291502}}}, "name": "169-199 B507", "place_id": "ChIJKYso_7kadkgReO2tRTHKsT4", "types": ["route"]}, "ChIJFZS0s7AadkgRdDpdrwM3XuE": {"geometry": {"location": {"lat": 51.52559, "lng": -0.171004}, "viewport": {"northeast": {"lat": 51.5269389802915, "lng": -0.169655019708498}, "southwest": {"lat": 51.5242410197085, "lng": -0.172352980291502}}}, "name": "Gateway Academy", "place_id": "ChIJFZS0s7AadkgRdDpdrwM3XuE", "types": ["primary_school", "school", "point_of_interest", "establishment"], "rating": 4.5, "user_ratings_total": 17}, "ChIJLQlEELoadkgRhbM1HBQfsbU": {"geometry": {"location": {"lat": 51.5253522, "lng": -0.1702346}, "viewport": {"northeast": {"lat": 51.52680263029151, "lng": -0.168765119708498}, "southwest": {"lat": 51.52410466970851, "lng": -0.171463080291502}}}, "name": "STAMPE & STAMPE HANDYMAN SERVICES", "place_id": "ChIJLQlEELoadkgRhbM1HBQfsbU", "types": ["painter", "general_contractor", "point_of_interest", "establishment"]}, "ChIJdRUBV7cadkgRr6peTq8PZv8": {"geometry": {"location": {"lat": 51.5256844, "lng": -0.1711422}, "viewport": {"northeast": {"lat": 51.5269342302915, "lng": -0.169913019708498}, "southwest": {"lat": 51.5242362697085, "lng": -0.172610980291502}}}, "name": "Shojujitsu Karate Do Association", "place_id": "ChIJdRUBV7cadkgRr6peTq8PZv8", "types": ["health", "point_of_interest", "establishment"], "rating": 5, "user_ratings_total": 1}, "ChIJ6-IIAroadkgRfm4cUYF2t78": {"geometry": {"location": {"lat": 51.5257775, "lng": -0.1704675}, "viewport": {"northeast": {"lat": 51.5271001802915, "lng": -0.169150269708498}, "southwest": {"lat": 51.5244022197085, "lng": -0.171848230291502}}}, "name": "Frampton Street", "place_id": "ChIJ6-IIAroadkgRfm4cUYF2t78", "types": ["transit_station", "point_of_interest", "establishment"]}, "ChIJkVkX_7kadkgRGh0Ukw8oyZQ": {"geometry": {"location": {"lat": 51.525627, "lng": -0.170315}, "viewport": {"northeast": {"lat": 51.5270005302915, "lng": -0.1689369197084979}, "southwest": {"lat": 51.5243025697085, "lng": -0.171634880291502}}}, "name": "Frampton Street (Stop LR)", "place_id": "ChIJkVkX_7kadkgRGh0Ukw8oyZQ", "types": ["transit_station", "point_of_interest", "establishment"]}, "ChIJrWtlH_gbdkgRSvLrA18VGg4": {"geometry": {"location": {"lat": 51.52545569999999, "lng": -0.1701972}, "viewport": {"northeast": {"lat": 51.5268670802915, "lng": -0.168774069708498}, "southwest": {"lat": 51.5241691197085, "lng": -0.171472030291502}}}, "name": "Belvedere Heights", "place_id": "ChIJrWtlH_gbdkgRSvLrA18VGg4", "types": ["point_of_interest", "establishment"]}, "ChIJpeUCohMbdkgRp9P_2pol2pk": {"geometry": {"location": {"lat": 51.5259189, "lng": -0.1706046}, "viewport": {"northeast": {"lat": 51.5272424802915, "lng": -0.169286819708498}, "southwest": {"lat": 51.5245445197085, "lng": -0.171984780291502}}}, "name": "College", "place_id": "ChIJpeUCohMbdkgRp9P_2pol2pk", "types": ["school", "point_of_interest", "establishment"]}, "ChIJx7j8AroadkgRCQdP4teBgVk": {"geometry": {"location": {"lat": 51.525928, "lng": -0.17062}, "viewport": {"northeast": {"lat": 51.5272510302915, "lng": -0.169302919708498}, "southwest": {"lat": 51.5245530697085, "lng": -0.172000880291502}}}, "name": "Frampton Street (Stop LH)", "place_id": "ChIJx7j8AroadkgRCQdP4teBgVk", "types": ["transit_station", "point_of_interest", "establishment"], "rating": 5, "user_ratings_total": 1}, "ChIJPXi_CboadkgR95vpRShAb7A": {"geometry": {"location": {"lat": 51.52548099999999, "lng": -0.171451}, "viewport": {"northeast": {"lat": 51.52682883029149, "lng": -0.170103519708498}, "southwest": {"lat": 51.52413086970849, "lng": -0.172801480291502}}}, "name": "ubitricity Charging Station", "place_id": "ChIJPXi_CboadkgR95vpRShAb7A", "types": ["point_of_interest", "establishment"]}, "ChIJ8RG4zOkbdkgRjOs2G0EsK1E": {"geometry": {"location": {"lat": 51.5251093, "lng": -0.1712307}, "viewport": {"northeast": {"lat": 51.5264235302915, "lng": -0.169815069708498}, "southwest": {"lat": 51.5237255697085, "lng": -0.172513030291502}}}, "name": "Aden Trading Ltd", "place_id": "ChIJ8RG4zOkbdkgRjOs2G0EsK1E", "types": ["point_of_interest", "establishment"], "rating": 5, "user_ratings_total": 1}, "ChIJOX-_rLAadkgRHQtOhVpYNao": {"geometry": {"location": {"lat": 51.52498110000001, "lng": -0.1705343}, "viewport": {"northeast": {"lat": 51.5263588802915, "lng": -0.169148619708498}, "southwest": {"lat": 51.5236609197085, "lng": -0.171846580291502}}}, "name": "Jordans House", "place_id": "ChIJOX-_rLAadkgRHQtOhVpYNao", "types": ["point_of_interest", "establishment"]}, "ChIJO-BKBLoadkgRkWM1pPzEytg": {"geometry": {"location": {"lat": 51.5258489, "lng": -0.1710512}, "viewport": {"northeast": {"lat": 51.52716689194794, "lng": -0.1696497893191325}, "southwest": {"lat": 51.52446893136494, "lng": -0.1723477499021365}}}, "name": "Parking lot", "place_id": "ChIJO-BKBLoadkgRkWM1pPzEytg", "types": ["parking", "premise", "point_of_interest", "establishment"]}, "ChIJP7gqs7AadkgR-NehOlJOOKw": {"geometry": {"location": {"lat": 51.52443595019658, "lng": -0.170589950763427}, "viewport": {"northeast": {"lat": 51.52578493029149, "lng": -0.169240969708498}, "southwest": {"lat": 51.52308696970849, "lng": -0.171938930291502}}}, "name": "10 Capland St", "place_id": "ChIJP7gqs7AadkgR-NehOlJOOKw", "types": ["route"]}, "ChIJc3V5tLAadkgRU-CNcw0eyy0": {"geometry": {"location": {"lat": 51.5245659, "lng": -0.1706868}, "viewport": {"northeast": {"lat": 51.52587368029149, "lng": -0.169257769708498}, "southwest": {"lat": 51.5231757197085, "lng": -0.171955730291502}}}, "name": "Top Market Packages", "place_id": "ChIJc3V5tLAadkgRU-CNcw0eyy0", "types": ["point_of_interest", "establishment"]}, "ChIJ__9WsrAadkgRpC0q8D_YHNs": {"geometry": {"location": {"lat": 51.524607, "lng": -0.1706411}, "viewport": {"northeast": {"lat": 51.52591338029149, "lng": -0.169209419708498}, "southwest": {"lat": 51.52321541970849, "lng": -0.171907380291502}}}, "name": "SPARKLY HOMES", "place_id": "ChIJ__9WsrAadkgRpC0q8D_YHNs", "types": ["painter", "general_contractor", "point_of_interest", "establishment"]}, "ChIJxQJsEWwPdkgRJ8yxyTlhKKw": {"geometry": {"location": {"lat": 51.52465849999999, "lng": -0.1705379}, "viewport": {"northeast": {"lat": 51.52597018029149, "lng": -0.1691165197084979}, "southwest": {"lat": 51.5232722197085, "lng": -0.171814480291502}}}, "name": "Global Kapap & Krav Maga Classes", "place_id": "ChIJxQJsEWwPdkgRJ8yxyTlhKKw", "types": ["health", "point_of_interest", "establishment"], "rating": 5, "user_ratings_total": 1}, "ChIJezJpDB8bdkgRprr5DN0waws": {"geometry": {"location": {"lat": 51.5241389, "lng": -0.1705494}, "viewport": {"northeast": {"lat": 51.5254164802915, "lng": -0.169379219708498}, "southwest": {"lat": 51.5227185197085, "lng": -0.172077180291502}}}, "name": "17 Morris House", "place_id": "ChIJezJpDB8bdkgRprr5DN0waws", "types": ["university", "point_of_interest", "establishment"]}, "ChIJK9j9TrcadkgR2RGsHHZYtN8": {"geometry": {"location": {"lat": 51.5245562, "lng": -0.1699019}, "viewport": {"northeast": {"lat": 51.5259563302915, "lng": -0.168610619708498}, "southwest": {"lat": 51.5232583697085, "lng": -0.171308580291502}}}, "name": "Nightingale House", "place_id": "ChIJK9j9TrcadkgR2RGsHHZYtN8", "types": ["point_of_interest", "establishment"]}, "ChIJ1-X5r7AadkgR9O1MruTv1ZY": {"geometry": {"location": {"lat": 51.5248014, "lng": -0.1711138}, "viewport": {"northeast": {"lat": 51.52612780730449, "lng": -0.1698149308278273}, "southwest": {"lat": 51.5234298467215, "lng": -0.1725128914108313}}}, "name": "Parking lot", "place_id": "ChIJ1-X5r7AadkgR9O1MruTv1ZY", "types": ["parking", "premise", "point_of_interest", "establishment"]}, "ChIJgWqJuLAadkgR2ioDhKQSp7U": {"geometry": {"location": {"lat": 51.5241439, "lng": -0.1713857}, "viewport": {"northeast": {"lat": 51.52549193801622, "lng": -0.1700333999981951}, "southwest": {"lat": 51.52279397743322, "lng": -0.1727313605811991}}}, "name": "Parking lot", "place_id": "ChIJgWqJuLAadkgR2ioDhKQSp7U", "types": ["parking", "premise", "point_of_interest", "establishment"]}, "ChIJCZoiMrcadkgRAEm1JqskCKg": {"geometry": {"location": {"lat": 51.52350685001039, "lng": -0.1700890499784442}, "viewport": {"northeast": {"lat": 51.5248558302915, "lng": -0.168740069708498}, "southwest": {"lat": 51.5221578697085, "lng": -0.171438030291502}}}, "name": "26 Salisbury St", "place_id": "ChIJCZoiMrcadkgRAEm1JqskCKg", "types": ["route"]}, "ChIJ6-e7LbcadkgRDYIKMciCa4o": {"geometry": {"location": {"lat": 51.52298269999999, "lng": -0.1706589}, "viewport": {"northeast": {"lat": 51.5243754302915, "lng": -0.169386469708498}, "southwest": {"lat": 51.5216774697085, "lng": -0.172084430291502}}}, "name": "Joel & Son Fabrics", "place_id": "ChIJ6-e7LbcadkgRDYIKMciCa4o", "types": ["home_goods_store", "point_of_interest", "store", "establishment"], "rating": 4.7, "user_ratings_total": 173}, "ChIJaQAA0LAadkgRR6iwjnfa0gw": {"geometry": {"location": {"lat": 51.52342499999999, "lng": -0.171174}, "viewport": {"northeast": {"lat": 51.5247711302915, "lng": -0.169824269708498}, "southwest": {"lat": 51.5220731697085, "lng": -0.172522230291502}}}, "name": "Eurosom Technology Ltd", "place_id": "ChIJaQAA0LAadkgRR6iwjnfa0gw", "types": ["point_of_interest", "establishment"]}, "ChIJAURc0rAadkgRyA0TpTC9Q7A": {"geometry": {"location": {"lat": 51.52332999999999, "lng": -0.170652}, "viewport": {"northeast": {"lat": 51.5246443802915, "lng": -0.169242419708498}, "southwest": {"lat": 51.5219464197085, "lng": -0.171940380291502}}}, "name": "britanniamedianetwork.com", "place_id": "ChIJAURc0rAadkgRyA0TpTC9Q7A", "types": ["point_of_interest", "establishment"]}, "ChIJkYeHLbcadkgRRzGyGbQG3_Y": {"geometry": {"location": {"lat": 51.52302840000001, "lng": -0.1705392}, "viewport": {"northeast": {"lat": 51.5245524802915, "lng": -0.168864769708498}, "southwest": {"lat": 51.5218545197085, "lng": -0.171562730291502}}}, "name": "Grill Island", "place_id": "ChIJkYeHLbcadkgRRzGyGbQG3_Y", "types": ["restaurant", "cafe", "food", "point_of_interest", "establishment"], "rating": 3.3, "user_ratings_total": 3}, "ChIJvUR32rAadkgR5N5iKiXR3ZA": {"geometry": {"location": {"lat": 51.5232172, "lng": -0.171192}, "viewport": {"northeast": {"lat": 51.5244736802915, "lng": -0.169681019708498}, "southwest": {"lat": 51.5217757197085, "lng": -0.172378980291502}}}, "name": "Central London Youth Development Trust", "place_id": "ChIJvUR32rAadkgR5N5iKiXR3ZA", "types": ["point_of_interest", "establishment"]}, "ChIJRcS60LAadkgRRPtoJOx3f9Y": {"geometry": {"location": {"lat": 51.5231449, "lng": -0.1711228}, "viewport": {"northeast": {"lat": 51.5244286302915, "lng": -0.169659569708498}, "southwest": {"lat": 51.5217306697085, "lng": -0.172357530291502}}}, "name": "Clay Grill", "place_id": "ChIJRcS60LAadkgRRPtoJOx3f9Y", "types": ["restaurant", "food", "point_of_interest", "establishment"], "rating": 5, "user_ratings_total": 7}, "ChIJQ7GS1rAadkgRYNmYijQYd7c": {"geometry": {"location": {"lat": 51.5229777, "lng": -0.1708939}, "viewport": {"northeast": {"lat": 51.52432228029149, "lng": -0.169537219708498}, "southwest": {"lat": 51.52162431970849, "lng": -0.172235180291502}}}, "name": "Church Street Market", "place_id": "ChIJQ7GS1rAadkgRYNmYijQYd7c", "types": ["point_of_interest", "establishment"], "rating": 4.1, "user_ratings_total": 1025}, "ChIJRUZgM7cadkgRlDp7v91ejGg": {"geometry": {"location": {"lat": 51.523754, "lng": -0.1703513}, "viewport": {"northeast": {"lat": 51.5251029802915, "lng": -0.169002319708498}, "southwest": {"lat": 51.5224050197085, "lng": -0.1717002802915021}}}, "name": "Red Bus Studios Ltd", "place_id": "ChIJRUZgM7cadkgRlDp7v91ejGg", "types": ["electronics_store", "home_goods_store", "point_of_interest", "store", "establishment"], "rating": 4.3, "user_ratings_total": 3}, "ChIJRUZgM7cadkgRWiOB_qNbVfE": {"geometry": {"location": {"lat": 51.523754, "lng": -0.1703513}, "viewport": {"northeast": {"lat": 51.5250930302915, "lng": -0.1690129697084979}, "southwest": {"lat": 51.5223950697085, "lng": -0.171710930291502}}}, "name": "Hantarex International Ltd", "place_id": "ChIJRUZgM7cadkgRWiOB_qNbVfE", "types": ["point_of_interest", "establishment"]}, "ChIJkYeHLbcadkgRok9Ucy_j79A": {"geometry": {"location": {"lat": 51.5229545, "lng": -0.1712048}, "viewport": {"northeast": {"lat": 51.5242690302915, "lng": -0.169795569708498}, "southwest": {"lat": 51.5215710697085, "lng": -0.172493530291502}}}, "name": "JN Carpentry", "place_id": "ChIJkYeHLbcadkgRok9Ucy_j79A", "types": ["point_of_interest", "establishment"]}, "ChIJ6-e7LbcadkgRval8bFj06qY": {"geometry": {"location": {"lat": 51.52302840000001, "lng": -0.1705392}, "viewport": {"northeast": {"lat": 51.5244292302915, "lng": -0.169282619708498}, "southwest": {"lat": 51.5217312697085, "lng": -0.171980580291502}}}, "name": "Church Street Dental", "place_id": "ChIJ6-e7LbcadkgRval8bFj06qY", "types": ["dentist", "health", "point_of_interest", "establishment"], "rating": 4.7, "user_ratings_total": 23}, "ChIJ6-e7LbcadkgREo-dU6VHdBY": {"geometry": {"location": {"lat": 51.52331059999999, "lng": -0.1702315}, "viewport": {"northeast": {"lat": 51.52469578029149, "lng": -0.168946969708498}, "southwest": {"lat": 51.5219978197085, "lng": -0.171644930291502}}}, "name": "Santana Hardware", "place_id": "ChIJ6-e7LbcadkgREo-dU6VHdBY", "types": ["hardware_store", "furniture_store", "home_goods_store", "park", "point_of_interest", "store", "establishment"], "rating": 4.8, "user_ratings_total": 5}, "ChIJE5Cb0bAadkgRuuCzt28ngUg": {"geometry": {"location": {"lat": 51.5233088, "lng": -0.1707134}, "viewport": {"northeast": {"lat": 51.5246185302915, "lng": -0.169295669708498}, "southwest": {"lat": 51.5219205697085, "lng": -0.171993630291502}}}, "name": "Kiki Furniture", "place_id": "ChIJE5Cb0bAadkgRuuCzt28ngUg", "types": ["furniture_store", "home_goods_store", "point_of_interest", "store", "establishment"]}, "ChIJ6-e7LbcadkgRSuAqLE3LW_A": {"geometry": {"location": {"lat": 51.5232397, "lng": -0.1703039}, "viewport": {"northeast": {"lat": 51.52462868029149, "lng": -0.169024919708498}, "southwest": {"lat": 51.52193071970849, "lng": -0.171722880291502}}}, "name": "Linens Plus", "place_id": "ChIJ6-e7LbcadkgRSuAqLE3LW_A", "types": ["home_goods_store", "point_of_interest", "store", "establishment"], "rating": 5, "user_ratings_total": 1}, "ChIJk8_gzbAadkgR9GMrqRz59bw": {"geometry": {"location": {"lat": 51.52344, "lng": -0.1707086}, "viewport": {"northeast": {"lat": 51.5247204302915, "lng": -0.169239619708498}, "southwest": {"lat": 51.5220224697085, "lng": -0.1719375802915021}}}, "name": "HIJAB CENTRE LONDON LTD", "place_id": "ChIJk8_gzbAadkgR9GMrqRz59bw", "types": ["point_of_interest", "establishment"]}, "ChIJveiQzbAadkgRevVSH491Mno": {"geometry": {"location": {"lat": 51.5234816, "lng": -0.1706771}, "viewport": {"northeast": {"lat": 51.5248464302915, "lng": -0.169437919708498}, "southwest": {"lat": 51.5221484697085, "lng": -0.172135880291502}}}, "name": "Al-Safa Jewellery", "place_id": "ChIJveiQzbAadkgRevVSH491Mno", "types": ["jewelry_store", "point_of_interest", "store", "establishment"]}, "ChIJgUIlN7cadkgRqyRukbserDo": {"geometry": {"location": {"lat": 51.52328499999999, "lng": -0.1708662}, "viewport": {"northeast": {"lat": 51.52470483029149, "lng": -0.169583169708498}, "southwest": {"lat": 51.52200686970849, "lng": -0.172281130291502}}}, "name": "harvey buat ltd", "place_id": "ChIJgUIlN7cadkgRqyRukbserDo", "types": ["electronics_store", "home_goods_store", "point_of_interest", "store", "establishment"]}, "ChIJE5Cb0bAadkgRfQ8iu0M2xgk": {"geometry": {"location": {"lat": 51.52353129999999, "lng": -0.17065}, "viewport": {"northeast": {"lat": 51.52480218029149, "lng": -0.1691618697084979}, "southwest": {"lat": 51.5221042197085, "lng": -0.171859830291502}}}, "name": "Abbey Unisex salon.", "place_id": "ChIJE5Cb0bAadkgRfQ8iu0M2xgk", "types": ["hair_care", "health", "point_of_interest", "establishment"], "rating": 4.4, "user_ratings_total": 49}, "ChIJFZCb0bAadkgRetT6QkFNbSM": {"geometry": {"location": {"lat": 51.5235847, "lng": -0.1707634}, "viewport": {"northeast": {"lat": 51.5248260802915, "lng": -0.1692226697084979}, "southwest": {"lat": 51.5221281197085, "lng": -0.171920630291502}}}, "name": "Iby Britannia Link", "place_id": "ChIJFZCb0bAadkgRetT6QkFNbSM", "types": ["point_of_interest", "establishment"]}, "ChIJFZCb0bAadkgR-XnMshb6Fc8": {"geometry": {"location": {"lat": 51.5235847, "lng": -0.1707634}, "viewport": {"northeast": {"lat": 51.5248260802915, "lng": -0.1692226697084979}, "southwest": {"lat": 51.5221281197085, "lng": -0.171920630291502}}}, "name": "Evolution Times", "place_id": "ChIJFZCb0bAadkgR-XnMshb6Fc8", "types": ["point_of_interest", "establishment"], "rating": 1, "user_ratings_total": 1}, "ChIJt9EJs_sbdkgRvSSp-wM39oI": {"geometry": {"location": {"lat": 51.5231684, "lng": -0.1704941}, "viewport": {"northeast": {"lat": 51.5245448302915, "lng": -0.169194019708498}, "southwest": {"lat": 51.5218468697085, "lng": -0.171891980291502}}}, "name": "Anjesa", "place_id": "ChIJt9EJs_sbdkgRvSSp-wM39oI", "types": ["lodging", "point_of_interest", "establishment"]}, "ChIJd4D9zLAadkgR6zO9sxriRlM": {"geometry": {"location": {"lat": 51.5235906, "lng": -0.1705894}, "viewport": {"northeast": {"lat": 51.5248540802915, "lng": -0.169098119708498}, "southwest": {"lat": 51.5221561197085, "lng": -0.171796080291502}}}, "name": "Halal Meat Slaughter Ltd", "place_id": "ChIJd4D9zLAadkgR6zO9sxriRlM", "types": ["food", "point_of_interest", "store", "establishment"], "rating": 5, "user_ratings_total": 2}, "ChIJa6PkLLcadkgRY4EbBqjAyTo": {"geometry": {"location": {"lat": 51.5232397, "lng": -0.1703039}, "viewport": {"northeast": {"lat": 51.52462868029149, "lng": -0.169024919708498}, "southwest": {"lat": 51.52193071970849, "lng": -0.171722880291502}}}, "name": "WINSIDE & FREEMAN SOLICITORS", "place_id": "ChIJa6PkLLcadkgRY4EbBqjAyTo", "types": ["point_of_interest", "establishment"]}, "ChIJ1zxR07AadkgRVOLnroC0QDo": {"geometry": {"location": {"lat": 51.5231229, "lng": -0.170468}, "viewport": {"northeast": {"lat": 51.5245131302915, "lng": -0.169191269708498}, "southwest": {"lat": 51.5218151697085, "lng": -0.171889230291502}}}, "name": "Language Melody", "place_id": "ChIJ1zxR07AadkgRVOLnroC0QDo", "types": ["point_of_interest", "establishment"]}, "ChIJkUOZAEwbdkgRIP97QK_ofac": {"geometry": {"location": {"lat": 51.5231129, "lng": -0.1704825}, "viewport": {"northeast": {"lat": 51.5245031802915, "lng": -0.169205819708498}, "southwest": {"lat": 51.5218052197085, "lng": -0.171903780291502}}}, "name": "Rayhana Supermarket", "place_id": "ChIJkUOZAEwbdkgRIP97QK_ofac", "types": ["grocery_or_supermarket", "supermarket", "food", "point_of_interest", "store", "establishment"], "rating": 4.7, "user_ratings_total": 6}, "ChIJCzD8MrcadkgR6uWoRbdVVDE": {"geometry": {"location": {"lat": 51.5236665, "lng": -0.1706035}, "viewport": {"northeast": {"lat": 51.52504888029149, "lng": -0.169208469708498}, "southwest": {"lat": 51.5223509197085, "lng": -0.171906430291502}}}, "name": "Love Venezia", "place_id": "ChIJCzD8MrcadkgR6uWoRbdVVDE", "types": ["cafe", "food", "point_of_interest", "establishment"], "rating": 4, "user_ratings_total": 1}, "ChIJJYbtLLcadkgRjaLat6IYIfI": {"geometry": {"location": {"lat": 51.523349, "lng": -0.1701968}, "viewport": {"northeast": {"lat": 51.52473178029149, "lng": -0.1689041197084979}, "southwest": {"lat": 51.52203381970849, "lng": -0.171602080291502}}}, "name": "Kurdistan Cafe", "place_id": "ChIJJYbtLLcadkgRjaLat6IYIfI", "types": ["restaurant", "food", "point_of_interest", "establishment"], "rating": 4.6, "user_ratings_total": 124}, "ChIJTRH2oO4edkgR86i8cW5Dco0": {"geometry": {"location": {"lat": 51.5236707, "lng": -0.1707432}, "viewport": {"northeast": {"lat": 51.52489093029151, "lng": -0.169179969708498}, "southwest": {"lat": 51.52219296970851, "lng": -0.171877930291502}}}, "name": "love venezia caf\u00e9", "place_id": "ChIJTRH2oO4edkgR86i8cW5Dco0", "types": ["cafe", "restaurant", "food", "point_of_interest", "establishment"], "rating": 5, "user_ratings_total": 1}, "ChIJwcSNh_cbdkgRKfpjG7IV_m4": {"geometry": {"location": {"lat": 51.5231746, "lng": -0.1711132}, "viewport": {"northeast": {"lat": 51.5244538302915, "lng": -0.169639969708498}, "southwest": {"lat": 51.5217558697085, "lng": -0.172337930291502}}}, "name": "BGR BOX", "place_id": "ChIJwcSNh_cbdkgRKfpjG7IV_m4", "types": ["restaurant", "food", "point_of_interest", "establishment"], "rating": 4.9, "user_ratings_total": 7}, "ChIJCbSi0LAadkgRxsC-y28izsk": {"geometry": {"location": {"lat": 51.5231752, "lng": -0.171128}, "viewport": {"northeast": {"lat": 51.52445118029149, "lng": -0.169651219708498}, "southwest": {"lat": 51.52175321970849, "lng": -0.172349180291502}}}, "name": "Barakah Bazar", "place_id": "ChIJCbSi0LAadkgRxsC-y28izsk", "types": ["grocery_or_supermarket", "food", "point_of_interest", "store", "establishment"], "rating": 4, "user_ratings_total": 3}, "ChIJ6-e7LbcadkgR0wFhm9Rs708": {"geometry": {"location": {"lat": 51.5233658, "lng": -0.1701534}, "viewport": {"northeast": {"lat": 51.5247492802915, "lng": -0.168864769708498}, "southwest": {"lat": 51.5220513197085, "lng": -0.171562730291502}}}, "name": "New Al Madina Grocers", "place_id": "ChIJ6-e7LbcadkgR0wFhm9Rs708", "types": ["grocery_or_supermarket", "supermarket", "food", "point_of_interest", "store", "establishment"], "rating": 4, "user_ratings_total": 13}, "ChIJZWD1LbcadkgRcGmD9NKkLGY": {"geometry": {"location": {"lat": 51.5234264, "lng": -0.1701564}, "viewport": {"northeast": {"lat": 51.5247962802915, "lng": -0.168842319708498}, "southwest": {"lat": 51.5220983197085, "lng": -0.171540280291502}}}, "name": "L' Evangile Expliquer", "place_id": "ChIJZWD1LbcadkgRcGmD9NKkLGY", "types": ["point_of_interest", "establishment"]}, "ChIJFd6FLbcadkgRteIhHcQC650": {"geometry": {"location": {"lat": 51.52338520000001, "lng": -0.1701453000000001}, "viewport": {"northeast": {"lat": 51.52476728029151, "lng": -0.168851369708498}, "southwest": {"lat": 51.52206931970851, "lng": -0.171549330291502}}}, "name": "Habyebna resturant", "place_id": "ChIJFd6FLbcadkgRteIhHcQC650", "types": ["restaurant", "food", "point_of_interest", "establishment"], "rating": 5, "user_ratings_total": 4}, "ChIJE5Cb0bAadkgRoXxdIYjO2y0": {"geometry": {"location": {"lat": 51.5232172, "lng": -0.1711921}, "viewport": {"northeast": {"lat": 51.5244736802915, "lng": -0.169681119708498}, "southwest": {"lat": 51.5217757197085, "lng": -0.172379080291502}}}, "name": "Dimples Hair Design", "place_id": "ChIJE5Cb0bAadkgRoXxdIYjO2y0", "types": ["hair_care", "point_of_interest", "establishment"], "rating": 4.6, "user_ratings_total": 5}, "ChIJ24xA1AIbdkgRoCbUZSDKwwo": {"geometry": {"location": {"lat": 51.5234013, "lng": -0.1701214}, "viewport": {"northeast": {"lat": 51.5247813302915, "lng": -0.168715019708498}, "southwest": {"lat": 51.5220833697085, "lng": -0.171412980291502}}}, "name": "habaybna", "place_id": "ChIJ24xA1AIbdkgRoCbUZSDKwwo", "types": ["restaurant", "food", "point_of_interest", "establishment"], "rating": 5, "user_ratings_total": 8}, "ChIJXwUrHTIfdkgRsZvwZQHkz5o": {"geometry": {"location": {"lat": 51.52298549999999, "lng": -0.1706183}, "viewport": {"northeast": {"lat": 51.5243838802915, "lng": -0.169355769708498}, "southwest": {"lat": 51.5216859197085, "lng": -0.172053730291502}}}, "name": "E&S Building2011", "place_id": "ChIJXwUrHTIfdkgRsZvwZQHkz5o", "types": ["point_of_interest", "establishment"]}, "ChIJzTDC5ikbdkgRwPwy2se1sYo": {"geometry": {"location": {"lat": 51.5234105, "lng": -0.1700816}, "viewport": {"northeast": {"lat": 51.5247824302915, "lng": -0.1686902197084979}, "southwest": {"lat": 51.5220844697085, "lng": -0.171388180291502}}}, "name": "\u0645\u0637\u0639\u0645 \u062d\u0628\u0627\u064a\u0628\u0646\u0627", "place_id": "ChIJzTDC5ikbdkgRwPwy2se1sYo", "types": ["restaurant", "food", "point_of_interest", "establishment"], "rating": 4.3, "user_ratings_total": 9}, "ChIJc6nJi7cadkgRNlRIb7TW3vw": {"geometry": {"location": {"lat": 51.5230123, "lng": -0.1701121}, "viewport": {"northeast": {"lat": 51.5244828302915, "lng": -0.168979719708498}, "southwest": {"lat": 51.5217848697085, "lng": -0.171677680291502}}}, "name": "Church Street Library", "place_id": "ChIJc6nJi7cadkgRNlRIb7TW3vw", "types": ["library", "point_of_interest", "establishment"], "rating": 3.4, "user_ratings_total": 26}, "ChIJ50RWC6EbdkgRJ9cFeSV535c": {"geometry": {"location": {"lat": 51.5229835, "lng": -0.1708996}, "viewport": {"northeast": {"lat": 51.52432368029151, "lng": -0.169535219708498}, "southwest": {"lat": 51.52162571970851, "lng": -0.172233180291502}}}, "name": "Paella brother\u2019s", "place_id": "ChIJ50RWC6EbdkgRJ9cFeSV535c", "types": ["restaurant", "food", "point_of_interest", "establishment"]}, "ChIJ25oVwOMbdkgRNOch0pzVgfE": {"geometry": {"location": {"lat": 51.5229575, "lng": -0.170671}, "viewport": {"northeast": {"lat": 51.5243540802915, "lng": -0.169405369708498}, "southwest": {"lat": 51.5216561197085, "lng": -0.172103330291502}}}, "name": "Transporters", "place_id": "ChIJ25oVwOMbdkgRNOch0pzVgfE", "types": ["point_of_interest", "establishment"]}, "ChIJv9KF1bAadkgRDdXGsnvsq78": {"geometry": {"location": {"lat": 51.522926, "lng": -0.1707604}, "viewport": {"northeast": {"lat": 51.52431558029151, "lng": -0.169483769708498}, "southwest": {"lat": 51.52161761970851, "lng": -0.172181730291502}}}, "name": "\u0633\u0648\u0642 \u0627\u0644\u0633\u0628\u062a", "place_id": "ChIJv9KF1bAadkgRDdXGsnvsq78", "types": ["shopping_mall", "point_of_interest", "establishment"], "rating": 4.2, "user_ratings_total": 45}, "ChIJF9VZMbcadkgRb4puqOTVG-8": {"geometry": {"location": {"lat": 51.5236957, "lng": -0.1701477}, "viewport": {"northeast": {"lat": 51.5250065802915, "lng": -0.168729919708498}, "southwest": {"lat": 51.5223086197085, "lng": -0.171427880291502}}}, "name": "The Trader's Inn", "place_id": "ChIJF9VZMbcadkgRb4puqOTVG-8", "types": ["bar", "point_of_interest", "establishment"], "rating": 4.3, "user_ratings_total": 61}, "ChIJ21F60bAadkgRqT1PfiX3P6A": {"geometry": {"location": {"lat": 51.52301509999999, "lng": -0.1712451}, "viewport": {"northeast": {"lat": 51.5243095302915, "lng": -0.169800669708498}, "southwest": {"lat": 51.5216115697085, "lng": -0.172498630291502}}}, "name": "Bobby's Fashion London", "place_id": "ChIJ21F60bAadkgRqT1PfiX3P6A", "types": ["clothing_store", "point_of_interest", "store", "establishment"], "rating": 4, "user_ratings_total": 3}, "ChIJJditut4ZdkgRG2gpfgtrFMQ": {"geometry": {"location": {"lat": 51.5229545, "lng": -0.1712048}, "viewport": {"northeast": {"lat": 51.5243034802915, "lng": -0.169855819708498}, "southwest": {"lat": 51.5216055197085, "lng": -0.172553780291502}}}, "name": "Kat Christoforou Therapy", "place_id": "ChIJJditut4ZdkgRG2gpfgtrFMQ", "types": ["health", "point_of_interest", "establishment"], "rating": 5, "user_ratings_total": 1}, "ChIJDcuHyykbdkgREg-B0kgRSC0": {"geometry": {"location": {"lat": 51.5234669, "lng": -0.1698522}, "viewport": {"northeast": {"lat": 51.5247913302915, "lng": -0.168548619708498}, "southwest": {"lat": 51.5220933697085, "lng": -0.171246580291502}}}, "name": "Paella Brothers", "place_id": "ChIJDcuHyykbdkgREg-B0kgRSC0", "types": ["restaurant", "food", "point_of_interest", "establishment"], "rating": 4.9, "user_ratings_total": 11}, "ChIJ8ZvN2bAadkgRXAX9I7fFsWE": {"geometry": {"location": {"lat": 51.5229442, "lng": -0.1712215}, "viewport": {"northeast": {"lat": 51.5242585302915, "lng": -0.169811819708498}, "southwest": {"lat": 51.5215605697085, "lng": -0.172509780291502}}}, "name": "Pdt", "place_id": "ChIJ8ZvN2bAadkgRXAX9I7fFsWE", "types": ["point_of_interest", "establishment"]}, "ChIJk_gO1bAadkgR3jldvK8vF_U": {"geometry": {"location": {"lat": 51.5228718, "lng": -0.170596}, "viewport": {"northeast": {"lat": 51.52422504972014, "lng": -0.1692358820379352}, "southwest": {"lat": 51.52152708913714, "lng": -0.1719338426209392}}}, "name": "Parking lot", "place_id": "ChIJk_gO1bAadkgR3jldvK8vF_U", "types": ["parking", "premise", "point_of_interest", "establishment"]}, "ChIJdYts07YadkgRcntqQtRBYg4": {"geometry": {"location": {"lat": 51.52256500000001, "lng": -0.170312}, "viewport": {"northeast": {"lat": 51.5237342302915, "lng": -0.169015769708498}, "southwest": {"lat": 51.5210362697085, "lng": -0.1717137302915021}}}, "name": "Q-Park Church Street", "place_id": "ChIJdYts07YadkgRcntqQtRBYg4", "types": ["parking", "storage", "point_of_interest", "establishment"], "rating": 3.9, "user_ratings_total": 116}, "ChIJwxANLLEadkgRZ-4eaaInLys": {"geometry": {"location": {"lat": 51.52262580000001, "lng": -0.1703185}, "viewport": {"northeast": {"lat": 51.5238670802915, "lng": -0.169164919708498}, "southwest": {"lat": 51.5211691197085, "lng": -0.171862880291502}}}, "name": "St Johns Wood Car Wash", "place_id": "ChIJwxANLLEadkgRZ-4eaaInLys", "types": ["car_wash", "point_of_interest", "establishment"], "rating": 3.5, "user_ratings_total": 67}, "ChIJu0wxIbEadkgRCUt4RTTTOBk": {"geometry": {"location": {"lat": 51.52250780000001, "lng": -0.1713039}, "viewport": {"northeast": {"lat": 51.5239097302915, "lng": -0.169992069708498}, "southwest": {"lat": 51.5212117697085, "lng": -0.172690030291502}}}, "name": "Creative Web Solutions", "place_id": "ChIJu0wxIbEadkgRCUt4RTTTOBk", "types": ["point_of_interest", "establishment"]}, "ChIJCZpoJrEadkgRG1Y2x1FAxt4": {"geometry": {"location": {"lat": 51.52250780000001, "lng": -0.1713039}, "viewport": {"northeast": {"lat": 51.5239097302915, "lng": -0.169992069708498}, "southwest": {"lat": 51.5212117697085, "lng": -0.172690030291502}}}, "name": "Westminster City Council, Regeneration Base", "place_id": "ChIJCZpoJrEadkgRG1Y2x1FAxt4", "types": ["local_government_office", "point_of_interest", "establishment"]}, "ChIJLdHKJbEadkgRl_CIQs9peKc": {"geometry": {"location": {"lat": 51.52251949999999, "lng": -0.1712579}, "viewport": {"northeast": {"lat": 51.52392588029149, "lng": -0.169976769708498}, "southwest": {"lat": 51.52122791970849, "lng": -0.172674730291502}}}, "name": "City Carpet Ltd", "place_id": "ChIJLdHKJbEadkgRl_CIQs9peKc", "types": ["home_goods_store", "point_of_interest", "store", "establishment"], "rating": 4, "user_ratings_total": 6}, "ChIJo1Tb1LYadkgRA3SKQITnB4A": {"geometry": {"location": {"lat": 51.52256440000001, "lng": -0.1703654}, "viewport": {"northeast": {"lat": 51.52382643029151, "lng": -0.169174169708498}, "southwest": {"lat": 51.52112846970851, "lng": -0.171872130291502}}}, "name": "Church Street", "place_id": "ChIJo1Tb1LYadkgRA3SKQITnB4A", "types": ["parking", "point_of_interest", "establishment"], "rating": 3, "user_ratings_total": 1}, "ChIJPbJllFUFdkgRgF64A8UQnO4": {"geometry": {"location": {"lat": 51.5225655, "lng": -0.1703122}, "viewport": {"northeast": {"lat": 51.5238190802915, "lng": -0.169136319708498}, "southwest": {"lat": 51.5211211197085, "lng": -0.171834280291502}}}, "name": "Edgware Road Car Wash Within Q Park Carpark", "place_id": "ChIJPbJllFUFdkgRgF64A8UQnO4", "types": ["car_wash", "point_of_interest", "establishment"], "rating": 3.2, "user_ratings_total": 6}, "ChIJLdHKJbEadkgRPY8w-dWszbw": {"geometry": {"location": {"lat": 51.522549, "lng": -0.1711523}, "viewport": {"northeast": {"lat": 51.52397458029149, "lng": -0.169808869708498}, "southwest": {"lat": 51.52127661970849, "lng": -0.172506830291502}}}, "name": "Lord High Admiral", "place_id": "ChIJLdHKJbEadkgRPY8w-dWszbw", "types": ["bar", "point_of_interest", "establishment"], "rating": 4.1, "user_ratings_total": 66}, "ChIJp5BoJrEadkgRqQOWSTket1Y": {"geometry": {"location": {"lat": 51.52250780000001, "lng": -0.1713038000000001}, "viewport": {"northeast": {"lat": 51.5239097802915, "lng": -0.169992019708498}, "southwest": {"lat": 51.5212118197085, "lng": -0.172689980291502}}}, "name": "The Set", "place_id": "ChIJp5BoJrEadkgRqQOWSTket1Y", "types": ["point_of_interest", "establishment"]}, "ChIJc1xoJrEadkgRGUIN9_XDbYc": {"geometry": {"location": {"lat": 51.5225131, "lng": -0.1712997}, "viewport": {"northeast": {"lat": 51.5239144802915, "lng": -0.169988969708498}, "southwest": {"lat": 51.5212165197085, "lng": -0.172686930291502}}}, "name": "Church Street Regeneration Base", "place_id": "ChIJc1xoJrEadkgRGUIN9_XDbYc", "types": ["point_of_interest", "establishment"], "rating": 3, "user_ratings_total": 2}, "ChIJLdHKJbEadkgRzShkX4dNouI": {"geometry": {"location": {"lat": 51.52248769999999, "lng": -0.1713609}, "viewport": {"northeast": {"lat": 51.52389698029149, "lng": -0.170013269708498}, "southwest": {"lat": 51.5211990197085, "lng": -0.172711230291502}}}, "name": "101 Church Street Cafe and Restaurant", "place_id": "ChIJLdHKJbEadkgRzShkX4dNouI", "types": ["cafe", "restaurant", "food", "point_of_interest", "establishment"], "rating": 3.9, "user_ratings_total": 63}, "ChIJh7t3UYQbdkgR_X-JJ9bdQJw": {"geometry": {"location": {"lat": 51.52274959999999, "lng": -0.1709698}, "viewport": {"northeast": {"lat": 51.5241474302915, "lng": -0.169706319708498}, "southwest": {"lat": 51.5214494697085, "lng": -0.172404280291502}}}, "name": "Medicspot Clinic Marylebone", "place_id": "ChIJh7t3UYQbdkgR_X-JJ9bdQJw", "types": ["doctor", "health", "point_of_interest", "establishment"], "rating": 5, "user_ratings_total": 1}, "ChIJ-2AwKLMbdkgRvTx_ru9soeQ": {"geometry": {"location": {"lat": 51.52274959999999, "lng": -0.1709698}, "viewport": {"northeast": {"lat": 51.5241474302915, "lng": -0.169706319708498}, "southwest": {"lat": 51.5214494697085, "lng": -0.172404280291502}}}, "name": "Market Chemist - Getjab Travel Clinic", "place_id": "ChIJ-2AwKLMbdkgRvTx_ru9soeQ", "types": ["health", "point_of_interest", "establishment"], "rating": 5, "user_ratings_total": 1}, "ChIJjdth17UbdkgRfN6JyMYxjCI": {"geometry": {"location": {"lat": 51.52274959999999, "lng": -0.1709698}, "viewport": {"northeast": {"lat": 51.5241474302915, "lng": -0.169706319708498}, "southwest": {"lat": 51.5214494697085, "lng": -0.172404280291502}}}, "name": "Hajj Umrah Vaccination centre - Market Chemist", "place_id": "ChIJjdth17UbdkgRfN6JyMYxjCI", "types": ["health", "point_of_interest", "establishment"], "rating": 5, "user_ratings_total": 1}, "ChIJ6-e7LbcadkgROalJ0TsDP2s": {"geometry": {"location": {"lat": 51.52274999999999, "lng": -0.17097}, "viewport": {"northeast": {"lat": 51.5241476802915, "lng": -0.169706319708498}, "southwest": {"lat": 51.5214497197085, "lng": -0.172404280291502}}}, "name": "Market Chemist", "place_id": "ChIJ6-e7LbcadkgROalJ0TsDP2s", "types": ["pharmacy", "health", "point_of_interest", "store", "establishment"], "rating": 4.5, "user_ratings_total": 8}, "ChIJhefenbAadkgRRrnruC5wRaY": {"geometry": {"location": {"lat": 51.52533146184319, "lng": -0.1722628454089832}, "viewport": {"northeast": {"lat": 51.52668078029149, "lng": -0.170914619708498}, "southwest": {"lat": 51.52398281970849, "lng": -0.1736125802915021}}}, "name": "28-8 Frampton St", "place_id": "ChIJhefenbAadkgRRrnruC5wRaY", "types": ["route"]}, "ChIJ34tHbLoadkgRrjxwua18W5k": {"geometry": {"location": {"lat": 51.5254653, "lng": -0.1719305}, "viewport": {"northeast": {"lat": 51.5268402302915, "lng": -0.1706385697084979}, "southwest": {"lat": 51.5241422697085, "lng": -0.173336530291502}}}, "name": "Family Information Service", "place_id": "ChIJ34tHbLoadkgRrjxwua18W5k", "types": ["point_of_interest", "establishment"]}, "ChIJbT4KDroadkgRg8AWJ3o8et4": {"geometry": {"location": {"lat": 51.5254653, "lng": -0.1719305}, "viewport": {"northeast": {"lat": 51.5268402302915, "lng": -0.1706385697084979}, "southwest": {"lat": 51.5241422697085, "lng": -0.173336530291502}}}, "name": "Housing 21 Care Services", "place_id": "ChIJbT4KDroadkgRg8AWJ3o8et4", "types": ["point_of_interest", "establishment"], "rating": 5, "user_ratings_total": 1}, "ChIJA79beLoadkgRIw33hlofYlY": {"geometry": {"location": {"lat": 51.52550309999999, "lng": -0.1728137}, "viewport": {"northeast": {"lat": 51.5268415302915, "lng": -0.1714406697084979}, "southwest": {"lat": 51.5241435697085, "lng": -0.174138630291502}}}, "name": "Fisherton Hall", "place_id": "ChIJA79beLoadkgRIw33hlofYlY", "types": ["point_of_interest", "establishment"], "rating": 4.3, "user_ratings_total": 4}, "ChIJg6hzDLoadkgRtclUNxcrza0": {"geometry": {"location": {"lat": 51.5253865, "lng": -0.1719908}, "viewport": {"northeast": {"lat": 51.52676623029149, "lng": -0.170709369708498}, "southwest": {"lat": 51.5240682697085, "lng": -0.173407330291502}}}, "name": "Zipcar UK - Frampton St E", "place_id": "ChIJg6hzDLoadkgRtclUNxcrza0", "types": ["point_of_interest", "establishment"], "rating": 1, "user_ratings_total": 1}, "ChIJscseeroadkgRvI6B66GxhJw": {"geometry": {"location": {"lat": 51.5257429, "lng": -0.1727362}, "viewport": {"northeast": {"lat": 51.5270666302915, "lng": -0.171330519708498}, "southwest": {"lat": 51.5243686697085, "lng": -0.174028480291502}}}, "name": "Housing Office Westminster", "place_id": "ChIJscseeroadkgRvI6B66GxhJw", "types": ["point_of_interest", "establishment"], "rating": 1.6, "user_ratings_total": 11}, "ChIJscseeroadkgRudv7Z8V-7Jk": {"geometry": {"location": {"lat": 51.5257429, "lng": -0.1727362}, "viewport": {"northeast": {"lat": 51.5270666302915, "lng": -0.171330519708498}, "southwest": {"lat": 51.5243686697085, "lng": -0.174028480291502}}}, "name": "Westminster Council, Housing Options", "place_id": "ChIJscseeroadkgRudv7Z8V-7Jk", "types": ["school", "point_of_interest", "establishment"], "rating": 2.5, "user_ratings_total": 2}, "ChIJF_SgeLoadkgRk2l49RHXWR8": {"geometry": {"location": {"lat": 51.5254005, "lng": -0.1729471}, "viewport": {"northeast": {"lat": 51.5267689302915, "lng": -0.171642419708498}, "southwest": {"lat": 51.5240709697085, "lng": -0.174340380291502}}}, "name": "Sara Chiminelli", "place_id": "ChIJF_SgeLoadkgRk2l49RHXWR8", "types": ["school", "point_of_interest", "establishment"]}, "ChIJYZBZnbAadkgRI9Yh9NdmVRE": {"geometry": {"location": {"lat": 51.5255222, "lng": -0.1724615}, "viewport": {"northeast": {"lat": 51.52680853029149, "lng": -0.170974769708498}, "southwest": {"lat": 51.52411056970849, "lng": -0.173672730291502}}}, "name": "Aramic Interiors", "place_id": "ChIJYZBZnbAadkgRI9Yh9NdmVRE", "types": ["general_contractor", "point_of_interest", "establishment"]}, "ChIJbT4KDroadkgRasBvq5IdqO4": {"geometry": {"location": {"lat": 51.5254653, "lng": -0.1719305}, "viewport": {"northeast": {"lat": 51.5268402302915, "lng": -0.1706385697084979}, "southwest": {"lat": 51.5241422697085, "lng": -0.173336530291502}}}, "name": "Family Recovery Project", "place_id": "ChIJbT4KDroadkgRasBvq5IdqO4", "types": ["point_of_interest", "establishment"], "rating": 5, "user_ratings_total": 1}, "ChIJ8f2GgLoadkgRrq2CPOpW3a8": {"geometry": {"location": {"lat": 51.5256808, "lng": -0.1736263}, "viewport": {"northeast": {"lat": 51.52690435244226, "lng": -0.1720724059996966}, "southwest": {"lat": 51.52420639185927, "lng": -0.1747703665827006}}}, "name": "Parking lot", "place_id": "ChIJ8f2GgLoadkgRrq2CPOpW3a8", "types": ["parking", "premise", "point_of_interest", "establishment"]}, "ChIJcYfHkLAadkgRbzJDdjybKa0": {"geometry": {"location": {"lat": 51.52456406185383, "lng": -0.172120739924898}, "viewport": {"northeast": {"lat": 51.52591198029149, "lng": -0.1707733197084979}, "southwest": {"lat": 51.52321401970849, "lng": -0.173471280291502}}}, "name": "25-17 Fisherton St", "place_id": "ChIJcYfHkLAadkgRbzJDdjybKa0", "types": ["route"]}, "ChIJi1PjlbAadkgRoCUtNbeWrCY": {"geometry": {"location": {"lat": 51.52443639999999, "lng": -0.1721016}, "viewport": {"northeast": {"lat": 51.5257553302915, "lng": -0.170693119708498}, "southwest": {"lat": 51.5230573697085, "lng": -0.173391080291502}}}, "name": "St Pauls Newpin", "place_id": "ChIJi1PjlbAadkgRoCUtNbeWrCY", "types": ["point_of_interest", "establishment"], "rating": 4, "user_ratings_total": 1}, "ChIJaX3hjbAadkgRjf3gbBKAS9c": {"geometry": {"location": {"lat": 51.524611, "lng": -0.1726359}, "viewport": {"northeast": {"lat": 51.52603053029151, "lng": -0.171441269708498}, "southwest": {"lat": 51.52333256970851, "lng": -0.174139230291502}}}, "name": "Eastlake House", "place_id": "ChIJaX3hjbAadkgRjf3gbBKAS9c", "types": ["point_of_interest", "establishment"], "rating": 4.3, "user_ratings_total": 6}, "ChIJzSt11lEbdkgRTdPYQowtYwI": {"geometry": {"location": {"lat": 51.5245048, "lng": -0.1730087}, "viewport": {"northeast": {"lat": 51.5258876302915, "lng": -0.171733719708498}, "southwest": {"lat": 51.5231896697085, "lng": -0.174431680291502}}}, "name": "Billie's Room", "place_id": "ChIJzSt11lEbdkgRTdPYQowtYwI", "types": ["point_of_interest", "establishment"], "rating": 3.8, "user_ratings_total": 4}, "ChIJWa0bmLAadkgRMPtmW8xNLZ0": {"geometry": {"location": {"lat": 51.52476919999999, "lng": -0.1719789}, "viewport": {"northeast": {"lat": 51.52603578029149, "lng": -0.170741219708498}, "southwest": {"lat": 51.52333781970849, "lng": -0.173439180291502}}}, "name": "Hasim Vitija Memorial Bench", "place_id": "ChIJWa0bmLAadkgRMPtmW8xNLZ0", "types": ["point_of_interest", "establishment"], "rating": 4.3, "user_ratings_total": 7}, "ChIJV5mYhbAadkgRBuzzJTyA5Mg": {"geometry": {"location": {"lat": 51.5248128, "lng": -0.1728193}, "viewport": {"northeast": {"lat": 51.52617098029149, "lng": -0.171483869708498}, "southwest": {"lat": 51.52347301970849, "lng": -0.174181830291502}}}, "name": "ubitricity Charging Station", "place_id": "ChIJV5mYhbAadkgRBuzzJTyA5Mg", "types": ["point_of_interest", "establishment"]}, "ChIJsZRVirAadkgREgM7GUa47CQ": {"geometry": {"location": {"lat": 51.524248, "lng": -0.17322}, "viewport": {"northeast": {"lat": 51.5254722802915, "lng": -0.1720380197084979}, "southwest": {"lat": 51.5227743197085, "lng": -0.174735980291502}}}, "name": "Melt Chocolate Fountains", "place_id": "ChIJsZRVirAadkgREgM7GUa47CQ", "types": ["point_of_interest", "store", "establishment"]}, "ChIJeYED57AadkgRTgHA4QUhCM0": {"geometry": {"location": {"lat": 51.52327650055394, "lng": -0.172159298508819}, "viewport": {"northeast": {"lat": 51.5246254802915, "lng": -0.1708103197084979}, "southwest": {"lat": 51.5219275197085, "lng": -0.173508280291502}}}, "name": "61 Penfold St", "place_id": "ChIJeYED57AadkgRTgHA4QUhCM0", "types": ["route"]}, "ChIJHyfk_rAadkgRfbpdt-TH4n4": {"geometry": {"location": {"lat": 51.5233532, "lng": -0.1728292}, "viewport": {"northeast": {"lat": 51.5246797802915, "lng": -0.171439119708498}, "southwest": {"lat": 51.5219818197085, "lng": -0.174137080291502}}}, "name": "Abeona Day Nursery", "place_id": "ChIJHyfk_rAadkgRfbpdt-TH4n4", "types": ["point_of_interest", "establishment"], "rating": 5, "user_ratings_total": 1}, "ChIJixwbYhISdkgRBqoHHbvof80": {"geometry": {"location": {"lat": 51.52345630000001, "lng": -0.1727748}, "viewport": {"northeast": {"lat": 51.52475948029151, "lng": -0.171351869708498}, "southwest": {"lat": 51.52206151970851, "lng": -0.174049830291502}}}, "name": "The Voice of Domestic Workers", "place_id": "ChIJixwbYhISdkgRBqoHHbvof80", "types": ["point_of_interest", "establishment"]}, "ChIJAQAAALcadkgRDSzppO5ddUc": {"geometry": {"location": {"lat": 51.5233336, "lng": -0.1729001}, "viewport": {"northeast": {"lat": 51.52463103029149, "lng": -0.171524969708498}, "southwest": {"lat": 51.5219330697085, "lng": -0.174222930291502}}}, "name": "Prime Tutors", "place_id": "ChIJAQAAALcadkgRDSzppO5ddUc", "types": ["point_of_interest", "establishment"], "rating": 4.8, "user_ratings_total": 32}, "ChIJ_4KG77AadkgR7GC3Soz2EyA": {"geometry": {"location": {"lat": 51.52360520000001, "lng": -0.1720878}, "viewport": {"northeast": {"lat": 51.52495418029152, "lng": -0.170738819708498}, "southwest": {"lat": 51.52225621970852, "lng": -0.173436780291502}}}, "name": "Penfold Community Hub", "place_id": "ChIJ_4KG77AadkgR7GC3Soz2EyA", "types": ["point_of_interest", "establishment"], "rating": 4.8, "user_ratings_total": 22}, "ChIJeaOw-bAadkgRGwSIX4GEylg": {"geometry": {"location": {"lat": 51.52331590000001, "lng": -0.1731539}, "viewport": {"northeast": {"lat": 51.52464823029149, "lng": -0.171866469708498}, "southwest": {"lat": 51.5219502697085, "lng": -0.174564430291502}}}, "name": "Theobald Barber", "place_id": "ChIJeaOw-bAadkgRGwSIX4GEylg", "types": ["travel_agency", "point_of_interest", "establishment"], "rating": 5, "user_ratings_total": 1}, "ChIJE2mq5rAadkgRK8Nc0sireIE": {"geometry": {"location": {"lat": 51.523199, "lng": -0.172186}, "viewport": {"northeast": {"lat": 51.52457468029149, "lng": -0.170800569708498}, "southwest": {"lat": 51.52187671970849, "lng": -0.173498530291502}}}, "name": "Consonant", "place_id": "ChIJE2mq5rAadkgRK8Nc0sireIE", "types": ["point_of_interest", "establishment"], "rating": 4.3, "user_ratings_total": 7}, "ChIJmylG8LAadkgRwhrVtljbldY": {"geometry": {"location": {"lat": 51.523459, "lng": -0.172789}, "viewport": {"northeast": {"lat": 51.52476083029149, "lng": -0.171359669708498}, "southwest": {"lat": 51.52206286970849, "lng": -0.1740576302915021}}}, "name": "The Showroom", "place_id": "ChIJmylG8LAadkgRwhrVtljbldY", "types": ["art_gallery", "tourist_attraction", "point_of_interest", "establishment"], "rating": 4.4, "user_ratings_total": 23}, "ChIJi_KYQ_IbdkgRgl_Zup6HFpQ": {"geometry": {"location": {"lat": 51.5233763, "lng": -0.1728057}, "viewport": {"northeast": {"lat": 51.5246927802915, "lng": -0.171413569708498}, "southwest": {"lat": 51.5219948197085, "lng": -0.174111530291502}}}, "name": "\u0645\u0633\u062c\u062f \u0627\u0643\u0627\u062f\u064a\u0645\u064a\u0629 \u062d\u0641\u0635", "place_id": "ChIJi_KYQ_IbdkgRgl_Zup6HFpQ", "types": ["school", "point_of_interest", "establishment"]}, "ChIJE2mq5rAadkgR1rxt_aDv1Po": {"geometry": {"location": {"lat": 51.5231666, "lng": -0.1721962}, "viewport": {"northeast": {"lat": 51.5244804302915, "lng": -0.170972769708498}, "southwest": {"lat": 51.5217824697085, "lng": -0.173670730291502}}}, "name": "Derry Hall", "place_id": "ChIJE2mq5rAadkgR1rxt_aDv1Po", "types": ["point_of_interest", "establishment"], "rating": 3.8, "user_ratings_total": 4}, "ChIJ______9yYEgRKnAqoFHxGe4": {"geometry": {"location": {"lat": 51.523157, "lng": -0.1722076}, "viewport": {"northeast": {"lat": 51.5245482302915, "lng": -0.170800919708498}, "southwest": {"lat": 51.5218502697085, "lng": -0.173498880291502}}}, "name": "Sinead Devine Yoga", "place_id": "ChIJ______9yYEgRKnAqoFHxGe4", "types": ["school", "gym", "health", "point_of_interest", "establishment"]}, "ChIJ5VuF-rAadkgRJItcqJG1N_U": {"geometry": {"location": {"lat": 51.52335309999999, "lng": -0.172908}, "viewport": {"northeast": {"lat": 51.5246940802915, "lng": -0.171453719708498}, "southwest": {"lat": 51.5219961197085, "lng": -0.174151680291502}}}, "name": "Hafs Maktab", "place_id": "ChIJ5VuF-rAadkgRJItcqJG1N_U", "types": ["school", "point_of_interest", "establishment"], "rating": 5, "user_ratings_total": 1}, "ChIJj1_vTEUbdkgRz1_YGFSuvEE": {"geometry": {"location": {"lat": 51.52364, "lng": -0.1726202}, "viewport": {"northeast": {"lat": 51.5249521302915, "lng": -0.171320269708498}, "southwest": {"lat": 51.5222541697085, "lng": -0.174018230291502}}}, "name": "Video Services Marylebone", "place_id": "ChIJj1_vTEUbdkgRz1_YGFSuvEE", "types": ["point_of_interest", "establishment"]}, "ChIJbR6--7AadkgR704iWGTDYLQ": {"geometry": {"location": {"lat": 51.52321449999999, "lng": -0.1729764}, "viewport": {"northeast": {"lat": 51.5245712802915, "lng": -0.171594869708498}, "southwest": {"lat": 51.5218733197085, "lng": -0.174292830291502}}}, "name": "Virtuous Cleaning Services", "place_id": "ChIJbR6--7AadkgR704iWGTDYLQ", "types": ["point_of_interest", "establishment"]}, "ChIJ45qX-bAadkgRbC68ylYt4c4": {"geometry": {"location": {"lat": 51.52330240000001, "lng": -0.1730962}, "viewport": {"northeast": {"lat": 51.5246356302915, "lng": -0.171837619708498}, "southwest": {"lat": 51.5219376697085, "lng": -0.174535580291502}}}, "name": "AIRMEARSK DELIVERY", "place_id": "ChIJ45qX-bAadkgRbC68ylYt4c4", "types": ["point_of_interest", "establishment"]}, "ChIJ9SykdskadkgRCjDb0t5wPfg": {"geometry": {"location": {"lat": 51.52327699999999, "lng": -0.173167}, "viewport": {"northeast": {"lat": 51.52463978029149, "lng": -0.171860919708498}, "southwest": {"lat": 51.52194181970849, "lng": -0.174558880291502}}}, "name": "The Belleville Collective", "place_id": "ChIJ9SykdskadkgRCjDb0t5wPfg", "types": ["point_of_interest", "establishment"]}, "ChIJvQ4s-LAadkgR0tAcfWf5tMY": {"geometry": {"location": {"lat": 51.5234004, "lng": -0.173217}, "viewport": {"northeast": {"lat": 51.5247060302915, "lng": -0.171916019708498}, "southwest": {"lat": 51.5220080697085, "lng": -0.174613980291502}}}, "name": "The Old Aeroworks", "place_id": "ChIJvQ4s-LAadkgR0tAcfWf5tMY", "types": ["lodging", "point_of_interest", "establishment"], "rating": 3, "user_ratings_total": 2}, "ChIJ50Ue47AadkgRqbdkES5ZsZI": {"geometry": {"location": {"lat": 51.5229101, "lng": -0.1724821}, "viewport": {"northeast": {"lat": 51.52428615316128, "lng": -0.1711875780369416}, "southwest": {"lat": 51.52158819257829, "lng": -0.1738855386199457}}}, "name": "Parking lot", "place_id": "ChIJ50Ue47AadkgRqbdkES5ZsZI", "types": ["parking", "premise", "point_of_interest", "establishment"]}, "ChIJq2M0AbEadkgR7kRMie0Ps1E": {"geometry": {"location": {"lat": 51.52253839999999, "lng": -0.1729497}, "viewport": {"northeast": {"lat": 51.52391298029149, "lng": -0.171556069708498}, "southwest": {"lat": 51.52121501970849, "lng": -0.174254030291502}}}, "name": "H E Motors", "place_id": "ChIJq2M0AbEadkgR7kRMie0Ps1E", "types": ["car_repair", "point_of_interest", "establishment"], "rating": 3.7, "user_ratings_total": 6}, "ChIJ7SiDzYUbdkgRjXE5EvHiQ-4": {"geometry": {"location": {"lat": 51.52250890000001, "lng": -0.1729971}, "viewport": {"northeast": {"lat": 51.5238975802915, "lng": -0.171578819708498}, "southwest": {"lat": 51.5211996197085, "lng": -0.174276780291502}}}, "name": "London Tint Studio", "place_id": "ChIJ7SiDzYUbdkgRjXE5EvHiQ-4", "types": ["car_repair", "point_of_interest", "establishment"], "rating": 5, "user_ratings_total": 68}, "ChIJyWfsc7AadkgR1EZtV7hXFxE": {"geometry": {"location": {"lat": 51.52510030000001, "lng": -0.1739663}, "viewport": {"northeast": {"lat": 51.5264759802915, "lng": -0.172579319708498}, "southwest": {"lat": 51.5237780197085, "lng": -0.175277280291502}}}, "name": "M Construction UK Ltd", "place_id": "ChIJyWfsc7AadkgR1EZtV7hXFxE", "types": ["general_contractor", "point_of_interest", "establishment"], "rating": 3, "user_ratings_total": 1}, "ChIJs6lIRF4bdkgRRz1LdTNG2kg": {"geometry": {"location": {"lat": 51.525044, "lng": -0.173875}, "viewport": {"northeast": {"lat": 51.5264213802915, "lng": -0.172485619708498}, "southwest": {"lat": 51.5237234197085, "lng": -0.175183580291502}}}, "name": "SEA TECHNOLOGY UK LTD -SAFETY BOAT HIRE SERVICES", "place_id": "ChIJs6lIRF4bdkgRRz1LdTNG2kg", "types": ["point_of_interest", "establishment"]}, "ChIJE_LXYLAadkgR7PhyCJ08gfk": {"geometry": {"location": {"lat": 51.524261, "lng": -0.173522}, "viewport": {"northeast": {"lat": 51.5255920302915, "lng": -0.172133819708498}, "southwest": {"lat": 51.5228940697085, "lng": -0.174831780291502}}}, "name": "Lisson Grove - Frampton St W", "place_id": "ChIJE_LXYLAadkgR7PhyCJ08gfk", "types": ["car_rental", "point_of_interest", "establishment"], "rating": 5, "user_ratings_total": 1}, "ChIJL36fZrAadkgRVDfgErrwMKg": {"geometry": {"location": {"lat": 51.5243962, "lng": -0.1738484}, "viewport": {"northeast": {"lat": 51.5256734302915, "lng": -0.172342369708498}, "southwest": {"lat": 51.5229754697085, "lng": -0.175040330291502}}}, "name": "Euro Cars Taxis", "place_id": "ChIJL36fZrAadkgRVDfgErrwMKg", "types": ["point_of_interest", "establishment"]}, "ChIJr51UY7AadkgR9_PBwgBXKJI": {"geometry": {"location": {"lat": 51.524729, "lng": -0.173736}, "viewport": {"northeast": {"lat": 51.5260593302915, "lng": -0.172345819708498}, "southwest": {"lat": 51.5233613697085, "lng": -0.175043780291502}}}, "name": "Impacting Paths Tutoring Company", "place_id": "ChIJr51UY7AadkgR9_PBwgBXKJI", "types": ["point_of_interest", "establishment"]}, "ChIJecGtYbAadkgRC9I-V6g_PBc": {"geometry": {"location": {"lat": 51.52419039999999, "lng": -0.1735316}, "viewport": {"northeast": {"lat": 51.5255510302915, "lng": -0.1722070197084979}, "southwest": {"lat": 51.5228530697085, "lng": -0.174904980291502}}}, "name": "ubitricity Charging Station", "place_id": "ChIJecGtYbAadkgRC9I-V6g_PBc", "types": ["point_of_interest", "establishment"]}, "ChIJSY4vWLAadkgRTQHRWWU-Oyw": {"geometry": {"location": {"lat": 51.5235085, "lng": -0.173429}, "viewport": {"northeast": {"lat": 51.52483283029149, "lng": -0.172124969708498}, "southwest": {"lat": 51.52213486970849, "lng": -0.174822930291502}}}, "name": "The Dune Group Head Office", "place_id": "ChIJSY4vWLAadkgRTQHRWWU-Oyw", "types": ["point_of_interest", "establishment"], "rating": 1, "user_ratings_total": 6}, "ChIJfSNG-bAadkgRbIKqZHBo1PY": {"geometry": {"location": {"lat": 51.5235618, "lng": -0.1735446}, "viewport": {"northeast": {"lat": 51.52489378029149, "lng": -0.172224519708498}, "southwest": {"lat": 51.5221958197085, "lng": -0.174922480291502}}}, "name": "Farrells", "place_id": "ChIJfSNG-bAadkgRbIKqZHBo1PY", "types": ["point_of_interest", "establishment"], "rating": 3.8, "user_ratings_total": 8}, "ChIJHYbfjRoQdkgRGYLgBOua4iM": {"geometry": {"location": {"lat": 51.5229888, "lng": -0.1739592}, "viewport": {"northeast": {"lat": 51.5242797802915, "lng": -0.172723469708498}, "southwest": {"lat": 51.5215818197085, "lng": -0.175421430291502}}}, "name": "Arabic Curriculum House", "place_id": "ChIJHYbfjRoQdkgRGYLgBOua4iM", "types": ["point_of_interest", "establishment"]}, "ChIJwRpUqTMbdkgRulI858NLx_g": {"geometry": {"location": {"lat": 51.52344759999999, "lng": -0.1734236}, "viewport": {"northeast": {"lat": 51.52483343029151, "lng": -0.172130769708498}, "southwest": {"lat": 51.52213546970851, "lng": -0.174828730291502}}}, "name": "Kreod Architecture Ltd", "place_id": "ChIJwRpUqTMbdkgRulI858NLx_g", "types": ["local_government_office", "point_of_interest", "establishment"]}, "ChIJ1dERU5oadkgRi4NLmKk2PIk": {"geometry": {"location": {"lat": 51.52344759999999, "lng": -0.1734236}, "viewport": {"northeast": {"lat": 51.52483343029151, "lng": -0.172130769708498}, "southwest": {"lat": 51.52213546970851, "lng": -0.174828730291502}}}, "name": "Neckermann Strategic Advisors", "place_id": "ChIJ1dERU5oadkgRi4NLmKk2PIk", "types": ["point_of_interest", "establishment"]}, "ChIJK84RU5oadkgRRZ6D3jY5PRM": {"geometry": {"location": {"lat": 51.52344759999999, "lng": -0.1734236}, "viewport": {"northeast": {"lat": 51.52483343029151, "lng": -0.172130769708498}, "southwest": {"lat": 51.52213546970851, "lng": -0.174828730291502}}}, "name": "PROGENIUM GmbH & Co. KG", "place_id": "ChIJK84RU5oadkgRRZ6D3jY5PRM", "types": ["point_of_interest", "establishment"]}, "ChIJE_guqYAPdkgRWrG2tIyvSDE": {"geometry": {"location": {"lat": 51.5238123, "lng": -0.1739317}, "viewport": {"northeast": {"lat": 51.52517383029149, "lng": -0.172610919708498}, "southwest": {"lat": 51.52247586970849, "lng": -0.175308880291502}}}, "name": "Maids to Measure", "place_id": "ChIJE_guqYAPdkgRWrG2tIyvSDE", "types": ["point_of_interest", "establishment"], "rating": 4.1, "user_ratings_total": 25}, "ChIJLc2tXbAadkgRPhN3VId_pFQ": {"geometry": {"location": {"lat": 51.52383030000001, "lng": -0.1738779}, "viewport": {"northeast": {"lat": 51.5251995302915, "lng": -0.172575519708498}, "southwest": {"lat": 51.5225015697085, "lng": -0.175273480291502}}}, "name": "Matchstick Monkey Limited", "place_id": "ChIJLc2tXbAadkgRPhN3VId_pFQ", "types": ["point_of_interest", "store", "establishment"], "rating": 5, "user_ratings_total": 1}, "ChIJbdyG7K0adkgRUEHIKxTPnBw": {"geometry": {"location": {"lat": 51.52381949999999, "lng": -0.1737632}, "viewport": {"northeast": {"lat": 51.5252075302915, "lng": -0.172501769708498}, "southwest": {"lat": 51.5225095697085, "lng": -0.175199730291502}}}, "name": "Bikesoup Ltd", "place_id": "ChIJbdyG7K0adkgRUEHIKxTPnBw", "types": ["bicycle_store", "point_of_interest", "store", "establishment"], "rating": 4, "user_ratings_total": 26}, "ChIJLc2tXbAadkgRC4mHoJa_GRk": {"geometry": {"location": {"lat": 51.52381949999999, "lng": -0.1737632}, "viewport": {"northeast": {"lat": 51.5252072802915, "lng": -0.172503369708498}, "southwest": {"lat": 51.5225093197085, "lng": -0.175201330291502}}}, "name": "Search Engine Top 10.com", "place_id": "ChIJLc2tXbAadkgRC4mHoJa_GRk", "types": ["point_of_interest", "establishment"]}, "ChIJPW_vQrAadkgR2VsPJUCZXl0": {"geometry": {"location": {"lat": 51.52340529999999, "lng": -0.1737009}, "viewport": {"northeast": {"lat": 51.52477693029149, "lng": -0.1723875197084979}, "southwest": {"lat": 51.52207896970849, "lng": -0.175085480291502}}}, "name": "C G Property Services", "place_id": "ChIJPW_vQrAadkgR2VsPJUCZXl0", "types": ["point_of_interest", "establishment"], "rating": 1, "user_ratings_total": 1}, "ChIJ87BQaIEbdkgRcjQ92ZIDQZo": {"geometry": {"location": {"lat": 51.52347229999999, "lng": -0.1737213}, "viewport": {"northeast": {"lat": 51.52485068029149, "lng": -0.172319269708498}, "southwest": {"lat": 51.52215271970849, "lng": -0.175017230291502}}}, "name": "London Recovery Team LTD", "place_id": "ChIJ87BQaIEbdkgRcjQ92ZIDQZo", "types": ["moving_company", "storage", "point_of_interest", "establishment"]}, "ChIJNaQAXz0bdkgR6fj3oLQBe_8": {"geometry": {"location": {"lat": 51.52357, "lng": -0.173789}, "viewport": {"northeast": {"lat": 51.5249189802915, "lng": -0.172440019708498}, "southwest": {"lat": 51.5222210197085, "lng": -0.175137980291502}}}, "name": "City Mobile", "place_id": "ChIJNaQAXz0bdkgR6fj3oLQBe_8", "types": ["point_of_interest", "establishment"]}, "ChIJkdAqyawbdkgRnZJ8TvCZ49M": {"geometry": {"location": {"lat": 51.5229882, "lng": -0.1739588}, "viewport": {"northeast": {"lat": 51.52427753029149, "lng": -0.172720719708498}, "southwest": {"lat": 51.5215795697085, "lng": -0.175418680291502}}}, "name": "Hadson Mall", "place_id": "ChIJkdAqyawbdkgRnZJ8TvCZ49M", "types": ["shopping_mall", "point_of_interest", "establishment"], "rating": 3.8, "user_ratings_total": 4}, "ChIJq6pdUrAadkgRd1Miyv6Gha0": {"geometry": {"location": {"lat": 51.5229882, "lng": -0.1739588}, "viewport": {"northeast": {"lat": 51.5242781802915, "lng": -0.172721719708498}, "southwest": {"lat": 51.5215802197085, "lng": -0.175419680291502}}}, "name": "Al Manahej Books & Fashion Ltd", "place_id": "ChIJq6pdUrAadkgRd1Miyv6Gha0", "types": ["store", "point_of_interest", "establishment"]}, "ChIJu-ERcpsbdkgRFBWDcrNWtFc": {"geometry": {"location": {"lat": 51.5232371, "lng": -0.1735421}, "viewport": {"northeast": {"lat": 51.52463813029151, "lng": -0.172098069708498}, "southwest": {"lat": 51.52194016970851, "lng": -0.174796030291502}}}, "name": "Marylebone Waste Management Ltd", "place_id": "ChIJu-ERcpsbdkgRFBWDcrNWtFc", "types": ["moving_company", "general_contractor", "point_of_interest", "establishment"], "rating": 5, "user_ratings_total": 13}, "ChIJ2TqIIjwbdkgR7yGNmJMBeDY": {"geometry": {"location": {"lat": 51.5229592, "lng": -0.1740119}, "viewport": {"northeast": {"lat": 51.5242642302915, "lng": -0.172748769708498}, "southwest": {"lat": 51.5215662697085, "lng": -0.175446730291502}}}, "name": "Miss Classy Boutique", "place_id": "ChIJ2TqIIjwbdkgR7yGNmJMBeDY", "types": ["clothing_store", "point_of_interest", "store", "establishment"]}, "ChIJqV1EYBYbdkgRiPn5ASm5Xcg": {"geometry": {"location": {"lat": 51.5229592, "lng": -0.1740119}, "viewport": {"northeast": {"lat": 51.5242642302915, "lng": -0.172748769708498}, "southwest": {"lat": 51.5215662697085, "lng": -0.175446730291502}}}, "name": "Sweet Fit", "place_id": "ChIJqV1EYBYbdkgRiPn5ASm5Xcg", "types": ["health", "point_of_interest", "store", "establishment"], "rating": 5, "user_ratings_total": 1}, "ChIJy1-9tZAbdkgRsaeITGEE-0s": {"geometry": {"location": {"lat": 51.5229592, "lng": -0.1740119}, "viewport": {"northeast": {"lat": 51.5242642302915, "lng": -0.172748769708498}, "southwest": {"lat": 51.5215662697085, "lng": -0.175446730291502}}}, "name": "Lunaria", "place_id": "ChIJy1-9tZAbdkgRsaeITGEE-0s", "types": ["florist", "point_of_interest", "store", "establishment"]}, "ChIJtXzvm58bdkgRCmyhbx18tl8": {"geometry": {"location": {"lat": 51.5229592, "lng": -0.1740119}, "viewport": {"northeast": {"lat": 51.5242642302915, "lng": -0.172748769708498}, "southwest": {"lat": 51.5215662697085, "lng": -0.175446730291502}}}, "name": "Venus Application Services Ltd", "place_id": "ChIJtXzvm58bdkgRCmyhbx18tl8", "types": ["travel_agency", "point_of_interest", "establishment"]}, "ChIJE2loo30bdkgRxEiwk0cGFq8": {"geometry": {"location": {"lat": 51.5229592, "lng": -0.1740119}, "viewport": {"northeast": {"lat": 51.5242642302915, "lng": -0.172748769708498}, "southwest": {"lat": 51.5215662697085, "lng": -0.175446730291502}}}, "name": "Dirty Shakes", "place_id": "ChIJE2loo30bdkgRxEiwk0cGFq8", "types": ["food", "point_of_interest", "establishment"]}, "ChIJq6pdUrAadkgRvwPCNQ08zW4": {"geometry": {"location": {"lat": 51.5229592, "lng": -0.1740119}, "viewport": {"northeast": {"lat": 51.5242636802915, "lng": -0.172748269708498}, "southwest": {"lat": 51.52156571970851, "lng": -0.175446230291502}}}, "name": "Sitana Online", "place_id": "ChIJq6pdUrAadkgRvwPCNQ08zW4", "types": ["clothing_store", "point_of_interest", "store", "establishment"]}, "ChIJV_gm7hsbdkgReOHoCGg3v1k": {"geometry": {"location": {"lat": 51.5229592, "lng": -0.1740119}, "viewport": {"northeast": {"lat": 51.5242636802915, "lng": -0.172748269708498}, "southwest": {"lat": 51.52156571970851, "lng": -0.175446230291502}}}, "name": "Hijama Therapeautics", "place_id": "ChIJV_gm7hsbdkgReOHoCGg3v1k", "types": ["health", "point_of_interest", "store", "establishment"], "rating": 4.4, "user_ratings_total": 7}, "ChIJ8fz2q7EadkgRNyoanxjtdnI": {"geometry": {"location": {"lat": 51.52247227897914, "lng": -0.1736095599488863}, "viewport": {"northeast": {"lat": 51.52382188029149, "lng": -0.172259519708498}, "southwest": {"lat": 51.52112391970849, "lng": -0.174957480291502}}}, "name": "420-412 A5", "place_id": "ChIJ8fz2q7EadkgRNyoanxjtdnI", "types": ["route"]}, "ChIJkedgrrEadkgRARoVzaCLQVQ": {"geometry": {"location": {"lat": 51.5224573, "lng": -0.173816}, "viewport": {"northeast": {"lat": 51.52384138029149, "lng": -0.172402869708498}, "southwest": {"lat": 51.52114341970849, "lng": -0.175100830291502}}}, "name": "R Agius Scooters Ltd", "place_id": "ChIJkedgrrEadkgRARoVzaCLQVQ", "types": ["point_of_interest", "store", "establishment"], "rating": 4.4, "user_ratings_total": 45}, "ChIJqWM0AbEadkgRipuLd_KzJcY": {"geometry": {"location": {"lat": 51.5225977, "lng": -0.1735284}, "viewport": {"northeast": {"lat": 51.5239070802915, "lng": -0.172251319708498}, "southwest": {"lat": 51.5212091197085, "lng": -0.174949280291502}}}, "name": "The New Cooker Centre (Euronics)", "place_id": "ChIJqWM0AbEadkgRipuLd_KzJcY", "types": ["home_goods_store", "point_of_interest", "store", "establishment"], "rating": 3, "user_ratings_total": 4}, "ChIJRZrwFzMbdkgR0nmbUvF1JF4": {"geometry": {"location": {"lat": 51.5225075, "lng": -0.173963}, "viewport": {"northeast": {"lat": 51.5239057302915, "lng": -0.172533569708498}, "southwest": {"lat": 51.5212077697085, "lng": -0.175231530291502}}}, "name": "Edgware Mangal", "place_id": "ChIJRZrwFzMbdkgR0nmbUvF1JF4", "types": ["restaurant", "food", "point_of_interest", "establishment"], "rating": 4.9, "user_ratings_total": 46}, "ChIJsY-yrbEadkgRTEZ882JuUik": {"geometry": {"location": {"lat": 51.5225631, "lng": -0.1739538}, "viewport": {"northeast": {"lat": 51.52394488029151, "lng": -0.172546019708498}, "southwest": {"lat": 51.52124691970851, "lng": -0.175243980291502}}}, "name": "Istanbul Lounge", "place_id": "ChIJsY-yrbEadkgRTEZ882JuUik", "types": ["point_of_interest", "establishment"]}, "ChIJ627wrrEadkgRPVPNXVMzzVo": {"geometry": {"location": {"lat": 51.52258, "lng": -0.174012}, "viewport": {"northeast": {"lat": 51.52396703029149, "lng": -0.1726075197084979}, "southwest": {"lat": 51.5212690697085, "lng": -0.175305480291502}}}, "name": "Al-Zumorrdah", "place_id": "ChIJ627wrrEadkgRPVPNXVMzzVo", "types": ["jewelry_store", "point_of_interest", "store", "establishment"], "rating": 5, "user_ratings_total": 2}, "ChIJBwRhrLEadkgRjfqERQo8j_E": {"geometry": {"location": {"lat": 51.5225885, "lng": -0.1738241}, "viewport": {"northeast": {"lat": 51.5239307802915, "lng": -0.172486019708498}, "southwest": {"lat": 51.5212328197085, "lng": -0.175183980291502}}}, "name": "Istanbulounge Grill Doner Kebab", "place_id": "ChIJBwRhrLEadkgRjfqERQo8j_E", "types": ["restaurant", "food", "point_of_interest", "establishment"]}, "ChIJETlUq5AbdkgRiUEt9uToX5A": {"geometry": {"location": {"lat": 51.5226214, "lng": -0.1735222}, "viewport": {"northeast": {"lat": 51.5239246302915, "lng": -0.172256319708498}, "southwest": {"lat": 51.5212266697085, "lng": -0.174954280291502}}}, "name": "CBBR Internet PPE Shop", "place_id": "ChIJETlUq5AbdkgRiUEt9uToX5A", "types": ["point_of_interest", "store", "establishment"], "rating": 4.2, "user_ratings_total": 21}, "ChIJTazuqrEadkgR3iD-qsR9RsY": {"geometry": {"location": {"lat": 51.5226214, "lng": -0.1735222}, "viewport": {"northeast": {"lat": 51.5239246302915, "lng": -0.172256319708498}, "southwest": {"lat": 51.5212266697085, "lng": -0.174954280291502}}}, "name": "The New Cooker Centre London", "place_id": "ChIJTazuqrEadkgR3iD-qsR9RsY", "types": ["electronics_store", "point_of_interest", "store", "establishment"], "rating": 4.3, "user_ratings_total": 4}, "ChIJtxajALEadkgRzibE8c0uLXw": {"geometry": {"location": {"lat": 51.522493, "lng": -0.1733592}, "viewport": {"northeast": {"lat": 51.52379923029149, "lng": -0.172087819708498}, "southwest": {"lat": 51.5211012697085, "lng": -0.174785780291502}}}, "name": "Edgware Road Serviced Apartment", "place_id": "ChIJtxajALEadkgRzibE8c0uLXw", "types": ["lodging", "point_of_interest", "establishment"], "rating": 3.1, "user_ratings_total": 18}, "ChIJEe2f3bkadkgRbVVX4ecLlmQ": {"geometry": {"location": {"lat": 51.52590587524409, "lng": -0.1689124218491386}, "viewport": {"northeast": {"lat": 51.5272383302915, "lng": -0.167527119708498}, "southwest": {"lat": 51.5245403697085, "lng": -0.170225080291502}}}, "name": "11-25 Bernhardt Cres", "place_id": "ChIJEe2f3bkadkgRbVVX4ecLlmQ", "types": ["route"]}, "ChIJdc8db7cadkgRSoN6rI5R2z4": {"geometry": {"location": {"lat": 51.5245806, "lng": -0.1683969}, "viewport": {"northeast": {"lat": 51.5259603302915, "lng": -0.167103869708498}, "southwest": {"lat": 51.5232623697085, "lng": -0.169801830291502}}}, "name": "Manash", "place_id": "ChIJdc8db7cadkgRSoN6rI5R2z4", "types": ["point_of_interest", "establishment"]}, "ChIJjd1NbrcadkgRXsL8yKCEJIA": {"geometry": {"location": {"lat": 51.5245606, "lng": -0.1683695}, "viewport": {"northeast": {"lat": 51.52594893029151, "lng": -0.167092169708498}, "southwest": {"lat": 51.52325096970851, "lng": -0.169790130291502}}}, "name": "Conteh", "place_id": "ChIJjd1NbrcadkgRXsL8yKCEJIA", "types": ["convenience_store", "food", "point_of_interest", "store", "establishment"]}, "ChIJJaMbt7AcdkgRShrK8zvuWS8": {"geometry": {"location": {"lat": 51.5245606, "lng": -0.1683696}, "viewport": {"northeast": {"lat": 51.52594893029151, "lng": -0.167092219708498}, "southwest": {"lat": 51.52325096970851, "lng": -0.169790180291502}}}, "name": "Stratford Rooms", "place_id": "ChIJJaMbt7AcdkgRShrK8zvuWS8", "types": ["lodging", "point_of_interest", "establishment"], "rating": 1, "user_ratings_total": 1}, "ChIJz30aHS8bdkgRX3byN7L8_HU": {"geometry": {"location": {"lat": 51.5246067, "lng": -0.1686062}, "viewport": {"northeast": {"lat": 51.52596193029149, "lng": -0.167268669708498}, "southwest": {"lat": 51.5232639697085, "lng": -0.169966630291502}}},