{"E00175264": {"ChIJ4ZXqyqUadkgRbF3sqfV5Kt4": {"geometry": {"location": {"lat": 51.52792840007989, "lng": -0.1807549996817128}, "viewport": {"northeast": {"lat": 51.52927738029149, "lng": -0.179406019708498}, "southwest": {"lat": 51.52657941970849, "lng": -0.182103980291502}}}, "name": "103 A5", "place_id": "ChIJ4ZXqyqUadkgRbF3sqfV5Kt4", "types": ["route"]}, "ChIJYwL2MKQadkgRjpKCgdSK92Q": {"geometry": {"location": {"lat": 51.5282169, "lng": -0.1805437}, "viewport": {"northeast": {"lat": 51.52954583029149, "lng": -0.1792368697084979}, "southwest": {"lat": 51.5268478697085, "lng": -0.181934830291502}}}, "name": "Timeless Lifeskills Limited", "place_id": "ChIJYwL2MKQadkgRjpKCgdSK92Q", "types": ["point_of_interest", "establishment"]}, "ChIJue0oNaQadkgRrFAyA8__hSk": {"geometry": {"location": {"lat": 51.5280424, "lng": -0.1813921}, "viewport": {"northeast": {"lat": 51.5293971802915, "lng": -0.179824919708498}, "southwest": {"lat": 51.5266992197085, "lng": -0.182522880291502}}}, "name": "Air Control (UK) Ltd", "place_id": "ChIJue0oNaQadkgRrFAyA8__hSk", "types": ["general_contractor", "point_of_interest", "establishment"]}, "ChIJw3M3YKQadkgRfa8oRaHdLDk": {"geometry": {"location": {"lat": 51.5282006, "lng": -0.1804716}, "viewport": {"northeast": {"lat": 51.5297409802915, "lng": -0.1793567697084979}, "southwest": {"lat": 51.5270430197085, "lng": -0.182054730291502}}}, "name": "St John's Wood - Hall Rd", "place_id": "ChIJw3M3YKQadkgRfa8oRaHdLDk", "types": ["car_rental", "point_of_interest", "establishment"]}, "ChIJtS7PMqQadkgRMwzHCp0bKwk": {"geometry": {"location": {"lat": 51.5280424, "lng": -0.1813921}, "viewport": {"northeast": {"lat": 51.5293971802915, "lng": -0.179824919708498}, "southwest": {"lat": 51.5266992197085, "lng": -0.182522880291502}}}, "name": "3xp Solutions Ltd", "place_id": "ChIJtS7PMqQadkgRMwzHCp0bKwk", "types": ["point_of_interest", "establishment"]}, "ChIJ1zrjnaUadkgRDbQtT2i5hu4": {"geometry": {"location": {"lat": 51.52788109999999, "lng": -0.1801106}, "viewport": {"northeast": {"lat": 51.5291450302915, "lng": -0.178940469708498}, "southwest": {"lat": 51.5264470697085, "lng": -0.181638430291502}}}, "name": "ROAMING-i", "place_id": "ChIJ1zrjnaUadkgRDbQtT2i5hu4", "types": ["point_of_interest", "establishment"]}, "ChIJJYGWS6QadkgRoSz8yUGpsWA": {"geometry": {"location": {"lat": 51.52839780000001, "lng": -0.1808103}, "viewport": {"northeast": {"lat": 51.5297408302915, "lng": -0.179479519708498}, "southwest": {"lat": 51.5270428697085, "lng": -0.182177480291502}}}, "name": "M M M Architects", "place_id": "ChIJJYGWS6QadkgRoSz8yUGpsWA", "types": ["point_of_interest", "establishment"], "rating": 4.7, "user_ratings_total": 3}, "ChIJs1Usy6UadkgR1dD_H2cnn1k": {"geometry": {"location": {"lat": 51.5280789, "lng": -0.1810989}, "viewport": {"northeast": {"lat": 51.52945063029149, "lng": -0.179702669708498}, "southwest": {"lat": 51.5267526697085, "lng": -0.1824006302915021}}}, "name": "Hall Road Maida Vale (Stop N)", "place_id": "ChIJs1Usy6UadkgR1dD_H2cnn1k", "types": ["bus_station", "transit_station", "point_of_interest", "establishment"], "rating": 3, "user_ratings_total": 1}, "ChIJn2NStaUadkgRQi-j1DujTPU": {"geometry": {"location": {"lat": 51.52800089999999, "lng": -0.1806769}, "viewport": {"northeast": {"lat": 51.52932383029149, "lng": -0.179380219708498}, "southwest": {"lat": 51.5266258697085, "lng": -0.182078180291502}}}, "name": "Sutherland Avenue Maida Vale (Stop R), On Maida Vale, Maida Vale", "place_id": "ChIJn2NStaUadkgRQi-j1DujTPU", "types": ["transit_station", "point_of_interest", "establishment"]}, "ChIJT5OOyqUadkgRMoVW5T2t4j8": {"geometry": {"location": {"lat": 51.52790450000001, "lng": -0.1808753}, "viewport": {"northeast": {"lat": 51.52927648029149, "lng": -0.179480519708498}, "southwest": {"lat": 51.52657851970849, "lng": -0.182178480291502}}}, "name": "Maida Vale (Stop P)", "place_id": "ChIJT5OOyqUadkgRMoVW5T2t4j8", "types": ["bus_station", "transit_station", "point_of_interest", "establishment"], "rating": 4, "user_ratings_total": 3}, "ChIJs3GlS6QadkgRrzWYpGGVsRY": {"geometry": {"location": {"lat": 51.52820879999999, "lng": -0.18054}, "viewport": {"northeast": {"lat": 51.52953873029149, "lng": -0.179231219708498}, "southwest": {"lat": 51.52684076970849, "lng": -0.181929180291502}}}, "name": "PALMKASH", "place_id": "ChIJs3GlS6QadkgRrzWYpGGVsRY", "types": ["point_of_interest", "establishment"]}, "ChIJs3GlS6QadkgRPWfqozPXqLE": {"geometry": {"location": {"lat": 51.52820879999999, "lng": -0.18054}, "viewport": {"northeast": {"lat": 51.52953873029149, "lng": -0.179231219708498}, "southwest": {"lat": 51.52684076970849, "lng": -0.181929180291502}}}, "name": "Eris Investments Limited", "place_id": "ChIJs3GlS6QadkgRPWfqozPXqLE", "types": ["point_of_interest", "establishment"]}, "ChIJ55D50V4bdkgRAhZkSLL8fPM": {"geometry": {"location": {"lat": 51.52820879999999, "lng": -0.18054}, "viewport": {"northeast": {"lat": 51.52953873029149, "lng": -0.179231219708498}, "southwest": {"lat": 51.52684076970849, "lng": -0.181929180291502}}}, "name": "Pat and Kunnu", "place_id": "ChIJ55D50V4bdkgRAhZkSLL8fPM", "types": ["point_of_interest", "establishment"], "rating": 5, "user_ratings_total": 13}, "ChIJreHJMqQadkgRU8i8XOTZPqw": {"geometry": {"location": {"lat": 51.5279383, "lng": -0.1813253}, "viewport": {"northeast": {"lat": 51.52936073029149, "lng": -0.179791519708498}, "southwest": {"lat": 51.52666276970849, "lng": -0.182489480291502}}}, "name": "Stuart Tower Ltd", "place_id": "ChIJreHJMqQadkgRU8i8XOTZPqw", "types": ["point_of_interest", "establishment"], "rating": 3.4, "user_ratings_total": 30}, "ChIJreHJMqQadkgRK5FY3bV3lww": {"geometry": {"location": {"lat": 51.5280424, "lng": -0.1813921}, "viewport": {"northeast": {"lat": 51.5293971802915, "lng": -0.179824919708498}, "southwest": {"lat": 51.5266992197085, "lng": -0.182522880291502}}}, "name": "Littleangel childminder", "place_id": "ChIJreHJMqQadkgRK5FY3bV3lww", "types": ["point_of_interest", "establishment"]}, "ChIJxU8OY1MDdkgRme6_JaOXp8E": {"geometry": {"location": {"lat": 51.52816449999999, "lng": -0.1803995}, "viewport": {"northeast": {"lat": 51.5294814302915, "lng": -0.179117869708498}, "southwest": {"lat": 51.5267834697085, "lng": -0.181815830291502}}}, "name": "BR IT Solutions Ltd", "place_id": "ChIJxU8OY1MDdkgRme6_JaOXp8E", "types": ["point_of_interest", "establishment"]}, "ChIJreHJMqQadkgRz9w2R8I9-V4": {"geometry": {"location": {"lat": 51.52803519999999, "lng": -0.1814162}, "viewport": {"northeast": {"lat": 51.5293971802915, "lng": -0.179836969708498}, "southwest": {"lat": 51.5266992197085, "lng": -0.182534930291502}}}, "name": "Clarence Bridge Capital", "place_id": "ChIJreHJMqQadkgRz9w2R8I9-V4", "types": ["finance", "point_of_interest", "establishment"]}, "ChIJrSC2e4cbdkgRboojow75J00": {"geometry": {"location": {"lat": 51.52801609999999, "lng": -0.1814193000000001}, "viewport": {"northeast": {"lat": 51.5293971802915, "lng": -0.179838519708498}, "southwest": {"lat": 51.5266992197085, "lng": -0.1825364802915021}}}, "name": "DAS BUILDER", "place_id": "ChIJrSC2e4cbdkgRboojow75J00", "types": ["point_of_interest", "establishment"]}, "ChIJ-9TOMqQadkgRUgO__pDcB_0": {"geometry": {"location": {"lat": 51.5279506, "lng": -0.1814445}, "viewport": {"northeast": {"lat": 51.5293668802915, "lng": -0.179851119708498}, "southwest": {"lat": 51.5266689197085, "lng": -0.182549080291502}}}, "name": "L'atelier de l'extension", "place_id": "ChIJ-9TOMqQadkgRUgO__pDcB_0", "types": ["hair_care", "point_of_interest", "establishment"], "rating": 5, "user_ratings_total": 1}, "ChIJWVecYqUadkgRu2WVzsy2EW4": {"geometry": {"location": {"lat": 51.5284552, "lng": -0.180841}, "viewport": {"northeast": {"lat": 51.5297848302915, "lng": -0.179532769708498}, "southwest": {"lat": 51.5270868697085, "lng": -0.182230730291502}}}, "name": "Edge Interiors", "place_id": "ChIJWVecYqUadkgRu2WVzsy2EW4", "types": ["general_contractor", "point_of_interest", "establishment"], "rating": 5, "user_ratings_total": 1}, "ChIJTYYuN6QadkgRsYVdsSHO_NM": {"geometry": {"location": {"lat": 51.5285337, "lng": -0.1811186}, "viewport": {"northeast": {"lat": 51.52988628029149, "lng": -0.179773769708498}, "southwest": {"lat": 51.52718831970849, "lng": -0.182471730291502}}}, "name": "Hall Road Maida Vale", "place_id": "ChIJTYYuN6QadkgRsYVdsSHO_NM", "types": ["transit_station", "point_of_interest", "establishment"]}, "ChIJ6WsG06UadkgRNgQ9Gch4EgE": {"geometry": {"location": {"lat": 51.5278865, "lng": -0.181738}, "viewport": {"northeast": {"lat": 51.52921084065515, "lng": -0.1803819060196018}, "southwest": {"lat": 51.52651288007215, "lng": -0.1830798666026059}}}, "name": "Parking lot", "place_id": "ChIJ6WsG06UadkgRNgQ9Gch4EgE", "types": ["parking", "premise", "point_of_interest", "establishment"]}, "ChIJzwr3wKUadkgRrsUolP3a9z8": {"geometry": {"location": {"lat": 51.52676045136017, "lng": -0.1807529827013122}, "viewport": {"northeast": {"lat": 51.52870770000005, "lng": -0.17837125}, "southwest": {"lat": 51.52480889999995, "lng": -0.18314385}}}, "name": "1-73 Lanark Rd", "place_id": "ChIJzwr3wKUadkgRrsUolP3a9z8", "types": ["route"]}, "ChIJlUVHwaUadkgRWfzdrQrgcsw": {"geometry": {"location": {"lat": 51.527122, "lng": -0.1814249}, "viewport": {"northeast": {"lat": 51.5285188302915, "lng": -0.180021469708498}, "southwest": {"lat": 51.5258208697085, "lng": -0.182719430291502}}}, "name": "Leonora House", "place_id": "ChIJlUVHwaUadkgRWfzdrQrgcsw", "types": ["lodging", "point_of_interest", "establishment"], "rating": 4.4, "user_ratings_total": 14}, "ChIJWfxZwaUadkgRMavT75Zb-BE": {"geometry": {"location": {"lat": 51.526988, "lng": -0.1811201}, "viewport": {"northeast": {"lat": 51.5283439302915, "lng": -0.179756519708498}, "southwest": {"lat": 51.5256459697085, "lng": -0.182454480291502}}}, "name": "ubitricity Charging Station", "place_id": "ChIJWfxZwaUadkgRMavT75Zb-BE", "types": ["point_of_interest", "establishment"]}, "ChIJTcI0yKUadkgRYESk9FGyZ2g": {"geometry": {"location": {"lat": 51.52751379999999, "lng": -0.1808459}, "viewport": {"northeast": {"lat": 51.5289556802915, "lng": -0.179301169708498}, "southwest": {"lat": 51.5262577197085, "lng": -0.181999130291502}}}, "name": "F P S International", "place_id": "ChIJTcI0yKUadkgRYESk9FGyZ2g", "types": ["moving_company", "point_of_interest", "establishment"]}, "ChIJbXVS8qUadkgRS1KVYdvDXjk": {"geometry": {"location": {"lat": 51.52597251363133, "lng": -0.181088086190801}, "viewport": {"northeast": {"lat": 51.5273207802915, "lng": -0.179740569708498}, "southwest": {"lat": 51.5246228197085, "lng": -0.182438530291502}}}, "name": "29-59 Randolph Ave", "place_id": "ChIJbXVS8qUadkgRS1KVYdvDXjk", "types": ["route"]}, "ChIJFTGNj6UadkgR36NGIi-XC5w": {"geometry": {"location": {"lat": 51.52608499999999, "lng": -0.180198}, "viewport": {"northeast": {"lat": 51.5274741802915, "lng": -0.178763069708498}, "southwest": {"lat": 51.5247762197085, "lng": -0.1814610302915021}}}, "name": "Adrian Salt And Pang Ltd", "place_id": "ChIJFTGNj6UadkgR36NGIi-XC5w", "types": ["local_government_office", "point_of_interest", "establishment"]}, "ChIJf4tD5aUadkgRCCu4bG9yklk": {"geometry": {"location": {"lat": 51.5260931, "lng": -0.181677}, "viewport": {"northeast": {"lat": 51.5275078802915, "lng": -0.180196069708498}, "southwest": {"lat": 51.5248099197085, "lng": -0.182894030291502}}}, "name": "London P.S. Ltd", "place_id": "ChIJf4tD5aUadkgRCCu4bG9yklk", "types": ["point_of_interest", "establishment"]}, "ChIJtWWs8qUadkgRtbUO60ywy4A": {"geometry": {"location": {"lat": 51.52601569999999, "lng": -0.1807732}, "viewport": {"northeast": {"lat": 51.5273084302915, "lng": -0.1795370197084979}, "southwest": {"lat": 51.5246104697085, "lng": -0.182234980291502}}}, "name": "Any Screen Productions", "place_id": "ChIJtWWs8qUadkgRtbUO60ywy4A", "types": ["point_of_interest", "establishment"]}, "ChIJ7ce-S-gbdkgRce14yXfyuw8": {"geometry": {"location": {"lat": 51.5260888, "lng": -0.1810214}, "viewport": {"northeast": {"lat": 51.5274049302915, "lng": -0.179738319708498}, "southwest": {"lat": 51.5247069697085, "lng": -0.182436280291502}}}, "name": "Translation Services in London by Randolph Project Mgmt Ltd", "place_id": "ChIJ7ce-S-gbdkgRce14yXfyuw8", "types": ["point_of_interest", "establishment"], "rating": 5, "user_ratings_total": 12}, "ChIJJc-JjKUadkgRe9y7bNEAyjg": {"geometry": {"location": {"lat": 51.5257648, "lng": -0.180578}, "viewport": {"northeast": {"lat": 51.5270769802915, "lng": -0.1793028197084979}, "southwest": {"lat": 51.5243790197085, "lng": -0.182000780291502}}}, "name": "The Collaborative London Limited", "place_id": "ChIJJc-JjKUadkgRe9y7bNEAyjg", "types": ["finance", "point_of_interest", "establishment"]}, "ChIJsxt5i6UadkgRJnQj1HMDCV8": {"geometry": {"location": {"lat": 51.52568400000001, "lng": -0.180587}, "viewport": {"northeast": {"lat": 51.5270133802915, "lng": -0.1792772197084979}, "southwest": {"lat": 51.52431541970851, "lng": -0.181975180291502}}}, "name": "ubitricity Charging Station", "place_id": "ChIJsxt5i6UadkgRJnQj1HMDCV8", "types": ["point_of_interest", "establishment"]}, "ChIJKSMysIcbdkgRCT_cdDwUQyw": {"geometry": {"location": {"lat": 51.5259583, "lng": -0.1802991}, "viewport": {"northeast": {"lat": 51.5273855302915, "lng": -0.178782969708498}, "southwest": {"lat": 51.5246875697085, "lng": -0.181480930291502}}}, "name": "Glen Erler", "place_id": "ChIJKSMysIcbdkgRCT_cdDwUQyw", "types": ["point_of_interest", "establishment"]}, "ChIJQfPg7qUadkgRmaKEya19dgI": {"geometry": {"location": {"lat": 51.5262799, "lng": -0.1813001}, "viewport": {"northeast": {"lat": 51.5276009302915, "lng": -0.180007119708498}, "southwest": {"lat": 51.5249029697085, "lng": -0.182705080291502}}}, "name": "Ucea Capital Partners Ltd", "place_id": "ChIJQfPg7qUadkgRmaKEya19dgI", "types": ["point_of_interest", "establishment"]}, "ChIJWS5c2_AbdkgRNzmAvT1YWB8": {"geometry": {"location": {"lat": 51.52641729999999, "lng": -0.180503}, "viewport": {"northeast": {"lat": 51.52779218029149, "lng": -0.179099619708498}, "southwest": {"lat": 51.52509421970849, "lng": -0.181797580291502}}}, "name": "Diane\u2019s Den childminding", "place_id": "ChIJWS5c2_AbdkgRNzmAvT1YWB8", "types": ["point_of_interest", "establishment"], "rating": 5, "user_ratings_total": 2}, "ChIJt-Q-Ra8adkgRNNz07JLgdW0": {"geometry": {"location": {"lat": 51.52469825821048, "lng": -0.1813035808555063}, "viewport": {"northeast": {"lat": 51.5260438302915, "lng": -0.179950519708498}, "southwest": {"lat": 51.5233458697085, "lng": -0.182648480291502}}}, "name": "45-19 B413", "place_id": "ChIJt-Q-Ra8adkgRNNz07JLgdW0", "types": ["route"]}, "ChIJeUOmo8gbdkgREpvnVsGbZ1g": {"geometry": {"location": {"lat": 51.5249417, "lng": -0.1813864}, "viewport": {"northeast": {"lat": 51.52620213029149, "lng": -0.179927169708498}, "southwest": {"lat": 51.5235041697085, "lng": -0.182625130291502}}}, "name": "ZeroToMBB", "place_id": "ChIJeUOmo8gbdkgREpvnVsGbZ1g", "types": ["point_of_interest", "establishment"]}, "ChIJeRpmT68adkgRbqnYyzlWjp4": {"geometry": {"location": {"lat": 51.5250932, "lng": -0.1803104}, "viewport": {"northeast": {"lat": 51.5264576802915, "lng": -0.178993769708498}, "southwest": {"lat": 51.5237597197085, "lng": -0.181691730291502}}}, "name": "ubitricity Charging Station", "place_id": "ChIJeRpmT68adkgRbqnYyzlWjp4", "types": ["point_of_interest", "establishment"]}, "ChIJ2QooK6QadkgRtX_5Q6VkTSg": {"geometry": {"location": {"lat": 51.52800540003325, "lng": -0.1821415500885871}, "viewport": {"northeast": {"lat": 51.52935438029149, "lng": -0.180792569708498}, "southwest": {"lat": 51.5266564197085, "lng": -0.183490530291502}}}, "name": "Sutherland Avenue", "place_id": "ChIJ2QooK6QadkgRtX_5Q6VkTSg", "types": ["route"]}, "ChIJrU2Z1KUadkgRqFMP9XqZlFU": {"geometry": {"location": {"lat": 51.5279021, "lng": -0.1820033}, "viewport": {"northeast": {"lat": 51.5293028302915, "lng": -0.180704269708498}, "southwest": {"lat": 51.5266048697085, "lng": -0.183402230291502}}}, "name": "Everyman Maida Vale", "place_id": "ChIJrU2Z1KUadkgRqFMP9XqZlFU", "types": ["movie_theater", "point_of_interest", "establishment"], "rating": 4.6, "user_ratings_total": 445}, "ChIJ85ptKqQadkgRrlH8Yh4cFkk": {"geometry": {"location": {"lat": 51.5282316, "lng": -0.1821746}, "viewport": {"northeast": {"lat": 51.52950848029149, "lng": -0.180729569708498}, "southwest": {"lat": 51.5268105197085, "lng": -0.183427530291502}}}, "name": "ESSO TESCO MAIDA VALE EXPRESS", "place_id": "ChIJ85ptKqQadkgRrlH8Yh4cFkk", "types": ["gas_station", "point_of_interest", "establishment"], "rating": 3.9, "user_ratings_total": 99}, "ChIJv_3uKaQadkgRAVM5vTP9SeQ": {"geometry": {"location": {"lat": 51.5283837, "lng": -0.1819316}, "viewport": {"northeast": {"lat": 51.5298259802915, "lng": -0.180408319708498}, "southwest": {"lat": 51.52712801970851, "lng": -0.183106280291502}}}, "name": "Tesco Esso Express", "place_id": "ChIJv_3uKaQadkgRAVM5vTP9SeQ", "types": ["supermarket", "gas_station", "convenience_store", "grocery_or_supermarket", "food", "point_of_interest", "store", "establishment"], "rating": 3.2, "user_ratings_total": 74}, "ChIJwVbpfqYadkgRi5AcQEQ0brc": {"geometry": {"location": {"lat": 51.527781, "lng": -0.1824954}, "viewport": {"northeast": {"lat": 51.52913033029149, "lng": -0.181146819708498}, "southwest": {"lat": 51.5264323697085, "lng": -0.183844780291502}}}, "name": "Zipcar", "place_id": "ChIJwVbpfqYadkgRi5AcQEQ0brc", "types": ["car_rental", "point_of_interest", "establishment"]}, "ChIJcTbte6YadkgRjmhu4ly1zno": {"geometry": {"location": {"lat": 51.5277497, "lng": -0.1824927}, "viewport": {"northeast": {"lat": 51.5291210302915, "lng": -0.181172369708498}, "southwest": {"lat": 51.5264230697085, "lng": -0.183870330291502}}}, "name": "Source London Charging Station", "place_id": "ChIJcTbte6YadkgRjmhu4ly1zno", "types": ["point_of_interest", "establishment"]}, "ChIJK2LBfqYadkgRYgH1f0CnRhE": {"geometry": {"location": {"lat": 51.5277065, "lng": -0.1825971}, "viewport": {"northeast": {"lat": 51.52907473029151, "lng": -0.181275269708498}, "southwest": {"lat": 51.52637676970851, "lng": -0.183973230291502}}}, "name": "Chargemaster Charging Station", "place_id": "ChIJK2LBfqYadkgRYgH1f0CnRhE", "types": ["point_of_interest", "establishment"]}, "ChIJeRqfKaQadkgRVIFgU_xZCDk": {"geometry": {"location": {"lat": 51.5283389, "lng": -0.1822267}, "viewport": {"northeast": {"lat": 51.5296936302915, "lng": -0.180865119708498}, "southwest": {"lat": 51.5269956697085, "lng": -0.183563080291502}}}, "name": "ATM", "place_id": "ChIJeRqfKaQadkgRVIFgU_xZCDk", "types": ["atm", "finance", "point_of_interest", "establishment"], "rating": 5, "user_ratings_total": 3}, "ChIJTfsWK6QadkgRoKq2r8aFPrE": {"geometry": {"location": {"lat": 51.5280706, "lng": -0.1819651}, "viewport": {"northeast": {"lat": 51.52941063029149, "lng": -0.180604119708498}, "southwest": {"lat": 51.5267126697085, "lng": -0.183302080291502}}}, "name": "ubitricity Charging Station", "place_id": "ChIJTfsWK6QadkgRoKq2r8aFPrE", "types": ["point_of_interest", "establishment"]}, "ChIJJUva1KUadkgRt_AW3FX4AS0": {"geometry": {"location": {"lat": 51.5279051, "lng": -0.1820067}, "viewport": {"northeast": {"lat": 51.5293044302915, "lng": -0.1807040697084979}, "southwest": {"lat": 51.5266064697085, "lng": -0.183402030291502}}}, "name": "Kensington Dry Cleaners - Maida Vale", "place_id": "ChIJJUva1KUadkgRt_AW3FX4AS0", "types": ["laundry", "point_of_interest", "establishment"], "rating": 2.9, "user_ratings_total": 23}, "ChIJAdsxuXIbdkgR35CgoUieySQ": {"geometry": {"location": {"lat": 51.5279399, "lng": -0.1819399}, "viewport": {"northeast": {"lat": 51.5293391302915, "lng": -0.180657819708498}, "southwest": {"lat": 51.5266411697085, "lng": -0.183355780291502}}}, "name": "Dr Pedro Gutierres", "place_id": "ChIJAdsxuXIbdkgR35CgoUieySQ", "types": ["dentist", "health", "point_of_interest", "establishment"]}, "ChIJmVuarzUbdkgRoUGwfIEU0rg": {"geometry": {"location": {"lat": 51.5279399, "lng": -0.1819399}, "viewport": {"northeast": {"lat": 51.5293405302915, "lng": -0.180655069708498}, "southwest": {"lat": 51.52664256970851, "lng": -0.183353030291502}}}, "name": "Maida Smiles Dental Clinic", "place_id": "ChIJmVuarzUbdkgRoUGwfIEU0rg", "types": ["dentist", "doctor", "health", "point_of_interest", "establishment"], "rating": 5, "user_ratings_total": 143}, "ChIJH6me1KUadkgRp88EdmPyd40": {"geometry": {"location": {"lat": 51.5279994, "lng": -0.1818127}, "viewport": {"northeast": {"lat": 51.5292912802915, "lng": -0.180382569708498}, "southwest": {"lat": 51.5265933197085, "lng": -0.183080530291502}}}, "name": "Vickers & Co", "place_id": "ChIJH6me1KUadkgRp88EdmPyd40", "types": ["point_of_interest", "establishment"], "rating": 4.6, "user_ratings_total": 13}, "ChIJr8opdKYadkgRgSHvHK_OBkw": {"geometry": {"location": {"lat": 51.52697926209525, "lng": -0.1823748977753351}, "viewport": {"northeast": {"lat": 51.5283269802915, "lng": -0.18102715}, "southwest": {"lat": 51.5256290197085, "lng": -0.1837277499999999}}}, "name": "61-79 Randolph Ave", "place_id": "ChIJr8opdKYadkgRgSHvHK_OBkw", "types": ["route"]}, "ChIJgYrhaKYadkgRsaYEvYGy7aM": {"geometry": {"location": {"lat": 51.52721789999999, "lng": -0.1831485}, "viewport": {"northeast": {"lat": 51.52856688029149, "lng": -0.1817995197084979}, "southwest": {"lat": 51.52586891970849, "lng": -0.184497480291502}}}, "name": "The Warrington Hotel", "place_id": "ChIJgYrhaKYadkgRsaYEvYGy7aM", "types": ["lodging", "bar", "restaurant", "food", "point_of_interest", "establishment"], "rating": 4.1, "user_ratings_total": 720}, "ChIJKS-fc6YadkgRweiSRD1wwuk": {"geometry": {"location": {"lat": 51.5270741, "lng": -0.1828177}, "viewport": {"northeast": {"lat": 51.5284721802915, "lng": -0.181370369708498}, "southwest": {"lat": 51.5257742197085, "lng": -0.184068330291502}}}, "name": "Europa House Apartments", "place_id": "ChIJKS-fc6YadkgRweiSRD1wwuk", "types": ["lodging", "point_of_interest", "establishment"], "rating": 4.6, "user_ratings_total": 38}, "ChIJP_eGcaYadkgRSQEOidU1TKs": {"geometry": {"location": {"lat": 51.5270355, "lng": -0.1828241}, "viewport": {"northeast": {"lat": 51.5284421302915, "lng": -0.181359669708498}, "southwest": {"lat": 51.5257441697085, "lng": -0.184057630291502}}}, "name": "HOTEL ALTERNATIVE", "place_id": "ChIJP_eGcaYadkgRSQEOidU1TKs", "types": ["lodging", "point_of_interest", "establishment"]}, "ChIJKWyedqYadkgRGTrqh7PfECo": {"geometry": {"location": {"lat": 51.5270209, "lng": -0.182665}, "viewport": {"northeast": {"lat": 51.5284057802915, "lng": -0.181242919708498}, "southwest": {"lat": 51.5257078197085, "lng": -0.183940880291502}}}, "name": "Arbia Nicoletta UK C P", "place_id": "ChIJKWyedqYadkgRGTrqh7PfECo", "types": ["health", "point_of_interest", "establishment"]}, "ChIJt8W736UadkgRyfjhYf72mUQ": {"geometry": {"location": {"lat": 51.52686519999999, "lng": -0.18212}, "viewport": {"northeast": {"lat": 51.52819838029149, "lng": -0.180806069708498}, "southwest": {"lat": 51.52550041970849, "lng": -0.183504030291502}}}, "name": "ubitricity Charging Station", "place_id": "ChIJt8W736UadkgRyfjhYf72mUQ", "types": ["point_of_interest", "establishment"]}, "ChIJJZKAHtsbdkgRpiiyTwF0byw": {"geometry": {"location": {"lat": 51.5271509, "lng": -0.1831908}, "viewport": {"northeast": {"lat": 51.5285073302915, "lng": -0.181947319708498}, "southwest": {"lat": 51.5258093697085, "lng": -0.184645280291502}}}, "name": "The Warrington Hotel Restaurant", "place_id": "ChIJJZKAHtsbdkgRpiiyTwF0byw", "types": ["restaurant", "food", "point_of_interest", "establishment"]}, "ChIJc1U00y4bdkgRyZ4I8o_3u_U": {"geometry": {"location": {"lat": 51.5268519, "lng": -0.1819311}, "viewport": {"northeast": {"lat": 51.5281581802915, "lng": -0.1806690197084979}, "southwest": {"lat": 51.5254602197085, "lng": -0.183366980291502}}}, "name": "Lapidary", "place_id": "ChIJc1U00y4bdkgRyZ4I8o_3u_U", "types": ["jewelry_store", "point_of_interest", "store", "establishment"]}, "ChIJR34D2qUadkgRjzIQNMaY1mA": {"geometry": {"location": {"lat": 51.52733180000001, "lng": -0.1818954}, "viewport": {"northeast": {"lat": 51.52866890659125, "lng": -0.1804798404942383}, "southwest": {"lat": 51.52597094600825, "lng": -0.1831778010772423}}}, "name": "Parking lot", "place_id": "ChIJR34D2qUadkgRjzIQNMaY1mA", "types": ["parking", "premise", "point_of_interest", "establishment"]}, "ChIJXwWA_6UadkgRHraHg3xRQ8E": {"geometry": {"location": {"lat": 51.52546879290147, "lng": -0.1823304137264015}, "viewport": {"northeast": {"lat": 51.52746585000005, "lng": -0.180699569708498}, "southwest": {"lat": 51.52339924999995, "lng": -0.183397530291502}}}, "name": "28-2 Randolph Cres", "place_id": "ChIJXwWA_6UadkgRHraHg3xRQ8E", "types": ["route"]}, "ChIJQ1t8_qUadkgRpipW5JqHFi0": {"geometry": {"location": {"lat": 51.52568060000001, "lng": -0.1820613}, "viewport": {"northeast": {"lat": 51.5270440802915, "lng": -0.180806519708498}, "southwest": {"lat": 51.5243461197085, "lng": -0.183504480291502}}}, "name": "Sheila Burnett Headshots", "place_id": "ChIJQ1t8_qUadkgRpipW5JqHFi0", "types": ["point_of_interest", "establishment"], "rating": 5, "user_ratings_total": 2}, "ChIJ9S1FrKgadkgRjOzZFa_B-D4": {"geometry": {"location": {"lat": 51.5249706, "lng": -0.1824861}, "viewport": {"northeast": {"lat": 51.5263180302915, "lng": -0.181090969708498}, "southwest": {"lat": 51.5236200697085, "lng": -0.183788930291502}}}, "name": "ubitricity Charging Station", "place_id": "ChIJ9S1FrKgadkgRjOzZFa_B-D4", "types": ["point_of_interest", "establishment"]}, "ChIJHRKg1L4bdkgRJswoBeOUyl4": {"geometry": {"location": {"lat": 51.5252585, "lng": -0.1827812}, "viewport": {"northeast": {"lat": 51.5266015802915, "lng": -0.1812286197084979}, "southwest": {"lat": 51.5239036197085, "lng": -0.183926580291502}}}, "name": "Escorts London Monica & Sarah | Cheap London Escort Girls", "place_id": "ChIJHRKg1L4bdkgRJswoBeOUyl4", "types": ["point_of_interest", "establishment"], "rating": 5, "user_ratings_total": 6}, "ChIJweMEzqUbdkgRdXDlHBlkkoM": {"geometry": {"location": {"lat": 51.5253121, "lng": -0.182678}, "viewport": {"northeast": {"lat": 51.5266505802915, "lng": -0.181175069708498}, "southwest": {"lat": 51.5239526197085, "lng": -0.183873030291502}}}, "name": "US EXPORT, DISTRIBUTION & WAREHOUSING SERVICES by OferExpress.Com", "place_id": "ChIJweMEzqUbdkgRdXDlHBlkkoM", "types": ["point_of_interest", "establishment"]}, "ChIJ-_Zq8KYadkgRg8bGiu2A1-U": {"geometry": {"location": {"lat": 51.52858962574012, "lng": -0.184399623227434}, "viewport": {"northeast": {"lat": 51.53062290000005, "lng": -0.18188085}, "southwest": {"lat": 51.52655449999994, "lng": -0.1869218499999999}}}, "name": "164-98 Randolph Ave", "place_id": "ChIJ-_Zq8KYadkgRg8bGiu2A1-U", "types": ["route"]}, "ChIJq9l1X6YadkgRW8pMCujBobk": {"geometry": {"location": {"lat": 51.5279394, "lng": -0.1839485}, "viewport": {"northeast": {"lat": 51.52934143029151, "lng": -0.1824886197084979}, "southwest": {"lat": 51.52664346970851, "lng": -0.185186580291502}}}, "name": "Capital Pictures", "place_id": "ChIJq9l1X6YadkgRW8pMCujBobk", "types": ["point_of_interest", "establishment"], "rating": 5, "user_ratings_total": 2}, "ChIJ20y8pacadkgRKSSA1mpyyDg": {"geometry": {"location": {"lat": 51.5277179, "lng": -0.1844978}, "viewport": {"northeast": {"lat": 51.5289972302915, "lng": -0.183396869708498}, "southwest": {"lat": 51.5262992697085, "lng": -0.186094830291502}}}, "name": "Lauderdale Road Synagogue", "place_id": "ChIJ20y8pacadkgRKSSA1mpyyDg", "types": ["synagogue", "place_of_worship", "point_of_interest", "establishment"], "rating": 4.8, "user_ratings_total": 8}, "ChIJC-CYoAkQdkgRJ1b0Qu3AK44": {"geometry": {"location": {"lat": 51.527928, "lng": -0.183626}, "viewport": {"northeast": {"lat": 51.5292711802915, "lng": -0.182289169708498}, "southwest": {"lat": 51.5265732197085, "lng": -0.184987130291502}}}, "name": "Richard Marshall Tiling", "place_id": "ChIJC-CYoAkQdkgRJ1b0Qu3AK44", "types": ["general_contractor", "point_of_interest", "establishment"]}, "ChIJMYpRHqcadkgRBbIduTiYuVU": {"geometry": {"location": {"lat": 51.52858680000001, "lng": -0.1844514}, "viewport": {"northeast": {"lat": 51.5299329802915, "lng": -0.183108069708498}, "southwest": {"lat": 51.5272350197085, "lng": -0.185806030291502}}}, "name": "SPARKLEANING", "place_id": "ChIJMYpRHqcadkgRBbIduTiYuVU", "types": ["laundry", "point_of_interest", "establishment"]}, "ChIJCwCkNwkQdkgRZ9gZU0zKKLk": {"geometry": {"location": {"lat": 51.5280043, "lng": -0.18519}, "viewport": {"northeast": {"lat": 51.5293101302915, "lng": -0.183932269708498}, "southwest": {"lat": 51.5266121697085, "lng": -0.186630230291502}}}, "name": "Modeste London", "place_id": "ChIJCwCkNwkQdkgRZ9gZU0zKKLk", "types": ["general_contractor", "point_of_interest", "establishment"], "rating": 5, "user_ratings_total": 1}, "ChIJu7l896YadkgRdAz5fdTwL2Q": {"geometry": {"location": {"lat": 51.5281961, "lng": -0.1844996}, "viewport": {"northeast": {"lat": 51.5296332802915, "lng": -0.1829661697084979}, "southwest": {"lat": 51.5269353197085, "lng": -0.185664130291502}}}, "name": "Jane Wingrove Property Managment", "place_id": "ChIJu7l896YadkgRdAz5fdTwL2Q", "types": ["point_of_interest", "establishment"], "rating": 4.5, "user_ratings_total": 2}, "ChIJV68tMYUbdkgRliSjhHmMNNM": {"geometry": {"location": {"lat": 51.5280424, "lng": -0.1839888}, "viewport": {"northeast": {"lat": 51.5294313802915, "lng": -0.1825562197084979}, "southwest": {"lat": 51.5267334197085, "lng": -0.185254180291502}}}, "name": "Sheeba New", "place_id": "ChIJV68tMYUbdkgRliSjhHmMNNM", "types": ["doctor", "health", "point_of_interest", "establishment"]}, "ChIJ99kf8aYadkgR5gC5JbPDu84": {"geometry": {"location": {"lat": 51.528424, "lng": -0.184271}, "viewport": {"northeast": {"lat": 51.52977678029149, "lng": -0.182913969708498}, "southwest": {"lat": 51.52707881970849, "lng": -0.185611930291502}}}, "name": "ubitricity Charging Station", "place_id": "ChIJ99kf8aYadkgR5gC5JbPDu84", "types": ["point_of_interest", "establishment"]}, "ChIJ5RvWdQ8bdkgRP_YeScyQznY": {"geometry": {"location": {"lat": 51.5277179, "lng": -0.1844978}, "viewport": {"northeast": {"lat": 51.5289972302915, "lng": -0.183396869708498}, "southwest": {"lat": 51.5262992697085, "lng": -0.186094830291502}}}, "name": "La Petite Nursery", "place_id": "ChIJ5RvWdQ8bdkgRP_YeScyQznY", "types": ["school", "point_of_interest", "establishment"], "rating": 5, "user_ratings_total": 7}, "ChIJRVrQW6YadkgRW6Mwgs3ZcgE": {"geometry": {"location": {"lat": 51.52764469999999, "lng": -0.1842294}, "viewport": {"northeast": {"lat": 51.52893483029149, "lng": -0.182882519708498}, "southwest": {"lat": 51.5262368697085, "lng": -0.185580480291502}}}, "name": "Greene & Co", "place_id": "ChIJRVrQW6YadkgRW6Mwgs3ZcgE", "types": ["real_estate_agency", "point_of_interest", "establishment"]}, "ChIJzRgW-REQdkgRg97GUS_1uOE": {"geometry": {"location": {"lat": 51.527928, "lng": -0.183626}, "viewport": {"northeast": {"lat": 51.5292711802915, "lng": -0.182289169708498}, "southwest": {"lat": 51.5265732197085, "lng": -0.184987130291502}}}, "name": "Blueway Driving School", "place_id": "ChIJzRgW-REQdkgRg97GUS_1uOE", "types": ["point_of_interest", "establishment"], "rating": 4.9, "user_ratings_total": 93}, "ChIJl9ATVKYadkgRNdNlcicPQ7Y": {"geometry": {"location": {"lat": 51.5277299, "lng": -0.1848909}, "viewport": {"northeast": {"lat": 51.52904568029149, "lng": -0.183627919708498}, "southwest": {"lat": 51.52634771970849, "lng": -0.186325880291502}}}, "name": "Spanish and Portuguese Jews' Synagogue", "place_id": "ChIJl9ATVKYadkgRNdNlcicPQ7Y", "types": ["point_of_interest", "establishment"]}, "ChIJxUhZYKYadkgR3TnDeIP9uAg": {"geometry": {"location": {"lat": 51.5275715, "lng": -0.1841151}, "viewport": {"northeast": {"lat": 51.5288972802915, "lng": -0.182754919708498}, "southwest": {"lat": 51.52619931970851, "lng": -0.185452880291502}}}, "name": "ubitricity Charging Station", "place_id": "ChIJxUhZYKYadkgR3TnDeIP9uAg", "types": ["point_of_interest", "establishment"]}, "ChIJCW6PW6YadkgRSJjNGPlHJ8w": {"geometry": {"location": {"lat": 51.527558, "lng": -0.184114}, "viewport": {"northeast": {"lat": 51.5288932802915, "lng": -0.182785069708498}, "southwest": {"lat": 51.5261953197085, "lng": -0.185483030291502}}}, "name": "ubitricity Charging Station", "place_id": "ChIJCW6PW6YadkgRSJjNGPlHJ8w", "types": ["point_of_interest", "establishment"]}, "ChIJ5d_CyqcadkgRPkYgNXKiMtE": {"geometry": {"location": {"lat": 51.52648390233991, "lng": -0.1853975298664088}, "viewport": {"northeast": {"lat": 51.5278400802915, "lng": -0.1827011500000001}, "southwest": {"lat": 51.5251421197085, "lng": -0.18811215}}}, "name": "134-188 Sutherland Ave", "place_id": "ChIJ5d_CyqcadkgRPkYgNXKiMtE", "types": ["route"]}, "ChIJMZZ7T6YadkgRYhnQibCYzDs": {"geometry": {"location": {"lat": 51.5271565, "lng": -0.1844766}, "viewport": {"northeast": {"lat": 51.5284373802915, "lng": -0.183036269708498}, "southwest": {"lat": 51.5257394197085, "lng": -0.185734230291502}}}, "name": "Christa Phelps", "place_id": "ChIJMZZ7T6YadkgRYhnQibCYzDs", "types": ["point_of_interest", "establishment"], "rating": 5, "user_ratings_total": 1}, "ChIJB9DKNKYadkgR2RbOWkiCwfo": {"geometry": {"location": {"lat": 51.526912, "lng": -0.1849913}, "viewport": {"northeast": {"lat": 51.5281891302915, "lng": -0.183552869708498}, "southwest": {"lat": 51.5254911697085, "lng": -0.186250830291502}}}, "name": "The Unique Traveller", "place_id": "ChIJB9DKNKYadkgR2RbOWkiCwfo", "types": ["travel_agency", "point_of_interest", "establishment"]}, "ChIJGwfXO6YadkgRPWKmh78hvMM": {"geometry": {"location": {"lat": 51.5265802, "lng": -0.1840658}, "viewport": {"northeast": {"lat": 51.5279031802915, "lng": -0.182577119708498}, "southwest": {"lat": 51.5252052197085, "lng": -0.1852750802915021}}}, "name": "In Other Words", "place_id": "ChIJGwfXO6YadkgRPWKmh78hvMM", "types": ["point_of_interest", "establishment"], "rating": 5, "user_ratings_total": 1}, "ChIJ3_YoOaYadkgRQO3c-Oo7JbI": {"geometry": {"location": {"lat": 51.52651609999999, "lng": -0.1841139}, "viewport": {"northeast": {"lat": 51.5278375802915, "lng": -0.182617319708498}, "southwest": {"lat": 51.5251396197085, "lng": -0.185315280291502}}}, "name": "Thea Films", "place_id": "ChIJ3_YoOaYadkgRQO3c-Oo7JbI", "types": ["point_of_interest", "establishment"]}, "ChIJmTNeQs8bdkgRVl68CV07YUU": {"geometry": {"location": {"lat": 51.5270786, "lng": -0.1846327}, "viewport": {"northeast": {"lat": 51.5283555302915, "lng": -0.183194469708498}, "southwest": {"lat": 51.5256575697085, "lng": -0.185892430291502}}}, "name": "Andreas Kalvos Blue Plaque", "place_id": "ChIJmTNeQs8bdkgRVl68CV07YUU", "types": ["point_of_interest", "establishment"], "rating": 4, "user_ratings_total": 1}, "ChIJFYavSaYadkgRe5GkRcnzzbM": {"geometry": {"location": {"lat": 51.526822, "lng": -0.1846748}, "viewport": {"northeast": {"lat": 51.5281980302915, "lng": -0.183359319708498}, "southwest": {"lat": 51.5255000697085, "lng": -0.186057280291502}}}, "name": "ubitricity Charging Station", "place_id": "ChIJFYavSaYadkgRe5GkRcnzzbM", "types": ["point_of_interest", "establishment"]}, "ChIJd5oJS6YadkgRshdtIidrQgk": {"geometry": {"location": {"lat": 51.52727650000001, "lng": -0.184237}, "viewport": {"northeast": {"lat": 51.5285608802915, "lng": -0.182791069708498}, "southwest": {"lat": 51.5258629197085, "lng": -0.185489030291502}}}, "name": "Energy Business Consultants Ltd", "place_id": "ChIJd5oJS6YadkgRshdtIidrQgk", "types": ["point_of_interest", "establishment"], "rating": 4, "user_ratings_total": 1}, "ChIJmdgYNaYadkgRF_eUyDjj_UE": {"geometry": {"location": {"lat": 51.52670910000001, "lng": -0.1845531}, "viewport": {"northeast": {"lat": 51.5280776302915, "lng": -0.183226719708498}, "southwest": {"lat": 51.5253796697085, "lng": -0.1859246802915021}}}, "name": "ubitricity Charging Station", "place_id": "ChIJmdgYNaYadkgRF_eUyDjj_UE", "types": ["point_of_interest", "establishment"]}, "ChIJYxXKI6YadkgRTvLX0naJ2UI": {"geometry": {"location": {"lat": 51.52585660307184, "lng": -0.1840346587033986}, "viewport": {"northeast": {"lat": 51.52819570000005, "lng": -0.182550019708498}, "southwest": {"lat": 51.52348609999994, "lng": -0.185247980291502}}}, "name": "4-62 Warrington Cres", "place_id": "ChIJYxXKI6YadkgRTvLX0naJ2UI", "types": ["route"]}, "ChIJGwfXO6YadkgRDxSDO_YWwT8": {"geometry": {"location": {"lat": 51.52622470000001, "lng": -0.1841378}, "viewport": {"northeast": {"lat": 51.52755818029151, "lng": -0.182681169708498}, "southwest": {"lat": 51.52486021970851, "lng": -0.185379130291502}}}, "name": "Authentic Sharing", "place_id": "ChIJGwfXO6YadkgRDxSDO_YWwT8", "types": ["health", "point_of_interest", "establishment"]}, "ChIJwaAiIqYadkgRtpD4I4qESos": {"geometry": {"location": {"lat": 51.5255206, "lng": -0.1844143}, "viewport": {"northeast": {"lat": 51.5268549802915, "lng": -0.182927119708498}, "southwest": {"lat": 51.5241570197085, "lng": -0.185625080291502}}}, "name": "Just So Stylish", "place_id": "ChIJwaAiIqYadkgRtpD4I4qESos", "types": ["point_of_interest", "clothing_store", "store", "establishment"]}, "ChIJwaAiIqYadkgRpMeeVpuwg_s": {"geometry": {"location": {"lat": 51.52551999999999, "lng": -0.184314}, "viewport": {"northeast": {"lat": 51.5268595302915, "lng": -0.1828756697084979}, "southwest": {"lat": 51.5241615697085, "lng": -0.185573630291502}}}, "name": "Drifters Travel", "place_id": "ChIJwaAiIqYadkgRpMeeVpuwg_s", "types": ["travel_agency", "point_of_interest", "establishment"]}, "ChIJYR6yPKYadkgRbzxjk3_n-68": {"geometry": {"location": {"lat": 51.52565059999999, "lng": -0.1839149999999999}, "viewport": {"northeast": {"lat": 51.5270087802915, "lng": -0.182653269708498}, "southwest": {"lat": 51.5243108197085, "lng": -0.185351230291502}}}, "name": "Omni Contractor Pay", "place_id": "ChIJYR6yPKYadkgRbzxjk3_n-68", "types": ["general_contractor", "point_of_interest", "establishment"]}, "ChIJ3clfFKYadkgRCWp8MdpyE50": {"geometry": {"location": {"lat": 51.5257368, "lng": -0.1837272}, "viewport": {"northeast": {"lat": 51.52710538029149, "lng": -0.182544219708498}, "southwest": {"lat": 51.5244074197085, "lng": -0.185242180291502}}}, "name": "Coach Me Quick", "place_id": "ChIJ3clfFKYadkgRCWp8MdpyE50", "types": ["point_of_interest", "establishment"]}, "ChIJVX_FJ6YadkgRt9blN6n6cUY": {"geometry": {"location": {"lat": 51.5254989, "lng": -0.1843797}, "viewport": {"northeast": {"lat": 51.5268353802915, "lng": -0.182912219708498}, "southwest": {"lat": 51.5241374197085, "lng": -0.185610180291502}}}, "name": "505VR", "place_id": "ChIJVX_FJ6YadkgRt9blN6n6cUY", "types": ["point_of_interest", "establishment"]}, "ChIJw-8kJ6YadkgRI_cdvpRzago": {"geometry": {"location": {"lat": 51.5255071, "lng": -0.1840203}, "viewport": {"northeast": {"lat": 51.5268602802915, "lng": -0.182726869708498}, "southwest": {"lat": 51.5241623197085, "lng": -0.185424830291502}}}, "name": "ubitricity Charging Station", "place_id": "ChIJw-8kJ6YadkgRI_cdvpRzago", "types": ["point_of_interest", "establishment"]}, "ChIJMQdGmqgadkgR_3D-0zPHkZY": {"geometry": {"location": {"lat": 51.5248561, "lng": -0.1844703}, "viewport": {"northeast": {"lat": 51.5262006802915, "lng": -0.1830041197084979}, "southwest": {"lat": 51.5235027197085, "lng": -0.185702080291502}}}, "name": "Swiftrem Ltd.", "place_id": "ChIJMQdGmqgadkgR_3D-0zPHkZY", "types": ["point_of_interest", "establishment"]}, "ChIJy8hVmagadkgRnPkScXqpkhc": {"geometry": {"location": {"lat": 51.5249983, "lng": -0.1840018}, "viewport": {"northeast": {"lat": 51.52635138029149, "lng": -0.1827621697084979}, "southwest": {"lat": 51.52365341970849, "lng": -0.185460130291502}}}, "name": "PURPLE PEOPLE", "place_id": "ChIJy8hVmagadkgRnPkScXqpkhc", "types": ["point_of_interest", "establishment"]}, "ChIJ04hoyxAbdkgRZCwrgw-kYcU": {"geometry": {"location": {"lat": 51.52473330000002, "lng": -0.1848548}, "viewport": {"northeast": {"lat": 51.52608228029151, "lng": -0.183505819708498}, "southwest": {"lat": 51.52338431970851, "lng": -0.1862037802915021}}}, "name": "Aaron Hands gardens", "place_id": "ChIJ04hoyxAbdkgRZCwrgw-kYcU", "types": ["park", "point_of_interest", "establishment"], "rating": 5, "user_ratings_total": 2}, "ChIJA0IT2HEbdkgRI4V4u7gHkl0": {"geometry": {"location": {"lat": 51.52466200000001, "lng": -0.184915}, "viewport": {"northeast": {"lat": 51.52595778029151, "lng": -0.183540269708498}, "southwest": {"lat": 51.52325981970851, "lng": -0.186238230291502}}}, "name": "UPS Access Point", "place_id": "ChIJA0IT2HEbdkgRI4V4u7gHkl0", "types": ["point_of_interest", "establishment"], "rating": 5, "user_ratings_total": 2}, "ChIJAaLXLTEbdkgRAUHKU0NvGas": {"geometry": {"location": {"lat": 51.5246573, "lng": -0.1849147}, "viewport": {"northeast": {"lat": 51.52595528029149, "lng": -0.183541019708498}, "southwest": {"lat": 51.5232573197085, "lng": -0.186238980291502}}}, "name": "DPD Parcel Shop Location", "place_id": "ChIJAaLXLTEbdkgRAUHKU0NvGas", "types": ["point_of_interest", "establishment"]}, "ChIJk-5s9sQbdkgRSCEoYQxDApM": {"geometry": {"location": {"lat": 51.5246573, "lng": -0.1849147}, "viewport": {"northeast": {"lat": 51.52595528029149, "lng": -0.183541019708498}, "southwest": {"lat": 51.5232573197085, "lng": -0.186238980291502}}}, "name": "Savage Vines", "place_id": "ChIJk-5s9sQbdkgRSCEoYQxDApM", "types": ["point_of_interest", "establishment"], "rating": 4.7, "user_ratings_total": 29}, "ChIJw6qi-KkbdkgRfD2SslXCkMI": {"geometry": {"location": {"lat": 51.5246573, "lng": -0.1849147}, "viewport": {"northeast": {"lat": 51.52595528029149, "lng": -0.183541019708498}, "southwest": {"lat": 51.5232573197085, "lng": -0.186238980291502}}}, "name": "KeyNest - Smart Key Exchange", "place_id": "ChIJw6qi-KkbdkgRfD2SslXCkMI", "types": ["point_of_interest", "store", "establishment"]}, "ChIJAa6LXcsbdkgRFbV-Y-K0xuI": {"geometry": {"location": {"lat": 51.5252134, "lng": -0.1838831}, "viewport": {"northeast": {"lat": 51.5265738302915, "lng": -0.182687669708498}, "southwest": {"lat": 51.5238758697085, "lng": -0.185385630291502}}}, "name": "Small Jobs Handyman", "place_id": "ChIJAa6LXcsbdkgRFbV-Y-K0xuI", "types": ["point_of_interest", "establishment"]}, "ChIJ09yMnagadkgRr79qg-wcAOc": {"geometry": {"location": {"lat": 51.5253167, "lng": -0.1842977}, "viewport": {"northeast": {"lat": 51.52666163029151, "lng": -0.182887969708498}, "southwest": {"lat": 51.52396366970851, "lng": -0.185585930291502}}}, "name": "ubitricity Charging Station", "place_id": "ChIJ09yMnagadkgRr79qg-wcAOc", "types": ["point_of_interest", "establishment"]}, "ChIJe2W5yacadkgR3B2IVE8ropE": {"geometry": {"location": {"lat": 51.526589, "lng": -0.1856718}, "viewport": {"northeast": {"lat": 51.5278649302915, "lng": -0.184232469708498}, "southwest": {"lat": 51.52516696970851, "lng": -0.186930430291502}}}, "name": "Bobbun Books", "place_id": "ChIJe2W5yacadkgR3B2IVE8ropE", "types": ["point_of_interest", "establishment"]}, "ChIJl2J1zKcadkgRq3SCpCHY5z4": {"geometry": {"location": {"lat": 51.52642804150228, "lng": -0.1852651612374513}, "viewport": {"northeast": {"lat": 51.5277835802915, "lng": -0.182728}, "southwest": {"lat": 51.52508561970851, "lng": -0.1878192}}}, "name": "193-147 Sutherland Ave", "place_id": "ChIJl2J1zKcadkgRq3SCpCHY5z4", "types": ["route"]}, "ChIJVR65zacadkgRpfIJI2JVJos": {"geometry": {"location": {"lat": 51.5261409, "lng": -0.1854415}, "viewport": {"northeast": {"lat": 51.52755418029151, "lng": -0.184171369708498}, "southwest": {"lat": 51.52485621970851, "lng": -0.186869330291502}}}, "name": "Wan-Hye Park", "place_id": "ChIJVR65zacadkgRpfIJI2JVJos", "types": ["point_of_interest", "establishment"]}, "ChIJBfPG3p8adkgRQIgFrtDiXCY": {"geometry": {"location": {"lat": 51.5258591, "lng": -0.1859327}, "viewport": {"northeast": {"lat": 51.52720808029149, "lng": -0.184583719708498}, "southwest": {"lat": 51.5245101197085, "lng": -0.187281680291502}}}, "name": "Mana Decors", "place_id": "ChIJBfPG3p8adkgRQIgFrtDiXCY", "types": ["general_contractor", "point_of_interest", "establishment"]}, "ChIJf06dzqcadkgR8U-pCUni5QE": {"geometry": {"location": {"lat": 51.52623889999999, "lng": -0.1855499}, "viewport": {"northeast": {"lat": 51.52759693029151, "lng": -0.1842120197084979}, "southwest": {"lat": 51.52489896970851, "lng": -0.186909980291502}}}, "name": "ubitricity Charging Station", "place_id": "ChIJf06dzqcadkgR8U-pCUni5QE", "types": ["point_of_interest", "establishment"]}, "ChIJn0i8eqgadkgRcPDC_IOrH2w": {"geometry": {"location": {"lat": 51.52478680000002, "lng": -0.1858426}, "viewport": {"northeast": {"lat": 51.5261638302915, "lng": -0.184443069708498}, "southwest": {"lat": 51.5234658697085, "lng": -0.187141030291502}}}, "name": "Nova Star Capital Ltd", "place_id": "ChIJn0i8eqgadkgRcPDC_IOrH2w", "types": ["finance", "point_of_interest", "establishment"]}, "ChIJaSbTc6gadkgRxBuqIWRUqLA": {"geometry": {"location": {"lat": 51.52478680000002, "lng": -0.1858426}, "viewport": {"northeast": {"lat": 51.5261638302915, "lng": -0.184443069708498}, "southwest": {"lat": 51.5234658697085, "lng": -0.187141030291502}}}, "name": "Thomas Massengale - Classical Homeopath", "place_id": "ChIJaSbTc6gadkgRxBuqIWRUqLA", "types": ["health", "point_of_interest", "establishment"]}, "ChIJZxkre6gadkgRloFmtxXBY_4": {"geometry": {"location": {"lat": 51.5247264, "lng": -0.1857009}, "viewport": {"northeast": {"lat": 51.5260961802915, "lng": -0.184318569708498}, "southwest": {"lat": 51.5233982197085, "lng": -0.187016530291502}}}, "name": "ubitricity Charging Station", "place_id": "ChIJZxkre6gadkgRloFmtxXBY_4", "types": ["point_of_interest", "establishment"]}, "ChIJnQrWZKgadkgRVkAEC4lIspQ": {"geometry": {"location": {"lat": 51.5246971, "lng": -0.1857149}, "viewport": {"northeast": {"lat": 51.52607423029149, "lng": -0.184315119708498}, "southwest": {"lat": 51.5233762697085, "lng": -0.187013080291502}}}, "name": "Nicolas Kent", "place_id": "ChIJnQrWZKgadkgRVkAEC4lIspQ", "types": ["point_of_interest", "establishment"]}, "ChIJF-qZLGQbdkgRZqNiaMbNPnU": {"geometry": {"location": {"lat": 51.5285934, "lng": -0.1802919}, "viewport": {"northeast": {"lat": 51.5300355802915, "lng": -0.179057619708498}, "southwest": {"lat": 51.5273376197085, "lng": -0.181755580291502}}}, "name": "My Car Inspectors", "place_id": "ChIJF-qZLGQbdkgRZqNiaMbNPnU", "types": ["point_of_interest", "establishment"]}, "ChIJp55sT6QadkgRQN-dnQPG6Hc": {"geometry": {"location": {"lat": 51.5285934, "lng": -0.1802919}, "viewport": {"northeast": {"lat": 51.5300355802915, "lng": -0.179057619708498}, "southwest": {"lat": 51.5273376197085, "lng": -0.181755580291502}}}, "name": "Jkg Interiors", "place_id": "ChIJp55sT6QadkgRQN-dnQPG6Hc", "types": ["general_contractor", "point_of_interest", "establishment"]}, "ChIJu--gWqQadkgRTM9K0EoPiLI": {"geometry": {"location": {"lat": 51.5285934, "lng": -0.1802919}, "viewport": {"northeast": {"lat": 51.5300355802915, "lng": -0.179057619708498}, "southwest": {"lat": 51.5273376197085, "lng": -0.181755580291502}}}, "name": "Rifkind Associates", "place_id": "ChIJu--gWqQadkgRTM9K0EoPiLI", "types": ["point_of_interest", "establishment"]}, "ChIJZ0gXsaUadkgR5R7y2lw1n6k": {"geometry": {"location": {"lat": 51.52750100000177, "lng": -0.1802108499925806}, "viewport": {"northeast": {"lat": 51.5288499802915, "lng": -0.178861869708498}, "southwest": {"lat": 51.5261520197085, "lng": -0.1815598302915021}}}, "name": "Maida Vale", "place_id": "ChIJZ0gXsaUadkgR5R7y2lw1n6k", "types": ["route"]}, "ChIJ47wrpf8PdkgRJH0bB7CIuSU": {"geometry": {"location": {"lat": 51.5263488, "lng": -0.1800502}, "viewport": {"northeast": {"lat": 51.5276685302915, "lng": -0.178764669708498}, "southwest": {"lat": 51.5249705697085, "lng": -0.181462630291502}}}, "name": "Fibre Tense Massage", "place_id": "ChIJ47wrpf8PdkgRJH0bB7CIuSU", "types": ["point_of_interest", "establishment"], "rating": 5, "user_ratings_total": 51}, "ChIJ8TqskKUadkgR1rl1o0wmy0c": {"geometry": {"location": {"lat": 51.52638400000001, "lng": -0.1800452}, "viewport": {"northeast": {"lat": 51.5276878802915, "lng": -0.178764319708498}, "southwest": {"lat": 51.5249899197085, "lng": -0.181462280291502}}}, "name": "Lanark Mansions", "place_id": "ChIJ8TqskKUadkgR1rl1o0wmy0c", "types": ["point_of_interest", "establishment"], "rating": 5, "user_ratings_total": 1}, "ChIJC3VYW68adkgRTcCRloJrncw": {"geometry": {"location": {"lat": 51.52518760003299, "lng": -0.1802327000758448}, "viewport": {"northeast": {"lat": 51.5265365802915, "lng": -0.178883719708498}, "southwest": {"lat": 51.5238386197085, "lng": -0.181581680291502}}}, "name": "26-58 B413", "place_id": "ChIJC3VYW68adkgRTcCRloJrncw", "types": ["route"]}, "ChIJsfVQhqUadkgRXvu5qNM6Noo": {"geometry": {"location": {"lat": 51.5254501, "lng": -0.1801104}, "viewport": {"northeast": {"lat": 51.5267990802915, "lng": -0.178761419708498}, "southwest": {"lat": 51.5241011197085, "lng": -0.181459380291502}}}, "name": "Chestertons Little Venice", "place_id": "ChIJsfVQhqUadkgRXvu5qNM6Noo", "types": ["real_estate_agency", "finance", "point_of_interest", "establishment"], "rating": 4.5, "user_ratings_total": 74}, "ChIJP4YwiKUadkgRsuCHvjVBnYk": {"geometry": {"location": {"lat": 51.525428, "lng": -0.180106}, "viewport": {"northeast": {"lat": 51.5267769802915, "lng": -0.178757019708498}, "southwest": {"lat": 51.5240790197085, "lng": -0.181454980291502}}}, "name": "Simon Warwick", "place_id": "ChIJP4YwiKUadkgRsuCHvjVBnYk", "types": ["hair_care", "point_of_interest", "establishment"], "rating": 4.4, "user_ratings_total": 45}, "ChIJv_BLhqUadkgRYzlDLgf7G80": {"geometry": {"location": {"lat": 51.5254501, "lng": -0.1801104}, "viewport": {"northeast": {"lat": 51.5267345802915, "lng": -0.178680869708498}, "southwest": {"lat": 51.5240366197085, "lng": -0.181378830291502}}}, "name": "3H Property Consultants Ltd", "place_id": "ChIJv_BLhqUadkgRYzlDLgf7G80", "types": ["real_estate_agency", "point_of_interest", "establishment"], "rating": 5, "user_ratings_total": 2}, "ChIJe_0Q1Q4bdkgRUGvr0A38ySU": {"geometry": {"location": {"lat": 51.525433, "lng": -0.1800317}, "viewport": {"northeast": {"lat": 51.5267346802915, "lng": -0.178623669708498}, "southwest": {"lat": 51.5240367197085, "lng": -0.181321630291502}}}, "name": "sort project management limited", "place_id": "ChIJe_0Q1Q4bdkgRUGvr0A38ySU", "types": ["general_contractor", "point_of_interest", "establishment"]}, "ChIJEdccthobdkgR7giZICtQNf8": {"geometry": {"location": {"lat": 51.5254427, "lng": -0.1801282}, "viewport": {"northeast": {"lat": 51.5267268302915, "lng": -0.178698219708498}, "southwest": {"lat": 51.5240288697085, "lng": -0.181396180291502}}}, "name": "Beautyque by Kinga", "place_id": "ChIJEdccthobdkgR7giZICtQNf8", "types": ["beauty_salon", "point_of_interest", "establishment"], "rating": 5, "user_ratings_total": 1}, "ChIJwUxVL6QadkgROZN0EYjzMk4": {"geometry": {"location": {"lat": 51.52857737919075, "lng": -0.181592826797135}, "viewport": {"northeast": {"lat": 51.52992648029149, "lng": -0.180243619708498}, "southwest": {"lat": 51.52722851970849, "lng": -0.182941580291502}}}, "name": "30-28 A5", "place_id": "ChIJwUxVL6QadkgROZN0EYjzMk4", "types": ["route"]}, "ChIJC_aAHgsbdkgRxj8blmXZltI": {"geometry": {"location": {"lat": 51.52836429999999, "lng": -0.1816371}, "viewport": {"northeast": {"lat": 51.5297132802915, "lng": -0.180288119708498}, "southwest": {"lat": 51.5270153197085, "lng": -0.182986080291502}}}, "name": "Royal Mail Priority Postbox", "place_id": "ChIJC_aAHgsbdkgRxj8blmXZltI", "types": ["post_office", "finance", "point_of_interest", "establishment"]}, "ChIJF0jzeKYadkgR6DU6Zn_NNjw": {"geometry": {"location": {"lat": 51.5276217, "lng": -0.1821162}, "viewport": {"northeast": {"lat": 51.5290161302915, "lng": -0.180671919708498}, "southwest": {"lat": 51.5263181697085, "lng": -0.183369880291502}}}, "name": "St. Joseph's Catholic Primary School", "place_id": "ChIJF0jzeKYadkgR6DU6Zn_NNjw", "types": ["primary_school", "school", "point_of_interest", "establishment"], "rating": 5, "user_ratings_total": 4}, "ChIJOzvhruIbdkgR0M7nYYWWW94": {"geometry": {"location": {"lat": 51.5276168, "lng": -0.1816041}, "viewport": {"northeast": {"lat": 51.5289102802915, "lng": -0.180281719708498}, "southwest": {"lat": 51.5262123197085, "lng": -0.182979680291502}}}, "name": "ParkBee - Lanark Road", "place_id": "ChIJOzvhruIbdkgR0M7nYYWWW94", "types": ["parking", "point_of_interest", "establishment"]}, "ChIJX1zaK6QadkgR7kobXHYeMUg": {"geometry": {"location": {"lat": 51.5279892, "lng": -0.1817616}, "viewport": {"northeast": {"lat": 51.52928998029149, "lng": -0.180349519708498}, "southwest": {"lat": 51.5265920197085, "lng": -0.183047480291502}}}, "name": "Maida Vale Express", "place_id": "ChIJX1zaK6QadkgR7kobXHYeMUg", "types": ["clothing_store", "point_of_interest", "store", "establishment"], "rating": 5, "user_ratings_total": 1}, "ChIJ4xzt3aUadkgRM_kvB9rEK18": {"geometry": {"location": {"lat": 51.5267022, "lng": -0.181874}, "viewport": {"northeast": {"lat": 51.52802858029149, "lng": -0.180571019708498}, "southwest": {"lat": 51.52533061970849, "lng": -0.183268980291502}}}, "name": "G&C Bug Sweep", "place_id": "ChIJ4xzt3aUadkgRM_kvB9rEK18", "types": ["home_goods_store", "point_of_interest", "store", "establishment"]}, "ChIJB2NyoaAadkgREX8aQT2Xme4": {"geometry": {"location": {"lat": 51.5266841, "lng": -0.1815865}, "viewport": {"northeast": {"lat": 51.52797048029149, "lng": -0.180365019708498}, "southwest": {"lat": 51.52527251970849, "lng": -0.183062980291502}}}, "name": "KICCA CAKES DESIGN - studio open by appointment only", "place_id": "ChIJB2NyoaAadkgREX8aQT2Xme4", "types": ["bakery", "food", "point_of_interest", "store", "establishment"], "rating": 5, "user_ratings_total": 3}, "ChIJ_36-3aUadkgRPWvHx6GZn00": {"geometry": {"location": {"lat": 51.52678710000001, "lng": -0.1817546}, "viewport": {"northeast": {"lat": 51.5280791302915, "lng": -0.180521569708498}, "southwest": {"lat": 51.5253811697085, "lng": -0.183219530291502}}}, "name": "The Judith Trust", "place_id": "ChIJ_36-3aUadkgRPWvHx6GZn00", "types": ["point_of_interest", "establishment"]}, "ChIJB4Jx4qUadkgRE7AFpaQb058": {"geometry": {"location": {"lat": 51.5263266, "lng": -0.1819733}, "viewport": {"northeast": {"lat": 51.5276655802915, "lng": -0.180588269708498}, "southwest": {"lat": 51.52496761970851, "lng": -0.183286230291502}}}, "name": "ubitricity Charging Station", "place_id": "ChIJB4Jx4qUadkgRE7AFpaQb058", "types": ["point_of_interest", "establishment"]}, "ChIJ_wCD4KUadkgR1HYgAdAoUv8": {"geometry": {"location": {"lat": 51.526624, "lng": -0.1819921}, "viewport": {"northeast": {"lat": 51.52798163029149, "lng": -0.180620119708498}, "southwest": {"lat": 51.5252836697085, "lng": -0.183318080291502}}}, "name": "ubitricity Charging Station", "place_id": "ChIJ_wCD4KUadkgR1HYgAdAoUv8", "types": ["point_of_interest", "establishment"]}, "ChIJy0eOjFIbdkgR2-zNlId-qHM": {"geometry": {"location": {"lat": 51.5253124, "lng": -0.1814939}, "viewport": {"northeast": {"lat": 51.5264379802915, "lng": -0.1798762197084979}, "southwest": {"lat": 51.52374001970851, "lng": -0.182574180291502}}}, "name": "Triangle Garden", "place_id": "ChIJy0eOjFIbdkgR2-zNlId-qHM", "types": ["park", "point_of_interest", "establishment"], "rating": 5, "user_ratings_total": 1}, "ChIJOzcxZKYadkgRMBi_h3hIHqQ": {"geometry": {"location": {"lat": 51.52752795011585, "lng": -0.1833062001582821}, "viewport": {"northeast": {"lat": 51.5288769302915, "lng": -0.181957219708498}, "southwest": {"lat": 51.5261789697085, "lng": -0.184655180291502}}}, "name": "Sutherland Avenue", "place_id": "ChIJOzcxZKYadkgRMBi_h3hIHqQ", "types": ["route"]}, "ChIJeQ6E_CYbdkgRegw3dlhKVQ8": {"geometry": {"location": {"lat": 51.5273467, "lng": -0.1835357}, "viewport": {"northeast": {"lat": 51.5286426302915, "lng": -0.182112919708498}, "southwest": {"lat": 51.5259446697085, "lng": -0.1848108802915021}}}, "name": "Paul McDermott Psychotherapy", "place_id": "ChIJeQ6E_CYbdkgRegw3dlhKVQ8", "types": ["health", "point_of_interest", "establishment"]}, "ChIJi3OGFaYadkgR3WYvGc_0i24": {"geometry": {"location": {"lat": 51.526493, "lng": -0.1836859}, "viewport": {"northeast": {"lat": 51.52785203029149, "lng": -0.182390819708498}, "southwest": {"lat": 51.5251540697085, "lng": -0.185088780291502}}}, "name": "ubitricity Charging Station", "place_id": "ChIJi3OGFaYadkgR3WYvGc_0i24", "types": ["point_of_interest", "establishment"]}, "ChIJ59U9A4gbdkgR_TgsECLBl_w": {"geometry": {"location": {"lat": 51.5266892, "lng": -0.1834628}, "viewport": {"northeast": {"lat": 51.5280592302915, "lng": -0.182226769708498}, "southwest": {"lat": 51.5253612697085, "lng": -0.184924730291502}}}, "name": "Peanut Goldstein", "place_id": "ChIJ59U9A4gbdkgR_TgsECLBl_w", "types": ["lodging", "point_of_interest", "establishment"]}, "ChIJN2HV5WwbdkgRg-0q3Tix-ac": {"geometry": {"location": {"lat": 51.5266892, "lng": -0.1834628}, "viewport": {"northeast": {"lat": 51.5280592302915, "lng": -0.182226769708498}, "southwest": {"lat": 51.5253612697085, "lng": -0.184924730291502}}}, "name": "David Ben-Guiron Blue Plaque", "place_id": "ChIJN2HV5WwbdkgRg-0q3Tix-ac", "types": ["point_of_interest", "establishment"]}, "ChIJnfjOlKgadkgRegk0eoddNRs": {"geometry": {"location": {"lat": 51.5254808, "lng": -0.1831447}, "viewport": {"northeast": {"lat": 51.5268808802915, "lng": -0.182279819708498}, "southwest": {"lat": 51.5241829197085, "lng": -0.184977780291502}}}, "name": "Crescent Garden", "place_id": "ChIJnfjOlKgadkgRegk0eoddNRs", "types": ["park", "point_of_interest", "establishment"]}, "ChIJ73Y3rKcadkgRu5ZKM0Er8iQ": {"geometry": {"location": {"lat": 51.52754025008277, "lng": -0.1851033499903452}, "viewport": {"northeast": {"lat": 51.52888923029149, "lng": -0.183754369708498}, "southwest": {"lat": 51.5261912697085, "lng": -0.186452330291502}}}, "name": "21 Lauderdale Rd", "place_id": "ChIJ73Y3rKcadkgRu5ZKM0Er8iQ", "types": ["route"]}, "ChIJXzWKyqcadkgRiXiIxRr1U_4": {"geometry": {"location": {"lat": 51.526623, "lng": -0.1853537}, "viewport": {"northeast": {"lat": 51.52793608029151, "lng": -0.183960319708498}, "southwest": {"lat": 51.52523811970851, "lng": -0.186658280291502}}}, "name": "ubitricity Charging Station", "place_id": "ChIJXzWKyqcadkgRiXiIxRr1U_4", "types": ["point_of_interest", "establishment"]}, "ChIJ81KDyqcadkgRtSUwZCDY3mk": {"geometry": {"location": {"lat": 51.52667149999999, "lng": -0.1853198}, "viewport": {"northeast": {"lat": 51.5279744302915, "lng": -0.183913869708498}, "southwest": {"lat": 51.5252764697085, "lng": -0.186611830291502}}}, "name": "The Oakleaves", "place_id": "ChIJ81KDyqcadkgRtSUwZCDY3mk", "types": ["point_of_interest", "establishment"]}, "ChIJWSC8bZkbdkgReQ8ZQHCtdG4": {"geometry": {"location": {"lat": 51.52620940000001, "lng": -0.1852543}, "viewport": {"northeast": {"lat": 51.5276290802915, "lng": -0.183992069708498}, "southwest": {"lat": 51.5249311197085, "lng": -0.186690030291502}}}, "name": "LBA", "place_id": "ChIJWSC8bZkbdkgReQ8ZQHCtdG4", "types": ["lodging", "point_of_interest", "establishment"]}, "ChIJY7SMcfobdkgRkqYt7qfLOKc": {"geometry": {"location": {"lat": 51.5255903, "lng": -0.1852265}, "viewport": {"northeast": {"lat": 51.5269392802915, "lng": -0.183877519708498}, "southwest": {"lat": 51.5242413197085, "lng": -0.186575480291502}}}, "name": "Formosa Garden", "place_id": "ChIJY7SMcfobdkgRkqYt7qfLOKc", "types": ["park", "point_of_interest", "establishment"]}}}