{"E00175212": {"ChIJ1xPknikFdkgRhOS_7JsGC3Y": {"geometry": {"location": {"lat": 51.50849935035531, "lng": -0.1436041983746501}, "viewport": {"northeast": {"lat": 51.50984833029149, "lng": -0.142255219708498}, "southwest": {"lat": 51.5071503697085, "lng": -0.1449531802915021}}}, "name": "19-14 Berkeley St", "place_id": "ChIJ1xPknikFdkgRhOS_7JsGC3Y", "types": ["route"]}, "ChIJoTCUACkFdkgRkl6kRfcE6h0": {"geometry": {"location": {"lat": 51.5081643, "lng": -0.1438453}, "viewport": {"northeast": {"lat": 51.50944338029149, "lng": -0.142441919708498}, "southwest": {"lat": 51.50674541970849, "lng": -0.145139880291502}}}, "name": "The May Fair, A Radisson Collection Hotel, Mayfair London", "place_id": "ChIJoTCUACkFdkgRkl6kRfcE6h0", "types": ["lodging", "point_of_interest", "establishment"], "rating": 4.4, "user_ratings_total": 2225}, "ChIJM7OfoikFdkgRXD4CcSZUBCU": {"geometry": {"location": {"lat": 51.5083685, "lng": -0.1432648}, "viewport": {"northeast": {"lat": 51.5096894302915, "lng": -0.141980019708498}, "southwest": {"lat": 51.5069914697085, "lng": -0.144677980291502}}}, "name": "Stratstone Land Rover, Mayfair", "place_id": "ChIJM7OfoikFdkgRXD4CcSZUBCU", "types": ["car_dealer", "point_of_interest", "store", "establishment"], "rating": 3.1, "user_ratings_total": 110}, "ChIJ78uh3SsFdkgR5EBj9hxhBF4": {"geometry": {"location": {"lat": 51.5083031, "lng": -0.1432184}, "viewport": {"northeast": {"lat": 51.50962803029149, "lng": -0.141924419708498}, "southwest": {"lat": 51.5069300697085, "lng": -0.144622380291502}}}, "name": "Rolls-Royce Motor Cars London", "place_id": "ChIJ78uh3SsFdkgR5EBj9hxhBF4", "types": ["car_dealer", "point_of_interest", "store", "establishment"], "rating": 4.5, "user_ratings_total": 86}, "ChIJNeg6qSkFdkgR4FJa5cHCfFg": {"geometry": {"location": {"lat": 51.5083163, "lng": -0.14359}, "viewport": {"northeast": {"lat": 51.5096934302915, "lng": -0.142176619708498}, "southwest": {"lat": 51.5069954697085, "lng": -0.144874580291502}}}, "name": "The May Fair Bar", "place_id": "ChIJNeg6qSkFdkgR4FJa5cHCfFg", "types": ["restaurant", "food", "point_of_interest", "establishment"], "rating": 4.2, "user_ratings_total": 253}, "ChIJScf8pikFdkgRWvn0VFJehQc": {"geometry": {"location": {"lat": 51.50809239999999, "lng": -0.1434166}, "viewport": {"northeast": {"lat": 51.50944893029151, "lng": -0.142099069708498}, "southwest": {"lat": 51.50675096970851, "lng": -0.144797030291502}}}, "name": "Sainsbury's Local", "place_id": "ChIJScf8pikFdkgRWvn0VFJehQc", "types": ["supermarket", "convenience_store", "grocery_or_supermarket", "food", "point_of_interest", "store", "establishment"], "rating": 3.9, "user_ratings_total": 654}, "ChIJkbbP6ikFdkgRhNkG-FxxCDw": {"geometry": {"location": {"lat": 51.5084152, "lng": -0.1424967}, "viewport": {"northeast": {"lat": 51.50980913029151, "lng": -0.141033669708498}, "southwest": {"lat": 51.50711116970851, "lng": -0.143731630291502}}}, "name": "ERCO", "place_id": "ChIJkbbP6ikFdkgRhNkG-FxxCDw", "types": ["point_of_interest", "establishment"], "rating": 1, "user_ratings_total": 1}, "ChIJOU8euikFdkgR_ynWnVajYS8": {"geometry": {"location": {"lat": 51.50787769999999, "lng": -0.1431066}, "viewport": {"northeast": {"lat": 51.5091577302915, "lng": -0.141603619708498}, "southwest": {"lat": 51.5064597697085, "lng": -0.144301580291502}}}, "name": "Glencore UK Ltd", "place_id": "ChIJOU8euikFdkgR_ynWnVajYS8", "types": ["general_contractor", "point_of_interest", "establishment"], "rating": 4.4, "user_ratings_total": 20}, "ChIJJUcuvCkFdkgRW0RvKwmbRFg": {"geometry": {"location": {"lat": 51.5080988, "lng": -0.1429557}, "viewport": {"northeast": {"lat": 51.5094194302915, "lng": -0.141669769708498}, "southwest": {"lat": 51.5067214697085, "lng": -0.144367730291502}}}, "name": "Arab Investments Ltd", "place_id": "ChIJJUcuvCkFdkgRW0RvKwmbRFg", "types": ["finance", "point_of_interest", "establishment"], "rating": 5, "user_ratings_total": 2}, "ChIJdR4vvSkFdkgRiOABelNv1Ns": {"geometry": {"location": {"lat": 51.5082874, "lng": -0.1432369}, "viewport": {"northeast": {"lat": 51.5096176302915, "lng": -0.141930819708498}, "southwest": {"lat": 51.5069196697085, "lng": -0.144628780291502}}}, "name": "Pat testing Mayfair", "place_id": "ChIJdR4vvSkFdkgRiOABelNv1Ns", "types": ["electrician", "point_of_interest", "establishment"]}, "ChIJxXl3vCkFdkgRLONKPZ7gXQQ": {"geometry": {"location": {"lat": 51.5080229, "lng": -0.1428922}, "viewport": {"northeast": {"lat": 51.5093471802915, "lng": -0.141598219708498}, "southwest": {"lat": 51.5066492197085, "lng": -0.144296180291502}}}, "name": "Nain Carpets Ltd", "place_id": "ChIJxXl3vCkFdkgRLONKPZ7gXQQ", "types": ["home_goods_store", "point_of_interest", "store", "establishment"], "rating": 3.7, "user_ratings_total": 6}, "ChIJOzquvikFdkgR0aA0-FVNfjg": {"geometry": {"location": {"lat": 51.5080421, "lng": -0.142746}, "viewport": {"northeast": {"lat": 51.50934148029151, "lng": -0.141507369708498}, "southwest": {"lat": 51.50664351970851, "lng": -0.144205330291502}}}, "name": "Crowley Young Chartered Accountants", "place_id": "ChIJOzquvikFdkgR0aA0-FVNfjg", "types": ["accounting", "finance", "point_of_interest", "establishment"]}, "ChIJVdV4oikFdkgRaq1AXM_NdCs": {"geometry": {"location": {"lat": 51.50833180000001, "lng": -0.1432635}, "viewport": {"northeast": {"lat": 51.5096585802915, "lng": -0.141965269708498}, "southwest": {"lat": 51.5069606197085, "lng": -0.144663230291502}}}, "name": "Digital World Capital", "place_id": "ChIJVdV4oikFdkgRaq1AXM_NdCs", "types": ["finance", "point_of_interest", "establishment"]}, "ChIJy9IGmCkFdkgRN_yMlbZCeL0": {"geometry": {"location": {"lat": 51.50836280000001, "lng": -0.1431617}, "viewport": {"northeast": {"lat": 51.50966958029151, "lng": -0.141909269708498}, "southwest": {"lat": 51.50697161970851, "lng": -0.144607230291502}}}, "name": "Monreith Capital Management LLP", "place_id": "ChIJy9IGmCkFdkgRN_yMlbZCeL0", "types": ["point_of_interest", "establishment"]}, "ChIJqRkBmCkFdkgRwleJoKIeBBY": {"geometry": {"location": {"lat": 51.5083626, "lng": -0.1431551}, "viewport": {"northeast": {"lat": 51.5096684302915, "lng": -0.141904819708498}, "southwest": {"lat": 51.5069704697085, "lng": -0.1446027802915021}}}, "name": "B M O", "place_id": "ChIJqRkBmCkFdkgRwleJoKIeBBY", "types": ["bank", "finance", "point_of_interest", "establishment"], "rating": 5, "user_ratings_total": 1}, "ChIJy9IGmCkFdkgRtJGF4OeKg6k": {"geometry": {"location": {"lat": 51.5083626, "lng": -0.1431551}, "viewport": {"northeast": {"lat": 51.5096684302915, "lng": -0.141904819708498}, "southwest": {"lat": 51.5069704697085, "lng": -0.1446027802915021}}}, "name": "Quidnet Capital", "place_id": "ChIJy9IGmCkFdkgRtJGF4OeKg6k", "types": ["point_of_interest", "establishment"], "rating": 3.3, "user_ratings_total": 3}, "ChIJvQs57qwcdkgRpERMPkolsCg": {"geometry": {"location": {"lat": 51.5083626, "lng": -0.1431551}, "viewport": {"northeast": {"lat": 51.5096684302915, "lng": -0.141904819708498}, "southwest": {"lat": 51.5069704697085, "lng": -0.1446027802915021}}}, "name": "Harmonic Capital Partners", "place_id": "ChIJvQs57qwcdkgRpERMPkolsCg", "types": ["finance", "point_of_interest", "establishment"]}, "ChIJc-62OKscdkgRowU-wxQu7uU": {"geometry": {"location": {"lat": 51.5081676, "lng": -0.1430752}, "viewport": {"northeast": {"lat": 51.5094940802915, "lng": -0.141776219708498}, "southwest": {"lat": 51.5067961197085, "lng": -0.144474180291502}}}, "name": "Synergy Capital Corp. LLP", "place_id": "ChIJc-62OKscdkgRowU-wxQu7uU", "types": ["point_of_interest", "establishment"]}, "ChIJnVzcjqUVcUgRztvLJLkn3BU": {"geometry": {"location": {"lat": 51.5083073, "lng": -0.1430378}, "viewport": {"northeast": {"lat": 51.50960433029149, "lng": -0.141804369708498}, "southwest": {"lat": 51.5069063697085, "lng": -0.144502330291502}}}, "name": "Inazin Power", "place_id": "ChIJnVzcjqUVcUgRztvLJLkn3BU", "types": ["point_of_interest", "establishment"]}, "ChIJrw3-oykFdkgRXoCC2jJK1p8": {"geometry": {"location": {"lat": 51.5081089, "lng": -0.1433697}, "viewport": {"northeast": {"lat": 51.50945403029149, "lng": -0.142149569708498}, "southwest": {"lat": 51.50675606970849, "lng": -0.144847530291502}}}, "name": "Sainsbury's Bank ATM", "place_id": "ChIJrw3-oykFdkgRXoCC2jJK1p8", "types": ["atm", "finance", "point_of_interest", "establishment"], "rating": 5, "user_ratings_total": 1}, "ChIJy5yovSkFdkgRBB6-J_hfZ9A": {"geometry": {"location": {"lat": 51.50822650000001, "lng": -0.1429398}, "viewport": {"northeast": {"lat": 51.5095229302915, "lng": -0.141707769708498}, "southwest": {"lat": 51.5068249697085, "lng": -0.144405730291502}}}, "name": "Dexter Dalwood", "place_id": "ChIJy5yovSkFdkgRBB6-J_hfZ9A", "types": ["point_of_interest", "establishment"]}, "ChIJNYOovSkFdkgRfE4btxb9RpU": {"geometry": {"location": {"lat": 51.50822650000001, "lng": -0.1429399}, "viewport": {"northeast": {"lat": 51.5095229302915, "lng": -0.141707869708498}, "southwest": {"lat": 51.5068249697085, "lng": -0.144405830291502}}}, "name": "Creighton Holdings UK", "place_id": "ChIJNYOovSkFdkgRfE4btxb9RpU", "types": ["general_contractor", "point_of_interest", "establishment"]}, "ChIJMcXsrKwcdkgRl3QV2H8bGM8": {"geometry": {"location": {"lat": 51.5080847, "lng": -0.1429474}, "viewport": {"northeast": {"lat": 51.5094065302915, "lng": -0.141658819708498}, "southwest": {"lat": 51.5067085697085, "lng": -0.144356780291502}}}, "name": "Pareto Securities Ltd.", "place_id": "ChIJMcXsrKwcdkgRl3QV2H8bGM8", "types": ["finance", "point_of_interest", "establishment"]}, "ChIJuRQymCkFdkgR2rZ1GsDxYRE": {"geometry": {"location": {"lat": 51.5084994, "lng": -0.1431904}, "viewport": {"northeast": {"lat": 51.5097877802915, "lng": -0.141979969708498}, "southwest": {"lat": 51.5070898197085, "lng": -0.144677930291502}}}, "name": "LUXX CLUB LONDON", "place_id": "ChIJuRQymCkFdkgR2rZ1GsDxYRE", "types": ["night_club", "cafe", "bar", "restaurant", "food", "point_of_interest", "establishment"], "rating": 3.3, "user_ratings_total": 154}, "ChIJMbOBvikFdkgRm4sp98Jy3xA": {"geometry": {"location": {"lat": 51.5081762, "lng": -0.1427625}, "viewport": {"northeast": {"lat": 51.5094550302915, "lng": -0.141569569708498}, "southwest": {"lat": 51.5067570697085, "lng": -0.144267530291502}}}, "name": "Aiteo", "place_id": "ChIJMbOBvikFdkgRm4sp98Jy3xA", "types": ["point_of_interest", "establishment"]}, "ChIJ9TbVnikFdkgRykW-BdSOsRI": {"geometry": {"location": {"lat": 51.50852, "lng": -0.1435089}, "viewport": {"northeast": {"lat": 51.5098523802915, "lng": -0.142197919708498}, "southwest": {"lat": 51.5071544197085, "lng": -0.144895880291502}}}, "name": "Carter Savoy Limited", "place_id": "ChIJ9TbVnikFdkgRykW-BdSOsRI", "types": ["point_of_interest", "establishment"], "rating": 5, "user_ratings_total": 2}, "ChIJe-pMxSkFdkgR_DywN1FpkqQ": {"geometry": {"location": {"lat": 51.508525, "lng": -0.1434979}, "viewport": {"northeast": {"lat": 51.50985413029149, "lng": -0.142194119708498}, "southwest": {"lat": 51.50715616970849, "lng": -0.144892080291502}}}, "name": "RGL Capital LLP", "place_id": "ChIJe-pMxSkFdkgR_DywN1FpkqQ", "types": ["finance", "point_of_interest", "establishment"]}, "ChIJs_KfhSsFdkgR8uQT3EoC5dQ": {"geometry": {"location": {"lat": 51.508525, "lng": -0.1434979}, "viewport": {"northeast": {"lat": 51.50984283029149, "lng": -0.142169569708498}, "southwest": {"lat": 51.50714486970849, "lng": -0.144867530291502}}}, "name": "Matchmaker London - The Vida Consultancy Dating Agency", "place_id": "ChIJs_KfhSsFdkgR8uQT3EoC5dQ", "types": ["point_of_interest", "establishment"], "rating": 3.4, "user_ratings_total": 35}, "ChIJyz5kflIDdkgRKogi0tzfnF4": {"geometry": {"location": {"lat": 51.508525, "lng": -0.1434979}, "viewport": {"northeast": {"lat": 51.50985413029149, "lng": -0.142194119708498}, "southwest": {"lat": 51.50715616970849, "lng": -0.144892080291502}}}, "name": "Human Capital", "place_id": "ChIJyz5kflIDdkgRKogi0tzfnF4", "types": ["point_of_interest", "establishment"]}, "ChIJ9TbVnikFdkgRPiEocINqtv8": {"geometry": {"location": {"lat": 51.508525, "lng": -0.1434979}, "viewport": {"northeast": {"lat": 51.50985413029149, "lng": -0.142194119708498}, "southwest": {"lat": 51.50715616970849, "lng": -0.144892080291502}}}, "name": "Newhomescrowd Ltd", "place_id": "ChIJ9TbVnikFdkgRPiEocINqtv8", "types": ["finance", "point_of_interest", "establishment"]}, "ChIJIxLLUVMDdkgRvBwimblF2Vo": {"geometry": {"location": {"lat": 51.5079188, "lng": -0.143271}, "viewport": {"northeast": {"lat": 51.50926778029149, "lng": -0.141922019708498}, "southwest": {"lat": 51.5065698197085, "lng": -0.144619980291502}}}, "name": "Autonomous", "place_id": "ChIJIxLLUVMDdkgRvBwimblF2Vo", "types": ["finance", "point_of_interest", "establishment"]}, "ChIJgaNdWC8FdkgRjELnvIZkK8I": {"geometry": {"location": {"lat": 51.5086376, "lng": -0.1432779}, "viewport": {"northeast": {"lat": 51.5099159802915, "lng": -0.142090419708498}, "southwest": {"lat": 51.5072180197085, "lng": -0.144788380291502}}}, "name": "Forum Partners", "place_id": "ChIJgaNdWC8FdkgRjELnvIZkK8I", "types": ["finance", "point_of_interest", "establishment"]}, "ChIJO3pj_qwadkgRFJkuLXyE6WY": {"geometry": {"location": {"lat": 51.50859919999999, "lng": -0.1433146}, "viewport": {"northeast": {"lat": 51.5098892802915, "lng": -0.1421003197084979}, "southwest": {"lat": 51.5071913197085, "lng": -0.144798280291502}}}, "name": "Rossi Security", "place_id": "ChIJO3pj_qwadkgRFJkuLXyE6WY", "types": ["point_of_interest", "establishment"], "rating": 4.4, "user_ratings_total": 46}, "ChIJ-fo6uykFdkgRqj-AkDYpBuc": {"geometry": {"location": {"lat": 51.5079071, "lng": -0.1430812}, "viewport": {"northeast": {"lat": 51.5091636302915, "lng": -0.141590919708498}, "southwest": {"lat": 51.5064656697085, "lng": -0.144288880291502}}}, "name": "Millennium Capital Partners", "place_id": "ChIJ-fo6uykFdkgRqj-AkDYpBuc", "types": ["finance", "point_of_interest", "establishment"], "rating": 5, "user_ratings_total": 1}, "ChIJ-fo6uykFdkgROa_2rJngqQw": {"geometry": {"location": {"lat": 51.5079061, "lng": -0.1430832}, "viewport": {"northeast": {"lat": 51.5091635802915, "lng": -0.141591919708498}, "southwest": {"lat": 51.50646561970851, "lng": -0.144289880291502}}}, "name": "Lexington Partners", "place_id": "ChIJ-fo6uykFdkgROa_2rJngqQw", "types": ["finance", "point_of_interest", "establishment"]}, "ChIJ-fo6uykFdkgRmdeXkzRShLM": {"geometry": {"location": {"lat": 51.5079061, "lng": -0.1430832}, "viewport": {"northeast": {"lat": 51.5091635802915, "lng": -0.141591919708498}, "southwest": {"lat": 51.50646561970851, "lng": -0.144289880291502}}}, "name": "SHA Housing Limited", "place_id": "ChIJ-fo6uykFdkgRmdeXkzRShLM", "types": ["point_of_interest", "establishment"]}, "ChIJV-kxbC4FdkgRqSd3TixHHBg": {"geometry": {"location": {"lat": 51.50864480000001, "lng": -0.1432729}, "viewport": {"northeast": {"lat": 51.5099212802915, "lng": -0.142089819708498}, "southwest": {"lat": 51.50722331970851, "lng": -0.144787780291502}}}, "name": "Tribeca Technology Group", "place_id": "ChIJV-kxbC4FdkgRqSd3TixHHBg", "types": ["point_of_interest", "establishment"], "rating": 5, "user_ratings_total": 7}, "ChIJvcBtdyAcdkgR1aBF-8LolBM": {"geometry": {"location": {"lat": 51.5085987, "lng": -0.1433769}, "viewport": {"northeast": {"lat": 51.5098979802915, "lng": -0.142141569708498}, "southwest": {"lat": 51.5072000197085, "lng": -0.144839530291502}}}, "name": "Jacob Stanley", "place_id": "ChIJvcBtdyAcdkgR1aBF-8LolBM", "types": ["point_of_interest", "establishment"], "rating": 5, "user_ratings_total": 9}, "ChIJ8QCsvikFdkgRBXfAoTS28eY": {"geometry": {"location": {"lat": 51.5080421, "lng": -0.142746}, "viewport": {"northeast": {"lat": 51.50934148029151, "lng": -0.141507369708498}, "southwest": {"lat": 51.50664351970851, "lng": -0.144205330291502}}}, "name": "Macfarlane International", "place_id": "ChIJ8QCsvikFdkgRBXfAoTS28eY", "types": ["point_of_interest", "establishment"]}, "ChIJ-wCsvikFdkgR71Vw2e8mxvY": {"geometry": {"location": {"lat": 51.5080421, "lng": -0.1427459}, "viewport": {"northeast": {"lat": 51.5093414802915, "lng": -0.141507319708498}, "southwest": {"lat": 51.5066435197085, "lng": -0.144205280291502}}}, "name": "Casa Cucina Design", "place_id": "ChIJ-wCsvikFdkgR71Vw2e8mxvY", "types": ["furniture_store", "home_goods_store", "point_of_interest", "store", "establishment"]}, "ChIJE5gt1S4FdkgRegFlceKDBGQ": {"geometry": {"location": {"lat": 51.50862799999999, "lng": -0.1432722}, "viewport": {"northeast": {"lat": 51.5099071302915, "lng": -0.142082969708498}, "southwest": {"lat": 51.5072091697085, "lng": -0.144780930291502}}}, "name": "Modulex Modular Buildings PLC", "place_id": "ChIJE5gt1S4FdkgRegFlceKDBGQ", "types": ["general_contractor", "point_of_interest", "establishment"]}, "ChIJXxnZ1C4FdkgRF0DjxhcZnxs": {"geometry": {"location": {"lat": 51.50862799999999, "lng": -0.1432722}, "viewport": {"northeast": {"lat": 51.5099071302915, "lng": -0.142082969708498}, "southwest": {"lat": 51.5072091697085, "lng": -0.144780930291502}}}, "name": "Red Ribbon Asset Management PLC", "place_id": "ChIJXxnZ1C4FdkgRF0DjxhcZnxs", "types": ["finance", "point_of_interest", "establishment"], "rating": 4.2, "user_ratings_total": 21}, "ChIJ81zYmCkFdkgRg0RStmj1G8Q": {"geometry": {"location": {"lat": 51.5086376, "lng": -0.1432779}, "viewport": {"northeast": {"lat": 51.5099159802915, "lng": -0.142090419708498}, "southwest": {"lat": 51.5072180197085, "lng": -0.144788380291502}}}, "name": "The Dietitians Clinic Ltd", "place_id": "ChIJ81zYmCkFdkgRg0RStmj1G8Q", "types": ["health", "point_of_interest", "establishment"]}, "ChIJXxnZ1C4FdkgR6Jdb3WRHl9o": {"geometry": {"location": {"lat": 51.5086376, "lng": -0.1432779}, "viewport": {"northeast": {"lat": 51.5099159802915, "lng": -0.142090419708498}, "southwest": {"lat": 51.5072180197085, "lng": -0.144788380291502}}}, "name": "Eco Hotels UK Plc", "place_id": "ChIJXxnZ1C4FdkgR6Jdb3WRHl9o", "types": ["finance", "point_of_interest", "establishment"], "rating": 3, "user_ratings_total": 1}, "ChIJibd0As0adkgRidZNwHmYsGg": {"geometry": {"location": {"lat": 51.508638, "lng": -0.143278}, "viewport": {"northeast": {"lat": 51.5099163302915, "lng": -0.142090619708498}, "southwest": {"lat": 51.5072183697085, "lng": -0.144788580291502}}}, "name": "Research Affiliates", "place_id": "ChIJibd0As0adkgRidZNwHmYsGg", "types": ["point_of_interest", "establishment"]}, "ChIJDUq0hCwFdkgRpiTkp19qlnk": {"geometry": {"location": {"lat": 51.50864480000001, "lng": -0.1432729}, "viewport": {"northeast": {"lat": 51.5099212802915, "lng": -0.142089819708498}, "southwest": {"lat": 51.50722331970851, "lng": -0.144787780291502}}}, "name": "Drake Star Partners", "place_id": "ChIJDUq0hCwFdkgRpiTkp19qlnk", "types": ["finance", "point_of_interest", "establishment"]}, "ChIJ38p9n0kbdkgRPznSiBcJMtk": {"geometry": {"location": {"lat": 51.50864480000001, "lng": -0.1432729}, "viewport": {"northeast": {"lat": 51.5099212802915, "lng": -0.142089819708498}, "southwest": {"lat": 51.50722331970851, "lng": -0.144787780291502}}}, "name": "ETZ Technologies", "place_id": "ChIJ38p9n0kbdkgRPznSiBcJMtk", "types": ["point_of_interest", "establishment"]}, "ChIJZ41x09AEdkgR1FqyY3KgT0E": {"geometry": {"location": {"lat": 51.50864480000001, "lng": -0.1432729}, "viewport": {"northeast": {"lat": 51.5099212802915, "lng": -0.142089819708498}, "southwest": {"lat": 51.50722331970851, "lng": -0.144787780291502}}}, "name": "Conexus Resources Limited", "place_id": "ChIJZ41x09AEdkgR1FqyY3KgT0E", "types": ["point_of_interest", "establishment"], "rating": 5, "user_ratings_total": 1}, "ChIJ9TbVnikFdkgRS1kGvGyrRMA": {"geometry": {"location": {"lat": 51.50864480000001, "lng": -0.1432729}, "viewport": {"northeast": {"lat": 51.5099212802915, "lng": -0.142089819708498}, "southwest": {"lat": 51.50722331970851, "lng": -0.144787780291502}}}, "name": "Beaumont Mayfair", "place_id": "ChIJ9TbVnikFdkgRS1kGvGyrRMA", "types": ["point_of_interest", "establishment"], "rating": 4, "user_ratings_total": 1}, "ChIJh_tYtzMFdkgRI8UVuUGdwuo": {"geometry": {"location": {"lat": 51.50864480000001, "lng": -0.1432729}, "viewport": {"northeast": {"lat": 51.5099212802915, "lng": -0.142089819708498}, "southwest": {"lat": 51.50722331970851, "lng": -0.144787780291502}}}, "name": "PGS Estates", "place_id": "ChIJh_tYtzMFdkgRI8UVuUGdwuo", "types": ["real_estate_agency", "point_of_interest", "establishment"], "rating": 4.2, "user_ratings_total": 10}, "ChIJ7XZculGMbUgR578V3pwqn9M": {"geometry": {"location": {"lat": 51.5086389, "lng": -0.1435169}, "viewport": {"northeast": {"lat": 51.5099520302915, "lng": -0.142249869708498}, "southwest": {"lat": 51.5072540697085, "lng": -0.144947830291502}}}, "name": "Harriet Emily", "place_id": "ChIJ7XZculGMbUgR578V3pwqn9M", "types": ["point_of_interest", "establishment"]}, "ChIJF0UOCikFdkgRQ-H7pFvYURw": {"geometry": {"location": {"lat": 51.5080753, "lng": -0.1439101}, "viewport": {"northeast": {"lat": 51.5093906302915, "lng": -0.142520569708498}, "southwest": {"lat": 51.50669266970851, "lng": -0.145218530291502}}}, "name": "O.G.E.P", "place_id": "ChIJF0UOCikFdkgRQ-H7pFvYURw", "types": ["point_of_interest", "establishment"], "rating": 4, "user_ratings_total": 1}, "ChIJkbbP6ikFdkgReW2pLfpDUXs": {"geometry": {"location": {"lat": 51.50837629999999, "lng": -0.1425583}, "viewport": {"northeast": {"lat": 51.50978448029149, "lng": -0.141059169708498}, "southwest": {"lat": 51.50708651970849, "lng": -0.143757130291502}}}, "name": "Robilant+Voena", "place_id": "ChIJkbbP6ikFdkgReW2pLfpDUXs", "types": ["art_gallery", "point_of_interest", "establishment"], "rating": 5, "user_ratings_total": 3}, "ChIJMVg1nikFdkgRRU7bkvkboN8": {"geometry": {"location": {"lat": 51.50850399999999, "lng": -0.143851}, "viewport": {"northeast": {"lat": 51.50988833029149, "lng": -0.142421169708498}, "southwest": {"lat": 51.50719036970849, "lng": -0.145119130291502}}}, "name": "Jooal", "place_id": "ChIJMVg1nikFdkgRRU7bkvkboN8", "types": ["jewelry_store", "point_of_interest", "store", "establishment"]}, "ChIJuXR2uSkFdkgRD2C0IiqljT8": {"geometry": {"location": {"lat": 51.5079056, "lng": -0.1427694}, "viewport": {"northeast": {"lat": 51.5092318302915, "lng": -0.141471069708498}, "southwest": {"lat": 51.5065338697085, "lng": -0.144169030291502}}}, "name": "JOE & THE JUICE", "place_id": "ChIJuXR2uSkFdkgRD2C0IiqljT8", "types": ["meal_takeaway", "cafe", "restaurant", "food", "point_of_interest", "store", "establishment"], "rating": 4, "user_ratings_total": 405}, "ChIJncUmoikFdkgRHxqnwyRyTqg": {"geometry": {"location": {"lat": 51.50810109999999, "lng": -0.1439665}, "viewport": {"northeast": {"lat": 51.50945008029149, "lng": -0.1426175197084979}, "southwest": {"lat": 51.50675211970849, "lng": -0.145315480291502}}}, "name": "Physical Wellbeing Ltd", "place_id": "ChIJncUmoikFdkgRHxqnwyRyTqg", "types": ["health", "point_of_interest", "establishment"], "rating": 5, "user_ratings_total": 21}, "ChIJbWluuSkFdkgRJTQfk2mUD_4": {"geometry": {"location": {"lat": 51.5079059, "lng": -0.1427047}, "viewport": {"northeast": {"lat": 51.5092225302915, "lng": -0.141427719708498}, "southwest": {"lat": 51.5065245697085, "lng": -0.144125680291502}}}, "name": "Explore Montenegro", "place_id": "ChIJbWluuSkFdkgRJTQfk2mUD_4", "types": ["point_of_interest", "establishment"], "rating": 4.8, "user_ratings_total": 5}, "ChIJvYYqnCkFdkgRpJro2gbpZMs": {"geometry": {"location": {"lat": 51.5086644, "lng": -0.1436547}, "viewport": {"northeast": {"lat": 51.5099825802915, "lng": -0.142327319708498}, "southwest": {"lat": 51.5072846197085, "lng": -0.145025280291502}}}, "name": "Park Chinois", "place_id": "ChIJvYYqnCkFdkgRpJro2gbpZMs", "types": ["night_club", "bar", "restaurant", "food", "point_of_interest", "establishment"], "rating": 4.2, "user_ratings_total": 706}, "ChIJv3kUuSkFdkgRTAZGHkdx-W4": {"geometry": {"location": {"lat": 51.5079207, "lng": -0.142663}, "viewport": {"northeast": {"lat": 51.5092022802915, "lng": -0.141302619708498}, "southwest": {"lat": 51.5065043197085, "lng": -0.144000580291502}}}, "name": "Sterling Yachting", "place_id": "ChIJv3kUuSkFdkgRTAZGHkdx-W4", "types": ["point_of_interest", "establishment"]}, "ChIJJQwOTCgFdkgRQPL98B4jebA": {"geometry": {"location": {"lat": 51.50683535018909, "lng": -0.1426587004755946}, "viewport": {"northeast": {"lat": 51.5081843302915, "lng": -0.141309719708498}, "southwest": {"lat": 51.5054863697085, "lng": -0.144007680291502}}}, "name": "78-77 Piccadilly", "place_id": "ChIJJQwOTCgFdkgRQPL98B4jebA", "types": ["route"]}, "ChIJ9ylaUygFdkgRhLi_gm28zyU": {"geometry": {"location": {"lat": 51.5070855, "lng": -0.1435579}, "viewport": {"northeast": {"lat": 51.50849343029149, "lng": -0.142140469708498}, "southwest": {"lat": 51.5057954697085, "lng": -0.144838430291502}}}, "name": "Langan's Brasserie", "place_id": "ChIJ9ylaUygFdkgRhLi_gm28zyU", "types": ["restaurant", "food", "point_of_interest", "establishment"], "rating": 4.5, "user_ratings_total": 682}, "ChIJJXKZUSgFdkgRhz67pJfPnOU": {"geometry": {"location": {"lat": 51.5067026, "lng": -0.1433981}, "viewport": {"northeast": {"lat": 51.5079695802915, "lng": -0.141982869708498}, "southwest": {"lat": 51.5052716197085, "lng": -0.144680830291502}}}, "name": "Henry's Cafe Bar Piccadilly", "place_id": "ChIJJXKZUSgFdkgRhz67pJfPnOU", "types": ["bar", "night_club", "restaurant", "food", "point_of_interest", "establishment"], "rating": 4, "user_ratings_total": 1599}, "ChIJ9RW6TCgFdkgR_UoyHbr2Bg4": {"geometry": {"location": {"lat": 51.5069983, "lng": -0.1429379}, "viewport": {"northeast": {"lat": 51.5082943302915, "lng": -0.1416578197084979}, "southwest": {"lat": 51.5055963697085, "lng": -0.144355780291502}}}, "name": "Marks and Spencer", "place_id": "ChIJ9RW6TCgFdkgR_UoyHbr2Bg4", "types": ["supermarket", "department_store", "convenience_store", "grocery_or_supermarket", "food", "point_of_interest", "clothing_store", "store", "establishment"], "rating": 4.1, "user_ratings_total": 346}, "ChIJHcKZuSkFdkgRUMmqoeDeSQU": {"geometry": {"location": {"lat": 51.5076236, "lng": -0.1429232}, "viewport": {"northeast": {"lat": 51.5090027302915, "lng": -0.141561219708498}, "southwest": {"lat": 51.5063047697085, "lng": -0.144259180291502}}}, "name": "Novikov Restaurant and Bar", "place_id": "ChIJHcKZuSkFdkgRUMmqoeDeSQU", "types": ["night_club", "bar", "restaurant", "food", "point_of_interest", "establishment"], "rating": 4.3, "user_ratings_total": 3258}, "ChIJQ7BTZ9UadkgRg4IY7QtpS0E": {"geometry": {"location": {"lat": 51.5075006, "lng": -0.1426658}, "viewport": {"northeast": {"lat": 51.5087219802915, "lng": -0.141108519708498}, "southwest": {"lat": 51.50602401970851, "lng": -0.143806480291502}}}, "name": "Barclays Bank", "place_id": "ChIJQ7BTZ9UadkgRg4IY7QtpS0E", "types": ["bank", "atm", "finance", "point_of_interest", "establishment"], "rating": 3.3, "user_ratings_total": 27}, "ChIJ46jFrCkFdkgRBs2lJNwzWRI": {"geometry": {"location": {"lat": 51.5072017, "lng": -0.1436398}, "viewport": {"northeast": {"lat": 51.50855818029149, "lng": -0.142244419708498}, "southwest": {"lat": 51.5058602197085, "lng": -0.144942380291502}}}, "name": "Egerton Capital (UK) LLP", "place_id": "ChIJ46jFrCkFdkgRBs2lJNwzWRI", "types": ["finance", "point_of_interest", "establishment"]}, "ChIJ-cDBiCkFdkgRwmcGpDXEOVk": {"geometry": {"location": {"lat": 51.5071907, "lng": -0.1430229}, "viewport": {"northeast": {"lat": 51.5084509802915, "lng": -0.141806919708498}, "southwest": {"lat": 51.5057530197085, "lng": -0.144504880291502}}}, "name": "EFG Eurobank Ergasias SA", "place_id": "ChIJ-cDBiCkFdkgRwmcGpDXEOVk", "types": ["bank", "finance", "point_of_interest", "establishment"], "rating": 5, "user_ratings_total": 1}, "ChIJ46jFrCkFdkgRDF38Gkq5Es0": {"geometry": {"location": {"lat": 51.5069128, "lng": -0.1434529}, "viewport": {"northeast": {"lat": 51.5083150802915, "lng": -0.141997169708498}, "southwest": {"lat": 51.5056171197085, "lng": -0.144695130291502}}}, "name": "GSA Capital", "place_id": "ChIJ46jFrCkFdkgRDF38Gkq5Es0", "types": ["finance", "point_of_interest", "establishment"]}, "ChIJSa04rSkFdkgRxFLqMXyT9hY": {"geometry": {"location": {"lat": 51.5071281, "lng": -0.1432349}, "viewport": {"northeast": {"lat": 51.5084196802915, "lng": -0.141875219708498}, "southwest": {"lat": 51.5057217197085, "lng": -0.144573180291502}}}, "name": "Timpson Locksmiths and Safe Engineers", "place_id": "ChIJSa04rSkFdkgRxFLqMXyT9hY", "types": ["locksmith", "point_of_interest", "establishment"], "rating": 3, "user_ratings_total": 2}, "ChIJ1eXowdUEdkgR0K9zIrmKsp0": {"geometry": {"location": {"lat": 51.50726719999999, "lng": -0.1428886}, "viewport": {"northeast": {"lat": 51.50848923029149, "lng": -0.141743469708498}, "southwest": {"lat": 51.5057912697085, "lng": -0.144441430291502}}}, "name": "Kirk Rice", "place_id": "ChIJ1eXowdUEdkgR0K9zIrmKsp0", "types": ["accounting", "finance", "point_of_interest", "establishment"]}, "ChIJyx48R9YEdkgRqrpQ2jW3mM0": {"geometry": {"location": {"lat": 51.5072829, "lng": -0.1430413}, "viewport": {"northeast": {"lat": 51.5084970802915, "lng": -0.141855869708498}, "southwest": {"lat": 51.5057991197085, "lng": -0.144553830291502}}}, "name": "Orion Land & Leisure Ltd", "place_id": "ChIJyx48R9YEdkgRqrpQ2jW3mM0", "types": ["general_contractor", "point_of_interest", "establishment"], "rating": 5, "user_ratings_total": 1}, "ChIJz2sSqisFdkgR-FprX4XuyB8": {"geometry": {"location": {"lat": 51.5072167, "lng": -0.1429057}, "viewport": {"northeast": {"lat": 51.5084639802915, "lng": -0.141735569708498}, "southwest": {"lat": 51.5057660197085, "lng": -0.144433530291502}}}, "name": "Mayfair Diamonds & Precious Stones Brokerage", "place_id": "ChIJz2sSqisFdkgR-FprX4XuyB8", "types": ["jewelry_store", "finance", "point_of_interest", "store", "establishment"]}, "ChIJJ48i0HD4dkgR4cxbTScAE-Y": {"geometry": {"location": {"lat": 51.5072829, "lng": -0.1430413}, "viewport": {"northeast": {"lat": 51.5084970802915, "lng": -0.141855869708498}, "southwest": {"lat": 51.5057991197085, "lng": -0.144553830291502}}}, "name": "Organisation Development & Research Ltd", "place_id": "ChIJJ48i0HD4dkgR4cxbTScAE-Y", "types": ["point_of_interest", "establishment"]}, "ChIJz2sSqisFdkgRJUXUPMuHsCY": {"geometry": {"location": {"lat": 51.507283, "lng": -0.143041}, "viewport": {"northeast": {"lat": 51.5084971302915, "lng": -0.141855719708498}, "southwest": {"lat": 51.5057991697085, "lng": -0.144553680291502}}}, "name": "Jonty Condrup F.G.A D.G.A", "place_id": "ChIJz2sSqisFdkgRJUXUPMuHsCY", "types": ["jewelry_store", "finance", "point_of_interest", "store", "establishment"]}, "ChIJJ26VtMQPdkgRnqPW-2oei_8": {"geometry": {"location": {"lat": 51.50720339999999, "lng": -0.1429518}, "viewport": {"northeast": {"lat": 51.5084573302915, "lng": -0.141762419708498}, "southwest": {"lat": 51.5057593697085, "lng": -0.144460380291502}}}, "name": "JamessPics Photography", "place_id": "ChIJJ26VtMQPdkgRnqPW-2oei_8", "types": ["point_of_interest", "establishment"], "rating": 5, "user_ratings_total": 1}, "ChIJIX1XVCgFdkgRvn8K-IN7odE": {"geometry": {"location": {"lat": 51.50685209999999, "lng": -0.143628}, "viewport": {"northeast": {"lat": 51.50813928029149, "lng": -0.142402269708498}, "southwest": {"lat": 51.50544131970849, "lng": -0.145100230291502}}}, "name": "Dr. Leigh-Davis", "place_id": "ChIJIX1XVCgFdkgRvn8K-IN7odE", "types": ["lawyer", "point_of_interest", "establishment"]}, "ChIJw9ICYykFdkgRbtEJi4im-_g": {"geometry": {"location": {"lat": 51.5072869, "lng": -0.1428311}, "viewport": {"northeast": {"lat": 51.5086764302915, "lng": -0.141191169708498}, "southwest": {"lat": 51.5059784697085, "lng": -0.143889130291502}}}, "name": "MyBorough.co.uk", "place_id": "ChIJw9ICYykFdkgRbtEJi4im-_g", "types": ["point_of_interest", "establishment"]}, "ChIJM7UasykFdkgRXsG7NveVd3I": {"geometry": {"location": {"lat": 51.5071907, "lng": -0.1430229}, "viewport": {"northeast": {"lat": 51.5084509802915, "lng": -0.141806919708498}, "southwest": {"lat": 51.5057530197085, "lng": -0.144504880291502}}}, "name": "Ranmoor Capital Management", "place_id": "ChIJM7UasykFdkgRXsG7NveVd3I", "types": ["finance", "point_of_interest", "establishment"]}, "ChIJ7_RxITkFdkgRzryHMWgHN24": {"geometry": {"location": {"lat": 51.5071907, "lng": -0.1430229}, "viewport": {"northeast": {"lat": 51.5084509802915, "lng": -0.141806919708498}, "southwest": {"lat": 51.5057530197085, "lng": -0.144504880291502}}}, "name": "London AV Solutions Ltd", "place_id": "ChIJ7_RxITkFdkgRzryHMWgHN24", "types": ["electronics_store", "home_goods_store", "point_of_interest", "store", "establishment"], "rating": 3.8, "user_ratings_total": 11}, "ChIJz0n1rSkFdkgRIi4h_FgsiPg": {"geometry": {"location": {"lat": 51.5072846, "lng": -0.1431387}, "viewport": {"northeast": {"lat": 51.5084979302915, "lng": -0.141917719708498}, "southwest": {"lat": 51.5057999697085, "lng": -0.144615680291502}}}, "name": "Weaver Rose Solicitors & Chartered Accountants", "place_id": "ChIJz0n1rSkFdkgRIi4h_FgsiPg", "types": ["point_of_interest", "establishment"]}, "ChIJDW25sykFdkgRvC83PFhbUmA": {"geometry": {"location": {"lat": 51.50729370000001, "lng": -0.1430726}, "viewport": {"northeast": {"lat": 51.5085024802915, "lng": -0.141881919708498}, "southwest": {"lat": 51.5058045197085, "lng": -0.144579880291502}}}, "name": "LetterOne", "place_id": "ChIJDW25sykFdkgRvC83PFhbUmA", "types": ["finance", "point_of_interest", "establishment"], "rating": 5, "user_ratings_total": 1}, "ChIJL1WHDykFdkgRb8nKD5DeMxk": {"geometry": {"location": {"lat": 51.5072829, "lng": -0.1430413}, "viewport": {"northeast": {"lat": 51.5084970802915, "lng": -0.141855869708498}, "southwest": {"lat": 51.5057991197085, "lng": -0.144553830291502}}}, "name": "La Vie De Luxe", "place_id": "ChIJL1WHDykFdkgRb8nKD5DeMxk", "types": ["point_of_interest", "establishment"]}, "ChIJGfi32SsFdkgRY9Wt1JiyNQg": {"geometry": {"location": {"lat": 51.5072829, "lng": -0.1430413}, "viewport": {"northeast": {"lat": 51.5084970802915, "lng": -0.141855869708498}, "southwest": {"lat": 51.5057991197085, "lng": -0.144553830291502}}}, "name": "Compass Executives", "place_id": "ChIJGfi32SsFdkgRY9Wt1JiyNQg", "types": ["point_of_interest", "establishment"], "rating": 5, "user_ratings_total": 2}, "ChIJN6sPfdUEdkgRJaBneZdFZxE": {"geometry": {"location": {"lat": 51.5072829, "lng": -0.1430413}, "viewport": {"northeast": {"lat": 51.5084970802915, "lng": -0.141855869708498}, "southwest": {"lat": 51.5057991197085, "lng": -0.144553830291502}}}, "name": "33Hz", "place_id": "ChIJN6sPfdUEdkgRJaBneZdFZxE", "types": ["point_of_interest", "establishment"], "rating": 5, "user_ratings_total": 1}, "ChIJ1byosykFdkgRDIYt_qcTUsA": {"geometry": {"location": {"lat": 51.5072829, "lng": -0.1430413}, "viewport": {"northeast": {"lat": 51.5084970802915, "lng": -0.141855869708498}, "southwest": {"lat": 51.5057991197085, "lng": -0.144553830291502}}}, "name": "Servcorp - Mayfair Place", "place_id": "ChIJ1byosykFdkgRDIYt_qcTUsA", "types": ["real_estate_agency", "point_of_interest", "establishment"], "rating": 4.3, "user_ratings_total": 25}, "ChIJyVvsH-AEdkgRGHfrPD8p0m4": {"geometry": {"location": {"lat": 51.5072829, "lng": -0.1430413}, "viewport": {"northeast": {"lat": 51.5084970802915, "lng": -0.141855869708498}, "southwest": {"lat": 51.5057991197085, "lng": -0.144553830291502}}}, "name": "Terrapin Communications Ltd", "place_id": "ChIJyVvsH-AEdkgRGHfrPD8p0m4", "types": ["point_of_interest", "establishment"], "rating": 5, "user_ratings_total": 1}, "ChIJbUxTVo4PdkgRw7YkfMMGAZ4": {"geometry": {"location": {"lat": 51.5072829, "lng": -0.1430413}, "viewport": {"northeast": {"lat": 51.5084970802915, "lng": -0.141855869708498}, "southwest": {"lat": 51.5057991197085, "lng": -0.144553830291502}}}, "name": "Commercialisti Londra", "place_id": "ChIJbUxTVo4PdkgRw7YkfMMGAZ4", "types": ["accounting", "finance", "point_of_interest", "establishment"], "rating": 5, "user_ratings_total": 1}, "ChIJ4XN_xoMadkgR2gl-dI3tfTc": {"geometry": {"location": {"lat": 51.5072829, "lng": -0.1430413}, "viewport": {"northeast": {"lat": 51.5084970802915, "lng": -0.141855869708498}, "southwest": {"lat": 51.5057991197085, "lng": -0.144553830291502}}}, "name": "Stone Mountain Capital LTD", "place_id": "ChIJ4XN_xoMadkgR2gl-dI3tfTc", "types": ["finance", "point_of_interest", "establishment"], "rating": 5, "user_ratings_total": 1}, "ChIJI009dDkbdkgRilYdalW814U": {"geometry": {"location": {"lat": 51.5072829, "lng": -0.1430413}, "viewport": {"northeast": {"lat": 51.5084970802915, "lng": -0.141855869708498}, "southwest": {"lat": 51.5057991197085, "lng": -0.144553830291502}}}, "name": "Chadwick International", "place_id": "ChIJI009dDkbdkgRilYdalW814U", "types": ["point_of_interest", "establishment"], "rating": 3, "user_ratings_total": 1}, "ChIJVVUVsikFdkgRRY-i3hcZMcU": {"geometry": {"location": {"lat": 51.5072829, "lng": -0.1430413}, "viewport": {"northeast": {"lat": 51.5084970802915, "lng": -0.141855869708498}, "southwest": {"lat": 51.5057991197085, "lng": -0.144553830291502}}}, "name": "Shape", "place_id": "ChIJVVUVsikFdkgRRY-i3hcZMcU", "types": ["point_of_interest", "establishment"]}, "ChIJVVUVsikFdkgR4zLEeybUZXA": {"geometry": {"location": {"lat": 51.5072829, "lng": -0.1430413}, "viewport": {"northeast": {"lat": 51.5084970802915, "lng": -0.141855869708498}, "southwest": {"lat": 51.5057991197085, "lng": -0.144553830291502}}}, "name": "Cocoon Parking Solutions Limited", "place_id": "ChIJVVUVsikFdkgR4zLEeybUZXA", "types": ["point_of_interest", "establishment"]}, "ChIJL1WHDykFdkgRnmPjQCvi6ig": {"geometry": {"location": {"lat": 51.5072829, "lng": -0.1430413}, "viewport": {"northeast": {"lat": 51.5084970802915, "lng": -0.141855869708498}, "southwest": {"lat": 51.5057991197085, "lng": -0.144553830291502}}}, "name": "ECOMMPAY", "place_id": "ChIJL1WHDykFdkgRnmPjQCvi6ig", "types": ["finance", "point_of_interest", "establishment"]}, "ChIJVVUVsikFdkgRN6rUvUOWaN4": {"geometry": {"location": {"lat": 51.5072829, "lng": -0.1430413}, "viewport": {"northeast": {"lat": 51.5084970802915, "lng": -0.141855869708498}, "southwest": {"lat": 51.5057991197085, "lng": -0.144553830291502}}}, "name": "Baudot Patrimony", "place_id": "ChIJVVUVsikFdkgRN6rUvUOWaN4", "types": ["point_of_interest", "establishment"]}, "ChIJVVUVsikFdkgRkNFpz9Q5UqE": {"geometry": {"location": {"lat": 51.5072829, "lng": -0.1430413}, "viewport": {"northeast": {"lat": 51.5084970802915, "lng": -0.141855869708498}, "southwest": {"lat": 51.5057991197085, "lng": -0.144553830291502}}}, "name": "WElink Group", "place_id": "ChIJVVUVsikFdkgRkNFpz9Q5UqE", "types": ["point_of_interest", "establishment"]}, "ChIJdQv13ZwadkgRvLfLdDu4udw": {"geometry": {"location": {"lat": 51.5072829, "lng": -0.1430413}, "viewport": {"northeast": {"lat": 51.5084970802915, "lng": -0.141855869708498}, "southwest": {"lat": 51.5057991197085, "lng": -0.144553830291502}}}, "name": "Stone Mountain Capital Partners LLP", "place_id": "ChIJdQv13ZwadkgRvLfLdDu4udw", "types": ["finance", "point_of_interest", "establishment"]}, "ChIJ7RXVsikFdkgR5MgFrug8org": {"geometry": {"location": {"lat": 51.5072829, "lng": -0.1430413}, "viewport": {"northeast": {"lat": 51.5084970802915, "lng": -0.141855869708498}, "southwest": {"lat": 51.5057991197085, "lng": -0.144553830291502}}}, "name": "Direct Bullion London", "place_id": "ChIJ7RXVsikFdkgR5MgFrug8org", "types": ["finance", "point_of_interest", "store", "establishment"], "rating": 3.5, "user_ratings_total": 37}, "ChIJq8-bDysFdkgRC5wMntlaUdQ": {"geometry": {"location": {"lat": 51.507283, "lng": -0.143041}, "viewport": {"northeast": {"lat": 51.5084971302915, "lng": -0.141855719708498}, "southwest": {"lat": 51.5057991697085, "lng": -0.144553680291502}}}, "name": "LMR Partners LLP", "place_id": "ChIJq8-bDysFdkgRC5wMntlaUdQ", "types": ["finance", "point_of_interest", "establishment"]}, "ChIJvSMPsikFdkgRApa4oe0O9qo": {"geometry": {"location": {"lat": 51.50731529999999, "lng": -0.1431056}, "viewport": {"northeast": {"lat": 51.5085132802915, "lng": -0.141913319708498}, "southwest": {"lat": 51.5058153197085, "lng": -0.144611280291502}}}, "name": "Royal Plate Catering London", "place_id": "ChIJvSMPsikFdkgRApa4oe0O9qo", "types": ["food", "point_of_interest", "establishment"]}, "ChIJwaKosykFdkgR6dDKcL0vEnQ": {"geometry": {"location": {"lat": 51.5072081, "lng": -0.1429463}, "viewport": {"northeast": {"lat": 51.5084596802915, "lng": -0.141760419708498}, "southwest": {"lat": 51.5057617197085, "lng": -0.144458380291502}}}, "name": "Madagascar Oil", "place_id": "ChIJwaKosykFdkgR6dDKcL0vEnQ", "types": ["point_of_interest", "establishment"]}, "ChIJ1byosykFdkgRWhmAH5_C8AM": {"geometry": {"location": {"lat": 51.507217, "lng": -0.142906}, "viewport": {"northeast": {"lat": 51.50846413029149, "lng": -0.141735869708498}, "southwest": {"lat": 51.5057661697085, "lng": -0.144433830291502}}}, "name": "Swisslinx UK Ltd", "place_id": "ChIJ1byosykFdkgRWhmAH5_C8AM", "types": ["point_of_interest", "establishment"]}, "ChIJwaKosykFdkgR-_kKLoMnNos": {"geometry": {"location": {"lat": 51.506909, "lng": -0.143264}, "viewport": {"northeast": {"lat": 51.5082898302915, "lng": -0.141872569708498}, "southwest": {"lat": 51.5055918697085, "lng": -0.144570530291502}}}, "name": "Pictet & Cie (Europe) SA, London Branch", "place_id": "ChIJwaKosykFdkgR-_kKLoMnNos", "types": ["bank", "finance", "point_of_interest", "establishment"], "rating": 5, "user_ratings_total": 1}, "ChIJb7bEyhvEdkgRbAzQHdCUzO0": {"geometry": {"location": {"lat": 51.507309, "lng": -0.1429847}, "viewport": {"northeast": {"lat": 51.5085101302915, "lng": -0.141826719708498}, "southwest": {"lat": 51.5058121697085, "lng": -0.144524680291502}}}, "name": "Greek to Me Translations", "place_id": "ChIJb7bEyhvEdkgRbAzQHdCUzO0", "types": ["point_of_interest", "establishment"], "rating": 5, "user_ratings_total": 13}, "ChIJYVq92CsFdkgR1T337459CZs": {"geometry": {"location": {"lat": 51.507242, "lng": -0.1429032}, "viewport": {"northeast": {"lat": 51.5084766302915, "lng": -0.141743719708498}, "southwest": {"lat": 51.5057786697085, "lng": -0.144441680291502}}}, "name": "MM Furnishings", "place_id": "ChIJYVq92CsFdkgR1T337459CZs", "types": ["general_contractor", "point_of_interest", "establishment"], "rating": 4, "user_ratings_total": 13}, "ChIJlffKo1ImdkgRsFoYGqBxMDM": {"geometry": {"location": {"lat": 51.507336, "lng": -0.143017}, "viewport": {"northeast": {"lat": 51.5085236302915, "lng": -0.141859769708498}, "southwest": {"lat": 51.5058256697085, "lng": -0.144557730291502}}}, "name": "Hayden Bradshaw", "place_id": "ChIJlffKo1ImdkgRsFoYGqBxMDM", "types": ["point_of_interest", "establishment"]}, "ChIJDW25sykFdkgRwIobfxh_7pU": {"geometry": {"location": {"lat": 51.507267, "lng": -0.142889}, "viewport": {"northeast": {"lat": 51.50848913029149, "lng": -0.141743669708498}, "southwest": {"lat": 51.50579116970849, "lng": -0.144441630291502}}}, "name": "Battle Brains Ltd", "place_id": "ChIJDW25sykFdkgRwIobfxh_7pU", "types": ["point_of_interest", "establishment"], "rating": 5, "user_ratings_total": 1}, "ChIJDW25sykFdkgROrmbEAywRRg": {"geometry": {"location": {"lat": 51.50726719999999, "lng": -0.1428886}, "viewport": {"northeast": {"lat": 51.50848923029149, "lng": -0.141743469708498}, "southwest": {"lat": 51.5057912697085, "lng": -0.144441430291502}}}, "name": "Farazad Productions Ltd", "place_id": "ChIJDW25sykFdkgROrmbEAywRRg", "types": ["point_of_interest", "establishment"], "rating": 4, "user_ratings_total": 4}, "ChIJDW25sykFdkgRkDDFw8guYPQ": {"geometry": {"location": {"lat": 51.50726719999999, "lng": -0.1428886}, "viewport": {"northeast": {"lat": 51.50848923029149, "lng": -0.141743469708498}, "southwest": {"lat": 51.5057912697085, "lng": -0.144441430291502}}}, "name": "Mayfair Residential Properties", "place_id": "ChIJDW25sykFdkgRkDDFw8guYPQ", "types": ["point_of_interest", "establishment"], "rating": 1.7, "user_ratings_total": 3}, "ChIJDW25sykFdkgRoae4RQCyUO4": {"geometry": {"location": {"lat": 51.50726719999999, "lng": -0.1428886}, "viewport": {"northeast": {"lat": 51.50848923029149, "lng": -0.141743469708498}, "southwest": {"lat": 51.5057912697085, "lng": -0.144441430291502}}}, "name": "TA Associates (UK), LLP", "place_id": "ChIJDW25sykFdkgRoae4RQCyUO4", "types": ["finance", "point_of_interest", "establishment"]}, "ChIJOelPvrIcdkgRlGtJBdqzmXs": {"geometry": {"location": {"lat": 51.50726719999999, "lng": -0.1428886}, "viewport": {"northeast": {"lat": 51.50848923029149, "lng": -0.141743469708498}, "southwest": {"lat": 51.5057912697085, "lng": -0.144441430291502}}}, "name": "Nigerian Mortgage", "place_id": "ChIJOelPvrIcdkgRlGtJBdqzmXs", "types": ["finance", "point_of_interest", "establishment"]}, "ChIJOelPvrIcdkgRl5MY2si7cfs": {"geometry": {"location": {"lat": 51.50726719999999, "lng": -0.1428886}, "viewport": {"northeast": {"lat": 51.50848923029149, "lng": -0.141743469708498}, "southwest": {"lat": 51.5057912697085, "lng": -0.144441430291502}}}, "name": "Slovakian Mortgage", "place_id": "ChIJOelPvrIcdkgRl5MY2si7cfs", "types": ["finance", "point_of_interest", "establishment"]}, "ChIJOelPvrIcdkgRgnsXpFNSI-4": {"geometry": {"location": {"lat": 51.50726719999999, "lng": -0.1428886}, "viewport": {"northeast": {"lat": 51.50848923029149, "lng": -0.141743469708498}, "southwest": {"lat": 51.5057912697085, "lng": -0.144441430291502}}}, "name": "Maltese Mortgage", "place_id": "ChIJOelPvrIcdkgRgnsXpFNSI-4", "types": ["finance", "point_of_interest", "establishment"]}, "ChIJOelPvrIcdkgRMVeJVQusCE8": {"geometry": {"location": {"lat": 51.50726719999999, "lng": -0.1428886}, "viewport": {"northeast": {"lat": 51.50848923029149, "lng": -0.141743469708498}, "southwest": {"lat": 51.5057912697085, "lng": -0.144441430291502}}}, "name": "Romanian Mortgage", "place_id": "ChIJOelPvrIcdkgRMVeJVQusCE8", "types": ["finance", "point_of_interest", "establishment"]}, "ChIJOelPvrIcdkgRWmOGA2ISDxs": {"geometry": {"location": {"lat": 51.50726719999999, "lng": -0.1428886}, "viewport": {"northeast": {"lat": 51.50848923029149, "lng": -0.141743469708498}, "southwest": {"lat": 51.5057912697085, "lng": -0.144441430291502}}}, "name": "Egyptian Mortgage", "place_id": "ChIJOelPvrIcdkgRWmOGA2ISDxs", "types": ["finance", "point_of_interest", "establishment"]}, "ChIJOelPvrIcdkgR-sSnjqR1_GU": {"geometry": {"location": {"lat": 51.50726719999999, "lng": -0.1428886}, "viewport": {"northeast": {"lat": 51.50848923029149, "lng": -0.141743469708498}, "southwest": {"lat": 51.5057912697085, "lng": -0.144441430291502}}}, "name": "Sudanese Mortgage", "place_id": "ChIJOelPvrIcdkgR-sSnjqR1_GU", "types": ["finance", "point_of_interest", "establishment"]}, "ChIJDW25sykFdkgR48PWuIQ0VVs": {"geometry": {"location": {"lat": 51.50726719999999, "lng": -0.1428886}, "viewport": {"northeast": {"lat": 51.50848923029149, "lng": -0.141743469708498}, "southwest": {"lat": 51.5057912697085, "lng": -0.144441430291502}}}, "name": "Advisors & Partners", "place_id": "ChIJDW25sykFdkgR48PWuIQ0VVs", "types": ["finance", "point_of_interest", "establishment"]}, "ChIJwaKosykFdkgR3FIxwJJKKRQ": {"geometry": {"location": {"lat": 51.50726719999999, "lng": -0.1428886}, "viewport": {"northeast": {"lat": 51.50848923029149, "lng": -0.141743469708498}, "southwest": {"lat": 51.5057912697085, "lng": -0.144441430291502}}}, "name": "Canyon Capital Advisors", "place_id": "ChIJwaKosykFdkgR3FIxwJJKKRQ", "types": ["finance", "point_of_interest", "establishment"]}, "ChIJtxFBvrIcdkgR8v1uKL3UQbk": {"geometry": {"location": {"lat": 51.50726719999999, "lng": -0.1428886}, "viewport": {"northeast": {"lat": 51.50848923029149, "lng": -0.141743469708498}, "southwest": {"lat": 51.5057912697085, "lng": -0.144441430291502}}}, "name": "Falbros", "place_id": "ChIJtxFBvrIcdkgR8v1uKL3UQbk", "types": ["finance", "point_of_interest", "establishment"], "rating": 4.9, "user_ratings_total": 10}, "ChIJDW25sykFdkgRZxXfflIDFT0": {"geometry": {"location": {"lat": 51.50726719999999, "lng": -0.1428886}, "viewport": {"northeast": {"lat": 51.50848923029149, "lng": -0.141743469708498}, "southwest": {"lat": 51.5057912697085, "lng": -0.144441430291502}}}, "name": "Bulgarian Mortgage", "place_id": "ChIJDW25sykFdkgRZxXfflIDFT0", "types": ["finance", "point_of_interest", "establishment"]}, "ChIJ-xByWCgFdkgR57qcZ4AHFR0": {"geometry": {"location": {"lat": 51.50629365031487, "lng": -0.1437566508227541}, "viewport": {"northeast": {"lat": 51.5076426302915, "lng": -0.142407669708498}, "southwest": {"lat": 51.5049446697085, "lng": -0.145105630291502}}}, "name": "Piccadilly", "place_id": "ChIJ-xByWCgFdkgR57qcZ4AHFR0", "types": ["route"]}, "ChIJSZC4EywFdkgRREW9zP6svVI": {"geometry": {"location": {"lat": 51.5065045, "lng": -0.1437515}, "viewport": {"northeast": {"lat": 51.50779078029149, "lng": -0.142323269708498}, "southwest": {"lat": 51.50509281970849, "lng": -0.145021230291502}}}, "name": "Porsche Centre Mayfair", "place_id": "ChIJSZC4EywFdkgRREW9zP6svVI", "types": ["car_dealer", "point_of_interest", "store", "establishment"], "rating": 4.4, "user_ratings_total": 170}, "ChIJC8cmSGoFdkgR97yTnsGk2CQ": {"geometry": {"location": {"lat": 51.5065627, "lng": -0.1435205}, "viewport": {"northeast": {"lat": 51.5078950302915, "lng": -0.142175619708498}, "southwest": {"lat": 51.5051970697085, "lng": -0.144873580291502}}}, "name": "Sono International Ltd", "place_id": "ChIJC8cmSGoFdkgR97yTnsGk2CQ", "types": ["food", "point_of_interest", "establishment"], "rating": 4.4, "user_ratings_total": 30}, "ChIJVVUVsikFdkgR2q75VaCNIgM": {"geometry": {"location": {"lat": 51.5064545, "lng": -0.143097}, "viewport": {"northeast": {"lat": 51.5078562802915, "lng": -0.141810419708498}, "southwest": {"lat": 51.5051583197085, "lng": -0.144508380291502}}}, "name": "Ultimate UK Homes Ltd", "place_id": "ChIJVVUVsikFdkgR2q75VaCNIgM", "types": ["finance", "point_of_interest", "establishment"]}, "ChIJ72XLFikFdkgRDDOF49rY8go": {"geometry": {"location": {"lat": 51.50796353368121, "lng": -0.1449542436440054}, "viewport": {"northeast": {"lat": 51.5093163302915, "lng": -0.143622019708498}, "southwest": {"lat": 51.50661836970851, "lng": -0.146319980291502}}}, "name": "65-63 Curzon St", "place_id": "ChIJ72XLFikFdkgRDDOF49rY8go", "types": ["route"]}, "ChIJqXW6FCkFdkgRAuLmB2pExyM": {"geometry": {"location": {"lat": 51.5082351, "lng": -0.1450785}, "viewport": {"northeast": {"lat": 51.50964313029149, "lng": -0.143655469708498}, "southwest": {"lat": 51.50694516970849, "lng": -0.146353430291502}}}, "name": "The Lansdowne Club", "place_id": "ChIJqXW6FCkFdkgRAuLmB2pExyM", "types": ["spa", "lodging", "point_of_interest", "establishment"], "rating": 4.5, "user_ratings_total": 382}, "ChIJM87KJikFdkgREjchJbjm768": {"geometry": {"location": {"lat": 51.50796870000001, "lng": -0.1451323}, "viewport": {"northeast": {"lat": 51.50927938029151, "lng": -0.143704119708498}, "southwest": {"lat": 51.50658141970851, "lng": -0.1464020802915021}}}, "name": "The Color Company - Curzon Street", "place_id": "ChIJM87KJikFdkgREjchJbjm768", "types": ["point_of_interest", "store", "establishment"], "rating": 3.4, "user_ratings_total": 89}, "ChIJAXJuQCkFdkgRY9jsS4ATaA0": {"geometry": {"location": {"lat": 51.50832269999999, "lng": -0.1452533}, "viewport": {"northeast": {"lat": 51.50972333029149, "lng": -0.143789169708498}, "southwest": {"lat": 51.5070253697085, "lng": -0.146487130291502}}}, "name": "farm street church w1", "place_id": "ChIJAXJuQCkFdkgRY9jsS4ATaA0", "types": ["bus_station", "transit_station", "point_of_interest", "establishment"]}, "ChIJ33jddtwEdkgRsPexx8HOK84": {"geometry": {"location": {"lat": 51.50862780000001, "lng": -0.1447868}, "viewport": {"northeast": {"lat": 51.5100100802915, "lng": -0.1436955197084979}, "southwest": {"lat": 51.50731211970851, "lng": -0.146393480291502}}}, "name": "RJH Trading Ltd.", "place_id": "ChIJ33jddtwEdkgRsPexx8HOK84", "types": ["point_of_interest", "establishment"], "rating": 5, "user_ratings_total": 3}, "ChIJS1KSECkFdkgRLvu3r6sSd2Y": {"geometry": {"location": {"lat": 51.50786559999999, "lng": -0.1447791}, "viewport": {"northeast": {"lat": 51.50923883029149, "lng": -0.143532769708498}, "southwest": {"lat": 51.50654086970849, "lng": -0.146230730291502}}}, "name": "Property Partners", "place_id": "ChIJS1KSECkFdkgRLvu3r6sSd2Y", "types": ["point_of_interest", "establishment"]}, "ChIJuaXyojQFdkgREIfWG6F9DSo": {"geometry": {"location": {"lat": 51.5079292, "lng": -0.144818}, "viewport": {"northeast": {"lat": 51.5092956802915, "lng": -0.143536919708498}, "southwest": {"lat": 51.5065977197085, "lng": -0.1462348802915021}}}, "name": "Gherson", "place_id": "ChIJuaXyojQFdkgREIfWG6F9DSo", "types": ["lawyer", "point_of_interest", "establishment"], "rating": 4.6, "user_ratings_total": 24}, "ChIJ805kbSkFdkgR7NhYRwktkbA": {"geometry": {"location": {"lat": 51.5084656, "lng": -0.1446471}, "viewport": {"northeast": {"lat": 51.5096943302915, "lng": -0.143331919708498}, "southwest": {"lat": 51.5069963697085, "lng": -0.146029880291502}}}, "name": "Mayfair Fotos - Kodak", "place_id": "ChIJ805kbSkFdkgR7NhYRwktkbA", "types": ["finance", "electronics_store", "home_goods_store", "point_of_interest", "store", "establishment"], "rating": 4.5, "user_ratings_total": 27}, "ChIJbTdaA9YEdkgRB3JhupapkEM": {"geometry": {"location": {"lat": 51.5079708, "lng": -0.1447255}, "viewport": {"northeast": {"lat": 51.5093429302915, "lng": -0.143474519708498}, "southwest": {"lat": 51.5066449697085, "lng": -0.146172480291502}}}, "name": "Prada", "place_id": "ChIJbTdaA9YEdkgRB3JhupapkEM", "types": ["clothing_store", "point_of_interest", "store", "establishment"], "rating": 2.7, "user_ratings_total": 3}, "ChIJe2LBEykFdkgRJzo0XGJWj88": {"geometry": {"location": {"lat": 51.5079708, "lng": -0.1447255}, "viewport": {"northeast": {"lat": 51.5093429302915, "lng": -0.143474519708498}, "southwest": {"lat": 51.5066449697085, "lng": -0.146172480291502}}}, "name": "Samba Financial Group", "place_id": "ChIJe2LBEykFdkgRJzo0XGJWj88", "types": ["finance", "point_of_interest", "establishment"], "rating": 4.3, "user_ratings_total": 3}, "ChIJeU2SECkFdkgRo3l8Y7dgihQ": {"geometry": {"location": {"lat": 51.5078968, "lng": -0.1446525}, "viewport": {"northeast": {"lat": 51.5092811302915, "lng": -0.1434531697084979}, "southwest": {"lat": 51.5065831697085, "lng": -0.146151130291502}}}, "name": "InterTrust Fertility", "place_id": "ChIJeU2SECkFdkgRo3l8Y7dgihQ", "types": ["health", "point_of_interest", "establishment"]}, "ChIJM87KJikFdkgRsjGStHn5X2E": {"geometry": {"location": {"lat": 51.5077373, "lng": -0.1452577}, "viewport": {"northeast": {"lat": 51.50906223029149, "lng": -0.143850619708498}, "southwest": {"lat": 51.50636426970849, "lng": -0.146548580291502}}}, "name": "Crussh Fit Food & Juice Bars", "place_id": "ChIJM87KJikFdkgRsjGStHn5X2E", "types": ["meal_takeaway", "cafe", "restaurant", "food", "point_of_interest", "store", "establishment"], "rating": 4.1, "user_ratings_total": 48}, "ChIJoSRBbSkFdkgRbyarMwmvBbA": {"geometry": {"location": {"lat": 51.5084187, "lng": -0.1447369}, "viewport": {"northeast": {"lat": 51.5096708802915, "lng": -0.143365119708498}, "southwest": {"lat": 51.5069729197085, "lng": -0.146063080291502}}}, "name": "Health Monitoring", "place_id": "ChIJoSRBbSkFdkgRbyarMwmvBbA", "types": ["health", "point_of_interest", "store", "establishment"]}, "ChIJ0dR3uUkbdkgRWznAO06O5y0": {"geometry": {"location": {"lat": 51.5083646, "lng": -0.144776}, "viewport": {"northeast": {"lat": 51.50968863029151, "lng": -0.143481419708498}, "southwest": {"lat": 51.50699066970851, "lng": -0.146179380291502}}}, "name": "Thomas von Nordheim Bespoke Tailoring & Haute Couture", "place_id": "ChIJ0dR3uUkbdkgRWznAO06O5y0", "types": ["point_of_interest", "establishment"], "rating": 5, "user_ratings_total": 9}, "ChIJv7UwEegQdkgRpecTn7LfE4Y": {"geometry": {"location": {"lat": 51.50828, "lng": -0.1444852}, "viewport": {"northeast": {"lat": 51.5096359802915, "lng": -0.143297269708498}, "southwest": {"lat": 51.50693801970851, "lng": -0.145995230291502}}}, "name": "Lola's Cupcakes Mayfair", "place_id": "ChIJv7UwEegQdkgRpecTn7LfE4Y", "types": ["bakery", "food", "point_of_interest", "store", "establishment"], "rating": 4.3, "user_ratings_total": 44}, "ChIJC6W3FCkFdkgRkFBDcwT87M8": {"geometry": {"location": {"lat": 51.5083143, "lng": -0.1450589}, "viewport": {"northeast": {"lat": 51.5096912802915, "lng": -0.143655819708498}, "southwest": {"lat": 51.5069933197085, "lng": -0.146353780291502}}}, "name": "The London Cossack Association", "place_id": "ChIJC6W3FCkFdkgRkFBDcwT87M8", "types": ["point_of_interest", "establishment"]}, "ChIJHSC3FCkFdkgRVGW1yZMxAUg": {"geometry": {"location": {"lat": 51.50831700000001, "lng": -0.145051}, "viewport": {"northeast": {"lat": 51.50969028029151, "lng": -0.143649069708498}, "southwest": {"lat": 51.50699231970851, "lng": -0.146347030291502}}}, "name": "Physio Remedies", "place_id": "ChIJHSC3FCkFdkgRVGW1yZMxAUg", "types": ["physiotherapist", "doctor", "gym", "health", "point_of_interest", "establishment"], "rating": 4.7, "user_ratings_total": 9}, "ChIJOygVsSsFdkgRgir3uDT3CpQ": {"geometry": {"location": {"lat": 51.50797470000001, "lng": -0.1447413}, "viewport": {"northeast": {"lat": 51.5093424802915, "lng": -0.143483919708498}, "southwest": {"lat": 51.5066445197085, "lng": -0.146181880291502}}}, "name": "Basalt Infrastructure Partners LLP", "place_id": "ChIJOygVsSsFdkgRgir3uDT3CpQ", "types": ["finance", "point_of_interest", "establishment"], "rating": 1.5, "user_ratings_total": 2}, "ChIJ9b7SmTQFdkgR84f0S6uyEQI": {"geometry": {"location": {"lat": 51.50795429999999, "lng": -0.1447995}, "viewport": {"northeast": {"lat": 51.5093216802915, "lng": -0.143519469708498}, "southwest": {"lat": 51.5066237197085, "lng": -0.146217430291502}}}, "name": "Discreet Law LLP", "place_id": "ChIJ9b7SmTQFdkgR84f0S6uyEQI", "types": ["point_of_interest", "establishment"]}, "ChIJtUzJ37oqdEgRj6Z5fqwZfeg": {"geometry": {"location": {"lat": 51.5079709, "lng": -0.1447255}, "viewport": {"northeast": {"lat": 51.5093430302915, "lng": -0.143474519708498}, "southwest": {"lat": 51.5066450697085, "lng": -0.146172480291502}}}, "name": "Hitched.co.uk", "place_id": "ChIJtUzJ37oqdEgRj6Z5fqwZfeg", "types": ["point_of_interest", "establishment"], "rating": 3.6, "user_ratings_total": 47}, "ChIJg7ZCMn8FdkgRMEzyZB-wOSE": {"geometry": {"location": {"lat": 51.5079708, "lng": -0.1447255}, "viewport": {"northeast": {"lat": 51.5093429302915, "lng": -0.143474519708498}, "southwest": {"lat": 51.5066449697085, "lng": -0.146172480291502}}}, "name": "Brydg", "place_id": "ChIJg7ZCMn8FdkgRMEzyZB-wOSE", "types": ["finance", "point_of_interest", "establishment"], "rating": 4.5, "user_ratings_total": 8}, "ChIJqwMa2dAEdkgREyRsMKbTeNE": {"geometry": {"location": {"lat": 51.5079708, "lng": -0.1447255}, "viewport": {"northeast": {"lat": 51.5093429302915, "lng": -0.143474519708498}, "southwest": {"lat": 51.5066449697085, "lng": -0.146172480291502}}}, "name": "peregrine black", "place_id": "ChIJqwMa2dAEdkgREyRsMKbTeNE", "types": ["finance", "point_of_interest", "establishment"]}, "ChIJX5qRESkFdkgRbPQwWiKG_UQ": {"geometry": {"location": {"lat": 51.5079708, "lng": -0.1447255}, "viewport": {"northeast": {"lat": 51.5093429302915, "lng": -0.143474519708498}, "southwest": {"lat": 51.5066449697085, "lng": -0.146172480291502}}}, "name": "MBU Capital", "place_id": "ChIJX5qRESkFdkgRbPQwWiKG_UQ", "types": ["finance", "point_of_interest", "establishment"], "rating": 3.5, "user_ratings_total": 8}, "ChIJn1LwECkFdkgR0ulJrsVAS4A": {"geometry": {"location": {"lat": 51.50786559999999, "lng": -0.1447791}, "viewport": {"northeast": {"lat": 51.50923883029149, "lng": -0.143532769708498}, "southwest": {"lat": 51.50654086970849, "lng": -0.146230730291502}}}, "name": "Milestone Experts", "place_id": "ChIJn1LwECkFdkgR0ulJrsVAS4A", "types": ["point_of_interest", "establishment"]}, "ChIJDXYcESkFdkgR5pmIK2Um-4g": {"geometry": {"location": {"lat": 51.507876, "lng": -0.144852}, "viewport": {"northeast": {"lat": 51.50924108029149, "lng": -0.143571019708498}, "southwest": {"lat": 51.50654311970849, "lng": -0.146268980291502}}}, "name": "Hiro Miyoshi Hair & Beauty | Mayfair, London", "place_id": "ChIJDXYcESkFdkgR5pmIK2Um-4g", "types": ["beauty_salon", "hair_care", "point_of_interest", "establishment"], "rating": 4.6, "user_ratings_total": 74}, "ChIJYVq92CsFdkgRDj89RFfqsyo": {"geometry": {"location": {"lat": 51.5078705, "lng": -0.1451683}, "viewport": {"northeast": {"lat": 51.5092292302915, "lng": -0.143741319708498}, "southwest": {"lat": 51.5065312697085, "lng": -0.146439280291502}}}, "name": "Hello Recruitment London", "place_id": "ChIJYVq92CsFdkgRDj89RFfqsyo", "types": ["point_of_interest", "establishment"], "rating": 3, "user_ratings_total": 1}, "ChIJZSC7EFAbdkgRm7PaulquPdY": {"geometry": {"location": {"lat": 51.5078968, "lng": -0.1446525}, "viewport": {"northeast": {"lat": 51.5092811302915, "lng": -0.1434531697084979}, "southwest": {"lat": 51.5065831697085, "lng": -0.146151130291502}}}, "name": "Event Wishes", "place_id": "ChIJZSC7EFAbdkgRm7PaulquPdY", "types": ["point_of_interest", "establishment"]}, "ChIJ6yAh8kYZdkgRVj5hmUTcmpg": {"geometry": {"location": {"lat": 51.50862780000001, "lng": -0.1447868}, "viewport": {"northeast": {"lat": 51.5100100802915, "lng": -0.1436955197084979}, "southwest": {"lat": 51.50731211970851, "lng": -0.146393480291502}}}, "name": "NM Group", "place_id": "ChIJ6yAh8kYZdkgRVj5hmUTcmpg", "types": ["finance", "point_of_interest", "establishment"]}, "ChIJlf-qESkFdkgRgdOfJs8XgVA": {"geometry": {"location": {"lat": 51.50786559999999, "lng": -0.1447791}, "viewport": {"northeast": {"lat": 51.50923883029149, "lng": -0.143532769708498}, "southwest": {"lat": 51.50654086970849, "lng": -0.146230730291502}}}, "name": "Brand aviators", "place_id": "ChIJlf-qESkFdkgRgdOfJs8XgVA", "types": ["point_of_interest", "establishment"]}, "ChIJn1LwECkFdkgRId4AaZcK87A": {"geometry": {"location": {"lat": 51.50786559999999, "lng": -0.1447791}, "viewport": {"northeast": {"lat": 51.50923883029149, "lng": -0.143532769708498}, "southwest": {"lat": 51.50654086970849, "lng": -0.146230730291502}}}, "name": "Buds Office Plants", "place_id": "ChIJn1LwECkFdkgRId4AaZcK87A", "types": ["florist", "general_contractor", "point_of_interest", "store", "establishment"]}, "ChIJgxDrZCkFdkgRMDQgUVow9fs": {"geometry": {"location": {"lat": 51.50862780000001, "lng": -0.1447868}, "viewport": {"northeast": {"lat": 51.5100100802915, "lng": -0.1436955197084979}, "southwest": {"lat": 51.50731211970851, "lng": -0.146393480291502}}}, "name": "Panthea", "place_id": "ChIJgxDrZCkFdkgRMDQgUVow9fs", "types": ["point_of_interest", "establishment"]}, "ChIJgxDrZCkFdkgRKj0yLd6pOxY": {"geometry": {"location": {"lat": 51.50862780000001, "lng": -0.1447868}, "viewport": {"northeast": {"lat": 51.5100100802915, "lng": -0.1436955197084979}, "southwest": {"lat": 51.50731211970851, "lng": -0.146393480291502}}}, "name": "Philtre Ltd", "place_id": "ChIJgxDrZCkFdkgRKj0yLd6pOxY", "types": ["point_of_interest", "establishment"]}, "ChIJ4_J0YykFdkgRlGO886RjtC0": {"geometry": {"location": {"lat": 51.50862780000001, "lng": -0.1447868}, "viewport": {"northeast": {"lat": 51.5100100802915, "lng": -0.1436955197084979}, "southwest": {"lat": 51.50731211970851, "lng": -0.146393480291502}}}, "name": "Better Business Partners Ltd", "place_id": "ChIJ4_J0YykFdkgRlGO886RjtC0", "types": ["point_of_interest", "establishment"]}, "ChIJgxDrZCkFdkgRDWEnhnZDG2k": {"geometry": {"location": {"lat": 51.50862780000001, "lng": -0.1447868}, "viewport": {"northeast": {"lat": 51.5100100802915, "lng": -0.1436955197084979}, "southwest": {"lat": 51.50731211970851, "lng": -0.146393480291502}}}, "name": "Starr parties", "place_id": "ChIJgxDrZCkFdkgRDWEnhnZDG2k", "types": ["point_of_interest", "establishment"]}, "ChIJgxDrZCkFdkgRoHFxH5QCl-c": {"geometry": {"location": {"lat": 51.50862780000001, "lng": -0.1447868}, "viewport": {"northeast": {"lat": 51.5100100802915, "lng": -0.1436955197084979}, "southwest": {"lat": 51.50731211970851, "lng": -0.146393480291502}}}, "name": "Pryce Warner", "place_id": "ChIJgxDrZCkFdkgRoHFxH5QCl-c", "types": ["finance", "point_of_interest", "establishment"]}, "ChIJ4_J0YykFdkgRBW9VcRn4HJM": {"geometry": {"location": {"lat": 51.50862780000001, "lng": -0.1447868}, "viewport": {"northeast": {"lat": 51.5100100802915, "lng": -0.1436955197084979}, "southwest": {"lat": 51.50731211970851, "lng": -0.146393480291502}}}, "name": "International Commercial Investment", "place_id": "ChIJ4_J0YykFdkgRBW9VcRn4HJM", "types": ["finance", "point_of_interest", "establishment"], "rating": 3.3, "user_ratings_total": 3}, "ChIJ4_J0YykFdkgRIBiXhIrz63g": {"geometry": {"location": {"lat": 51.50862780000001, "lng": -0.1447868}, "viewport": {"northeast": {"lat": 51.5100100802915, "lng": -0.1436955197084979}, "southwest": {"lat": 51.50731211970851, "lng": -0.146393480291502}}}, "name": "EDM Investments Limited", "place_id": "ChIJ4_J0YykFdkgRIBiXhIrz63g", "types": ["finance", "point_of_interest", "establishment"]}, "ChIJxWPXKHtudkgRI25WMRSESz4": {"geometry": {"location": {"lat": 51.50862780000001, "lng": -0.1447868}, "viewport": {"northeast": {"lat": 51.5100100802915, "lng": -0.1436955197084979}, "southwest": {"lat": 51.50731211970851, "lng": -0.146393480291502}}}, "name": "Bright Minds Media", "place_id": "ChIJxWPXKHtudkgRI25WMRSESz4", "types": ["point_of_interest", "establishment"], "rating": 5, "user_ratings_total": 10}, "ChIJ_YnamDMFdkgRh5BDiDCBSDA": {"geometry": {"location": {"lat": 51.50862780000001, "lng": -0.1447868}, "viewport": {"northeast": {"lat": 51.50997678029151, "lng": -0.143437819708498}, "southwest": {"lat": 51.50727881970851, "lng": -0.146135780291502}}}, "name": "Nomad Properties", "place_id": "ChIJ_YnamDMFdkgRh5BDiDCBSDA", "types": ["point_of_interest", "establishment"]}, "ChIJ9Uil5u0PdkgRPuJJSjJwngo": {"geometry": {"location": {"lat": 51.50862780000001, "lng": -0.1447868}, "viewport": {"northeast": {"lat": 51.5100104802915, "lng": -0.143695819708498}, "southwest": {"lat": 51.50731251970851, "lng": -0.146393780291502}}}, "name": "EANNA", "place_id": "ChIJ9Uil5u0PdkgRPuJJSjJwngo", "types": ["real_estate_agency", "point_of_interest", "establishment"]}, "ChIJo0uLxCMFdkgRVhgK59BK9sI": {"geometry": {"location": {"lat": 51.50862780000001, "lng": -0.1447868}, "viewport": {"northeast": {"lat": 51.5100100802915, "lng": -0.1436955197084979}, "southwest": {"lat": 51.50731211970851, "lng": -0.146393480291502}}}, "name": "Novum Securities", "place_id": "ChIJo0uLxCMFdkgRVhgK59BK9sI", "types": ["finance", "point_of_interest", "establishment"]}, "ChIJ77fbESkFdkgRhQaOsQjf94M": {"geometry": {"location": {"lat": 51.5079095, "lng": -0.1446356}, "viewport": {"northeast": {"lat": 51.5092947802915, "lng": -0.143440269708498}, "southwest": {"lat": 51.5065968197085, "lng": -0.146138230291502}}}, "name": "Ecom", "place_id": "ChIJ77fbESkFdkgRhQaOsQjf94M", "types": ["finance", "point_of_interest", "establishment"]}, "ChIJM3VHCikFdkgROtMjphAkzcY": {"geometry": {"location": {"lat": 51.50814810000001, "lng": -0.1443303}, "viewport": {"northeast": {"lat": 51.5093786802915, "lng": -0.142830069708498}, "southwest": {"lat": 51.5066807197085, "lng": -0.145528030291502}}}, "name": "May Fair Terrace", "place_id": "ChIJM3VHCikFdkgROtMjphAkzcY", "types": ["bar", "point_of_interest", "establishment"], "rating": 3.8, "user_ratings_total": 17}, "ChIJsRm9cikFdkgR_tF5-AKithc": {"geometry": {"location": {"lat": 51.5085861, "lng": -0.1445366}, "viewport": {"northeast": {"lat": 51.5097545802915, "lng": -0.143267169708498}, "southwest": {"lat": 51.5070566197085, "lng": -0.145965130291502}}}, "name": "Western Union", "place_id": "ChIJsRm9cikFdkgR_tF5-AKithc", "types": ["finance", "point_of_interest", "establishment"], "rating": 3, "user_ratings_total": 2}, "ChIJ1wu9QSkFdkgRrClTKZUwHMk": {"geometry": {"location": {"lat": 51.5085875, "lng": -0.1454725}, "viewport": {"northeast": {"lat": 51.5099819802915, "lng": -0.144183419708498}, "southwest": {"lat": 51.5072840197085, "lng": -0.146881380291502}}}, "name": "African Capital Investments", "place_id": "ChIJ1wu9QSkFdkgRrClTKZUwHMk", "types": ["point_of_interest", "establishment"]}, "ChIJB3mJACwFdkgRB3N5xsTqvug": {"geometry": {"location": {"lat": 51.5084858, "lng": -0.1456843}, "viewport": {"northeast": {"lat": 51.5098784302915, "lng": -0.144392769708498}, "southwest": {"lat": 51.5071804697085, "lng": -0.147090730291502}}}, "name": "Hadleigh Partners", "place_id": "ChIJB3mJACwFdkgRB3N5xsTqvug", "types": ["finance", "point_of_interest", "establishment"]}, "ChIJXbRIzi4FdkgRCZfdUO9d_zk": {"geometry": {"location": {"lat": 51.5086424, "lng": -0.1454744}, "viewport": {"northeast": {"lat": 51.51002018029151, "lng": -0.144163319708498}, "southwest": {"lat": 51.50732221970851, "lng": -0.146861280291502}}}, "name": "VistaJet", "place_id": "ChIJXbRIzi4FdkgRCZfdUO9d_zk", "types": ["point_of_interest", "establishment"], "rating": 5, "user_ratings_total": 16}, "ChIJ9cI6aSkFdkgRVrcfQ7vcqN8": {"geometry": {"location": {"lat": 51.50860329999999, "lng": -0.1455523}, "viewport": {"northeast": {"lat": 51.50998088029149, "lng": -0.1442409697084979}, "southwest": {"lat": 51.50728291970849, "lng": -0.146938930291502}}}, "name": "Starfleet", "place_id": "ChIJ9cI6aSkFdkgRVrcfQ7vcqN8", "types": ["point_of_interest", "establishment"], "rating": 5, "user_ratings_total": 1}, "ChIJF9xTbykFdkgRcYq-rKEhY-M": {"geometry": {"location": {"lat": 51.5087259, "lng": -0.1447166000000001}, "viewport": {"northeast": {"lat": 51.51017973029151, "lng": -0.143527619708498}, "southwest": {"lat": 51.50748176970851, "lng": -0.1462255802915021}}}, "name": "Karen Doherty", "place_id": "ChIJF9xTbykFdkgRcYq-rKEhY-M", "types": ["health", "point_of_interest", "establishment"]}, "ChIJdbVRbykFdkgRs3y_7NWwIKs": {"geometry": {"location": {"lat": 51.5087259, "lng": -0.1447166000000001}, "viewport": {"northeast": {"lat": 51.51017973029151, "lng": -0.143527619708498}, "southwest": {"lat": 51.50748176970851, "lng": -0.1462255802915021}}}, "name": "Grosvenor Private Office", "place_id": "ChIJdbVRbykFdkgRs3y_7NWwIKs", "types": ["point_of_interest", "establishment"]}, "ChIJdbVRbykFdkgRPr1_76fXEIQ": {"geometry": {"location": {"lat": 51.5087259, "lng": -0.1447166000000001}, "viewport": {"northeast": {"lat": 51.51017973029151, "lng": -0.143527619708498}, "southwest": {"lat": 51.50748176970851, "lng": -0.1462255802915021}}}, "name": "Ores & Minerals", "place_id": "ChIJdbVRbykFdkgRPr1_76fXEIQ", "types": ["point_of_interest", "establishment"]}, "ChIJYcFRbykFdkgRVup14rW69-A": {"geometry": {"location": {"lat": 51.5087259, "lng": -0.1447166000000001}, "viewport": {"northeast": {"lat": 51.5100748802915, "lng": -0.143367619708498}, "southwest": {"lat": 51.50737691970851, "lng": -0.1460655802915021}}}, "name": "EM Brokerage Group", "place_id": "ChIJYcFRbykFdkgRVup14rW69-A", "types": ["point_of_interest", "establishment"], "rating": 3, "user_ratings_total": 2}, "ChIJF8ZTbykFdkgRCirkyieU_To": {"geometry": {"location": {"lat": 51.5087259, "lng": -0.1447166000000001}, "viewport": {"northeast": {"lat": 51.51017973029151, "lng": -0.143527619708498}, "southwest": {"lat": 51.50748176970851, "lng": -0.1462255802915021}}}, "name": "IVC Rental", "place_id": "ChIJF8ZTbykFdkgRCirkyieU_To", "types": ["car_rental", "point_of_interest", "establishment"]}, "ChIJF8ZTbykFdkgRCT9lIU9q_dI": {"geometry": {"location": {"lat": 51.5087259, "lng": -0.1447166000000001}, "viewport": {"northeast": {"lat": 51.51017973029151, "lng": -0.143527619708498}, "southwest": {"lat": 51.50748176970851, "lng": -0.1462255802915021}}}, "name": "Sponsored Breaks", "place_id": "ChIJF8ZTbykFdkgRCT9lIU9q_dI", "types": ["travel_agency", "point_of_interest", "establishment"], "rating": 1, "user_ratings_total": 3}, "ChIJdbVRbykFdkgRAJaGSlLnqrU": {"geometry": {"location": {"lat": 51.5087259, "lng": -0.1447166000000001}, "viewport": {"northeast": {"lat": 51.51017973029151, "lng": -0.143527619708498}, "southwest": {"lat": 51.50748176970851, "lng": -0.1462255802915021}}}, "name": "GoldLine Finance", "place_id": "ChIJdbVRbykFdkgRAJaGSlLnqrU", "types": ["point_of_interest", "establishment"]}, "ChIJFR6hRykFdkgRUCY_eT6sAUw": {"geometry": {"location": {"lat": 51.50835240000001, "lng": -0.1458029}, "viewport": {"northeast": {"lat": 51.5097668802915, "lng": -0.144540069708498}, "southwest": {"lat": 51.5070689197085, "lng": -0.147238030291502}}}, "name": "Earlsfort Capital", "place_id": "ChIJFR6hRykFdkgRUCY_eT6sAUw", "types": ["finance", "real_estate_agency", "point_of_interest", "establishment"]}, "ChIJq_UJiCkFdkgRuqBACfpGsOs": {"geometry": {"location": {"lat": 51.50844180000001, "lng": -0.1457719}, "viewport": {"northeast": {"lat": 51.5098342302915, "lng": -0.144480119708498}, "southwest": {"lat": 51.5071362697085, "lng": -0.147178080291502}}}, "name": "Exton Estates", "place_id": "ChIJq_UJiCkFdkgRuqBACfpGsOs", "types": ["general_contractor", "point_of_interest", "establishment"]}, "ChIJnXn-RikFdkgR7zhcHn8DlhI": {"geometry": {"location": {"lat": 51.50844180000001, "lng": -0.1457719}, "viewport": {"northeast": {"lat": 51.5098342302915, "lng": -0.144480119708498}, "southwest": {"lat": 51.5071362697085, "lng": -0.147178080291502}}}, "name": "PROXC Consulting", "place_id": "ChIJnXn-RikFdkgR7zhcHn8DlhI", "types": ["point_of_interest", "establishment"]}, "ChIJ25GtbikFdkgRXULZD7ayQqs": {"geometry": {"location": {"lat": 51.5087151, "lng": -0.1449631}, "viewport": {"northeast": {"lat": 51.5101623802915, "lng": -0.143219619708498}, "southwest": {"lat": 51.5074644197085, "lng": -0.145917580291502}}}, "name": "Eggison Daniel", "place_id": "ChIJ25GtbikFdkgRXULZD7ayQqs", "types": ["hair_care", "point_of_interest", "establishment"], "rating": 5, "user_ratings_total": 8}, "ChIJAbs4IikFdkgRF6v_cM9kx3A": {"geometry": {"location": {"lat": 51.507337200047, "lng": -0.1455979501797765}, "viewport": {"northeast": {"lat": 51.5086861802915, "lng": -0.144248969708498}, "southwest": {"lat": 51.5059882197085, "lng": -0.146946930291502}}}, "name": "3-1 Curzon St", "place_id": "ChIJAbs4IikFdkgRF6v_cM9kx3A", "types": ["route"]}, "ChIJDxXX2CgFdkgRb1i8QSk6F4E": {"geometry": {"location": {"lat": 51.5070249, "lng": -0.1455304}, "viewport": {"northeast": {"lat": 51.50841733029149, "lng": -0.144125519708498}, "southwest": {"lat": 51.5057193697085, "lng": -0.146823480291502}}}, "name": "Burger & Lobster Mayfair", "place_id": "ChIJDxXX2CgFdkgRb1i8QSk6F4E", "types": ["bar", "restaurant", "food", "point_of_interest", "establishment"], "rating": 4.4, "user_ratings_total": 1960}, "ChIJ7VNsMywFdkgR_BOQDBwz3EU": {"geometry": {"location": {"lat": 51.5073018, "lng": -0.1443967}, "viewport": {"northeast": {"lat": 51.5086163302915, "lng": -0.143115719708498}, "southwest": {"lat": 51.5059183697085, "lng": -0.145813680291502}}}, "name": "Timothy Taylor", "place_id": "ChIJ7VNsMywFdkgR_BOQDBwz3EU", "types": ["art_gallery", "point_of_interest", "establishment"], "rating": 4.5, "user_ratings_total": 27}, "ChIJM9ZmAykFdkgRomp4JjN0_eE": {"geometry": {"location": {"lat": 51.5073186, "lng": -0.1444824}, "viewport": {"northeast": {"lat": 51.5086428802915, "lng": -0.143182219708498}, "southwest": {"lat": 51.5059449197085, "lng": -0.145880180291502}}}, "name": "Dix Noonan Webb", "place_id": "ChIJM9ZmAykFdkgRomp4JjN0_eE", "types": ["point_of_interest", "establishment"], "rating": 4.4, "user_ratings_total": 27}, "ChIJ3TVCVndydkgREw9aboS6zjE": {"geometry": {"location": {"lat": 51.50710639999999, "lng": -0.1445335}, "viewport": {"northeast": {"lat": 51.5084807302915, "lng": -0.1431345197084979}, "southwest": {"lat": 51.5057827697085, "lng": -0.145832480291502}}}, "name": "Fiducia Interiors", "place_id": "ChIJ3TVCVndydkgREw9aboS6zjE", "types": ["general_contractor", "point_of_interest", "establishment"], "rating": 5, "user_ratings_total": 1}, "ChIJT1O0ti4FdkgRo8lR-ipGjBs": {"geometry": {"location": {"lat": 51.50710660000001, "lng": -0.1444591}, "viewport": {"northeast": {"lat": 51.5084635802915, "lng": -0.143094269708498}, "southwest": {"lat": 51.5057656197085, "lng": -0.145792230291502}}}, "name": "Unity Land LLP", "place_id": "ChIJT1O0ti4FdkgRo8lR-ipGjBs", "types": ["finance", "point_of_interest", "establishment"]}, "ChIJVZazXioFdkgRDhikUxmOSGw": {"geometry": {"location": {"lat": 51.5070737, "lng": -0.1445555}, "viewport": {"northeast": {"lat": 51.50845788029149, "lng": -0.143137019708498}, "southwest": {"lat": 51.5057599197085, "lng": -0.145834980291502}}}, "name": "Urban Student Life, Corporate Office", "place_id": "ChIJVZazXioFdkgRDhikUxmOSGw", "types": ["point_of_interest", "establishment"], "rating": 3.5, "user_ratings_total": 8}, "ChIJnZZJICkFdkgRbkU2R6w9LSo": {"geometry": {"location": {"lat": 51.5072065, "lng": -0.1454682}, "viewport": {"northeast": {"lat": 51.50855548029149, "lng": -0.144119219708498}, "southwest": {"lat": 51.50585751970849, "lng": -0.146817180291502}}}, "name": "Shanghai Touch", "place_id": "ChIJnZZJICkFdkgRbkU2R6w9LSo", "types": ["spa", "health", "point_of_interest", "establishment"], "rating": 2.4, "user_ratings_total": 11}, "ChIJq5Q6AikFdkgR8BEP-nFOH-U": {"geometry": {"location": {"lat": 51.507188, "lng": -0.144499}, "viewport": {"northeast": {"lat": 51.50852468029151, "lng": -0.143174169708498}, "southwest": {"lat": 51.50582671970851, "lng": -0.145872130291502}}}, "name": "Chris Bond", "place_id": "ChIJq5Q6AikFdkgR8BEP-nFOH-U", "types": ["point_of_interest", "establishment"]}, "ChIJK0eFAikFdkgRjBt2-tDI4oQ": {"geometry": {"location": {"lat": 51.50710660000001, "lng": -0.1444591}, "viewport": {"northeast": {"lat": 51.5084635802915, "lng": -0.143094269708498}, "southwest": {"lat": 51.5057656197085, "lng": -0.145792230291502}}}, "name": "VTP Global", "place_id": "ChIJK0eFAikFdkgRjBt2-tDI4oQ", "types": ["general_contractor", "point_of_interest", "establishment"]}, "ChIJUzZd4SgFdkgR-bwLfJ4H-vg": {"geometry": {"location": {"lat": 51.5069113, "lng": -0.1454595}, "viewport": {"northeast": {"lat": 51.5083048302915, "lng": -0.144035069708498}, "southwest": {"lat": 51.5056068697085, "lng": -0.146733030291502}}}, "name": "PRE", "place_id": "ChIJUzZd4SgFdkgR-bwLfJ4H-vg", "types": ["real_estate_agency", "point_of_interest", "establishment"]}, "ChIJDRpLGykFdkgRfIObp3ft_w8": {"geometry": {"location": {"lat": 51.5074411, "lng": -0.1445791}, "viewport": {"northeast": {"lat": 51.5087556802915, "lng": -0.143298019708498}, "southwest": {"lat": 51.5060577197085, "lng": -0.145995980291502}}}, "name": "Lanson International Ltd", "place_id": "ChIJDRpLGykFdkgRfIObp3ft_w8", "types": ["point_of_interest", "establishment"]}, "ChIJXeVr-igFdkgRLNBTKcUKaDw": {"geometry": {"location": {"lat": 51.5067783, "lng": -0.1448401}, "viewport": {"northeast": {"lat": 51.5081272802915, "lng": -0.143491119708498}, "southwest": {"lat": 51.5054293197085, "lng": -0.146189080291502}}}, "name": "The Kennel Club Charitable Trust", "place_id": "ChIJXeVr-igFdkgRLNBTKcUKaDw", "types": ["point_of_interest", "establishment"], "rating": 4.4, "user_ratings_total": 16}, "ChIJQ1GYAykFdkgR7-R3_xxBFTU": {"geometry": {"location": {"lat": 51.50729, "lng": -0.1443834}, "viewport": {"northeast": {"lat": 51.5086048802915, "lng": -0.143101769708498}, "southwest": {"lat": 51.5059069197085, "lng": -0.145799730291502}}}, "name": "Harvest Investments", "place_id": "ChIJQ1GYAykFdkgR7-R3_xxBFTU", "types": ["finance", "point_of_interest", "establishment"]}, "ChIJX-dw5CgFdkgRJpMkEtlzmC4": {"geometry": {"location": {"lat": 51.5067253, "lng": -0.1447713}, "viewport": {"northeast": {"lat": 51.50805938029151, "lng": -0.143447519708498}, "southwest": {"lat": 51.50536141970851, "lng": -0.146145480291502}}}, "name": "Eastern Pacific Shipping (UK) Ltd.", "place_id": "ChIJX-dw5CgFdkgRJpMkEtlzmC4", "types": ["point_of_interest", "establishment"]}, "ChIJ18gvAikFdkgR1VVIG_VuCwk": {"geometry": {"location": {"lat": 51.5071665, "lng": -0.1442767}, "viewport": {"northeast": {"lat": 51.5084897302915, "lng": -0.142978569708498}, "southwest": {"lat": 51.5057917697085, "lng": -0.145676530291502}}}, "name": "Santessa Vocal Coach", "place_id": "ChIJ18gvAikFdkgR1VVIG_VuCwk", "types": ["school", "point_of_interest", "establishment"]}, "ChIJBVJ1uzgFdkgR6IsOn_Rgh6k": {"geometry": {"location": {"lat": 51.5066747, "lng": -0.1446706}, "viewport": {"northeast": {"lat": 51.5080017302915, "lng": -0.143358769708498}, "southwest": {"lat": 51.5053037697085, "lng": -0.146056730291502}}}, "name": "Capula Investment Management", "place_id": "ChIJBVJ1uzgFdkgR6IsOn_Rgh6k", "types": ["finance", "point_of_interest", "establishment"], "rating": 4.5, "user_ratings_total": 2}, "ChIJsfDbPCkFdkgRQX7xKZ_XFpc": {"geometry": {"location": {"lat": 51.50756380000001, "lng": -0.1454236}, "viewport": {"northeast": {"lat": 51.50897268029149, "lng": -0.143979369708498}, "southwest": {"lat": 51.5062747197085, "lng": -0.146677330291502}}}, "name": "Crosstree Real Estate Partners LLP", "place_id": "ChIJsfDbPCkFdkgRQX7xKZ_XFpc", "types": ["finance", "point_of_interest", "establishment"], "rating": 5, "user_ratings_total": 1}, "ChIJ0_vJnSkFdkgREaZMEWYp7l8": {"geometry": {"location": {"lat": 51.5068757, "lng": -0.1453827}, "viewport": {"northeast": {"lat": 51.5082642302915, "lng": -0.143965619708498}, "southwest": {"lat": 51.50556626970851, "lng": -0.146663580291502}}}, "name": "John D Wood", "place_id": "ChIJ0_vJnSkFdkgREaZMEWYp7l8", "types": ["real_estate_agency", "finance", "point_of_interest", "establishment"], "rating": 5, "user_ratings_total": 8}, "ChIJdbyTASkFdkgRxzKrM3MMjkw": {"geometry": {"location": {"lat": 51.507131, "lng": -0.1441733}, "viewport": {"northeast": {"lat": 51.5084455302915, "lng": -0.142892319708498}, "southwest": {"lat": 51.5057475697085, "lng": -0.145590280291502}}}, "name": "Andevour Ltd", "place_id": "ChIJdbyTASkFdkgRxzKrM3MMjkw", "types": ["point_of_interest", "establishment"]}, "ChIJ0YGhCjUbdkgRBz2Kux4-_vA": {"geometry": {"location": {"lat": 51.5071378, "lng": -0.1441662}, "viewport": {"northeast": {"lat": 51.50845108029149, "lng": -0.142888919708498}, "southwest": {"lat": 51.5057531197085, "lng": -0.145586880291502}}}, "name": "BODILOSOPHY", "place_id": "ChIJ0YGhCjUbdkgRBz2Kux4-_vA", "types": ["school", "health", "point_of_interest", "establishment"], "rating": 5, "user_ratings_total": 90}, "ChIJqzzg3RYSdkgRxvdGp7QUpto": {"geometry": {"location": {"lat": 51.5071378, "lng": -0.1441662}, "viewport": {"northeast": {"lat": 51.50844988029149, "lng": -0.142890069708498}, "southwest": {"lat": 51.5057519197085, "lng": -0.145588030291502}}}, "name": "Ash Norton Solicitors", "place_id": "ChIJqzzg3RYSdkgRxvdGp7QUpto", "types": ["point_of_interest", "establishment"], "rating": 4.7, "user_ratings_total": 24}, "ChIJcQCQAikFdkgRYh2s-Cc4ilY": {"geometry": {"location": {"lat": 51.5070552, "lng": -0.1445792}, "viewport": {"northeast": {"lat": 51.5084466802915, "lng": -0.143146319708498}, "southwest": {"lat": 51.50574871970851, "lng": -0.145844280291502}}}, "name": "London Board Rooms", "place_id": "ChIJcQCQAikFdkgRYh2s-Cc4ilY", "types": ["point_of_interest", "establishment"]}, "ChIJcQCQAikFdkgRipCWOgRpanE": {"geometry": {"location": {"lat": 51.5070737, "lng": -0.1445555}, "viewport": {"northeast": {"lat": 51.50845788029149, "lng": -0.143137019708498}, "southwest": {"lat": 51.5057599197085, "lng": -0.145834980291502}}}, "name": "Moss Associates", "place_id": "ChIJcQCQAikFdkgRipCWOgRpanE", "types": ["clothing_store", "point_of_interest", "store", "establishment"]}, "ChIJo9xRJykFdkgR1kxM0kE-wYY": {"geometry": {"location": {"lat": 51.5070832, "lng": -0.1456929}, "viewport": {"northeast": {"lat": 51.50847053029149, "lng": -0.144414369708498}, "southwest": {"lat": 51.50577256970849, "lng": -0.147112330291502}}}, "name": "Tesco Express", "place_id": "ChIJo9xRJykFdkgR1kxM0kE-wYY", "types": ["supermarket", "convenience_store", "grocery_or_supermarket", "food", "point_of_interest", "store", "establishment"], "rating": 3.4, "user_ratings_total": 51}, "ChIJK6KfISkFdkgRGltMkpeYWu0": {"geometry": {"location": {"lat": 51.5072371, "lng": -0.1455434}, "viewport": {"northeast": {"lat": 51.5085882802915, "lng": -0.144251969708498}, "southwest": {"lat": 51.5058903197085, "lng": -0.146949930291502}}}, "name": "Beiteddine Express", "place_id": "ChIJK6KfISkFdkgRGltMkpeYWu0", "types": ["cafe", "restaurant", "food", "point_of_interest", "establishment"], "rating": 3.8, "user_ratings_total": 115}, "ChIJcQCQAikFdkgRwBGcOYxmp5M": {"geometry": {"location": {"lat": 51.5070552, "lng": -0.1445792}, "viewport": {"northeast": {"lat": 51.5084466802915, "lng": -0.143146319708498}, "southwest": {"lat": 51.50574871970851, "lng": -0.145844280291502}}}, "name": "Izurium Capital Advisers Europe LLP", "place_id": "ChIJcQCQAikFdkgRwBGcOYxmp5M", "types": ["point_of_interest", "establishment"]}, "ChIJ2Y164CgFdkgRksMfFQonidY": {"geometry": {"location": {"lat": 51.50689, "lng": -0.1453595}, "viewport": {"northeast": {"lat": 51.5082389802915, "lng": -0.144010519708498}, "southwest": {"lat": 51.5055410197085, "lng": -0.146708480291502}}}, "name": "Park Lane Apartments/Clarges Street", "place_id": "ChIJ2Y164CgFdkgRksMfFQonidY", "types": ["lodging", "point_of_interest", "establishment"], "rating": 4.2, "user_ratings_total": 84}, "ChIJVVVRGSkFdkgR5TMRNHHTB64": {"geometry": {"location": {"lat": 51.5073832, "lng": -0.1449945}, "viewport": {"northeast": {"lat": 51.5088151802915, "lng": -0.143804219708498}, "southwest": {"lat": 51.50611721970851, "lng": -0.146502180291502}}}, "name": "Mirabelle", "place_id": "ChIJVVVRGSkFdkgR5TMRNHHTB64", "types": ["restaurant", "food", "point_of_interest", "establishment"]}, "ChIJdWQlgmAFdkgRnwE12iOwWFc": {"geometry": {"location": {"lat": 51.5070552, "lng": -0.1445792}, "viewport": {"northeast": {"lat": 51.5084472802915, "lng": -0.143143669708498}, "southwest": {"lat": 51.50574931970851, "lng": -0.145841630291502}}}, "name": "Dial Partners LLP", "place_id": "ChIJdWQlgmAFdkgRnwE12iOwWFc", "types": ["finance", "point_of_interest", "establishment"]}, "ChIJr6quAikFdkgRxRspWbVM7ME": {"geometry": {"location": {"lat": 51.5070553, "lng": -0.1445791}, "viewport": {"northeast": {"lat": 51.5084467302915, "lng": -0.143146269708498}, "southwest": {"lat": 51.5057487697085, "lng": -0.145844230291502}}}, "name": "Urban Residential UK", "place_id": "ChIJr6quAikFdkgRxRspWbVM7ME", "types": ["point_of_interest", "establishment"]}, "ChIJBVelAikFdkgRkELlHc0Y56c": {"geometry": {"location": {"lat": 51.5070737, "lng": -0.1445555}, "viewport": {"northeast": {"lat": 51.50845788029149, "lng": -0.143137019708498}, "southwest": {"lat": 51.5057599197085, "lng": -0.145834980291502}}}, "name": "New Independent Directors Limited", "place_id": "ChIJBVelAikFdkgRkELlHc0Y56c", "types": ["point_of_interest", "establishment"]}, "ChIJ45-NAikFdkgRzepKBHh-xPA": {"geometry": {"location": {"lat": 51.5070737, "lng": -0.1445555}, "viewport": {"northeast": {"lat": 51.50845788029149, "lng": -0.143137019708498}, "southwest": {"lat": 51.5057599197085, "lng": -0.145834980291502}}}, "name": "Grosvenor Securities", "place_id": "ChIJ45-NAikFdkgRzepKBHh-xPA", "types": ["point_of_interest", "establishment"]}, "ChIJcQCQAikFdkgR8iLaBcu22j8": {"geometry": {"location": {"lat": 51.5070737, "lng": -0.1445555}, "viewport": {"northeast": {"lat": 51.50845788029149, "lng": -0.143137019708498}, "southwest": {"lat": 51.5057599197085, "lng": -0.145834980291502}}}, "name": "Legat Corbishley Consulting Limited", "place_id": "ChIJcQCQAikFdkgR8iLaBcu22j8", "types": ["finance", "point_of_interest", "establishment"]}, "ChIJmZe1AykFdkgRzmgzzttJnoY": {"geometry": {"location": {"lat": 51.5072302, "lng": -0.1443033}, "viewport": {"northeast": {"lat": 51.5085447802915, "lng": -0.143022219708498}, "southwest": {"lat": 51.5058468197085, "lng": -0.145720180291502}}}, "name": "Richard Sutton", "place_id": "ChIJmZe1AykFdkgRzmgzzttJnoY", "types": ["point_of_interest", "establishment"], "rating": 5, "user_ratings_total": 1}, "ChIJbZSN3ygFdkgR1INFNZIDCoc": {"geometry": {"location": {"lat": 51.5069896, "lng": -0.1454609}, "viewport": {"northeast": {"lat": 51.5083637302915, "lng": -0.144068569708498}, "southwest": {"lat": 51.5056657697085, "lng": -0.146766530291502}}}, "name": "Glendore", "place_id": "ChIJbZSN3ygFdkgR1INFNZIDCoc", "types": ["point_of_interest", "establishment"]}, "ChIJ_Z-NAikFdkgRpXyOrYKPZ7k": {"geometry": {"location": {"lat": 51.50710660000001, "lng": -0.144459}, "viewport": {"northeast": {"lat": 51.5084635802915, "lng": -0.143094169708498}, "southwest": {"lat": 51.5057656197085, "lng": -0.145792130291502}}}, "name": "Advanced Cancer Diagnostics Ltd", "place_id": "ChIJ_Z-NAikFdkgRpXyOrYKPZ7k", "types": ["health", "point_of_interest", "establishment"]}, "ChIJ_Z-NAikFdkgRYLmb3bIoHJc": {"geometry": {"location": {"lat": 51.50710660000001, "lng": -0.144459}, "viewport": {"northeast": {"lat": 51.5084655802915, "lng": -0.143090019708498}, "southwest": {"lat": 51.50576761970851, "lng": -0.145787980291502}}}, "name": "Stephen D Moss", "place_id": "ChIJ_Z-NAikFdkgRYLmb3bIoHJc", "types": ["point_of_interest", "establishment"]}, "ChIJVVXR3ygFdkgR6bO3vkTimHo": {"geometry": {"location": {"lat": 51.50689, "lng": -0.1453595}, "viewport": {"northeast": {"lat": 51.5082715802915, "lng": -0.143954369708498}, "southwest": {"lat": 51.5055736197085, "lng": -0.146652330291502}}}, "name": "Clarges Property", "place_id": "ChIJVVXR3ygFdkgR6bO3vkTimHo", "types": ["point_of_interest", "establishment"], "rating": 5, "user_ratings_total": 1}, "ChIJTU1Q2vIFdkgRjuo2XamcJRI": {"geometry": {"location": {"lat": 51.50692060000001, "lng": -0.145463}, "viewport": {"northeast": {"lat": 51.5083124802915, "lng": -0.144041369708498}, "southwest": {"lat": 51.5056145197085, "lng": -0.146739330291502}}}, "name": "Clarges", "place_id": "ChIJTU1Q2vIFdkgRjuo2XamcJRI", "types": ["lodging", "travel_agency", "point_of_interest", "establishment"], "rating": 5, "user_ratings_total": 1}, "ChIJ__-63ygFdkgR-Giiy2WOyDI": {"geometry": {"location": {"lat": 51.50692060000001, "lng": -0.145463}, "viewport": {"northeast": {"lat": 51.5083111302915, "lng": -0.144042469708498}, "southwest": {"lat": 51.5056131697085, "lng": -0.146740430291502}}}, "name": "Mayfair Kapital", "place_id": "ChIJ__-63ygFdkgR-Giiy2WOyDI", "types": ["real_estate_agency", "point_of_interest", "establishment"]}, "ChIJ9VaP-igFdkgR31mscAu0l2Q": {"geometry": {"location": {"lat": 51.50678539999999, "lng": -0.1448321}, "viewport": {"northeast": {"lat": 51.50811128029149, "lng": -0.143522219708498}, "southwest": {"lat": 51.5054133197085, "lng": -0.146220180291502}}}, "name": "The Kennel Club", "place_id": "ChIJ9VaP-igFdkgR31mscAu0l2Q", "types": ["point_of_interest", "establishment"], "rating": 2, "user_ratings_total": 49}, "ChIJVVVl3ygFdkgRC7q_-7R5bdg": {"geometry": {"location": {"lat": 51.50699239999999, "lng": -0.1455668}, "viewport": {"northeast": {"lat": 51.5083823302915, "lng": -0.144147319708498}, "southwest": {"lat": 51.5056843697085, "lng": -0.146845280291502}}}, "name": "maestroonlinetutoring.co.uk", "place_id": "ChIJVVVl3ygFdkgRC7q_-7R5bdg", "types": ["point_of_interest", "establishment"]}, "ChIJr1B9AykFdkgRCQZDYlR4krE": {"geometry": {"location": {"lat": 51.5073619, "lng": -0.1444632}, "viewport": {"northeast": {"lat": 51.5086750802915, "lng": -0.143183869708498}, "southwest": {"lat": 51.5059771197085, "lng": -0.145881830291502}}}, "name": "Dix Noonan Webb", "place_id": "ChIJr1B9AykFdkgRCQZDYlR4krE", "types": ["point_of_interest", "establishment"]}, "ChIJq6pGAikFdkgRxExL99Daskg": {"geometry": {"location": {"lat": 51.50713760000001, "lng": -0.1443499}, "viewport": {"northeast": {"lat": 51.5084906802915, "lng": -0.1429927197084979}, "southwest": {"lat": 51.5057927197085, "lng": -0.145690680291502}}}, "name": "AIM CAPITAL FLAIR LIMITED", "place_id": "ChIJq6pGAikFdkgRxExL99Daskg", "types": ["point_of_interest", "establishment"]}, "ChIJobFuAikFdkgREDvX1T1dKww": {"geometry": {"location": {"lat": 51.5070949, "lng": -0.1443533}, "viewport": {"northeast": {"lat": 51.5084242802915, "lng": -0.143042869708498}, "southwest": {"lat": 51.5057263197085, "lng": -0.145740830291502}}}, "name": "Regents Global Management Ltd", "place_id": "ChIJobFuAikFdkgREDvX1T1dKww", "types": ["point_of_interest", "establishment"]}, "ChIJb76fE-4FdkgR72yc1ECUKjw": {"geometry": {"location": {"lat": 51.5072436, "lng": -0.1457045}, "viewport": {"northeast": {"lat": 51.5085787802915, "lng": -0.144379219708498}, "southwest": {"lat": 51.5058808197085, "lng": -0.147077180291502}}}, "name": "Hotel uk", "place_id": "ChIJb76fE-4FdkgR72yc1ECUKjw", "types": ["lodging", "point_of_interest", "establishment"], "rating": 5, "user_ratings_total": 9}, "ChIJrbzNICkFdkgR_Jkx11_AT-s": {"geometry": {"location": {"lat": 51.5071002, "lng": -0.1457348}, "viewport": {"northeast": {"lat": 51.5084773802915, "lng": -0.144437669708498}, "southwest": {"lat": 51.5057794197085, "lng": -0.147135630291502}}}, "name": "Hansa Trust PLC", "place_id": "ChIJrbzNICkFdkgR_Jkx11_AT-s", "types": ["finance", "point_of_interest", "establishment"]}, "ChIJlRVJJykFdkgRZ8MVRpIOuuM": {"geometry": {"location": {"lat": 51.5071002, "lng": -0.1457349}, "viewport": {"northeast": {"lat": 51.5084773802915, "lng": -0.1444377197084979}, "southwest": {"lat": 51.5057794197085, "lng": -0.147135680291502}}}, "name": "Foundation Investment Partners", "place_id": "ChIJlRVJJykFdkgRZ8MVRpIOuuM", "types": ["finance", "point_of_interest", "establishment"]}, "ChIJlRVJJykFdkgRdNSW7JZlR_E": {"geometry": {"location": {"lat": 51.5071002, "lng": -0.1457349}, "viewport": {"northeast": {"lat": 51.5084773802915, "lng": -0.1444377197084979}, "southwest": {"lat": 51.5057794197085, "lng": -0.147135680291502}}}, "name": "Oando Liaison Office", "place_id": "ChIJlRVJJykFdkgRdNSW7JZlR_E", "types": ["point_of_interest", "establishment"]}, "ChIJB5H4ASkFdkgR7Un34fSgD28": {"geometry": {"location": {"lat": 51.507131, "lng": -0.1441734}, "viewport": {"northeast": {"lat": 51.5084455302915, "lng": -0.142892419708498}, "southwest": {"lat": 51.5057475697085, "lng": -0.145590380291502}}}, "name": "Akkeron Group LLP", "place_id": "ChIJB5H4ASkFdkgR7Un34fSgD28", "types": ["point_of_interest", "establishment"]}, "ChIJ23T4ZLcCdkgRXCQQpZLLzE8": {"geometry": {"location": {"lat": 51.50709980000001, "lng": -0.1442463}, "viewport": {"northeast": {"lat": 51.5084361802915, "lng": -0.142922619708498}, "southwest": {"lat": 51.5057382197085, "lng": -0.145620580291502}}}, "name": "PSY-Practice Central London", "place_id": "ChIJ23T4ZLcCdkgRXCQQpZLLzE8", "types": ["health", "point_of_interest", "establishment"]}, "ChIJKeSiIikFdkgRYf6C4KQc4EI": {"geometry": {"location": {"lat": 51.50747310000001, "lng": -0.1455632}, "viewport": {"northeast": {"lat": 51.50894843029151, "lng": -0.144049169708498}, "southwest": {"lat": 51.50625046970851, "lng": -0.146747130291502}}}, "name": "Stone Milliner Asset Management LLP", "place_id": "ChIJKeSiIikFdkgRYf6C4KQc4EI", "types": ["finance", "point_of_interest", "establishment"]}, "ChIJQWMY1b8FdkgR6ofltWdW-4s": {"geometry": {"location": {"lat": 51.5071192, "lng": -0.1442016}, "viewport": {"northeast": {"lat": 51.5084403802915, "lng": -0.142907469708498}, "southwest": {"lat": 51.5057424197085, "lng": -0.145605430291502}}}, "name": "L Mulla Ltd", "place_id": "ChIJQWMY1b8FdkgR6ofltWdW-4s", "types": ["point_of_interest", "establishment"]}, "ChIJF-Qo-ukFdkgRG01UtX8cXac": {"geometry": {"location": {"lat": 51.5067391, "lng": -0.1445053}, "viewport": {"northeast": {"lat": 51.5079915802915, "lng": -0.143241419708498}, "southwest": {"lat": 51.5052936197085, "lng": -0.145939380291502}}}, "name": "Le Comptoir Robuchon", "place_id": "ChIJF-Qo-ukFdkgRG01UtX8cXac", "types": ["restaurant", "bar", "food", "point_of_interest", "establishment"], "rating": 4.6, "user_ratings_total": 51}, "ChIJ_RilNSwFdkgRPHxsQNT5rHw": {"geometry": {"location": {"lat": 51.50712739999999, "lng": -0.1441804}, "viewport": {"northeast": {"lat": 51.5084437302915, "lng": -0.142895869708498}, "southwest": {"lat": 51.5057457697085, "lng": -0.145593830291502}}}, "name": "Chelsee Lewis Facials", "place_id": "ChIJ_RilNSwFdkgRPHxsQNT5rHw", "types": ["beauty_salon", "spa", "point_of_interest", "establishment"]}, "ChIJVVWp5CgFdkgR0sPIeqSndc4": {"geometry": {"location": {"lat": 51.5066856, "lng": -0.1446233}, "viewport": {"northeast": {"lat": 51.5080026802915, "lng": -0.143328269708498}, "southwest": {"lat": 51.5053047197085, "lng": -0.146026230291502}}}, "name": "EASTERN PACIFIC SHIPPING LINE", "place_id": "ChIJVVWp5CgFdkgR0sPIeqSndc4", "types": ["point_of_interest", "establishment"]}, "ChIJVVWp5CgFdkgRKH9FDNgBKIs": {"geometry": {"location": {"lat": 51.5066856, "lng": -0.1446233}, "viewport": {"northeast": {"lat": 51.5080026802915, "lng": -0.143328269708498}, "southwest": {"lat": 51.5053047197085, "lng": -0.146026230291502}}}, "name": "Eastern Pacific Shipping Line", "place_id": "ChIJVVWp5CgFdkgRKH9FDNgBKIs", "types": ["point_of_interest", "establishment"]}, "ChIJVVWp5CgFdkgRx-7X2BG6V0Q": {"geometry": {"location": {"lat": 51.5066856, "lng": -0.1446233}, "viewport": {"northeast": {"lat": 51.5080026802915, "lng": -0.143328269708498}, "southwest": {"lat": 51.5053047197085, "lng": -0.146026230291502}}}, "name": "Tellurian Lng Uk Ltd", "place_id": "ChIJVVWp5CgFdkgRx-7X2BG6V0Q", "types": ["point_of_interest", "establishment"]}, "ChIJM5qxlCgFdkgRO5rH5H_WF-c": {"geometry": {"location": {"lat": 51.50569368807547, "lng": -0.1450204852580676}, "viewport": {"northeast": {"lat": 51.50704383029149, "lng": -0.143673069708498}, "southwest": {"lat": 51.50434586970849, "lng": -0.146371030291502}}}, "name": "94-92 Piccadilly", "place_id": "ChIJM5qxlCgFdkgRO5rH5H_WF-c", "types": ["route"]}, "ChIJQxoh3SgFdkgRbzWAvc0IoDY": {"geometry": {"location": {"lat": 51.50644490000001, "lng": -0.1451535}, "viewport": {"northeast": {"lat": 51.50775633029151, "lng": -0.143868569708498}, "southwest": {"lat": 51.50505836970851, "lng": -0.146566530291502}}}, "name": "Flemings Mayfair Hotel", "place_id": "ChIJQxoh3SgFdkgRbzWAvc0IoDY", "types": ["lodging", "point_of_interest", "establishment"], "rating": 4.2, "user_ratings_total": 222}, "ChIJT2v17ygFdkgRUiKc_uP17i8": {"geometry": {"location": {"lat": 51.50641719999999, "lng": -0.1446016000000001}, "viewport": {"northeast": {"lat": 51.50779308029149, "lng": -0.143204469708498}, "southwest": {"lat": 51.50509511970849, "lng": -0.1459024302915021}}}, "name": "The Fox Club", "place_id": "ChIJT2v17ygFdkgRUiKc_uP17i8", "types": ["bar", "point_of_interest", "establishment"], "rating": 4.5, "user_ratings_total": 77}, "ChIJBX9v5SgFdkgR_eUPVkCvhDU": {"geometry": {"location": {"lat": 51.5064193, "lng": -0.1447247}, "viewport": {"northeast": {"lat": 51.5078137802915, "lng": -0.143294319708498}, "southwest": {"lat": 51.5051158197085, "lng": -0.145992280291502}}}, "name": "Capital Knowledge Resources at Ataol", "place_id": "ChIJBX9v5SgFdkgR_eUPVkCvhDU", "types": ["finance", "point_of_interest", "establishment"]}, "ChIJBX9v5SgFdkgRjkG3sMyogTk": {"geometry": {"location": {"lat": 51.5064193, "lng": -0.1447247}, "viewport": {"northeast": {"lat": 51.5078137802915, "lng": -0.143294319708498}, "southwest": {"lat": 51.5051158197085, "lng": -0.145992280291502}}}, "name": "Onion Diversity", "place_id": "ChIJBX9v5SgFdkgRjkG3sMyogTk", "types": ["point_of_interest", "establishment"], "rating": 5, "user_ratings_total": 2}, "ChIJt14z5SgFdkgRzM8dAh8rf2Y": {"geometry": {"location": {"lat": 51.50641880000001, "lng": -0.1447157}, "viewport": {"northeast": {"lat": 51.50781198029151, "lng": -0.143287619708498}, "southwest": {"lat": 51.50511401970851, "lng": -0.145985580291502}}}, "name": "New Home Technology", "place_id": "ChIJt14z5SgFdkgRzM8dAh8rf2Y", "types": ["home_goods_store", "point_of_interest", "store", "establishment"]}, "ChIJBcTN-igFdkgRebcEz0XgWq8": {"geometry": {"location": {"lat": 51.50641880000001, "lng": -0.1447157}, "viewport": {"northeast": {"lat": 51.50781198029151, "lng": -0.143287619708498}, "southwest": {"lat": 51.50511401970851, "lng": -0.145985580291502}}}, "name": "Clarges Capital", "place_id": "ChIJBcTN-igFdkgRebcEz0XgWq8", "types": ["finance", "point_of_interest", "establishment"]}, "ChIJ9znL5ygFdkgR-0OLLbz2jW8": {"geometry": {"location": {"lat": 51.506464, "lng": -0.1451423}, "viewport": {"northeast": {"lat": 51.5077690802915, "lng": -0.143867869708498}, "southwest": {"lat": 51.5050711197085, "lng": -0.146565830291502}}}, "name": "Manetta's Bar", "place_id": "ChIJ9znL5ygFdkgR-0OLLbz2jW8", "types": ["bar", "point_of_interest", "establishment"], "rating": 4.7, "user_ratings_total": 62}, "ChIJBcTN-igFdkgReujrY8uIC-I": {"geometry": {"location": {"lat": 51.50646510000001, "lng": -0.1446287}, "viewport": {"northeast": {"lat": 51.5078351302915, "lng": -0.143246069708498},