{"E00175265": {"ChIJG1phH7oadkgRulYuq25vZxU": {"geometry": {"location": {"lat": 51.52669409999999, "lng": -0.1707129}, "viewport": {"northeast": {"lat": 51.52804308029149, "lng": -0.169363919708498}, "southwest": {"lat": 51.52534511970849, "lng": -0.172061880291502}}}, "name": "Lisson Grove Mooring", "place_id": "ChIJG1phH7oadkgRulYuq25vZxU", "types": ["point_of_interest", "establishment"], "rating": 4.4, "user_ratings_total": 11}, "ChIJvbjABLoadkgR9FB8JdDEka4": {"geometry": {"location": {"lat": 51.52593735000635, "lng": -0.1708119499841691}, "viewport": {"northeast": {"lat": 51.5272863302915, "lng": -0.169462969708498}, "southwest": {"lat": 51.5245883697085, "lng": -0.172160930291502}}}, "name": "120 B507", "place_id": "ChIJvbjABLoadkgR9FB8JdDEka4", "types": ["route"]}, "ChIJFZS0s7AadkgRdDpdrwM3XuE": {"geometry": {"location": {"lat": 51.52559, "lng": -0.171004}, "viewport": {"northeast": {"lat": 51.5269389802915, "lng": -0.169655019708498}, "southwest": {"lat": 51.5242410197085, "lng": -0.172352980291502}}}, "name": "Gateway Academy", "place_id": "ChIJFZS0s7AadkgRdDpdrwM3XuE", "types": ["primary_school", "school", "point_of_interest", "establishment"], "rating": 4.5, "user_ratings_total": 17}, "ChIJY-3Q-bkadkgRXeilzQ9UA6k": {"geometry": {"location": {"lat": 51.5260272, "lng": -0.1702305}, "viewport": {"northeast": {"lat": 51.52738143029149, "lng": -0.168716119708498}, "southwest": {"lat": 51.52468346970849, "lng": -0.171414080291502}}}, "name": "Skyrocket Your Search", "place_id": "ChIJY-3Q-bkadkgRXeilzQ9UA6k", "types": ["point_of_interest", "establishment"], "rating": 5, "user_ratings_total": 1}, "ChIJLQlEELoadkgRhbM1HBQfsbU": {"geometry": {"location": {"lat": 51.5253522, "lng": -0.1702346}, "viewport": {"northeast": {"lat": 51.52680263029151, "lng": -0.168765119708498}, "southwest": {"lat": 51.52410466970851, "lng": -0.171463080291502}}}, "name": "STAMPE & STAMPE HANDYMAN SERVICES", "place_id": "ChIJLQlEELoadkgRhbM1HBQfsbU", "types": ["painter", "general_contractor", "point_of_interest", "establishment"]}, "ChIJ6-IIAroadkgRfm4cUYF2t78": {"geometry": {"location": {"lat": 51.5257775, "lng": -0.1704675}, "viewport": {"northeast": {"lat": 51.5271001802915, "lng": -0.169150269708498}, "southwest": {"lat": 51.5244022197085, "lng": -0.171848230291502}}}, "name": "Frampton Street", "place_id": "ChIJ6-IIAroadkgRfm4cUYF2t78", "types": ["transit_station", "point_of_interest", "establishment"]}, "ChIJgxxqwc0bdkgRtDEHq7TeVeM": {"geometry": {"location": {"lat": 51.52604059999999, "lng": -0.1703236}, "viewport": {"northeast": {"lat": 51.52738143029149, "lng": -0.1687626697084979}, "southwest": {"lat": 51.52468346970849, "lng": -0.171460630291502}}}, "name": "Meu jardin Particular", "place_id": "ChIJgxxqwc0bdkgRtDEHq7TeVeM", "types": ["lodging", "point_of_interest", "establishment"]}, "ChIJpeUCohMbdkgRp9P_2pol2pk": {"geometry": {"location": {"lat": 51.5259189, "lng": -0.1706046}, "viewport": {"northeast": {"lat": 51.5272424802915, "lng": -0.169286819708498}, "southwest": {"lat": 51.5245445197085, "lng": -0.171984780291502}}}, "name": "College", "place_id": "ChIJpeUCohMbdkgRp9P_2pol2pk", "types": ["school", "point_of_interest", "establishment"]}, "ChIJx7j8AroadkgRCQdP4teBgVk": {"geometry": {"location": {"lat": 51.525928, "lng": -0.17062}, "viewport": {"northeast": {"lat": 51.5272510302915, "lng": -0.169302919708498}, "southwest": {"lat": 51.5245530697085, "lng": -0.172000880291502}}}, "name": "Frampton Street (Stop LH)", "place_id": "ChIJx7j8AroadkgRCQdP4teBgVk", "types": ["transit_station", "point_of_interest", "establishment"], "rating": 5, "user_ratings_total": 1}, "ChIJkVkX_7kadkgRGh0Ukw8oyZQ": {"geometry": {"location": {"lat": 51.525627, "lng": -0.170315}, "viewport": {"northeast": {"lat": 51.5270005302915, "lng": -0.1689369197084979}, "southwest": {"lat": 51.5243025697085, "lng": -0.171634880291502}}}, "name": "Frampton Street (Stop LR)", "place_id": "ChIJkVkX_7kadkgRGh0Ukw8oyZQ", "types": ["transit_station", "point_of_interest", "establishment"]}, "ChIJrWtlH_gbdkgRSvLrA18VGg4": {"geometry": {"location": {"lat": 51.52545569999999, "lng": -0.1701972}, "viewport": {"northeast": {"lat": 51.5268670802915, "lng": -0.168774069708498}, "southwest": {"lat": 51.5241691197085, "lng": -0.171472030291502}}}, "name": "Belvedere Heights", "place_id": "ChIJrWtlH_gbdkgRSvLrA18VGg4", "types": ["point_of_interest", "establishment"]}, "ChIJdRUBV7cadkgRr6peTq8PZv8": {"geometry": {"location": {"lat": 51.5256844, "lng": -0.1711422}, "viewport": {"northeast": {"lat": 51.5269342302915, "lng": -0.169913019708498}, "southwest": {"lat": 51.5242362697085, "lng": -0.172610980291502}}}, "name": "Shojujitsu Karate Do Association", "place_id": "ChIJdRUBV7cadkgRr6peTq8PZv8", "types": ["health", "point_of_interest", "establishment"], "rating": 5, "user_ratings_total": 1}, "ChIJO-BKBLoadkgRkWM1pPzEytg": {"geometry": {"location": {"lat": 51.5258489, "lng": -0.1710512}, "viewport": {"northeast": {"lat": 51.52716689194794, "lng": -0.1696497893191325}, "southwest": {"lat": 51.52446893136494, "lng": -0.1723477499021365}}}, "name": "Parking lot", "place_id": "ChIJO-BKBLoadkgRkWM1pPzEytg", "types": ["parking", "premise", "point_of_interest", "establishment"]}, "ChIJP7gqs7AadkgRV88mmp6rCxQ": {"geometry": {"location": {"lat": 51.52471485691352, "lng": -0.1701630991219108}, "viewport": {"northeast": {"lat": 51.52608233029149, "lng": -0.168884569708498}, "southwest": {"lat": 51.5233843697085, "lng": -0.171582530291502}}}, "name": "10 Capland St", "place_id": "ChIJP7gqs7AadkgRV88mmp6rCxQ", "types": ["route"]}, "ChIJ6SK4T7cadkgRjvMK0cdduD4": {"geometry": {"location": {"lat": 51.5246881, "lng": -0.1698299}, "viewport": {"northeast": {"lat": 51.52602768029151, "lng": -0.168543719708498}, "southwest": {"lat": 51.52332971970851, "lng": -0.171241680291502}}}, "name": "Marylebone Bangladesh Society", "place_id": "ChIJ6SK4T7cadkgRjvMK0cdduD4", "types": ["point_of_interest", "establishment"], "rating": 5, "user_ratings_total": 1}, "ChIJs_ccRbcadkgRUX-vW_ocGwY": {"geometry": {"location": {"lat": 51.52461330000001, "lng": -0.1695597}, "viewport": {"northeast": {"lat": 51.52598193029149, "lng": -0.168187069708498}, "southwest": {"lat": 51.52328396970849, "lng": -0.170885030291502}}}, "name": "Dr A A Bakker - Lisson Grove Health Centre", "place_id": "ChIJs_ccRbcadkgRUX-vW_ocGwY", "types": ["doctor", "health", "point_of_interest", "establishment"], "rating": 2, "user_ratings_total": 4}, "ChIJxQJsEWwPdkgRJ8yxyTlhKKw": {"geometry": {"location": {"lat": 51.52465849999999, "lng": -0.1705379}, "viewport": {"northeast": {"lat": 51.52597018029149, "lng": -0.1691165197084979}, "southwest": {"lat": 51.5232722197085, "lng": -0.171814480291502}}}, "name": "Global Kapap & Krav Maga Classes", "place_id": "ChIJxQJsEWwPdkgRJ8yxyTlhKKw", "types": ["health", "point_of_interest", "establishment"], "rating": 5, "user_ratings_total": 1}, "ChIJrxvGU7cadkgRgQR8GDghqnk": {"geometry": {"location": {"lat": 51.5249568, "lng": -0.1701141}, "viewport": {"northeast": {"lat": 51.5263057802915, "lng": -0.168765119708498}, "southwest": {"lat": 51.5236078197085, "lng": -0.171463080291502}}}, "name": "Swanbourne House", "place_id": "ChIJrxvGU7cadkgRgQR8GDghqnk", "types": ["point_of_interest", "establishment"], "rating": 4, "user_ratings_total": 1}, "ChIJOX-_rLAadkgRHQtOhVpYNao": {"geometry": {"location": {"lat": 51.52498110000001, "lng": -0.1705343}, "viewport": {"northeast": {"lat": 51.5263588802915, "lng": -0.169148619708498}, "southwest": {"lat": 51.5236609197085, "lng": -0.171846580291502}}}, "name": "Jordans House", "place_id": "ChIJOX-_rLAadkgRHQtOhVpYNao", "types": ["point_of_interest", "establishment"]}, "ChIJ__9WsrAadkgRpC0q8D_YHNs": {"geometry": {"location": {"lat": 51.524607, "lng": -0.1706411}, "viewport": {"northeast": {"lat": 51.52591338029149, "lng": -0.169209419708498}, "southwest": {"lat": 51.52321541970849, "lng": -0.171907380291502}}}, "name": "SPARKLY HOMES", "place_id": "ChIJ__9WsrAadkgRpC0q8D_YHNs", "types": ["painter", "general_contractor", "point_of_interest", "establishment"]}, "ChIJc3V5tLAadkgRU-CNcw0eyy0": {"geometry": {"location": {"lat": 51.5245659, "lng": -0.1706868}, "viewport": {"northeast": {"lat": 51.52587368029149, "lng": -0.169257769708498}, "southwest": {"lat": 51.5231757197085, "lng": -0.171955730291502}}}, "name": "Top Market Packages", "place_id": "ChIJc3V5tLAadkgRU-CNcw0eyy0", "types": ["point_of_interest", "establishment"]}, "ChIJK9j9TrcadkgR2RGsHHZYtN8": {"geometry": {"location": {"lat": 51.5245562, "lng": -0.1699019}, "viewport": {"northeast": {"lat": 51.5259563302915, "lng": -0.168610619708498}, "southwest": {"lat": 51.5232583697085, "lng": -0.171308580291502}}}, "name": "Nightingale House", "place_id": "ChIJK9j9TrcadkgR2RGsHHZYtN8", "types": ["point_of_interest", "establishment"]}, "ChIJrYljKq4adkgRAayZfdvmfE0": {"geometry": {"location": {"lat": 51.5245624, "lng": -0.1696226}, "viewport": {"northeast": {"lat": 51.5259594302915, "lng": -0.168215519708498}, "southwest": {"lat": 51.5232614697085, "lng": -0.170913480291502}}}, "name": "London Dance Project", "place_id": "ChIJrYljKq4adkgRAayZfdvmfE0", "types": ["point_of_interest", "establishment"], "rating": 4.6, "user_ratings_total": 9}, "ChIJ1-X5r7AadkgR9O1MruTv1ZY": {"geometry": {"location": {"lat": 51.5248014, "lng": -0.1711138}, "viewport": {"northeast": {"lat": 51.52612780730449, "lng": -0.1698149308278273}, "southwest": {"lat": 51.5234298467215, "lng": -0.1725128914108313}}}, "name": "Parking lot", "place_id": "ChIJ1-X5r7AadkgR9O1MruTv1ZY", "types": ["parking", "premise", "point_of_interest", "establishment"]}, "ChIJezJpDB8bdkgRprr5DN0waws": {"geometry": {"location": {"lat": 51.5241389, "lng": -0.1705494}, "viewport": {"northeast": {"lat": 51.5254164802915, "lng": -0.169379219708498}, "southwest": {"lat": 51.5227185197085, "lng": -0.172077180291502}}}, "name": "17 Morris House", "place_id": "ChIJezJpDB8bdkgRprr5DN0waws", "types": ["university", "point_of_interest", "establishment"]}, "ChIJuyQpaLoadkgRu3-XpctFAF4": {"geometry": {"location": {"lat": 51.52669685014855, "lng": -0.1725033496520212}, "viewport": {"northeast": {"lat": 51.52804583029149, "lng": -0.171154369708498}, "southwest": {"lat": 51.52534786970849, "lng": -0.173852330291502}}}, "name": "126 B507", "place_id": "ChIJuyQpaLoadkgRu3-XpctFAF4", "types": ["route"]}, "ChIJHfNOMW8m30cRq91bD2pnwVg": {"geometry": {"location": {"lat": 51.52735140000001, "lng": -0.1724263}, "viewport": {"northeast": {"lat": 51.52866473029151, "lng": -0.171034619708498}, "southwest": {"lat": 51.52596676970851, "lng": -0.173732580291502}}}, "name": "Smarden Fibreglass Company", "place_id": "ChIJHfNOMW8m30cRq91bD2pnwVg", "types": ["point_of_interest", "establishment"], "rating": 5, "user_ratings_total": 1}, "ChIJ8Tg6RroadkgR93bHy-VElfw": {"geometry": {"location": {"lat": 51.52731000000001, "lng": -0.172172}, "viewport": {"northeast": {"lat": 51.5286648302915, "lng": -0.170830069708498}, "southwest": {"lat": 51.5259668697085, "lng": -0.173528030291502}}}, "name": "ubitricity Charging Station", "place_id": "ChIJ8Tg6RroadkgR93bHy-VElfw", "types": ["point_of_interest", "establishment"]}, "ChIJ1bLLrUkbdkgRB6oYWYqPXh0": {"geometry": {"location": {"lat": 51.52727589999999, "lng": -0.1723196}, "viewport": {"northeast": {"lat": 51.5286087302915, "lng": -0.170951269708498}, "southwest": {"lat": 51.5259107697085, "lng": -0.173649230291502}}}, "name": "Church of England", "place_id": "ChIJ1bLLrUkbdkgRB6oYWYqPXh0", "types": ["museum", "point_of_interest", "establishment"]}, "ChIJG7BdXboadkgRthdVfofxgnY": {"geometry": {"location": {"lat": 51.5267395, "lng": -0.1727623}, "viewport": {"northeast": {"lat": 51.5281141302915, "lng": -0.171387169708498}, "southwest": {"lat": 51.5254161697085, "lng": -0.174085130291502}}}, "name": "ubitricity Charging Station", "place_id": "ChIJG7BdXboadkgRthdVfofxgnY", "types": ["point_of_interest", "establishment"]}, "ChIJhUKUa7oadkgR84XmxAnRJVs": {"geometry": {"location": {"lat": 51.52644799999999, "lng": -0.17219}, "viewport": {"northeast": {"lat": 51.52779698029149, "lng": -0.170841019708498}, "southwest": {"lat": 51.5250990197085, "lng": -0.1735389802915021}}}, "name": "Santander Cycles", "place_id": "ChIJhUKUa7oadkgR84XmxAnRJVs", "types": ["point_of_interest", "establishment"]}, "ChIJIyH8WboadkgRvfbT6K0_RaI": {"geometry": {"location": {"lat": 51.5274067, "lng": -0.173085}, "viewport": {"northeast": {"lat": 51.52870026963348, "lng": -0.1717134336987512}, "southwest": {"lat": 51.52600230905048, "lng": -0.1744113942817553}}}, "name": "Parking lot", "place_id": "ChIJIyH8WboadkgRvfbT6K0_RaI", "types": ["parking", "premise", "point_of_interest", "establishment"]}, "ChIJUXa_E7oadkgR5vw6Qbqb8HQ": {"geometry": {"location": {"lat": 51.5262952501411, "lng": -0.171608299687678}, "viewport": {"northeast": {"lat": 51.52764423029149, "lng": -0.170259319708498}, "southwest": {"lat": 51.52494626970849, "lng": -0.172957280291502}}}, "name": "209-219 B507", "place_id": "ChIJUXa_E7oadkgR5vw6Qbqb8HQ", "types": ["route"]}, "ChIJ34tHbLoadkgRrjxwua18W5k": {"geometry": {"location": {"lat": 51.5254653, "lng": -0.1719305}, "viewport": {"northeast": {"lat": 51.5268402302915, "lng": -0.1706385697084979}, "southwest": {"lat": 51.5241422697085, "lng": -0.173336530291502}}}, "name": "Family Information Service", "place_id": "ChIJ34tHbLoadkgRrjxwua18W5k", "types": ["point_of_interest", "establishment"]}, "ChIJP_PtEboadkgR1-_sVWVIh2o": {"geometry": {"location": {"lat": 51.5263146, "lng": -0.1719742}, "viewport": {"northeast": {"lat": 51.52770993029149, "lng": -0.170601519708498}, "southwest": {"lat": 51.52501196970849, "lng": -0.1732994802915021}}}, "name": "Westminster Learning Disability Partnership", "place_id": "ChIJP_PtEboadkgR1-_sVWVIh2o", "types": ["hospital", "health", "point_of_interest", "establishment"]}, "ChIJq9g4bLoadkgRrcF0eVuKAEs": {"geometry": {"location": {"lat": 51.526045, "lng": -0.1720395}, "viewport": {"northeast": {"lat": 51.5273236802915, "lng": -0.170810169708498}, "southwest": {"lat": 51.5246257197085, "lng": -0.173508130291502}}}, "name": "Westminster Information Advice Support Service (IASS) for SEND", "place_id": "ChIJq9g4bLoadkgRrcF0eVuKAEs", "types": ["point_of_interest", "establishment"], "rating": 3, "user_ratings_total": 2}, "ChIJbRpLdboadkgR3h37FO0NUX4": {"geometry": {"location": {"lat": 51.5260458, "lng": -0.1717999}, "viewport": {"northeast": {"lat": 51.52727563029151, "lng": -0.170405319708498}, "southwest": {"lat": 51.52457766970851, "lng": -0.173103280291502}}}, "name": "Westminster City Council", "place_id": "ChIJbRpLdboadkgR3h37FO0NUX4", "types": ["point_of_interest", "establishment"], "rating": 2, "user_ratings_total": 8}, "ChIJbT4KDroadkgRg8AWJ3o8et4": {"geometry": {"location": {"lat": 51.5254653, "lng": -0.1719305}, "viewport": {"northeast": {"lat": 51.5268402302915, "lng": -0.1706385697084979}, "southwest": {"lat": 51.5241422697085, "lng": -0.173336530291502}}}, "name": "Housing 21 Care Services", "place_id": "ChIJbT4KDroadkgRg8AWJ3o8et4", "types": ["point_of_interest", "establishment"], "rating": 5, "user_ratings_total": 1}, "ChIJscseeroadkgRvI6B66GxhJw": {"geometry": {"location": {"lat": 51.5257429, "lng": -0.1727362}, "viewport": {"northeast": {"lat": 51.5270666302915, "lng": -0.171330519708498}, "southwest": {"lat": 51.5243686697085, "lng": -0.174028480291502}}}, "name": "Housing Office Westminster", "place_id": "ChIJscseeroadkgRvI6B66GxhJw", "types": ["point_of_interest", "establishment"], "rating": 1.6, "user_ratings_total": 11}, "ChIJscseeroadkgRudv7Z8V-7Jk": {"geometry": {"location": {"lat": 51.5257429, "lng": -0.1727362}, "viewport": {"northeast": {"lat": 51.5270666302915, "lng": -0.171330519708498}, "southwest": {"lat": 51.5243686697085, "lng": -0.174028480291502}}}, "name": "Westminster Council, Housing Options", "place_id": "ChIJscseeroadkgRudv7Z8V-7Jk", "types": ["school", "point_of_interest", "establishment"], "rating": 2.5, "user_ratings_total": 2}, "ChIJP1iibLoadkgRvHwd2jtlliY": {"geometry": {"location": {"lat": 51.52633110000001, "lng": -0.1719986}, "viewport": {"northeast": {"lat": 51.5277365302915, "lng": -0.170641919708498}, "southwest": {"lat": 51.5250385697085, "lng": -0.173339880291502}}}, "name": "Westminster Adult Education Service", "place_id": "ChIJP1iibLoadkgRvHwd2jtlliY", "types": ["university", "school", "point_of_interest", "establishment"], "rating": 3.8, "user_ratings_total": 58}, "ChIJg6hzDLoadkgRtclUNxcrza0": {"geometry": {"location": {"lat": 51.5253865, "lng": -0.1719908}, "viewport": {"northeast": {"lat": 51.52676623029149, "lng": -0.170709369708498}, "southwest": {"lat": 51.5240682697085, "lng": -0.173407330291502}}}, "name": "Zipcar UK - Frampton St E", "place_id": "ChIJg6hzDLoadkgRtclUNxcrza0", "types": ["point_of_interest", "establishment"], "rating": 1, "user_ratings_total": 1}, "ChIJpXZfbLoadkgR4OiVRJythI4": {"geometry": {"location": {"lat": 51.52612490000001, "lng": -0.1715388}, "viewport": {"northeast": {"lat": 51.5274545802915, "lng": -0.170126019708498}, "southwest": {"lat": 51.5247566197085, "lng": -0.172823980291502}}}, "name": "The Westminster Day & Employment Service", "place_id": "ChIJpXZfbLoadkgR4OiVRJythI4", "types": ["point_of_interest", "establishment"], "rating": 4, "user_ratings_total": 1}, "ChIJU3OUEroadkgRpe_YQHOq12I": {"geometry": {"location": {"lat": 51.5261199, "lng": -0.1718135}, "viewport": {"northeast": {"lat": 51.5275581802915, "lng": -0.170322119708498}, "southwest": {"lat": 51.5248602197085, "lng": -0.173020080291502}}}, "name": "Westminster Duke of Edinburgh's Awards", "place_id": "ChIJU3OUEroadkgRpe_YQHOq12I", "types": ["point_of_interest", "establishment"], "rating": 5, "user_ratings_total": 1}, "ChIJ2948EroadkgRssdlNc9eEOo": {"geometry": {"location": {"lat": 51.5261466, "lng": -0.1716096}, "viewport": {"northeast": {"lat": 51.52754413029151, "lng": -0.170204619708498}, "southwest": {"lat": 51.52484616970851, "lng": -0.172902580291502}}}, "name": "Westminster Youth Council & Participation", "place_id": "ChIJ2948EroadkgRssdlNc9eEOo", "types": ["point_of_interest", "establishment"]}, "ChIJbT4KDroadkgRasBvq5IdqO4": {"geometry": {"location": {"lat": 51.5254653, "lng": -0.1719305}, "viewport": {"northeast": {"lat": 51.5268402302915, "lng": -0.1706385697084979}, "southwest": {"lat": 51.5241422697085, "lng": -0.173336530291502}}}, "name": "Family Recovery Project", "place_id": "ChIJbT4KDroadkgRasBvq5IdqO4", "types": ["point_of_interest", "establishment"], "rating": 5, "user_ratings_total": 1}, "ChIJYZBZnbAadkgRI9Yh9NdmVRE": {"geometry": {"location": {"lat": 51.5255222, "lng": -0.1724615}, "viewport": {"northeast": {"lat": 51.52680853029149, "lng": -0.170974769708498}, "southwest": {"lat": 51.52411056970849, "lng": -0.173672730291502}}}, "name": "Aramic Interiors", "place_id": "ChIJYZBZnbAadkgRI9Yh9NdmVRE", "types": ["general_contractor", "point_of_interest", "establishment"]}, "ChIJQU6ZbLoadkgRRncuN8z9MqE": {"geometry": {"location": {"lat": 51.5263592, "lng": -0.1720401}, "viewport": {"northeast": {"lat": 51.5277497302915, "lng": -0.170642369708498}, "southwest": {"lat": 51.5250517697085, "lng": -0.173340330291502}}}, "name": "Ecole", "place_id": "ChIJQU6ZbLoadkgRRncuN8z9MqE", "types": ["school", "point_of_interest", "establishment"]}, "ChIJPXi_CboadkgR95vpRShAb7A": {"geometry": {"location": {"lat": 51.52548099999999, "lng": -0.171451}, "viewport": {"northeast": {"lat": 51.52682883029149, "lng": -0.170103519708498}, "southwest": {"lat": 51.52413086970849, "lng": -0.172801480291502}}}, "name": "ubitricity Charging Station", "place_id": "ChIJPXi_CboadkgR95vpRShAb7A", "types": ["point_of_interest", "establishment"]}, "ChIJcYfHkLAadkgRbzJDdjybKa0": {"geometry": {"location": {"lat": 51.52456406185383, "lng": -0.172120739924898}, "viewport": {"northeast": {"lat": 51.52591198029149, "lng": -0.1707733197084979}, "southwest": {"lat": 51.52321401970849, "lng": -0.173471280291502}}}, "name": "25-17 Fisherton St", "place_id": "ChIJcYfHkLAadkgRbzJDdjybKa0", "types": ["route"]}, "ChIJi1PjlbAadkgRoCUtNbeWrCY": {"geometry": {"location": {"lat": 51.52443639999999, "lng": -0.1721016}, "viewport": {"northeast": {"lat": 51.5257553302915, "lng": -0.170693119708498}, "southwest": {"lat": 51.5230573697085, "lng": -0.173391080291502}}}, "name": "St Pauls Newpin", "place_id": "ChIJi1PjlbAadkgRoCUtNbeWrCY", "types": ["point_of_interest", "establishment"], "rating": 4, "user_ratings_total": 1}, "ChIJWa0bmLAadkgRMPtmW8xNLZ0": {"geometry": {"location": {"lat": 51.52476919999999, "lng": -0.1719789}, "viewport": {"northeast": {"lat": 51.52603578029149, "lng": -0.170741219708498}, "southwest": {"lat": 51.52333781970849, "lng": -0.173439180291502}}}, "name": "Hasim Vitija Memorial Bench", "place_id": "ChIJWa0bmLAadkgRMPtmW8xNLZ0", "types": ["point_of_interest", "establishment"], "rating": 4.3, "user_ratings_total": 7}, "ChIJaX3hjbAadkgRjf3gbBKAS9c": {"geometry": {"location": {"lat": 51.524611, "lng": -0.1726359}, "viewport": {"northeast": {"lat": 51.52603053029151, "lng": -0.171441269708498}, "southwest": {"lat": 51.52333256970851, "lng": -0.174139230291502}}}, "name": "Eastlake House", "place_id": "ChIJaX3hjbAadkgRjf3gbBKAS9c", "types": ["point_of_interest", "establishment"], "rating": 4.3, "user_ratings_total": 6}, "ChIJV5mYhbAadkgRBuzzJTyA5Mg": {"geometry": {"location": {"lat": 51.5248128, "lng": -0.1728193}, "viewport": {"northeast": {"lat": 51.52617098029149, "lng": -0.171483869708498}, "southwest": {"lat": 51.52347301970849, "lng": -0.174181830291502}}}, "name": "ubitricity Charging Station", "place_id": "ChIJV5mYhbAadkgRBuzzJTyA5Mg", "types": ["point_of_interest", "establishment"]}, "ChIJH_3lVCgbdkgRRPcEN4s2OWM": {"geometry": {"location": {"lat": 51.5250297, "lng": -0.1728477}, "viewport": {"northeast": {"lat": 51.5263496802915, "lng": -0.171535869708498}, "southwest": {"lat": 51.5236517197085, "lng": -0.174233830291502}}}, "name": "Raj Pagarani Therapy", "place_id": "ChIJH_3lVCgbdkgRRPcEN4s2OWM", "types": ["health", "point_of_interest", "establishment"], "rating": 5, "user_ratings_total": 1}, "ChIJgWqJuLAadkgR2ioDhKQSp7U": {"geometry": {"location": {"lat": 51.5241439, "lng": -0.1713857}, "viewport": {"northeast": {"lat": 51.52549193801622, "lng": -0.1700333999981951}, "southwest": {"lat": 51.52279397743322, "lng": -0.1727313605811991}}}, "name": "Parking lot", "place_id": "ChIJgWqJuLAadkgR2ioDhKQSp7U", "types": ["parking", "premise", "point_of_interest", "establishment"]}, "ChIJ9SrJWLoadkgRJ8mrlcpaaAQ": {"geometry": {"location": {"lat": 51.52706289417114, "lng": -0.1732596358150371}, "viewport": {"northeast": {"lat": 51.5284188802915, "lng": -0.171900069708498}, "southwest": {"lat": 51.5257209197085, "lng": -0.174598030291502}}}, "name": "Lisson Grove", "place_id": "ChIJ9SrJWLoadkgRJ8mrlcpaaAQ", "types": ["route"]}, "ChIJP7oojboadkgRpKlU79H2gGU": {"geometry": {"location": {"lat": 51.5266866, "lng": -0.1739776}, "viewport": {"northeast": {"lat": 51.5281578302915, "lng": -0.1727757697084979}, "southwest": {"lat": 51.5254598697085, "lng": -0.175473730291502}}}, "name": "Raha Software Ltd", "place_id": "ChIJP7oojboadkgRpKlU79H2gGU", "types": ["point_of_interest", "establishment"]}, "ChIJq6pu8LoadkgR7un8-wIzKbE": {"geometry": {"location": {"lat": 51.5273026, "lng": -0.1740274}, "viewport": {"northeast": {"lat": 51.5287746302915, "lng": -0.172838369708498}, "southwest": {"lat": 51.5260766697085, "lng": -0.175536330291502}}}, "name": "Control your pest limited", "place_id": "ChIJq6pu8LoadkgR7un8-wIzKbE", "types": ["home_goods_store", "point_of_interest", "store", "establishment"], "rating": 5, "user_ratings_total": 8}, "ChIJLyAGXroadkgRHLaOGMlGh3Q": {"geometry": {"location": {"lat": 51.5272449, "lng": -0.173667}, "viewport": {"northeast": {"lat": 51.5286166302915, "lng": -0.172284419708498}, "southwest": {"lat": 51.5259186697085, "lng": -0.174982380291502}}}, "name": "St John's Wood Road Lord's Cricket Ground (Stop LS)", "place_id": "ChIJLyAGXroadkgRHLaOGMlGh3Q", "types": ["transit_station", "point_of_interest", "establishment"], "rating": 3, "user_ratings_total": 2}, "ChIJzeXZoR8bdkgRU-N8AYSLPLU": {"geometry": {"location": {"lat": 51.526687, "lng": -0.173978}, "viewport": {"northeast": {"lat": 51.52815803029149, "lng": -0.172775919708498}, "southwest": {"lat": 51.5254600697085, "lng": -0.175473880291502}}}, "name": "Taraq glazed", "place_id": "ChIJzeXZoR8bdkgRU-N8AYSLPLU", "types": ["point_of_interest", "establishment"]}, "ChIJ80b809kbdkgRJ5ls5sn6Yy4": {"geometry": {"location": {"lat": 51.5267444, "lng": -0.1734075}, "viewport": {"northeast": {"lat": 51.5282414802915, "lng": -0.172373169708498}, "southwest": {"lat": 51.5255435197085, "lng": -0.175071130291502}}}, "name": "Cheadle Court", "place_id": "ChIJ80b809kbdkgRJ5ls5sn6Yy4", "types": ["point_of_interest", "establishment"]}, "ChIJ11EA8LoadkgRNU98_xLQTTw": {"geometry": {"location": {"lat": 51.5273026, "lng": -0.1740274}, "viewport": {"northeast": {"lat": 51.5287746302915, "lng": -0.172838369708498}, "southwest": {"lat": 51.5260766697085, "lng": -0.175536330291502}}}, "name": "I P E Bookkeeping Services Ltd", "place_id": "ChIJ11EA8LoadkgRNU98_xLQTTw", "types": ["accounting", "finance", "point_of_interest", "establishment"]}, "ChIJ1fvS4L4bdkgRCR-96BMTflA": {"geometry": {"location": {"lat": 51.52655679999999, "lng": -0.1735057}, "viewport": {"northeast": {"lat": 51.52789103029149, "lng": -0.172014619708498}, "southwest": {"lat": 51.5251930697085, "lng": -0.174712580291502}}}, "name": "William Lock&Doors", "place_id": "ChIJ1fvS4L4bdkgRCR-96BMTflA", "types": ["general_contractor", "point_of_interest", "establishment"]}, "ChIJeZ1cZLQbdkgRioDuO-vzSMQ": {"geometry": {"location": {"lat": 51.5272391, "lng": -0.1730977}, "viewport": {"northeast": {"lat": 51.5286334302915, "lng": -0.1718073697084979}, "southwest": {"lat": 51.5259354697085, "lng": -0.174505330291502}}}, "name": "Catholic church", "place_id": "ChIJeZ1cZLQbdkgRioDuO-vzSMQ", "types": ["church", "place_of_worship", "point_of_interest", "establishment"]}, "ChIJ6XsK9LoadkgRsNILtEuRlBU": {"geometry": {"location": {"lat": 51.5269949, "lng": -0.1738185}, "viewport": {"northeast": {"lat": 51.52831465512088, "lng": -0.1724215905248311}, "southwest": {"lat": 51.52561669453788, "lng": -0.1751195511078352}}}, "name": "Parking lot", "place_id": "ChIJ6XsK9LoadkgRsNILtEuRlBU", "types": ["parking", "premise", "point_of_interest", "establishment"]}, "ChIJQUAh7roadkgREx_CCaj9EEs": {"geometry": {"location": {"lat": 51.5271586, "lng": -0.1741876}, "viewport": {"northeast": {"lat": 51.52847919858186, "lng": -0.172810103505687}, "southwest": {"lat": 51.52578123799886, "lng": -0.1755080640886911}}}, "name": "Parking lot", "place_id": "ChIJQUAh7roadkgREx_CCaj9EEs", "types": ["parking", "premise", "point_of_interest", "establishment"]}, "ChIJwb5zjboadkgRpT-FRE2K_fE": {"geometry": {"location": {"lat": 51.5265632, "lng": -0.1740688}, "viewport": {"northeast": {"lat": 51.52791834146227, "lng": -0.1727130499503358}, "southwest": {"lat": 51.52522038087928, "lng": -0.1754110105333399}}}, "name": "Parking lot", "place_id": "ChIJwb5zjboadkgRpT-FRE2K_fE", "types": ["parking", "premise", "point_of_interest", "establishment"]}, "ChIJ-_YdYboadkgRBiAhUoYpeAc": {"geometry": {"location": {"lat": 51.5265029, "lng": -0.1731714}, "viewport": {"northeast": {"lat": 51.52789221191303, "lng": -0.1718033122040523}, "southwest": {"lat": 51.52519425133003, "lng": -0.1745012727870563}}}, "name": "Parking lot", "place_id": "ChIJ-_YdYboadkgRBiAhUoYpeAc", "types": ["parking", "premise", "point_of_interest", "establishment"]}, "ChIJdcL2eLAadkgR585meRFMgv4": {"geometry": {"location": {"lat": 51.52528914935112, "lng": -0.1736315121878865}, "viewport": {"northeast": {"lat": 51.5266323802915, "lng": -0.172286669708498}, "southwest": {"lat": 51.5239344197085, "lng": -0.174984630291502}}}, "name": "Fisherton Street", "place_id": "ChIJdcL2eLAadkgR585meRFMgv4", "types": ["route"]}, "ChIJQ6rfhLoadkgRFmkgeoRkJIg": {"geometry": {"location": {"lat": 51.5258761, "lng": -0.1740526}, "viewport": {"northeast": {"lat": 51.52722508029149, "lng": -0.172703619708498}, "southwest": {"lat": 51.52452711970849, "lng": -0.175401580291502}}}, "name": "The Floating Skiff", "place_id": "ChIJQ6rfhLoadkgRFmkgeoRkJIg", "types": ["point_of_interest", "establishment"], "rating": 4.5, "user_ratings_total": 2}, "ChIJn7gqm7oadkgRK2QMTCyDVvc": {"geometry": {"location": {"lat": 51.5258803, "lng": -0.1741375}, "viewport": {"northeast": {"lat": 51.52722928029151, "lng": -0.172788519708498}, "southwest": {"lat": 51.52453131970851, "lng": -0.175486480291502}}}, "name": "Maida Hill Tunnel", "place_id": "ChIJn7gqm7oadkgRK2QMTCyDVvc", "types": ["point_of_interest", "establishment"], "rating": 4.4, "user_ratings_total": 21}, "ChIJ8f2GgLoadkgRrq2CPOpW3a8": {"geometry": {"location": {"lat": 51.5256808, "lng": -0.1736263}, "viewport": {"northeast": {"lat": 51.52690435244226, "lng": -0.1720724059996966}, "southwest": {"lat": 51.52420639185927, "lng": -0.1747703665827006}}}, "name": "Parking lot", "place_id": "ChIJ8f2GgLoadkgRrq2CPOpW3a8", "types": ["parking", "premise", "point_of_interest", "establishment"]}, "ChIJ31OwZbAadkgR668ZgAUfjtY": {"geometry": {"location": {"lat": 51.5245608001146, "lng": -0.1739320005062845}, "viewport": {"northeast": {"lat": 51.5259097802915, "lng": -0.172583019708498}, "southwest": {"lat": 51.5232118197085, "lng": -0.175280980291502}}}, "name": "6 Orchardson St", "place_id": "ChIJ31OwZbAadkgR668ZgAUfjtY", "types": ["route"]}, "ChIJyWfsc7AadkgR1EZtV7hXFxE": {"geometry": {"location": {"lat": 51.52510030000001, "lng": -0.1739663}, "viewport": {"northeast": {"lat": 51.5264759802915, "lng": -0.172579319708498}, "southwest": {"lat": 51.5237780197085, "lng": -0.175277280291502}}}, "name": "M Construction UK Ltd", "place_id": "ChIJyWfsc7AadkgR1EZtV7hXFxE", "types": ["general_contractor", "point_of_interest", "establishment"], "rating": 3, "user_ratings_total": 1}, "ChIJr51UY7AadkgR9_PBwgBXKJI": {"geometry": {"location": {"lat": 51.524729, "lng": -0.173736}, "viewport": {"northeast": {"lat": 51.5260593302915, "lng": -0.172345819708498}, "southwest": {"lat": 51.5233613697085, "lng": -0.175043780291502}}}, "name": "Impacting Paths Tutoring Company", "place_id": "ChIJr51UY7AadkgR9_PBwgBXKJI", "types": ["point_of_interest", "establishment"]}, "ChIJs6lIRF4bdkgRRz1LdTNG2kg": {"geometry": {"location": {"lat": 51.525044, "lng": -0.173875}, "viewport": {"northeast": {"lat": 51.5264213802915, "lng": -0.172485619708498}, "southwest": {"lat": 51.5237234197085, "lng": -0.175183580291502}}}, "name": "SEA TECHNOLOGY UK LTD -SAFETY BOAT HIRE SERVICES", "place_id": "ChIJs6lIRF4bdkgRRz1LdTNG2kg", "types": ["point_of_interest", "establishment"]}, "ChIJJULy1DUbdkgRG3ShwK3v2vM": {"geometry": {"location": {"lat": 51.5248393, "lng": -0.173322}, "viewport": {"northeast": {"lat": 51.5261169802915, "lng": -0.171817019708498}, "southwest": {"lat": 51.52341901970851, "lng": -0.174514980291502}}}, "name": "Scrap My Car Marylebone Marble Arch Hampstead Heath Westminster Holloway Camden Paddington Mayfair", "place_id": "ChIJJULy1DUbdkgRG3ShwK3v2vM", "types": ["point_of_interest", "establishment"]}, "ChIJWcHf5oQbdkgRxr-K5klu8B4": {"geometry": {"location": {"lat": 51.5248724, "lng": -0.1742675}, "viewport": {"northeast": {"lat": 51.5262213802915, "lng": -0.172918519708498}, "southwest": {"lat": 51.5235234197085, "lng": -0.175616480291502}}}, "name": "Met Construction", "place_id": "ChIJWcHf5oQbdkgRxr-K5klu8B4", "types": ["point_of_interest", "establishment"]}, "ChIJL36fZrAadkgRVDfgErrwMKg": {"geometry": {"location": {"lat": 51.5243962, "lng": -0.1738484}, "viewport": {"northeast": {"lat": 51.5256734302915, "lng": -0.172342369708498}, "southwest": {"lat": 51.5229754697085, "lng": -0.175040330291502}}}, "name": "Euro Cars Taxis", "place_id": "ChIJL36fZrAadkgRVDfgErrwMKg", "types": ["point_of_interest", "establishment"]}, "ChIJ3ztVErAadkgR43TORPBm5UE": {"geometry": {"location": {"lat": 51.5250822, "lng": -0.1744648}, "viewport": {"northeast": {"lat": 51.5264381302915, "lng": -0.173124219708498}, "southwest": {"lat": 51.5237401697085, "lng": -0.175822180291502}}}, "name": "Rubbish 2 Go", "place_id": "ChIJ3ztVErAadkgR43TORPBm5UE", "types": ["point_of_interest", "establishment"], "rating": 5, "user_ratings_total": 1}, "ChIJu-C4bbAadkgRw2kUbSrvSVs": {"geometry": {"location": {"lat": 51.52462670000001, "lng": -0.1745961}, "viewport": {"northeast": {"lat": 51.5260977802915, "lng": -0.173403319708498}, "southwest": {"lat": 51.5233998197085, "lng": -0.176101280291502}}}, "name": "Orange Park", "place_id": "ChIJu-C4bbAadkgRw2kUbSrvSVs", "types": ["park", "tourist_attraction", "point_of_interest", "establishment"], "rating": 4.5, "user_ratings_total": 11}, "ChIJDagLhk0bdkgR6GvsMYwstIc": {"geometry": {"location": {"lat": 51.5250064, "lng": -0.1745741}, "viewport": {"northeast": {"lat": 51.52637583029149, "lng": -0.173250819708498}, "southwest": {"lat": 51.5236778697085, "lng": -0.175948780291502}}}, "name": "Plastering London", "place_id": "ChIJDagLhk0bdkgR6GvsMYwstIc", "types": ["general_contractor", "point_of_interest", "establishment"]}, "ChIJecGtYbAadkgRC9I-V6g_PBc": {"geometry": {"location": {"lat": 51.52419039999999, "lng": -0.1735316}, "viewport": {"northeast": {"lat": 51.5255510302915, "lng": -0.1722070197084979}, "southwest": {"lat": 51.5228530697085, "lng": -0.174904980291502}}}, "name": "ubitricity Charging Station", "place_id": "ChIJecGtYbAadkgRC9I-V6g_PBc", "types": ["point_of_interest", "establishment"]}, "ChIJofxKp7oadkgR7lGjsfIw4ZU": {"geometry": {"location": {"lat": 51.52560485574006, "lng": -0.1749116358844857}, "viewport": {"northeast": {"lat": 51.5269636802915, "lng": -0.173582619708498}, "southwest": {"lat": 51.5242657197085, "lng": -0.176280580291502}}}, "name": "29-24 Aberdeen Pl", "place_id": "ChIJofxKp7oadkgR7lGjsfIw4ZU", "types": ["route"]}, "ChIJM2y6BrAadkgRb4nPrDPCSo0": {"geometry": {"location": {"lat": 51.525729, "lng": -0.175017}, "viewport": {"northeast": {"lat": 51.52717423029149, "lng": -0.173506169708498}, "southwest": {"lat": 51.52447626970849, "lng": -0.176204130291502}}}, "name": "Crocker's Folly", "place_id": "ChIJM2y6BrAadkgRb4nPrDPCSo0", "types": ["bar", "restaurant", "food", "point_of_interest", "establishment"], "rating": 4.3, "user_ratings_total": 466}, "ChIJ9zKQRg8bdkgRnnZVAW1V6Hc": {"geometry": {"location": {"lat": 51.526091, "lng": -0.1752682}, "viewport": {"northeast": {"lat": 51.5274948302915, "lng": -0.173804869708498}, "southwest": {"lat": 51.5247968697085, "lng": -0.176502830291502}}}, "name": "Williams Floorinig", "place_id": "ChIJ9zKQRg8bdkgRnnZVAW1V6Hc", "types": ["home_goods_store", "point_of_interest", "store", "establishment"]}, "ChIJAXFqDrAadkgReoY_gQ4HufI": {"geometry": {"location": {"lat": 51.52486397907297, "lng": -0.1752465955271585}, "viewport": {"northeast": {"lat": 51.52621338029149, "lng": -0.173898169708498}, "southwest": {"lat": 51.5235154197085, "lng": -0.176596130291502}}}, "name": "Fisherton Street", "place_id": "ChIJAXFqDrAadkgReoY_gQ4HufI", "types": ["route"]}, "ChIJDSAoDbAadkgRBwTZkiiasMo": {"geometry": {"location": {"lat": 51.524878, "lng": -0.1748864}, "viewport": {"northeast": {"lat": 51.52624742251303, "lng": -0.1735544698806871}, "southwest": {"lat": 51.52354946193003, "lng": -0.1762524304636911}}}, "name": "Parking lot", "place_id": "ChIJDSAoDbAadkgRBwTZkiiasMo", "types": ["parking", "premise", "point_of_interest", "establishment"]}, "ChIJQ_UHRbcadkgR4v1aHkoyGuc": {"geometry": {"location": {"lat": 51.524475, "lng": -0.169555}, "viewport": {"northeast": {"lat": 51.5259022802915, "lng": -0.168152969708498}, "southwest": {"lat": 51.5232043197085, "lng": -0.1708509302915021}}}, "name": "The Cockpit", "place_id": "ChIJQ_UHRbcadkgR4v1aHkoyGuc", "types": ["point_of_interest", "establishment"], "rating": 4.4, "user_ratings_total": 364}, "ChIJD_UjQbcadkgRXouM7oeAE2U": {"geometry": {"location": {"lat": 51.52440920000001, "lng": -0.1695107}, "viewport": {"northeast": {"lat": 51.5258461802915, "lng": -0.168064719708498}, "southwest": {"lat": 51.5231482197085, "lng": -0.170762680291502}}}, "name": "Farah UK Ltd", "place_id": "ChIJD_UjQbcadkgRXouM7oeAE2U", "types": ["clothing_store", "point_of_interest", "store", "establishment"], "rating": 5, "user_ratings_total": 1}, "ChIJMZT4N7cadkgR5dQ5sRGBcVk": {"geometry": {"location": {"lat": 51.524198, "lng": -0.1694886}, "viewport": {"northeast": {"lat": 51.5254949802915, "lng": -0.168048919708498}, "southwest": {"lat": 51.5227970197085, "lng": -0.170746880291502}}}, "name": "Bizarre", "place_id": "ChIJMZT4N7cadkgR5dQ5sRGBcVk", "types": ["home_goods_store", "point_of_interest", "store", "establishment"]}, "ChIJA9twq0sbdkgRZQgbTLabjdI": {"geometry": {"location": {"lat": 51.5241517, "lng": -0.1694867}, "viewport": {"northeast": {"lat": 51.5254595802915, "lng": -0.168066069708498}, "southwest": {"lat": 51.5227616197085, "lng": -0.170764030291502}}}, "name": "HOOKUT", "place_id": "ChIJA9twq0sbdkgRZQgbTLabjdI", "types": ["hair_care", "health", "point_of_interest", "establishment"], "rating": 5, "user_ratings_total": 7}, "ChIJZaANSzAbdkgRjfXoP6HGTDg": {"geometry": {"location": {"lat": 51.52414139999999, "lng": -0.169559}, "viewport": {"northeast": {"lat": 51.52544048029149, "lng": -0.168122969708498}, "southwest": {"lat": 51.52274251970849, "lng": -0.170820930291502}}}, "name": "Bless&Tony Unisex Hair salon", "place_id": "ChIJZaANSzAbdkgRjfXoP6HGTDg", "types": ["hair_care", "health", "point_of_interest", "establishment"], "rating": 5, "user_ratings_total": 3}, "ChIJ___jarcadkgRc5PxFgbWA88": {"geometry": {"location": {"lat": 51.5241225, "lng": -0.1695837}, "viewport": {"northeast": {"lat": 51.52542208029151, "lng": -0.168148519708498}, "southwest": {"lat": 51.52272411970851, "lng": -0.170846480291502}}}, "name": "Cupio Gallery", "place_id": "ChIJ___jarcadkgRc5PxFgbWA88", "types": ["point_of_interest", "establishment"], "rating": 5, "user_ratings_total": 1}, "ChIJLdmlGroadkgRrHcQ9s6Bl1A": {"geometry": {"location": {"lat": 51.52610219272766, "lng": -0.1711662692859939}, "viewport": {"northeast": {"lat": 51.5274505802915, "lng": -0.169817919708498}, "southwest": {"lat": 51.5247526197085, "lng": -0.172515880291502}}}, "name": "199 B507", "place_id": "ChIJLdmlGroadkgRrHcQ9s6Bl1A", "types": ["route"]}, "ChIJmWcY85AbdkgRA90fgBhmUek": {"geometry": {"location": {"lat": 51.5261055, "lng": -0.171174}, "viewport": {"northeast": {"lat": 51.5274284302915, "lng": -0.169853419708498}, "southwest": {"lat": 51.5247304697085, "lng": -0.172551380291502}}}, "name": "Pm Mel ltda", "place_id": "ChIJmWcY85AbdkgRA90fgBhmUek", "types": ["beauty_salon", "point_of_interest", "establishment"]}, "ChIJhefenbAadkgRRrnruC5wRaY": {"geometry": {"location": {"lat": 51.52533146184319, "lng": -0.1722628454089832}, "viewport": {"northeast": {"lat": 51.52668078029149, "lng": -0.170914619708498}, "southwest": {"lat": 51.52398281970849, "lng": -0.1736125802915021}}}, "name": "28-8 Frampton St", "place_id": "ChIJhefenbAadkgRRrnruC5wRaY", "types": ["route"]}, "ChIJ8RG4zOkbdkgRjOs2G0EsK1E": {"geometry": {"location": {"lat": 51.5251093, "lng": -0.1712307}, "viewport": {"northeast": {"lat": 51.5264235302915, "lng": -0.169815069708498}, "southwest": {"lat": 51.5237255697085, "lng": -0.172513030291502}}}, "name": "Aden Trading Ltd", "place_id": "ChIJ8RG4zOkbdkgRjOs2G0EsK1E", "types": ["point_of_interest", "establishment"], "rating": 5, "user_ratings_total": 1}, "ChIJF7h4prAadkgRFvxd6J3MqRQ": {"geometry": {"location": {"lat": 51.5250655, "lng": -0.1712791}, "viewport": {"northeast": {"lat": 51.5263813802915, "lng": -0.169866569708498}, "southwest": {"lat": 51.5236834197085, "lng": -0.172564530291502}}}, "name": "Fisherton Playgroup", "place_id": "ChIJF7h4prAadkgRFvxd6J3MqRQ", "types": ["point_of_interest", "establishment"], "rating": 5, "user_ratings_total": 3}, "ChIJPdJ8WroadkgRO63n4OXc1Uw": {"geometry": {"location": {"lat": 51.5273859, "lng": -0.1729079}, "viewport": {"northeast": {"lat": 51.5287588802915, "lng": -0.171608469708498}, "southwest": {"lat": 51.5260609197085, "lng": -0.1743064302915021}}}, "name": "Regal Ballet", "place_id": "ChIJPdJ8WroadkgRO63n4OXc1Uw", "types": ["point_of_interest", "establishment"], "rating": 4.8, "user_ratings_total": 50}, "ChIJ6e3dZuQbdkgR4zQfmCYCh1I": {"geometry": {"location": {"lat": 51.5273248, "lng": -0.1729004}, "viewport": {"northeast": {"lat": 51.52872303029149, "lng": -0.171615319708498}, "southwest": {"lat": 51.5260250697085, "lng": -0.174313280291502}}}, "name": "Roman Catholic Church of Our Lady", "place_id": "ChIJ6e3dZuQbdkgR4zQfmCYCh1I", "types": ["church", "place_of_worship", "point_of_interest", "establishment"], "rating": 5, "user_ratings_total": 5}, "ChIJTdRLeLoadkgRjjTtZd0r7eo": {"geometry": {"location": {"lat": 51.52566312890591, "lng": -0.1726565081031625}, "viewport": {"northeast": {"lat": 51.5269951802915, "lng": -0.171293319708498}, "southwest": {"lat": 51.5242972197085, "lng": -0.173991280291502}}}, "name": "75-99 Orchardson St", "place_id": "ChIJTdRLeLoadkgRjjTtZd0r7eo", "types": ["route"]}, "ChIJF_SgeLoadkgRk2l49RHXWR8": {"geometry": {"location": {"lat": 51.5254005, "lng": -0.1729471}, "viewport": {"northeast": {"lat": 51.5267689302915, "lng": -0.171642419708498}, "southwest": {"lat": 51.5240709697085, "lng": -0.174340380291502}}}, "name": "Sara Chiminelli", "place_id": "ChIJF_SgeLoadkgRk2l49RHXWR8", "types": ["school", "point_of_interest", "establishment"]}, "ChIJA79beLoadkgRIw33hlofYlY": {"geometry": {"location": {"lat": 51.52550309999999, "lng": -0.1728137}, "viewport": {"northeast": {"lat": 51.5268415302915, "lng": -0.1714406697084979}, "southwest": {"lat": 51.5241435697085, "lng": -0.174138630291502}}}, "name": "Fisherton Hall", "place_id": "ChIJA79beLoadkgRIw33hlofYlY", "types": ["point_of_interest", "establishment"], "rating": 4.3, "user_ratings_total": 4}, "ChIJIeLjiLAadkgRhPULDy6Gg2I": {"geometry": {"location": {"lat": 51.524483400243, "lng": -0.1732619010633047}, "viewport": {"northeast": {"lat": 51.5258323802915, "lng": -0.171912919708498}, "southwest": {"lat": 51.52313441970851, "lng": -0.174610880291502}}}, "name": "41 Frampton St", "place_id": "ChIJIeLjiLAadkgRhPULDy6Gg2I", "types": ["route"]}, "ChIJE_LXYLAadkgR7PhyCJ08gfk": {"geometry": {"location": {"lat": 51.524261, "lng": -0.173522}, "viewport": {"northeast": {"lat": 51.5255920302915, "lng": -0.172133819708498}, "southwest": {"lat": 51.5228940697085, "lng": -0.174831780291502}}}, "name": "Lisson Grove - Frampton St W", "place_id": "ChIJE_LXYLAadkgR7PhyCJ08gfk", "types": ["car_rental", "point_of_interest", "establishment"], "rating": 5, "user_ratings_total": 1}, "ChIJsZRVirAadkgREgM7GUa47CQ": {"geometry": {"location": {"lat": 51.524248, "lng": -0.17322}, "viewport": {"northeast": {"lat": 51.5254722802915, "lng": -0.1720380197084979}, "southwest": {"lat": 51.5227743197085, "lng": -0.174735980291502}}}, "name": "Melt Chocolate Fountains", "place_id": "ChIJsZRVirAadkgREgM7GUa47CQ", "types": ["point_of_interest", "store", "establishment"]}, "ChIJzSt11lEbdkgRTdPYQowtYwI": {"geometry": {"location": {"lat": 51.5245048, "lng": -0.1730087}, "viewport": {"northeast": {"lat": 51.5258876302915, "lng": -0.171733719708498}, "southwest": {"lat": 51.5231896697085, "lng": -0.174431680291502}}}, "name": "Billie's Room", "place_id": "ChIJzSt11lEbdkgRTdPYQowtYwI", "types": ["point_of_interest", "establishment"], "rating": 3.8, "user_ratings_total": 4}, "ChIJVVXl3LoadkgRDhm9fwVhnok": {"geometry": {"location": {"lat": 51.5274858, "lng": -0.1751097}, "viewport": {"northeast": {"lat": 51.5290755302915, "lng": -0.173360769708498}, "southwest": {"lat": 51.5263775697085, "lng": -0.176058730291502}}}, "name": "Facilit8", "place_id": "ChIJVVXl3LoadkgRDhm9fwVhnok", "types": ["point_of_interest", "establishment"]}, "ChIJWZeN6LoadkgRjiOx8vG_RbE": {"geometry": {"location": {"lat": 51.527294, "lng": -0.174653}, "viewport": {"northeast": {"lat": 51.5286774302915, "lng": -0.173344119708498}, "southwest": {"lat": 51.5259794697085, "lng": -0.176042080291502}}}, "name": "Santander Cycles", "place_id": "ChIJWZeN6LoadkgRjiOx8vG_RbE", "types": ["point_of_interest", "establishment"]}, "ChIJGWrWT8kadkgRpEeCnnbIzKg": {"geometry": {"location": {"lat": 51.527137, "lng": -0.174671}, "viewport": {"northeast": {"lat": 51.5283905802915, "lng": -0.173340069708498}, "southwest": {"lat": 51.5256926197085, "lng": -0.176038030291502}}}, "name": "Maximus language services", "place_id": "ChIJGWrWT8kadkgRpEeCnnbIzKg", "types": ["point_of_interest", "establishment"]}, "ChIJiR42vboadkgRgeeAYgflu9Q": {"geometry": {"location": {"lat": 51.52610004818641, "lng": -0.1749146792399213}, "viewport": {"northeast": {"lat": 51.5274436302915, "lng": -0.173587169708498}, "southwest": {"lat": 51.5247456697085, "lng": -0.176285130291502}}}, "name": "5-7 Cunningham Pl", "place_id": "ChIJiR42vboadkgRgeeAYgflu9Q", "types": ["route"]}, "ChIJIZ2EvroadkgRZL7RMu-TSMc": {"geometry": {"location": {"lat": 51.526398, "lng": -0.1750946}, "viewport": {"northeast": {"lat": 51.5277729302915, "lng": -0.173777819708498}, "southwest": {"lat": 51.52507496970851, "lng": -0.176475780291502}}}, "name": "Hucknall Court", "place_id": "ChIJIZ2EvroadkgRZL7RMu-TSMc", "types": ["point_of_interest", "establishment"], "rating": 4, "user_ratings_total": 1}, "ChIJvdCDl7oadkgR_8coRU9auEw": {"geometry": {"location": {"lat": 51.5259976, "lng": -0.1746439}, "viewport": {"northeast": {"lat": 51.5273256802915, "lng": -0.173340869708498}, "southwest": {"lat": 51.5246277197085, "lng": -0.176038830291502}}}, "name": "ubitricity Charging Station", "place_id": "ChIJvdCDl7oadkgR_8coRU9auEw", "types": ["point_of_interest", "establishment"]}, "ChIJdcL2eLAadkgRLRrMstFVsN4": {"geometry": {"location": {"lat": 51.52532354301401, "lng": -0.17428351007148}, "viewport": {"northeast": {"lat": 51.52666798029149, "lng": -0.172931719708498}, "southwest": {"lat": 51.5239700197085, "lng": -0.175629680291502}}}, "name": "Fisherton Street", "place_id": "ChIJdcL2eLAadkgRLRrMstFVsN4", "types": ["route"]}, "ChIJRYCpZ7AadkgRCBOosHCECRU": {"geometry": {"location": {"lat": 51.5242907500437, "lng": -0.174086399885652}, "viewport": {"northeast": {"lat": 51.52563973029149, "lng": -0.172737419708498}, "southwest": {"lat": 51.5229417697085, "lng": -0.175435380291502}}}, "name": "Penfold Street", "place_id": "ChIJRYCpZ7AadkgRCBOosHCECRU", "types": ["route"]}, "ChIJq6pmarAadkgRns_6_Oyar08": {"geometry": {"location": {"lat": 51.5241391, "lng": -0.1746517}, "viewport": {"northeast": {"lat": 51.5254495802915, "lng": -0.173369869708498}, "southwest": {"lat": 51.5227516197085, "lng": -0.176067830291502}}}, "name": "Central One Limited", "place_id": "ChIJq6pmarAadkgRns_6_Oyar08", "types": ["point_of_interest", "establishment"]}, "ChIJ04AeTsMbdkgRBwyQ9iClxZs": {"geometry": {"location": {"lat": 51.5241391, "lng": -0.1746517}, "viewport": {"northeast": {"lat": 51.52543423029149, "lng": -0.173347119708498}, "southwest": {"lat": 51.5227362697085, "lng": -0.176045080291502}}}, "name": "Three Falcons Hotel", "place_id": "ChIJ04AeTsMbdkgRBwyQ9iClxZs", "types": ["lodging", "point_of_interest", "establishment"], "rating": 4.4, "user_ratings_total": 89}, "ChIJhbOTarAadkgRYQls0rufbR4": {"geometry": {"location": {"lat": 51.5241455, "lng": -0.1747331}, "viewport": {"northeast": {"lat": 51.52546053029149, "lng": -0.173395169708498}, "southwest": {"lat": 51.52276256970849, "lng": -0.176093130291502}}}, "name": "PP London Services", "place_id": "ChIJhbOTarAadkgRYQls0rufbR4", "types": ["general_contractor", "point_of_interest", "establishment"]}}}