{"E00175216": {"ChIJ2wdU_7MadkgRMpBTsySWYu8": {"geometry": {"location": {"lat": 51.51983485003517, "lng": -0.1705501500010984}, "viewport": {"northeast": {"lat": 51.52118383029151, "lng": -0.169201169708498}, "southwest": {"lat": 51.51848586970851, "lng": -0.1718991302915021}}}, "name": "Harrow Road", "place_id": "ChIJ2wdU_7MadkgRMpBTsySWYu8", "types": ["route"]}, "ChIJ6ZfP-bMadkgRwNKjwx_DsLI": {"geometry": {"location": {"lat": 51.51953200000001, "lng": -0.170639}, "viewport": {"northeast": {"lat": 51.52105073029151, "lng": -0.169025469708498}, "southwest": {"lat": 51.51835276970851, "lng": -0.171723430291502}}}, "name": "Green Motion Car and Van Rental Central London", "place_id": "ChIJ6ZfP-bMadkgRwNKjwx_DsLI", "types": ["car_rental", "point_of_interest", "establishment"], "rating": 2.4, "user_ratings_total": 651}, "ChIJwT9ZDbQadkgRJdcxMgyB-HE": {"geometry": {"location": {"lat": 51.51929370000001, "lng": -0.1708259}, "viewport": {"northeast": {"lat": 51.5206869302915, "lng": -0.169477369708498}, "southwest": {"lat": 51.5179889697085, "lng": -0.172175330291502}}}, "name": "Corballis Communication", "place_id": "ChIJwT9ZDbQadkgRJdcxMgyB-HE", "types": ["point_of_interest", "establishment"], "rating": 5, "user_ratings_total": 2}, "ChIJK2-_t7MadkgRbU-s8l_hjxQ": {"geometry": {"location": {"lat": 51.5191432, "lng": -0.1708339}, "viewport": {"northeast": {"lat": 51.52049218029151, "lng": -0.169484919708498}, "southwest": {"lat": 51.51779421970851, "lng": -0.1721828802915021}}}, "name": "Hamptons Letting Agents Paddington", "place_id": "ChIJK2-_t7MadkgRbU-s8l_hjxQ", "types": ["real_estate_agency", "point_of_interest", "establishment"], "rating": 4.1, "user_ratings_total": 53}, "ChIJ5YaKsnoedkgRnBHvNY33J7s": {"geometry": {"location": {"lat": 51.5191219, "lng": -0.1709186}, "viewport": {"northeast": {"lat": 51.52047088029151, "lng": -0.169569619708498}, "southwest": {"lat": 51.51777291970851, "lng": -0.172267580291502}}}, "name": "4B Merchant Square", "place_id": "ChIJ5YaKsnoedkgRnBHvNY33J7s", "types": ["real_estate_agency", "point_of_interest", "establishment"], "rating": 5, "user_ratings_total": 2}, "ChIJ0Zh8lrQcdkgRX4b71SJAX1k": {"geometry": {"location": {"lat": 51.51917659999999, "lng": -0.1711471}, "viewport": {"northeast": {"lat": 51.52052558029149, "lng": -0.169798119708498}, "southwest": {"lat": 51.51782761970849, "lng": -0.172496080291502}}}, "name": "Merchant Otter", "place_id": "ChIJ0Zh8lrQcdkgRX4b71SJAX1k", "types": ["finance", "point_of_interest", "establishment"]}, "ChIJgy0rErQadkgRy3G3xiy9s9c": {"geometry": {"location": {"lat": 51.519575, "lng": -0.170589}, "viewport": {"northeast": {"lat": 51.5210748302915, "lng": -0.1690048697084979}, "southwest": {"lat": 51.5183768697085, "lng": -0.171702830291502}}}, "name": "Whisky Lounge", "place_id": "ChIJgy0rErQadkgRy3G3xiy9s9c", "types": ["night_club", "bar", "point_of_interest", "establishment"], "rating": 2.8, "user_ratings_total": 8}, "ChIJTQZuv7MadkgRrBNU0qXloB4": {"geometry": {"location": {"lat": 51.51927129999999, "lng": -0.171306}, "viewport": {"northeast": {"lat": 51.5206749302915, "lng": -0.1699572697084979}, "southwest": {"lat": 51.5179769697085, "lng": -0.172655230291502}}}, "name": "European Land & Property", "place_id": "ChIJTQZuv7MadkgRrBNU0qXloB4", "types": ["general_contractor", "point_of_interest", "establishment"], "rating": 5, "user_ratings_total": 1}, "ChIJGfey-rMadkgRm1PBXS5W4MI": {"geometry": {"location": {"lat": 51.5197172, "lng": -0.170655}, "viewport": {"northeast": {"lat": 51.5208990802915, "lng": -0.169302369708498}, "southwest": {"lat": 51.5182011197085, "lng": -0.172000330291502}}}, "name": "Zipcar", "place_id": "ChIJGfey-rMadkgRm1PBXS5W4MI", "types": ["car_rental", "point_of_interest", "establishment"], "rating": 4, "user_ratings_total": 2}, "ChIJg-XesbYadkgRIzu-BL7Q9HQ": {"geometry": {"location": {"lat": 51.51975979999999, "lng": -0.170862}, "viewport": {"northeast": {"lat": 51.5211479802915, "lng": -0.1695111697084979}, "southwest": {"lat": 51.5184500197085, "lng": -0.172209130291502}}}, "name": "Camden Town Builder", "place_id": "ChIJg-XesbYadkgRIzu-BL7Q9HQ", "types": ["general_contractor", "point_of_interest", "establishment"], "rating": 4, "user_ratings_total": 1}, "ChIJ2cFgdLQadkgRlwamv72SSlk": {"geometry": {"location": {"lat": 51.518909, "lng": -0.1703188}, "viewport": {"northeast": {"lat": 51.5201592302915, "lng": -0.168822169708498}, "southwest": {"lat": 51.5174612697085, "lng": -0.171520130291502}}}, "name": "Quagon Consulting", "place_id": "ChIJ2cFgdLQadkgRlwamv72SSlk", "types": ["point_of_interest", "establishment"]}, "ChIJG8cTDrQadkgRkkWvgC_h5tM": {"geometry": {"location": {"lat": 51.5196023, "lng": -0.1706942}, "viewport": {"northeast": {"lat": 51.5208415302915, "lng": -0.169344019708498}, "southwest": {"lat": 51.5181435697085, "lng": -0.172041980291502}}}, "name": "LivingWell Health Club", "place_id": "ChIJG8cTDrQadkgRkkWvgC_h5tM", "types": ["gym", "health", "point_of_interest", "establishment"], "rating": 2.3, "user_ratings_total": 20}, "ChIJ87NIdbQadkgRNIin3TB1UCc": {"geometry": {"location": {"lat": 51.5190734, "lng": -0.1701391}, "viewport": {"northeast": {"lat": 51.5203056802915, "lng": -0.168619319708498}, "southwest": {"lat": 51.5176077197085, "lng": -0.171317280291502}}}, "name": "Headmasters Paddington", "place_id": "ChIJ87NIdbQadkgRNIin3TB1UCc", "types": ["hair_care", "health", "point_of_interest", "establishment"], "rating": 4.1, "user_ratings_total": 130}, "ChIJa5Upy9AbdkgRvqG5FHhzqOs": {"geometry": {"location": {"lat": 51.5193822, "lng": -0.1708216}, "viewport": {"northeast": {"lat": 51.5207626802915, "lng": -0.169471919708498}, "southwest": {"lat": 51.5180647197085, "lng": -0.172169880291502}}}, "name": "OYO Rooms For Carers", "place_id": "ChIJa5Upy9AbdkgRvqG5FHhzqOs", "types": ["lodging", "point_of_interest", "establishment"]}, "ChIJEypA8bMadkgRHObluF2lWrc": {"geometry": {"location": {"lat": 51.5192275, "lng": -0.1708724}, "viewport": {"northeast": {"lat": 51.5206537302915, "lng": -0.169524269708498}, "southwest": {"lat": 51.5179557697085, "lng": -0.172222230291502}}}, "name": "LONDON NATIONAL MINIBUS AND COACH HIRE", "place_id": "ChIJEypA8bMadkgRHObluF2lWrc", "types": ["point_of_interest", "establishment"]}, "ChIJXw5octgbdkgRLSxN39oaJIY": {"geometry": {"location": {"lat": 51.519295, "lng": -0.1704718}, "viewport": {"northeast": {"lat": 51.52066568029149, "lng": -0.169082869708498}, "southwest": {"lat": 51.5179677197085, "lng": -0.171780830291502}}}, "name": "BrewDog Paddington", "place_id": "ChIJXw5octgbdkgRLSxN39oaJIY", "types": ["bar", "restaurant", "food", "point_of_interest", "establishment"], "rating": 4.4, "user_ratings_total": 573}, "ChIJqxUD8rMadkgRhlTc1naGH4Y": {"geometry": {"location": {"lat": 51.5191395, "lng": -0.1711085}, "viewport": {"northeast": {"lat": 51.5204884802915, "lng": -0.1697595197084979}, "southwest": {"lat": 51.51779051970851, "lng": -0.172457480291502}}}, "name": "4MSE", "place_id": "ChIJqxUD8rMadkgRhlTc1naGH4Y", "types": ["point_of_interest", "establishment"]}, "ChIJNwbc77MadkgRhcrj0qMNIfk": {"geometry": {"location": {"lat": 51.519381, "lng": -0.171177}, "viewport": {"northeast": {"lat": 51.5207612802915, "lng": -0.169828169708498}, "southwest": {"lat": 51.5180633197085, "lng": -0.172526130291502}}}, "name": "Archies Cars London", "place_id": "ChIJNwbc77MadkgRhcrj0qMNIfk", "types": ["travel_agency", "home_goods_store", "point_of_interest", "store", "establishment"]}, "ChIJxY9A-LMadkgRGv-2gRfL3lM": {"geometry": {"location": {"lat": 51.5195688, "lng": -0.170521}, "viewport": {"northeast": {"lat": 51.5210596802915, "lng": -0.168950869708498}, "southwest": {"lat": 51.5183617197085, "lng": -0.171648830291502}}}, "name": "Firstcall Services Ltd", "place_id": "ChIJxY9A-LMadkgRGv-2gRfL3lM", "types": ["point_of_interest", "establishment"], "rating": 1, "user_ratings_total": 1}, "ChIJG8cTDrQadkgR1AWMFrtt3F0": {"geometry": {"location": {"lat": 51.5196756, "lng": -0.1702861}, "viewport": {"northeast": {"lat": 51.5210982302915, "lng": -0.168809919708498}, "southwest": {"lat": 51.5184002697085, "lng": -0.171507880291502}}}, "name": "Fiamma Restaurant", "place_id": "ChIJG8cTDrQadkgR1AWMFrtt3F0", "types": ["restaurant", "food", "point_of_interest", "establishment"], "rating": 4.1, "user_ratings_total": 67}, "ChIJ_7z3p9gbdkgRAtZVvOOALSY": {"geometry": {"location": {"lat": 51.5191416, "lng": -0.1713339}, "viewport": {"northeast": {"lat": 51.52061003029151, "lng": -0.169985419708498}, "southwest": {"lat": 51.51791206970851, "lng": -0.172683380291502}}}, "name": "Demisemiquaver Studio", "place_id": "ChIJ_7z3p9gbdkgRAtZVvOOALSY", "types": ["point_of_interest", "establishment"], "rating": 5, "user_ratings_total": 31}, "ChIJmc-F9bMadkgR4yLS-t5tyKQ": {"geometry": {"location": {"lat": 51.5191416, "lng": -0.1713339}, "viewport": {"northeast": {"lat": 51.52049058029151, "lng": -0.169984919708498}, "southwest": {"lat": 51.51779261970851, "lng": -0.172682880291502}}}, "name": "5one Interiors", "place_id": "ChIJmc-F9bMadkgR4yLS-t5tyKQ", "types": ["general_contractor", "point_of_interest", "establishment"]}, "ChIJUXxdB7QadkgRHpqe1jQdu-s": {"geometry": {"location": {"lat": 51.519701, "lng": -0.1703737}, "viewport": {"northeast": {"lat": 51.5211171802915, "lng": -0.169067469708498}, "southwest": {"lat": 51.51841921970851, "lng": -0.171765430291502}}}, "name": "Paddington Green Police Station Cycles", "place_id": "ChIJUXxdB7QadkgRHpqe1jQdu-s", "types": ["point_of_interest", "establishment"], "rating": 3.2, "user_ratings_total": 5}, "ChIJYT4JJCkbdkgRVjdNObI-RDw": {"geometry": {"location": {"lat": 51.518909, "lng": -0.1703188}, "viewport": {"northeast": {"lat": 51.5201590302915, "lng": -0.168822119708498}, "southwest": {"lat": 51.5174610697085, "lng": -0.171520080291502}}}, "name": "Stop Islamophobia Now Ltd", "place_id": "ChIJYT4JJCkbdkgRVjdNObI-RDw", "types": ["point_of_interest", "establishment"], "rating": 5, "user_ratings_total": 1}, "ChIJq6rqCrQadkgRm5asXEfitxs": {"geometry": {"location": {"lat": 51.518909, "lng": -0.1703188}, "viewport": {"northeast": {"lat": 51.5201592302915, "lng": -0.168822169708498}, "southwest": {"lat": 51.5174612697085, "lng": -0.171520130291502}}}, "name": "Paddington Plaza", "place_id": "ChIJq6rqCrQadkgRm5asXEfitxs", "types": ["point_of_interest", "establishment"]}, "ChIJb1fT-3UbdkgRR-gnZE96rgk": {"geometry": {"location": {"lat": 51.518909, "lng": -0.1703188}, "viewport": {"northeast": {"lat": 51.5201592302915, "lng": -0.168822169708498}, "southwest": {"lat": 51.5174612697085, "lng": -0.171520130291502}}}, "name": "NAM Global", "place_id": "ChIJb1fT-3UbdkgRR-gnZE96rgk", "types": ["real_estate_agency", "point_of_interest", "establishment"]}, "ChIJLWztqyobdkgRzM9a8Spvm2k": {"geometry": {"location": {"lat": 51.5190583, "lng": -0.1714847}, "viewport": {"northeast": {"lat": 51.52040728029149, "lng": -0.170135719708498}, "southwest": {"lat": 51.5177093197085, "lng": -0.172833680291502}}}, "name": "The Boathouse London", "place_id": "ChIJLWztqyobdkgRzM9a8Spvm2k", "types": ["lodging", "point_of_interest", "establishment"], "rating": 5, "user_ratings_total": 23}, "ChIJhWF2kLMadkgRN7x3xZ49tBs": {"geometry": {"location": {"lat": 51.51820207587178, "lng": -0.1711240547725468}, "viewport": {"northeast": {"lat": 51.5195306802915, "lng": -0.1697843197084979}, "southwest": {"lat": 51.5168327197085, "lng": -0.172482280291502}}}, "name": "South Wharf Road", "place_id": "ChIJhWF2kLMadkgRN7x3xZ49tBs", "types": ["route"]}, "ChIJ7dAeMLkEdkgR4spWaYzOQck": {"geometry": {"location": {"lat": 51.518232, "lng": -0.170712}, "viewport": {"northeast": {"lat": 51.5195592802915, "lng": -0.1694561697084979}, "southwest": {"lat": 51.5168613197085, "lng": -0.172154130291502}}}, "name": "Point A Hotel London - Paddington", "place_id": "ChIJ7dAeMLkEdkgR4spWaYzOQck", "types": ["lodging", "point_of_interest", "establishment"], "rating": 4, "user_ratings_total": 816}, "ChIJQ42fjrMadkgRy4yqA4qDzSc": {"geometry": {"location": {"lat": 51.51835379999999, "lng": -0.170972}, "viewport": {"northeast": {"lat": 51.5196537302915, "lng": -0.169699269708498}, "southwest": {"lat": 51.5169557697085, "lng": -0.172397230291502}}}, "name": "Hamptons Estate Agents Hyde Park and Bayswater", "place_id": "ChIJQ42fjrMadkgRy4yqA4qDzSc", "types": ["finance", "real_estate_agency", "point_of_interest", "establishment"], "rating": 4, "user_ratings_total": 92}, "ChIJw5yrj7MadkgRrLImuPcErt4": {"geometry": {"location": {"lat": 51.5184955, "lng": -0.1708192}, "viewport": {"northeast": {"lat": 51.5197836802915, "lng": -0.169372069708498}, "southwest": {"lat": 51.5170857197085, "lng": -0.172070030291502}}}, "name": "Majory Engineering Ltd", "place_id": "ChIJw5yrj7MadkgRrLImuPcErt4", "types": ["point_of_interest", "establishment"]}, "ChIJczkShbMadkgRspgq012sL50": {"geometry": {"location": {"lat": 51.5180775, "lng": -0.1709271}, "viewport": {"northeast": {"lat": 51.51945928029149, "lng": -0.169624969708498}, "southwest": {"lat": 51.5167613197085, "lng": -0.172322930291502}}}, "name": "DHL Express Service Point (Ryman Praed St)", "place_id": "ChIJczkShbMadkgRspgq012sL50", "types": ["point_of_interest", "establishment"], "rating": 4.3, "user_ratings_total": 6}, "ChIJI16JiLMadkgRmsd12hJjk2k": {"geometry": {"location": {"lat": 51.51803580000001, "lng": -0.1708895}, "viewport": {"northeast": {"lat": 51.51943508029149, "lng": -0.169612319708498}, "southwest": {"lat": 51.51673711970849, "lng": -0.1723102802915021}}}, "name": "Ryman Stationery", "place_id": "ChIJI16JiLMadkgRmsd12hJjk2k", "types": ["point_of_interest", "store", "establishment"], "rating": 4.2, "user_ratings_total": 27}, "ChIJcyVaibMadkgRqW5y-MQyOBk": {"geometry": {"location": {"lat": 51.5185361, "lng": -0.1707611}, "viewport": {"northeast": {"lat": 51.5198316302915, "lng": -0.169288919708498}, "southwest": {"lat": 51.5171336697085, "lng": -0.171986880291502}}}, "name": "Paddington Quay Post Office", "place_id": "ChIJcyVaibMadkgRqW5y-MQyOBk", "types": ["post_office", "finance", "point_of_interest", "establishment"], "rating": 2.8, "user_ratings_total": 77}, "ChIJfej9kLMadkgRrcfK31UZTNw": {"geometry": {"location": {"lat": 51.5183568, "lng": -0.1712468}, "viewport": {"northeast": {"lat": 51.5196273302915, "lng": -0.169910069708498}, "southwest": {"lat": 51.5169293697085, "lng": -0.172608030291502}}}, "name": "Tesco Express", "place_id": "ChIJfej9kLMadkgRrcfK31UZTNw", "types": ["supermarket", "convenience_store", "grocery_or_supermarket", "food", "point_of_interest", "store", "establishment"], "rating": 3.5, "user_ratings_total": 156}, "ChIJj_LC4KQNdkgRC_M64i17RXA": {"geometry": {"location": {"lat": 51.518328, "lng": -0.1700851}, "viewport": {"northeast": {"lat": 51.5196532302915, "lng": -0.168779269708498}, "southwest": {"lat": 51.5169552697085, "lng": -0.171477230291502}}}, "name": "JC Deceaux", "place_id": "ChIJj_LC4KQNdkgRC_M64i17RXA", "types": ["point_of_interest", "establishment"]}, "ChIJ4XUod7QadkgRCyB8Y_Za7oU": {"geometry": {"location": {"lat": 51.518328, "lng": -0.170085}, "viewport": {"northeast": {"lat": 51.5196532302915, "lng": -0.168779169708498}, "southwest": {"lat": 51.5169552697085, "lng": -0.171477130291502}}}, "name": "Apple Apartments Paddington Central", "place_id": "ChIJ4XUod7QadkgRCyB8Y_Za7oU", "types": ["lodging", "point_of_interest", "establishment"], "rating": 4.2, "user_ratings_total": 10}, "ChIJBelO9lIFdkgRuhhapTFI5aU": {"geometry": {"location": {"lat": 51.5184353, "lng": -0.1701087}, "viewport": {"northeast": {"lat": 51.5197406302915, "lng": -0.168839019708498}, "southwest": {"lat": 51.51704266970851, "lng": -0.171536980291502}}}, "name": "Laughing Horse Stand-Up Comedy Courses", "place_id": "ChIJBelO9lIFdkgRuhhapTFI5aU", "types": ["point_of_interest", "establishment"], "rating": 3.8, "user_ratings_total": 12}, "ChIJ4_SBjbMadkgR-cdvHZA7Z0k": {"geometry": {"location": {"lat": 51.51865859999999, "lng": -0.1711021}, "viewport": {"northeast": {"lat": 51.51985268029149, "lng": -0.169513519708498}, "southwest": {"lat": 51.51715471970849, "lng": -0.172211480291502}}}, "name": "F45 Training London Paddington", "place_id": "ChIJ4_SBjbMadkgR-cdvHZA7Z0k", "types": ["gym", "health", "point_of_interest", "establishment"], "rating": 4.9, "user_ratings_total": 261}, "ChIJpzdjm7MadkgRGtsbeXGVKys": {"geometry": {"location": {"lat": 51.5178546, "lng": -0.1712758}, "viewport": {"northeast": {"lat": 51.5192452802915, "lng": -0.169986769708498}, "southwest": {"lat": 51.5165473197085, "lng": -0.172684730291502}}}, "name": "Ominek Venture Group", "place_id": "ChIJpzdjm7MadkgRGtsbeXGVKys", "types": ["point_of_interest", "establishment"]}, "ChIJpzdjm7MadkgRaLOLV805MDY": {"geometry": {"location": {"lat": 51.5178546, "lng": -0.1712758}, "viewport": {"northeast": {"lat": 51.5192452802915, "lng": -0.169986769708498}, "southwest": {"lat": 51.5165473197085, "lng": -0.172684730291502}}}, "name": "Hannabi Homes", "place_id": "ChIJpzdjm7MadkgRaLOLV805MDY", "types": ["real_estate_agency", "point_of_interest", "establishment"]}, "ChIJpzdjm7MadkgRJIM62D2kNjE": {"geometry": {"location": {"lat": 51.5178546, "lng": -0.1712758}, "viewport": {"northeast": {"lat": 51.5192452802915, "lng": -0.169986769708498}, "southwest": {"lat": 51.5165473197085, "lng": -0.172684730291502}}}, "name": "Pure Access IT Ltd", "place_id": "ChIJpzdjm7MadkgRJIM62D2kNjE", "types": ["point_of_interest", "establishment"]}, "ChIJpzdjm7MadkgRjUsftA6zbd8": {"geometry": {"location": {"lat": 51.5178546, "lng": -0.1712758}, "viewport": {"northeast": {"lat": 51.5192452802915, "lng": -0.169986769708498}, "southwest": {"lat": 51.5165473197085, "lng": -0.172684730291502}}}, "name": "Online Geek Desk", "place_id": "ChIJpzdjm7MadkgRjUsftA6zbd8", "types": ["point_of_interest", "establishment"]}, "ChIJqzdjm7MadkgRPj0fyyQmS64": {"geometry": {"location": {"lat": 51.51785460000001, "lng": -0.1712759}, "viewport": {"northeast": {"lat": 51.5192452802915, "lng": -0.169986819708498}, "southwest": {"lat": 51.5165473197085, "lng": -0.172684780291502}}}, "name": "plumeblanche", "place_id": "ChIJqzdjm7MadkgRPj0fyyQmS64", "types": ["point_of_interest", "establishment"]}, "ChIJ5SEiQ9EadkgR-P4Jdn-ewRg": {"geometry": {"location": {"lat": 51.517857, "lng": -0.171285}, "viewport": {"northeast": {"lat": 51.5192455802915, "lng": -0.1699929697084979}, "southwest": {"lat": 51.5165476197085, "lng": -0.172690930291502}}}, "name": "Mr Abhi Parikh", "place_id": "ChIJ5SEiQ9EadkgR-P4Jdn-ewRg", "types": ["doctor", "health", "point_of_interest", "establishment"], "rating": 5, "user_ratings_total": 3}, "ChIJrZZ8m7MadkgRPC1dRvHLPpM": {"geometry": {"location": {"lat": 51.51785659999999, "lng": -0.1712852}, "viewport": {"northeast": {"lat": 51.5192452802915, "lng": -0.169993269708498}, "southwest": {"lat": 51.5165473197085, "lng": -0.1726912302915021}}}, "name": "Ashlar Facilities Maintenance", "place_id": "ChIJrZZ8m7MadkgRPC1dRvHLPpM", "types": ["point_of_interest", "establishment"]}, "ChIJrZZ8m7MadkgRTnZvm090JqA": {"geometry": {"location": {"lat": 51.51785659999999, "lng": -0.1712853}, "viewport": {"northeast": {"lat": 51.5192452802915, "lng": -0.169993369708498}, "southwest": {"lat": 51.5165473197085, "lng": -0.172691330291502}}}, "name": "Park Advisory LLP", "place_id": "ChIJrZZ8m7MadkgRTnZvm090JqA", "types": ["point_of_interest", "establishment"]}, "ChIJmb-Bm7MadkgR_VtaFG1W0Wk": {"geometry": {"location": {"lat": 51.517851, "lng": -0.1712779}, "viewport": {"northeast": {"lat": 51.5192423802915, "lng": -0.169989819708498}, "southwest": {"lat": 51.5165444197085, "lng": -0.172687780291502}}}, "name": "MEHRAT Ltd", "place_id": "ChIJmb-Bm7MadkgR_VtaFG1W0Wk", "types": ["school", "point_of_interest", "establishment"]}, "ChIJkYOenrMadkgRHxKxzAmYKDU": {"geometry": {"location": {"lat": 51.5178501, "lng": -0.1712896}, "viewport": {"northeast": {"lat": 51.51923988029149, "lng": -0.169999269708498}, "southwest": {"lat": 51.5165419197085, "lng": -0.172697230291502}}}, "name": "The Local Bookkeeper - Hammersmith", "place_id": "ChIJkYOenrMadkgRHxKxzAmYKDU", "types": ["accounting", "finance", "point_of_interest", "establishment"]}, "ChIJXW0ZnLMadkgRiNai1p6wnM0": {"geometry": {"location": {"lat": 51.5179551, "lng": -0.1711834}, "viewport": {"northeast": {"lat": 51.51933203029149, "lng": -0.169873319708498}, "southwest": {"lat": 51.51663406970849, "lng": -0.172571280291502}}}, "name": "Rose Cafe", "place_id": "ChIJXW0ZnLMadkgRiNai1p6wnM0", "types": ["cafe", "food", "point_of_interest", "establishment"], "rating": 4.2, "user_ratings_total": 100}, "ChIJty58m7MadkgRjn3i_ivhRcw": {"geometry": {"location": {"lat": 51.51785159999999, "lng": -0.1712995}, "viewport": {"northeast": {"lat": 51.51923943029149, "lng": -0.1700064197084979}, "southwest": {"lat": 51.51654146970849, "lng": -0.172704380291502}}}, "name": "Mobile Phone and Tablet Repairs", "place_id": "ChIJty58m7MadkgRjn3i_ivhRcw", "types": ["point_of_interest", "establishment"], "rating": 1, "user_ratings_total": 1}, "ChIJJaNXmrMadkgRaXZ3Qc64HBg": {"geometry": {"location": {"lat": 51.51809, "lng": -0.171321}, "viewport": {"northeast": {"lat": 51.51942843029151, "lng": -0.169998819708498}, "southwest": {"lat": 51.51673046970851, "lng": -0.1726967802915021}}}, "name": "Fantasia Grill House", "place_id": "ChIJJaNXmrMadkgRaXZ3Qc64HBg", "types": ["bar", "restaurant", "food", "point_of_interest", "establishment"], "rating": 4, "user_ratings_total": 244}, "ChIJ87NIdbQadkgR99rlzTkY1IY": {"geometry": {"location": {"lat": 51.5186552, "lng": -0.1704677}, "viewport": {"northeast": {"lat": 51.51995033029149, "lng": -0.169038219708498}, "southwest": {"lat": 51.51725236970849, "lng": -0.171736180291502}}}, "name": "Superdrug", "place_id": "ChIJ87NIdbQadkgR99rlzTkY1IY", "types": ["point_of_interest", "store", "establishment"], "rating": 4, "user_ratings_total": 147}, "ChIJZ-1zm7MadkgRvQbbJWuwFlk": {"geometry": {"location": {"lat": 51.51785700000001, "lng": -0.17129}, "viewport": {"northeast": {"lat": 51.5192448302915, "lng": -0.169996869708498}, "southwest": {"lat": 51.5165468697085, "lng": -0.172694830291502}}}, "name": "Mail Boxes Etc. Paddington", "place_id": "ChIJZ-1zm7MadkgRvQbbJWuwFlk", "types": ["point_of_interest", "store", "establishment"], "rating": 3.9, "user_ratings_total": 31}, "ChIJ1WC5iLMadkgRE-DSgBgRU9Y": {"geometry": {"location": {"lat": 51.518232, "lng": -0.170712}, "viewport": {"northeast": {"lat": 51.5196048802915, "lng": -0.169398769708498}, "southwest": {"lat": 51.5169069197085, "lng": -0.172096730291502}}}, "name": "Tune Paddington", "place_id": "ChIJ1WC5iLMadkgRE-DSgBgRU9Y", "types": ["point_of_interest", "establishment"]}, "ChIJJV_mDI0bdkgRVajxEzTyjv8": {"geometry": {"location": {"lat": 51.518232, "lng": -0.170712}, "viewport": {"northeast": {"lat": 51.5196048802915, "lng": -0.169398769708498}, "southwest": {"lat": 51.5169069197085, "lng": -0.172096730291502}}}, "name": "Hotel add in London", "place_id": "ChIJJV_mDI0bdkgRVajxEzTyjv8", "types": ["lodging", "point_of_interest", "establishment"]}, "ChIJy6GkjZYbdkgRqn28zJkWD5U": {"geometry": {"location": {"lat": 51.518232, "lng": -0.170712}, "viewport": {"northeast": {"lat": 51.5196048802915, "lng": -0.169398769708498}, "southwest": {"lat": 51.5169069197085, "lng": -0.172096730291502}}}, "name": "apex city of london hotel", "place_id": "ChIJy6GkjZYbdkgRqn28zJkWD5U", "types": ["lodging", "point_of_interest", "establishment"]}, "ChIJAQCQiLMadkgRApa9K5sP128": {"geometry": {"location": {"lat": 51.5182104, "lng": -0.1706365}, "viewport": {"northeast": {"lat": 51.5196007802915, "lng": -0.169349469708498}, "southwest": {"lat": 51.5169028197085, "lng": -0.172047430291502}}}, "name": "8 Caffe", "place_id": "ChIJAQCQiLMadkgRApa9K5sP128", "types": ["cafe", "food", "point_of_interest", "establishment"]}, "ChIJ0cDviLMadkgRUGfdZ1WJrXE": {"geometry": {"location": {"lat": 51.5182862, "lng": -0.1706421}, "viewport": {"northeast": {"lat": 51.5196522302915, "lng": -0.169317419708498}, "southwest": {"lat": 51.5169542697085, "lng": -0.172015380291502}}}, "name": "Scaff\u00e8 Italian Pasta Caffe", "place_id": "ChIJ0cDviLMadkgRUGfdZ1WJrXE", "types": ["point_of_interest", "establishment"]}, "ChIJU1HjhbMadkgRYbzmeg_IXsc": {"geometry": {"location": {"lat": 51.5181266, "lng": -0.1707954}, "viewport": {"northeast": {"lat": 51.5195147802915, "lng": -0.169505069708498}, "southwest": {"lat": 51.5168168197085, "lng": -0.172203030291502}}}, "name": "st. james park", "place_id": "ChIJU1HjhbMadkgRYbzmeg_IXsc", "types": ["park", "tourist_attraction", "point_of_interest", "establishment"]}, "ChIJIRchN_obdkgRKhNYKgj2pHI": {"geometry": {"location": {"lat": 51.51812289999999, "lng": -0.1708411}, "viewport": {"northeast": {"lat": 51.51950498029149, "lng": -0.1695416197084979}, "southwest": {"lat": 51.51680701970849, "lng": -0.172239580291502}}}, "name": "Paddington Paving & Driveways", "place_id": "ChIJIRchN_obdkgRKhNYKgj2pHI", "types": ["general_contractor", "point_of_interest", "establishment"], "rating": 5, "user_ratings_total": 2}, "ChIJU8vCBW8bdkgR6qkvmVkdmHI": {"geometry": {"location": {"lat": 51.51827110000001, "lng": -0.1704901}, "viewport": {"northeast": {"lat": 51.5196680802915, "lng": -0.169209619708498}, "southwest": {"lat": 51.5169701197085, "lng": -0.171907580291502}}}, "name": "Ministry of Startups Paddington", "place_id": "ChIJU8vCBW8bdkgR6qkvmVkdmHI", "types": ["point_of_interest", "establishment"], "rating": 4.5, "user_ratings_total": 4}, "ChIJ4SUlxvkbdkgRHbq0E8tU5Ms": {"geometry": {"location": {"lat": 51.5183072, "lng": -0.1705067}, "viewport": {"northeast": {"lat": 51.51969153029149, "lng": -0.169208169708498}, "southwest": {"lat": 51.51699356970849, "lng": -0.171906130291502}}}, "name": "Cogmatic", "place_id": "ChIJ4SUlxvkbdkgRHbq0E8tU5Ms", "types": ["point_of_interest", "establishment"]}, "ChIJWVI4iLMadkgRMNxJda2uxSM": {"geometry": {"location": {"lat": 51.51828459999999, "lng": -0.1704882}, "viewport": {"northeast": {"lat": 51.5196781302915, "lng": -0.169202719708498}, "southwest": {"lat": 51.5169801697085, "lng": -0.171900680291502}}}, "name": "VAC", "place_id": "ChIJWVI4iLMadkgRMNxJda2uxSM", "types": ["local_government_office", "point_of_interest", "establishment"]}, "ChIJW8uRzu8bdkgRoYuqsSFi38o": {"geometry": {"location": {"lat": 51.518272, "lng": -0.170476}, "viewport": {"northeast": {"lat": 51.5196709302915, "lng": -0.169198269708498}, "southwest": {"lat": 51.5169729697085, "lng": -0.171896230291502}}}, "name": "Ministry of Startups", "place_id": "ChIJW8uRzu8bdkgRoYuqsSFi38o", "types": ["point_of_interest", "establishment"]}, "ChIJVVU5iLMadkgRsFb6Qv62dZk": {"geometry": {"location": {"lat": 51.5182722, "lng": -0.1704759}, "viewport": {"northeast": {"lat": 51.5196710802915, "lng": -0.169198069708498}, "southwest": {"lat": 51.5169731197085, "lng": -0.171896030291502}}}, "name": "AGA Associates Ltd", "place_id": "ChIJVVU5iLMadkgRsFb6Qv62dZk", "types": ["point_of_interest", "establishment"]}, "ChIJVVU5iLMadkgRLbrNwjq7s_c": {"geometry": {"location": {"lat": 51.5182722, "lng": -0.1704759}, "viewport": {"northeast": {"lat": 51.5196710802915, "lng": -0.169198069708498}, "southwest": {"lat": 51.5169731197085, "lng": -0.171896030291502}}}, "name": "The Floating Classroom", "place_id": "ChIJVVU5iLMadkgRLbrNwjq7s_c", "types": ["point_of_interest", "establishment"]}, "ChIJGXPZ6TsbdkgRM2dB3a2jNVw": {"geometry": {"location": {"lat": 51.5182722, "lng": -0.1704759}, "viewport": {"northeast": {"lat": 51.5196710802915, "lng": -0.169198069708498}, "southwest": {"lat": 51.5169731197085, "lng": -0.171896030291502}}}, "name": "Studio Mould", "place_id": "ChIJGXPZ6TsbdkgRM2dB3a2jNVw", "types": ["point_of_interest", "establishment"]}, "ChIJL7oxhNAbdkgR2-tAOk7toXE": {"geometry": {"location": {"lat": 51.5182722, "lng": -0.1704759}, "viewport": {"northeast": {"lat": 51.5196710802915, "lng": -0.169198069708498}, "southwest": {"lat": 51.5169731197085, "lng": -0.171896030291502}}}, "name": "Vyntelligence", "place_id": "ChIJL7oxhNAbdkgR2-tAOk7toXE", "types": ["point_of_interest", "establishment"]}, "ChIJMyzbxnMRdkgR9YBI1OFC0YE": {"geometry": {"location": {"lat": 51.5182722, "lng": -0.1704759}, "viewport": {"northeast": {"lat": 51.5196710802915, "lng": -0.169198069708498}, "southwest": {"lat": 51.5169731197085, "lng": -0.171896030291502}}}, "name": "alexlatte - Digital Content Studio", "place_id": "ChIJMyzbxnMRdkgR9YBI1OFC0YE", "types": ["point_of_interest", "establishment"]}, "ChIJHbOSHgIbdkgR7SgBQnfk-eA": {"geometry": {"location": {"lat": 51.5182722, "lng": -0.1704759}, "viewport": {"northeast": {"lat": 51.5196710802915, "lng": -0.169198069708498}, "southwest": {"lat": 51.5169731197085, "lng": -0.171896030291502}}}, "name": "Studio Mould", "place_id": "ChIJHbOSHgIbdkgR7SgBQnfk-eA", "types": ["point_of_interest", "establishment"]}, "ChIJgarV5_sbdkgRbp8H_bbQE1k": {"geometry": {"location": {"lat": 51.5180775, "lng": -0.1709271}, "viewport": {"northeast": {"lat": 51.51945928029149, "lng": -0.169624969708498}, "southwest": {"lat": 51.5167613197085, "lng": -0.172322930291502}}}, "name": "Printt Click & Collect (Ryman)", "place_id": "ChIJgarV5_sbdkgRbp8H_bbQE1k", "types": ["point_of_interest", "store", "establishment"]}, "ChIJA46EjrMadkgRZlHouVoYaP8": {"geometry": {"location": {"lat": 51.5183478, "lng": -0.1710069}, "viewport": {"northeast": {"lat": 51.51964393029149, "lng": -0.169711019708498}, "southwest": {"lat": 51.5169459697085, "lng": -0.172408980291502}}}, "name": "Hamptons International", "place_id": "ChIJA46EjrMadkgRZlHouVoYaP8", "types": ["real_estate_agency", "point_of_interest", "establishment"], "rating": 1, "user_ratings_total": 4}, "ChIJSfm0jrMadkgRdHstikSVgx0": {"geometry": {"location": {"lat": 51.51842720000001, "lng": -0.1707861000000001}, "viewport": {"northeast": {"lat": 51.5197737802915, "lng": -0.169355519708498}, "southwest": {"lat": 51.5170758197085, "lng": -0.1720534802915021}}}, "name": "Peninsula Apartments", "place_id": "ChIJSfm0jrMadkgRdHstikSVgx0", "types": ["point_of_interest", "establishment"]}, "ChIJ7XrNjrMadkgRDBFVLGIfYjo": {"geometry": {"location": {"lat": 51.5184294, "lng": -0.1707695}, "viewport": {"northeast": {"lat": 51.5197768302915, "lng": -0.169347219708498}, "southwest": {"lat": 51.5170788697085, "lng": -0.172045180291502}}}, "name": "Wese end quay,peninsula4", "place_id": "ChIJ7XrNjrMadkgRDBFVLGIfYjo", "types": ["point_of_interest", "establishment"]}, "ChIJTZbcj7MadkgRQQC9xBnf4NQ": {"geometry": {"location": {"lat": 51.51826800000001, "lng": -0.171103}, "viewport": {"northeast": {"lat": 51.5195838302915, "lng": -0.169762169708498}, "southwest": {"lat": 51.5168858697085, "lng": -0.172460130291502}}}, "name": "Santander Cycles", "place_id": "ChIJTZbcj7MadkgRQQC9xBnf4NQ", "types": ["point_of_interest", "establishment"]}, "ChIJM6i0T-8bdkgRrZoFh0d0Fhw": {"geometry": {"location": {"lat": 51.5184686, "lng": -0.1708282}, "viewport": {"northeast": {"lat": 51.5197763802915, "lng": -0.169376569708498}, "southwest": {"lat": 51.5170784197085, "lng": -0.172074530291502}}}, "name": "T4", "place_id": "ChIJM6i0T-8bdkgRrZoFh0d0Fhw", "types": ["cafe", "food", "point_of_interest", "establishment"], "rating": 4.7, "user_ratings_total": 9}, "ChIJr5Z8m7MadkgRPxci6LdYGLI": {"geometry": {"location": {"lat": 51.5184781, "lng": -0.1707127}, "viewport": {"northeast": {"lat": 51.5197963302915, "lng": -0.169300569708498}, "southwest": {"lat": 51.5170983697085, "lng": -0.171998530291502}}}, "name": "INVEST WORLDWIDE INC LTD", "place_id": "ChIJr5Z8m7MadkgRPxci6LdYGLI", "types": ["point_of_interest", "establishment"]}, "ChIJQ42fjrMadkgRvu5Q3b30YtE": {"geometry": {"location": {"lat": 51.5184734, "lng": -0.1708833}, "viewport": {"northeast": {"lat": 51.51976893029149, "lng": -0.169404119708498}, "southwest": {"lat": 51.5170709697085, "lng": -0.172102080291502}}}, "name": "Flight Centre", "place_id": "ChIJQ42fjrMadkgRvu5Q3b30YtE", "types": ["travel_agency", "point_of_interest", "establishment"], "rating": 5, "user_ratings_total": 6}, "ChIJg4d7BwcbdkgROR_a5yujir0": {"geometry": {"location": {"lat": 51.5184955, "lng": -0.1708192}, "viewport": {"northeast": {"lat": 51.5197836802915, "lng": -0.169372069708498}, "southwest": {"lat": 51.5170857197085, "lng": -0.172070030291502}}}, "name": "Peninsula Apartments", "place_id": "ChIJg4d7BwcbdkgROR_a5yujir0", "types": ["lodging", "point_of_interest", "establishment"]}, "ChIJnzZwyk0bdkgRE1OCQW0u1uk": {"geometry": {"location": {"lat": 51.5184955, "lng": -0.1708192}, "viewport": {"northeast": {"lat": 51.5197836802915, "lng": -0.169372069708498}, "southwest": {"lat": 51.5170857197085, "lng": -0.172070030291502}}}, "name": "Post Office Travel Money", "place_id": "ChIJnzZwyk0bdkgRE1OCQW0u1uk", "types": ["finance", "point_of_interest", "establishment"]}, "ChIJmSRSH6wbdkgRE7JeOO2IzEk": {"geometry": {"location": {"lat": 51.5184921, "lng": -0.1708708}, "viewport": {"northeast": {"lat": 51.5197749802915, "lng": -0.169397869708498}, "southwest": {"lat": 51.51707701970851, "lng": -0.172095830291502}}}, "name": "Giant Shop Front Shutters", "place_id": "ChIJmSRSH6wbdkgRE7JeOO2IzEk", "types": ["point_of_interest", "establishment"], "rating": 4.2, "user_ratings_total": 5}, "ChIJczSJ21AbdkgRXqzFjUD71Po": {"geometry": {"location": {"lat": 51.51845789999999, "lng": -0.1701788}, "viewport": {"northeast": {"lat": 51.5197690802915, "lng": -0.168893569708498}, "southwest": {"lat": 51.5170711197085, "lng": -0.171591530291502}}}, "name": "Parada Bus", "place_id": "ChIJczSJ21AbdkgRXqzFjUD71Po", "types": ["lodging", "point_of_interest", "establishment"]}, "ChIJXW0ZnLMadkgRDnq5bPGfIZU": {"geometry": {"location": {"lat": 51.51792589999999, "lng": -0.1712492}, "viewport": {"northeast": {"lat": 51.5193010802915, "lng": -0.169936619708498}, "southwest": {"lat": 51.5166031197085, "lng": -0.1726345802915021}}}, "name": "Unique Style", "place_id": "ChIJXW0ZnLMadkgRDnq5bPGfIZU", "types": ["hair_care", "point_of_interest", "establishment"], "rating": 3, "user_ratings_total": 6}, "ChIJNXtmmrMadkgRv1OGgQVMmME": {"geometry": {"location": {"lat": 51.5180574, "lng": -0.1714104}, "viewport": {"northeast": {"lat": 51.51937018029149, "lng": -0.1700110197084979}, "southwest": {"lat": 51.51667221970849, "lng": -0.172708980291502}}}, "name": "Unsung Ltd", "place_id": "ChIJNXtmmrMadkgRv1OGgQVMmME", "types": ["point_of_interest", "establishment"]}, "ChIJXz0txqAbdkgRJaWrO7x6kbc": {"geometry": {"location": {"lat": 51.517855, "lng": -0.1711497}, "viewport": {"northeast": {"lat": 51.5192374302915, "lng": -0.169741119708498}, "southwest": {"lat": 51.5165394697085, "lng": -0.172439080291502}}}, "name": "Prince shisha and Arabian Cuisine", "place_id": "ChIJXz0txqAbdkgRJaWrO7x6kbc", "types": ["restaurant", "food", "point_of_interest", "establishment"]}, "ChIJ088JgLQadkgRasJblQvJZlw": {"geometry": {"location": {"lat": 51.51750810202532, "lng": -0.1703028557952062}, "viewport": {"northeast": {"lat": 51.5188570802915, "lng": -0.1689223500000001}, "southwest": {"lat": 51.5161591197085, "lng": -0.17168335}}}, "name": "39-18 Star St", "place_id": "ChIJ088JgLQadkgRasJblQvJZlw", "types": ["route"]}, "ChIJXUgle7MadkgR65KErRs-pTI": {"geometry": {"location": {"lat": 51.516999, "lng": -0.1705601}, "viewport": {"northeast": {"lat": 51.5183091802915, "lng": -0.169280869708498}, "southwest": {"lat": 51.5156112197085, "lng": -0.171978830291502}}}, "name": "Paddington Southwick Street Apartments", "place_id": "ChIJXUgle7MadkgR65KErRs-pTI", "types": ["lodging", "point_of_interest", "establishment"], "rating": 4.2, "user_ratings_total": 5}, "ChIJVW_mfLMadkgR4ydcdQx9NJQ": {"geometry": {"location": {"lat": 51.516999, "lng": -0.1705601}, "viewport": {"northeast": {"lat": 51.5183091802915, "lng": -0.169280869708498}, "southwest": {"lat": 51.5156112197085, "lng": -0.171978830291502}}}, "name": "Pak Awie", "place_id": "ChIJVW_mfLMadkgR4ydcdQx9NJQ", "types": ["restaurant", "food", "point_of_interest", "establishment"], "rating": 3.9, "user_ratings_total": 10}, "ChIJlXDXerMadkgRJGqkJG-iZNM": {"geometry": {"location": {"lat": 51.516963, "lng": -0.1709482}, "viewport": {"northeast": {"lat": 51.5183437802915, "lng": -0.1695505197084979}, "southwest": {"lat": 51.5156458197085, "lng": -0.172248480291502}}}, "name": "Natural Balance", "place_id": "ChIJlXDXerMadkgRJGqkJG-iZNM", "types": ["spa", "point_of_interest", "establishment"], "rating": 3.7, "user_ratings_total": 9}, "ChIJl5dIb7MadkgRu8Y7SYEVlWc": {"geometry": {"location": {"lat": 51.5169371, "lng": -0.1708766}, "viewport": {"northeast": {"lat": 51.5183099302915, "lng": -0.169484719708498}, "southwest": {"lat": 51.5156119697085, "lng": -0.172182680291502}}}, "name": "M T D Contractors Ltd", "place_id": "ChIJl5dIb7MadkgRu8Y7SYEVlWc", "types": ["general_contractor", "point_of_interest", "establishment"], "rating": 5, "user_ratings_total": 1}, "ChIJEb0gcbMadkgRWm0peDlS67g": {"geometry": {"location": {"lat": 51.51715720000001, "lng": -0.1712659}, "viewport": {"northeast": {"lat": 51.5184750302915, "lng": -0.169972269708498}, "southwest": {"lat": 51.51577706970851, "lng": -0.172670230291502}}}, "name": "M & L Associates", "place_id": "ChIJEb0gcbMadkgRWm0peDlS67g", "types": ["point_of_interest", "establishment"]}, "ChIJkTxrfLMadkgRywgBqlNfVjI": {"geometry": {"location": {"lat": 51.5170974, "lng": -0.1706905}, "viewport": {"northeast": {"lat": 51.5184058802915, "lng": -0.1694143697084979}, "southwest": {"lat": 51.5157079197085, "lng": -0.172112330291502}}}, "name": "TRiBECA\u00ae Knowledge", "place_id": "ChIJkTxrfLMadkgRywgBqlNfVjI", "types": ["point_of_interest", "establishment"]}, "ChIJxfe9fLMadkgRS5EN1oXBbHM": {"geometry": {"location": {"lat": 51.5170107, "lng": -0.1705549}, "viewport": {"northeast": {"lat": 51.5183180802915, "lng": -0.169285219708498}, "southwest": {"lat": 51.5156201197085, "lng": -0.171983180291502}}}, "name": "Hyde Park Studios", "place_id": "ChIJxfe9fLMadkgRS5EN1oXBbHM", "types": ["point_of_interest", "establishment"], "rating": 4.4, "user_ratings_total": 20}, "ChIJ2X2UebMadkgRw-8aibKhALw": {"geometry": {"location": {"lat": 51.517246, "lng": -0.1710325}, "viewport": {"northeast": {"lat": 51.5185554302915, "lng": -0.169626969708498}, "southwest": {"lat": 51.5158574697085, "lng": -0.172324930291502}}}, "name": "New World Hospitality", "place_id": "ChIJ2X2UebMadkgRw-8aibKhALw", "types": ["lodging", "point_of_interest", "establishment"]}, "ChIJ1QWQebMadkgRPx7VCTR2ySY": {"geometry": {"location": {"lat": 51.517246, "lng": -0.1710325}, "viewport": {"northeast": {"lat": 51.5185536802915, "lng": -0.169629819708498}, "southwest": {"lat": 51.5158557197085, "lng": -0.172327780291502}}}, "name": "Westgate Utama", "place_id": "ChIJ1QWQebMadkgRPx7VCTR2ySY", "types": ["point_of_interest", "establishment"]}, "ChIJz-p2g7QadkgR8tGapp1TpyI": {"geometry": {"location": {"lat": 51.5170052, "lng": -0.1700944}, "viewport": {"northeast": {"lat": 51.5183191802915, "lng": -0.168694919708498}, "southwest": {"lat": 51.5156212197085, "lng": -0.171392880291502}}}, "name": "Wilson House", "place_id": "ChIJz-p2g7QadkgR8tGapp1TpyI", "types": ["point_of_interest", "establishment"], "rating": 4.1, "user_ratings_total": 125}, "ChIJgXKbdrMadkgRKEkWmpz2PQs": {"geometry": {"location": {"lat": 51.5172768, "lng": -0.1714973}, "viewport": {"northeast": {"lat": 51.5186035802915, "lng": -0.170187819708498}, "southwest": {"lat": 51.5159056197085, "lng": -0.172885780291502}}}, "name": "Alhashimi Center", "place_id": "ChIJgXKbdrMadkgRKEkWmpz2PQs", "types": ["health", "point_of_interest", "establishment"], "rating": 2.3, "user_ratings_total": 3}, "ChIJlXDXerMadkgRext1r0mx_Jw": {"geometry": {"location": {"lat": 51.5170447, "lng": -0.1707076}, "viewport": {"northeast": {"lat": 51.5183675302915, "lng": -0.169405669708498}, "southwest": {"lat": 51.5156695697085, "lng": -0.172103630291502}}}, "name": "Jamuna", "place_id": "ChIJlXDXerMadkgRext1r0mx_Jw", "types": ["restaurant", "food", "point_of_interest", "establishment"]}, "ChIJ04JafLMadkgRSWdETz1J3QY": {"geometry": {"location": {"lat": 51.5170527, "lng": -0.17063}, "viewport": {"northeast": {"lat": 51.5183617302915, "lng": -0.169352819708498}, "southwest": {"lat": 51.5156637697085, "lng": -0.172050780291502}}}, "name": "JAMTec Ltd.", "place_id": "ChIJ04JafLMadkgRSWdETz1J3QY", "types": ["point_of_interest", "establishment"]}, "ChIJ04JafLMadkgRIkTGkjYK8D4": {"geometry": {"location": {"lat": 51.5170527, "lng": -0.17063}, "viewport": {"northeast": {"lat": 51.5183628802915, "lng": -0.169355019708498}, "southwest": {"lat": 51.5156649197085, "lng": -0.172052980291502}}}, "name": "Lh Trading Limited", "place_id": "ChIJ04JafLMadkgRIkTGkjYK8D4", "types": ["point_of_interest", "establishment"]}, "ChIJow_tfrMadkgRJhselW1Ck4o": {"geometry": {"location": {"lat": 51.51727399999999, "lng": -0.170639}, "viewport": {"northeast": {"lat": 51.5186261802915, "lng": -0.169294569708498}, "southwest": {"lat": 51.5159282197085, "lng": -0.171992530291502}}}, "name": "ubitricity Charging Station", "place_id": "ChIJow_tfrMadkgRJhselW1Ck4o", "types": ["point_of_interest", "establishment"]}, "ChIJ-7SWgLQadkgRUP4MK1_Sf8Q": {"geometry": {"location": {"lat": 51.51725500000001, "lng": -0.1705196}, "viewport": {"northeast": {"lat": 51.5186410802915, "lng": -0.169223719708498}, "southwest": {"lat": 51.5159431197085, "lng": -0.171921680291502}}}, "name": "D'Costa Fiona", "place_id": "ChIJ-7SWgLQadkgRUP4MK1_Sf8Q", "types": ["health", "point_of_interest", "establishment"], "rating": 5, "user_ratings_total": 1}, "ChIJEzJXjlsbdkgRZmoSOpejH1M": {"geometry": {"location": {"lat": 51.516991, "lng": -0.170989}, "viewport": {"northeast": {"lat": 51.5183690302915, "lng": -0.169584669708498}, "southwest": {"lat": 51.5156710697085, "lng": -0.172282630291502}}}, "name": "Dendrow Property", "place_id": "ChIJEzJXjlsbdkgRZmoSOpejH1M", "types": ["real_estate_agency", "point_of_interest", "establishment"], "rating": 3.1, "user_ratings_total": 11}, "ChIJsRA_ebMadkgRmbyhwkYd-lE": {"geometry": {"location": {"lat": 51.5173002, "lng": -0.1709254}, "viewport": {"northeast": {"lat": 51.5186110302915, "lng": -0.169521919708498}, "southwest": {"lat": 51.5159130697085, "lng": -0.172219880291502}}}, "name": "G & G Marketing London Ltd", "place_id": "ChIJsRA_ebMadkgRmbyhwkYd-lE", "types": ["point_of_interest", "establishment"]}, "ChIJCSFXX-QbdkgR4zK9kMB8w_w": {"geometry": {"location": {"lat": 51.5172897, "lng": -0.1705372}, "viewport": {"northeast": {"lat": 51.5186633802915, "lng": -0.1692235697084979}, "southwest": {"lat": 51.5159654197085, "lng": -0.171921530291502}}}, "name": "Search Convert,", "place_id": "ChIJCSFXX-QbdkgR4zK9kMB8w_w", "types": ["point_of_interest", "establishment"], "rating": 5, "user_ratings_total": 4}, "ChIJDx2pnygbdkgRHARd-tHIUqA": {"geometry": {"location": {"lat": 51.5172445, "lng": -0.1710325}, "viewport": {"northeast": {"lat": 51.51855428029149, "lng": -0.169627419708498}, "southwest": {"lat": 51.51585631970849, "lng": -0.172325380291502}}}, "name": "Estate Developers & Realtors", "place_id": "ChIJDx2pnygbdkgRHARd-tHIUqA", "types": ["real_estate_agency", "point_of_interest", "establishment"]}, "ChIJU-1BQ38bdkgRHF2HRr_sA7o": {"geometry": {"location": {"lat": 51.5172445, "lng": -0.1710325}, "viewport": {"northeast": {"lat": 51.51855428029149, "lng": -0.169627419708498}, "southwest": {"lat": 51.51585631970849, "lng": -0.172325380291502}}}, "name": "Frontline Hospitality Recruitment", "place_id": "ChIJU-1BQ38bdkgRHF2HRr_sA7o", "types": ["point_of_interest", "establishment"]}, "ChIJkeM3l-gbdkgRmJ8T6xc85_o": {"geometry": {"location": {"lat": 51.5169124, "lng": -0.1709164}, "viewport": {"northeast": {"lat": 51.5182613802915, "lng": -0.169567419708498}, "southwest": {"lat": 51.5155634197085, "lng": -0.172265380291502}}}, "name": "24 Hour Emergency Electrician Paddington", "place_id": "ChIJkeM3l-gbdkgRmJ8T6xc85_o", "types": ["electrician", "point_of_interest", "establishment"]}, "ChIJDd_dWCMbdkgRLQIs_IuE5uQ": {"geometry": {"location": {"lat": 51.51716829999999, "lng": -0.1711217}, "viewport": {"northeast": {"lat": 51.51848558029149, "lng": -0.169727019708498}, "southwest": {"lat": 51.5157876197085, "lng": -0.172424980291502}}}, "name": "Thai Touch Paddington", "place_id": "ChIJDd_dWCMbdkgRLQIs_IuE5uQ", "types": ["spa", "health", "point_of_interest", "establishment"], "rating": 5, "user_ratings_total": 1}, "ChIJ0RkBerMadkgRbVF3WidB12M": {"geometry": {"location": {"lat": 51.51716829999999, "lng": -0.1711217}, "viewport": {"northeast": {"lat": 51.51848573029149, "lng": -0.169727069708498}, "southwest": {"lat": 51.51578776970849, "lng": -0.172425030291502}}}, "name": "Yee Chinese Medicine", "place_id": "ChIJ0RkBerMadkgRbVF3WidB12M", "types": ["health", "point_of_interest", "establishment"]}, "ChIJJ2XpcLMadkgRdVE0y8NyVKs": {"geometry": {"location": {"lat": 51.5170876, "lng": -0.1712527}, "viewport": {"northeast": {"lat": 51.5184225802915, "lng": -0.169924619708498}, "southwest": {"lat": 51.5157246197085, "lng": -0.172622580291502}}}, "name": "Paddington Market", "place_id": "ChIJJ2XpcLMadkgRdVE0y8NyVKs", "types": ["point_of_interest", "establishment"]}, "ChIJh-jpcLMadkgRCswrz4ScEqA": {"geometry": {"location": {"lat": 51.5170979, "lng": -0.1712555}, "viewport": {"northeast": {"lat": 51.5184201802915, "lng": -0.169916969708498}, "southwest": {"lat": 51.5157222197085, "lng": -0.172614930291502}}}, "name": "Scenario Caf\u00e9", "place_id": "ChIJh-jpcLMadkgRCswrz4ScEqA", "types": ["cafe", "food", "point_of_interest", "establishment"], "rating": 4.1, "user_ratings_total": 17}, "ChIJ76kocbMadkgRpxsHxh7u1eY": {"geometry": {"location": {"lat": 51.51715720000001, "lng": -0.1712659}, "viewport": {"northeast": {"lat": 51.5184750302915, "lng": -0.169972269708498}, "southwest": {"lat": 51.51577706970851, "lng": -0.172670230291502}}}, "name": "The Chancery Partnership", "place_id": "ChIJ76kocbMadkgRpxsHxh7u1eY", "types": ["point_of_interest", "establishment"]}, "ChIJGeK_tAEbdkgRsRZCm1Q2Nh4": {"geometry": {"location": {"lat": 51.5170921, "lng": -0.1712674}, "viewport": {"northeast": {"lat": 51.51842968029149, "lng": -0.169938769708498}, "southwest": {"lat": 51.51573171970849, "lng": -0.172636730291502}}}, "name": "Nasi Lemak Nek Nong London", "place_id": "ChIJGeK_tAEbdkgRsRZCm1Q2Nh4", "types": ["cafe", "food", "point_of_interest", "establishment"], "rating": 3.9, "user_ratings_total": 20}, "ChIJ1yUttHYbdkgRs6wG0mfL82E": {"geometry": {"location": {"lat": 51.51712630000001, "lng": -0.1712862}, "viewport": {"northeast": {"lat": 51.51845428029149, "lng": -0.169974569708498}, "southwest": {"lat": 51.51575631970849, "lng": -0.172672530291502}}}, "name": "Dellacafe", "place_id": "ChIJ1yUttHYbdkgRs6wG0mfL82E", "types": ["restaurant", "food", "point_of_interest", "establishment"]}, "ChIJUdPWdrMadkgRMKMAZdQOkf0": {"geometry": {"location": {"lat": 51.51721200000001, "lng": -0.171343}, "viewport": {"northeast": {"lat": 51.5185294302915, "lng": -0.170050069708498}, "southwest": {"lat": 51.51583146970851, "lng": -0.172748030291502}}}, "name": "Paddington Stays By StayGuru", "place_id": "ChIJUdPWdrMadkgRMKMAZdQOkf0", "types": ["lodging", "point_of_interest", "establishment"], "rating": 1.7, "user_ratings_total": 3}, "ChIJVVVsg7QadkgR5OySSRtapb0": {"geometry": {"location": {"lat": 51.5169688, "lng": -0.1701115}, "viewport": {"northeast": {"lat": 51.51829018029149, "lng": -0.168722719708498}, "southwest": {"lat": 51.51559221970849, "lng": -0.171420680291502}}}, "name": "\u30a6\u30a3\u30eb\u30bd\u30f3 \u30cf\u30a6\u30b9", "place_id": "ChIJVVVsg7QadkgR5OySSRtapb0", "types": ["lodging", "point_of_interest", "establishment"]}, "ChIJFzaO1EAbdkgRqWHb9KvAE2k": {"geometry": {"location": {"lat": 51.5170027, "lng": -0.170081}, "viewport": {"northeast": {"lat": 51.5183194302915, "lng": -0.168685469708498}, "southwest": {"lat": 51.51562146970851, "lng": -0.171383430291502}}}, "name": "Wilson House Guest Rooms", "place_id": "ChIJFzaO1EAbdkgRqWHb9KvAE2k", "types": ["lodging", "point_of_interest", "establishment"]}, "ChIJLypUcLMadkgR_K8aj6tme8M": {"geometry": {"location": {"lat": 51.5169925, "lng": -0.1714225}, "viewport": {"northeast": {"lat": 51.5183715802915, "lng": -0.170019969708498}, "southwest": {"lat": 51.5156736197085, "lng": -0.172717930291502}}}, "name": "G F Electrical", "place_id": "ChIJLypUcLMadkgR_K8aj6tme8M", "types": ["point_of_interest", "establishment"], "rating": 5, "user_ratings_total": 3}, "ChIJU0o6crMadkgRYmn-TTjGOTs": {"geometry": {"location": {"lat": 51.5169675, "lng": -0.1715652}, "viewport": {"northeast": {"lat": 51.5182715302915, "lng": -0.170150069708498}, "southwest": {"lat": 51.5155735697085, "lng": -0.172848030291502}}}, "name": "Colaz", "place_id": "ChIJU0o6crMadkgRYmn-TTjGOTs", "types": ["point_of_interest", "establishment"], "rating": 5, "user_ratings_total": 1}, "ChIJe_Hzc7MadkgRRKHOeNdKv5c": {"geometry": {"location": {"lat": 51.51713849999999, "lng": -0.1716016}, "viewport": {"northeast": {"lat": 51.5185125302915, "lng": -0.170208119708498}, "southwest": {"lat": 51.5158145697085, "lng": -0.172906080291502}}}, "name": "Alexander Paddington Apartments", "place_id": "ChIJe_Hzc7MadkgRRKHOeNdKv5c", "types": ["lodging", "point_of_interest", "establishment"], "rating": 3.6, "user_ratings_total": 57}, "ChIJd5Nt3bMadkgRmZ6_TNGAm2Q": {"geometry": {"location": {"lat": 51.51947227004423, "lng": -0.1719857150170602}, "viewport": {"northeast": {"lat": 51.5208322802915, "lng": -0.170608019708498}, "southwest": {"lat": 51.5181343197085, "lng": -0.173305980291502}}}, "name": "Harbet Road", "place_id": "ChIJd5Nt3bMadkgRmZ6_TNGAm2Q", "types": ["route"]}, "ChIJBxXKErQadkgRPiT1ZGJdhow": {"geometry": {"location": {"lat": 51.51914120000001, "lng": -0.1722273}, "viewport": {"northeast": {"lat": 51.52060983029151, "lng": -0.170432069708498}, "southwest": {"lat": 51.51791186970851, "lng": -0.173130030291502}}}, "name": "3 Merchant Square", "place_id": "ChIJBxXKErQadkgRPiT1ZGJdhow", "types": ["point_of_interest", "establishment"], "rating": 4.2, "user_ratings_total": 46}, "ChIJ3-3Jt7MadkgRTjROEZbXy_Y": {"geometry": {"location": {"lat": 51.5189405, "lng": -0.1721289}, "viewport": {"northeast": {"lat": 51.5203174802915, "lng": -0.171109569708498}, "southwest": {"lat": 51.5176195197085, "lng": -0.173807530291502}}}, "name": "Lockhouse", "place_id": "ChIJ3-3Jt7MadkgRTjROEZbXy_Y", "types": ["bar", "point_of_interest", "establishment"], "rating": 3.9, "user_ratings_total": 505}, "ChIJF6LmwbMadkgRHikvZ_N0TFI": {"geometry": {"location": {"lat": 51.5193835, "lng": -0.1726262}, "viewport": {"northeast": {"lat": 51.5209715302915, "lng": -0.171263219708498}, "southwest": {"lat": 51.51827356970851, "lng": -0.173961180291502}}}, "name": "Merchant Square Day Nursery Paddington", "place_id": "ChIJF6LmwbMadkgRHikvZ_N0TFI", "types": ["school", "point_of_interest", "establishment"], "rating": 3, "user_ratings_total": 4}, "ChIJGd3xBaAbdkgR6eXFuZecBrI": {"geometry": {"location": {"lat": 51.5192766, "lng": -0.1727861}, "viewport": {"northeast": {"lat": 51.5205981302915, "lng": -0.171426269708498}, "southwest": {"lat": 51.5179001697085, "lng": -0.174124230291502}}}, "name": "Personal trainer Paddington", "place_id": "ChIJGd3xBaAbdkgR6eXFuZecBrI", "types": ["health", "point_of_interest", "establishment"]}, "ChIJ5bT7LMsbdkgR2vukiX1EEsc": {"geometry": {"location": {"lat": 51.5192766, "lng": -0.1727861}, "viewport": {"northeast": {"lat": 51.5205981302915, "lng": -0.171426269708498}, "southwest": {"lat": 51.5179001697085, "lng": -0.174124230291502}}}, "name": "Roofing services Paddington", "place_id": "ChIJ5bT7LMsbdkgR2vukiX1EEsc", "types": ["roofing_contractor", "point_of_interest", "establishment"]}, "ChIJUYHuH4gbdkgR8Wk9NloCvdw": {"geometry": {"location": {"lat": 51.5192766, "lng": -0.1727861}, "viewport": {"northeast": {"lat": 51.5205981302915, "lng": -0.171426269708498}, "southwest": {"lat": 51.5179001697085, "lng": -0.174124230291502}}}, "name": "Water Damage Paddington", "place_id": "ChIJUYHuH4gbdkgR8Wk9NloCvdw", "types": ["general_contractor", "point_of_interest", "establishment"]}, "ChIJ08BCv7MadkgRIBw5Z8BVCqA": {"geometry": {"location": {"lat": 51.518988, "lng": -0.1724349}, "viewport": {"northeast": {"lat": 51.5203369802915, "lng": -0.1710859197084979}, "southwest": {"lat": 51.5176390197085, "lng": -0.173783880291502}}}, "name": "Sir Simon Milton Statue", "place_id": "ChIJ08BCv7MadkgRIBw5Z8BVCqA", "types": ["point_of_interest", "establishment"], "rating": 2.7, "user_ratings_total": 3}, "ChIJiRtZq1MFdkgRfe8SzBdGv9Y": {"geometry": {"location": {"lat": 51.5190715, "lng": -0.1720958}, "viewport": {"northeast": {"lat": 51.5204148802915, "lng": -0.171216969708498}, "southwest": {"lat": 51.5177169197085, "lng": -0.173914930291502}}}, "name": "Cleaners Paddington", "place_id": "ChIJiRtZq1MFdkgRfe8SzBdGv9Y", "types": ["laundry", "point_of_interest", "establishment"]}, "ChIJtXT4_7cbdkgRm9TmpPgRADc": {"geometry": {"location": {"lat": 51.5189148, "lng": -0.1724381}, "viewport": {"northeast": {"lat": 51.5203004802915, "lng": -0.171623119708498}, "southwest": {"lat": 51.5176025197085, "lng": -0.174321080291502}}}, "name": "The Pavilion", "place_id": "ChIJtXT4_7cbdkgRm9TmpPgRADc", "types": ["point_of_interest", "establishment"]}, "ChIJb5aiuLMadkgRTump678iYzQ": {"geometry": {"location": {"lat": 51.5194984, "lng": -0.1718624}, "viewport": {"northeast": {"lat": 51.5208263802915, "lng": -0.170567569708498}, "southwest": {"lat": 51.5181284197085, "lng": -0.173265530291502}}}, "name": "Water Maze", "place_id": "ChIJb5aiuLMadkgRTump678iYzQ", "types": ["point_of_interest", "establishment"], "rating": 4.7, "user_ratings_total": 3}, "ChIJZYFL3LMadkgRVFwgA0xt0Os": {"geometry": {"location": {"lat": 51.51970840000001, "lng": -0.1720838}, "viewport": {"northeast": {"lat": 51.5210575302915, "lng": -0.170750519708498}, "southwest": {"lat": 51.5183595697085, "lng": -0.173448480291502}}}, "name": "Merchant Square motorcycle parking", "place_id": "ChIJZYFL3LMadkgRVFwgA0xt0Os", "types": ["park", "point_of_interest", "establishment"], "rating": 4.5, "user_ratings_total": 2}, "ChIJ47mU6LMadkgRouSj7Dh848M": {"geometry": {"location": {"lat": 51.51938, "lng": -0.1716267}, "viewport": {"northeast": {"lat": 51.5207572802915, "lng": -0.170278919708498}, "southwest": {"lat": 51.5180593197085, "lng": -0.172976880291502}}}, "name": "Caesar Crystal Ltd", "place_id": "ChIJ47mU6LMadkgRouSj7Dh848M", "types": ["point_of_interest", "establishment"]}, "ChIJl7REWdIbdkgRMoyInGPQ6js": {"geometry": {"location": {"lat": 51.5187848, "lng": -0.1726786}, "viewport": {"northeast": {"lat": 51.5199047802915, "lng": -0.171364869708498}, "southwest": {"lat": 51.51720681970851, "lng": -0.174062830291502}}}, "name": "Mary\u2019s hospital UK", "place_id": "ChIJl7REWdIbdkgRMoyInGPQ6js", "types": ["hospital", "health", "point_of_interest", "establishment"]}, "ChIJjwrrzrMadkgRQA0vrxgy7_c": {"geometry": {"location": {"lat": 51.5192543, "lng": -0.1729194}, "viewport": {"northeast": {"lat": 51.52059763620904, "lng": -0.1715671806429077}, "southwest": {"lat": 51.51789967562604, "lng": -0.1742651412259117}}}, "name": "Parking lot", "place_id": "ChIJjwrrzrMadkgRQA0vrxgy7_c", "types": ["parking", "premise", "point_of_interest", "establishment"]}, "ChIJyaWqpbMadkgRW2ITu0xLbNg": {"geometry": {"location": {"lat": 51.51799480020527, "lng": -0.1724678501790008}, "viewport": {"northeast": {"lat": 51.5193437802915, "lng": -0.171118869708498}, "southwest": {"lat": 51.5166458197085, "lng": -0.1738168302915021}}}, "name": "South Wharf Road", "place_id": "ChIJyaWqpbMadkgRW2ITu0xLbNg", "types": ["route"]}, "ChIJ-1DSorMadkgRt-tvOPYfczc": {"geometry": {"location": {"lat": 51.5183728, "lng": -0.1718945}, "viewport": {"northeast": {"lat": 51.5195902302915, "lng": -0.170489019708498}, "southwest": {"lat": 51.5168922697085, "lng": -0.173186980291502}}}, "name": "Fraser & Co Paddington Estate Agents", "place_id": "ChIJ-1DSorMadkgRt-tvOPYfczc", "types": ["finance", "real_estate_agency", "point_of_interest", "establishment"], "rating": 4.3, "user_ratings_total": 32}, "ChIJo_46orMadkgR9SBNiyZVH2M": {"geometry": {"location": {"lat": 51.5178889, "lng": -0.1720038}, "viewport": {"northeast": {"lat": 51.5193236302915, "lng": -0.170691769708498}, "southwest": {"lat": 51.5166256697085, "lng": -0.173389730291502}}}, "name": "Victoria and Albert building", "place_id": "ChIJo_46orMadkgR9SBNiyZVH2M", "types": ["health", "point_of_interest", "establishment"]}, "ChIJvd7lpLMadkgRwO82uAwNmZ0": {"geometry": {"location": {"lat": 51.5181949, "lng": -0.1718534}, "viewport": {"northeast": {"lat": 51.51959263029151, "lng": -0.170421319708498}, "southwest": {"lat": 51.51689466970851, "lng": -0.173119280291502}}}, "name": "Hope Montessori Nursery School", "place_id": "ChIJvd7lpLMadkgRwO82uAwNmZ0", "types": ["school", "point_of_interest", "establishment"], "rating": 5, "user_ratings_total": 2}, "ChIJhz_ooLMadkgRbRbUmaX-jPo": {"geometry": {"location": {"lat": 51.5179234, "lng": -0.1723745}, "viewport": {"northeast": {"lat": 51.5193129802915, "lng": -0.171043219708498}, "southwest": {"lat": 51.5166150197085, "lng": -0.173741180291502}}}, "name": "Fracture clinic at St Mary's Hospital", "place_id": "ChIJhz_ooLMadkgRbRbUmaX-jPo", "types": ["hospital", "health", "point_of_interest", "establishment"], "rating": 3.4, "user_ratings_total": 10}, "ChIJs8R9pbMadkgRcim2Ba6RIaY": {"geometry": {"location": {"lat": 51.5180143, "lng": -0.1728825}, "viewport": {"northeast": {"lat": 51.5193632802915, "lng": -0.171533519708498}, "southwest": {"lat": 51.5166653197085, "lng": -0.174231480291502}}}, "name": "Acrow", "place_id": "ChIJs8R9pbMadkgRcim2Ba6RIaY", "types": ["point_of_interest", "establishment"], "rating": 5, "user_ratings_total": 1}, "ChIJaWeTB3IbdkgR8b1M6ps12G8": {"geometry": {"location": {"lat": 51.5182483, "lng": -0.1719616}, "viewport": {"northeast": {"lat": 51.51958603029151, "lng": -0.170475419708498}, "southwest": {"lat": 51.51688806970851, "lng": -0.173173380291502}}}, "name": "London Endocrine Diagnostics & Research Centre UK", "place_id": "ChIJaWeTB3IbdkgR8b1M6ps12G8", "types": ["health", "point_of_interest", "establishment"]}, "ChIJ8y25orMadkgRSghrUeYH6Oc": {"geometry": {"location": {"lat": 51.5181068, "lng": -0.1719553}, "viewport": {"northeast": {"lat": 51.5194620302915, "lng": -0.170608969708498}, "southwest": {"lat": 51.5167640697085, "lng": -0.173306930291502}}}, "name": "Fraser & Co, Paddington", "place_id": "ChIJ8y25orMadkgRSghrUeYH6Oc", "types": ["point_of_interest", "establishment"]}, "ChIJIwOEU7IadkgRC2xRCAupMJg": {"geometry": {"location": {"lat": 51.5183728, "lng": -0.1719252}, "viewport": {"northeast": {"lat": 51.51959303029151, "lng": -0.170457219708498}, "southwest": {"lat": 51.51689506970851, "lng": -0.1731551802915021}}}, "name": "London Breast Pain Clinic", "place_id": "ChIJIwOEU7IadkgRC2xRCAupMJg", "types": ["health", "point_of_interest", "establishment"]}, "ChIJ8y25orMadkgRPQULYZmKZmA": {"geometry": {"location": {"lat": 51.5183729, "lng": -0.1718332}, "viewport": {"northeast": {"lat": 51.5196001802915, "lng": -0.170411219708498}, "southwest": {"lat": 51.51690221970851, "lng": -0.173109180291502}}}, "name": "Teare Medical", "place_id": "ChIJ8y25orMadkgRPQULYZmKZmA", "types": ["doctor", "health", "point_of_interest", "establishment"]}, "ChIJVy63l7MadkgRuxDrPGkgLRc": {"geometry": {"location": {"lat": 51.51829919999999, "lng": -0.1717658}, "viewport": {"northeast": {"lat": 51.51960303029151, "lng": -0.170377519708498}, "southwest": {"lat": 51.51690506970851, "lng": -0.173075480291502}}}, "name": "Westcliffe", "place_id": "ChIJVy63l7MadkgRuxDrPGkgLRc", "types": ["point_of_interest", "establishment"], "rating": 5, "user_ratings_total": 2}, "ChIJ5yzUpLMadkgR0ofs6--jtUc": {"geometry": {"location": {"lat": 51.5181255, "lng": -0.1724755}, "viewport": {"northeast": {"lat": 51.5194690562595, "lng": -0.1710687660323859}, "southwest": {"lat": 51.5167710956765, "lng": -0.1737667266153899}}}, "name": "Parking lot", "place_id": "ChIJ5yzUpLMadkgR0ofs6--jtUc", "types": ["parking", "premise", "point_of_interest", "establishment"]}, "ChIJUdlksrMadkgRFSRZ4HsoSZ8": {"geometry": {"location": {"lat": 51.5182891, "lng": -0.1729364}, "viewport": {"northeast": {"lat": 51.51955940468199, "lng": -0.1717837634790039}, "southwest": {"lat": 51.51686144409899, "lng": -0.174481724062008}}}, "name": "Parking lot", "place_id": "ChIJUdlksrMadkgRFSRZ4HsoSZ8", "types": ["parking", "premise", "point_of_interest", "establishment"]}, "ChIJi1VpurMadkgRw0vgHcIKjPo": {"geometry": {"location": {"lat": 51.5184335, "lng": -0.1725464}, "viewport": {"northeast": {"lat": 51.51974130754311, "lng": -0.1712151539358981}, "southwest": {"lat": 51.51704334696011, "lng": -0.1739131145189022}}}, "name": "Parking lot", "place_id": "ChIJi1VpurMadkgRw0vgHcIKjPo", "types": ["parking", "premise", "point_of_interest", "establishment"]}, "ChIJx0FWDLMadkgRS5L0a3A0TsA": {"geometry": {"location": {"lat": 51.51693135314786, "lng": -0.1722607048642185}, "viewport": {"northeast": {"lat": 51.5182803302915, "lng": -0.170911719708498}, "southwest": {"lat": 51.5155823697085, "lng": -0.173609680291502}}}, "name": "39-12 St Michael's St", "place_id": "ChIJx0FWDLMadkgRS5L0a3A0TsA", "types": ["route"]}, "ChIJw9x9BLMadkgRreZRvNR0HJw": {"geometry": {"location": {"lat": 51.5169739, "lng": -0.1729169}, "viewport": {"northeast": {"lat": 51.5183378302915, "lng": -0.171491069708498}, "southwest": {"lat": 51.5156398697085, "lng": -0.174189030291502}}}, "name": "Fountains Abbey", "place_id": "ChIJw9x9BLMadkgRreZRvNR0HJw", "types": ["bar", "point_of_interest", "establishment"], "rating": 4.1, "user_ratings_total": 1219}, "ChIJp2YkCbMadkgR8trKDxRRiCs": {"geometry": {"location": {"lat": 51.51734930000001, "lng": -0.1722407}, "viewport": {"northeast": {"lat": 51.5187286802915, "lng": -0.170939269708498}, "southwest": {"lat": 51.5160307197085, "lng": -0.173637230291502}}}, "name": "The Tanning Shop", "place_id": "ChIJp2YkCbMadkgR8trKDxRRiCs", "types": ["point_of_interest", "establishment"], "rating": 4.4, "user_ratings_total": 42}, "ChIJuTJ8h1cbdkgRe1bxpncgErw": {"geometry": {"location": {"lat": 51.51716659999999, "lng": -0.1720888}, "viewport": {"northeast": {"lat": 51.5184774302915, "lng": -0.170684419708498}, "southwest": {"lat": 51.5157794697085, "lng": -0.173382380291502}}}, "name": "London Cognitive Hypnotherapy", "place_id": "ChIJuTJ8h1cbdkgRe1bxpncgErw", "types": ["health", "point_of_interest", "establishment"], "rating": 5, "user_ratings_total": 1}, "ChIJp2YkCbMadkgRN4vHmndzNNw": {"geometry": {"location": {"lat": 51.5170364, "lng": -0.1727848}, "viewport": {"northeast": {"lat": 51.5184196802915, "lng": -0.171485119708498}, "southwest": {"lat": 51.5157217197085, "lng": -0.174183080291502}}}, "name": "ProLink", "place_id": "ChIJp2YkCbMadkgRN4vHmndzNNw", "types": ["point_of_interest", "establishment"]}, "ChIJKw1aD7MadkgRP_kofNBO7To": {"geometry": {"location": {"lat": 51.5171374, "lng": -0.1725798}, "viewport": {"northeast": {"lat": 51.51852433029149, "lng": -0.171285319708498}, "southwest": {"lat": 51.51582636970849, "lng": -0.173983280291502}}}, "name": "Nail Candy by KD", "place_id": "ChIJKw1aD7MadkgRP_kofNBO7To", "types": ["beauty_salon", "point_of_interest", "establishment"], "rating": 4.1, "user_ratings_total": 151}, "ChIJkcFiD7MadkgRh9NRPAOU0oQ": {"geometry": {"location": {"lat": 51.51706229999999, "lng": -0.1726}, "viewport": {"northeast": {"lat": 51.51837448029149, "lng": -0.171317569708498}, "southwest": {"lat": 51.5156765197085, "lng": -0.174015530291502}}}, "name": "La Drupalera UK", "place_id": "ChIJkcFiD7MadkgRh9NRPAOU0oQ", "types": ["point_of_interest", "establishment"]}, "ChIJIcM_BLMadkgRGMTSYaNKi-8": {"geometry": {"location": {"lat": 51.51724679999999, "lng": -0.1726286}, "viewport": {"northeast": {"lat": 51.51859578029149, "lng": -0.1712796197084979}, "southwest": {"lat": 51.51589781970849, "lng": -0.173977580291502}}}, "name": "The School Room", "place_id": "ChIJIcM_BLMadkgRGMTSYaNKi-8", "types": ["school", "point_of_interest", "establishment"]}, "ChIJu2TnCbMadkgRKvhyTaK2SGk": {"geometry": {"location": {"lat": 51.517289, "lng": -0.172357}, "viewport": {"northeast": {"lat": 51.5186379802915, "lng": -0.1710080197084979}, "southwest": {"lat": 51.5159400197085, "lng": -0.173705980291502}}}, "name": "Nano Tech Paddington", "place_id": "ChIJu2TnCbMadkgRKvhyTaK2SGk", "types": ["point_of_interest", "store", "establishment"], "rating": 4.5, "user_ratings_total": 169}, "ChIJWWcRCbMadkgREzFd514MGoA": {"geometry": {"location": {"lat": 51.517301, "lng": -0.1723096}, "viewport": {"northeast": {"lat": 51.5186842802915, "lng": -0.1710100197084979}, "southwest": {"lat": 51.5159863197085, "lng": -0.173707980291502}}}, "name": "Nano Vapes Paddington", "place_id": "ChIJWWcRCbMadkgREzFd514MGoA", "types": ["point_of_interest", "store", "establishment"], "rating": 4.7, "user_ratings_total": 179}, "ChIJgzbU-7IadkgRkmylU5CnG8g": {"geometry": {"location": {"lat": 51.5171465, "lng": -0.1729969}, "viewport": {"northeast": {"lat": 51.51846648029149, "lng": -0.171605919708498}, "southwest": {"lat": 51.51576851970849, "lng": -0.174303880291502}}}, "name": "Staff Dental", "place_id": "ChIJgzbU-7IadkgRkmylU5CnG8g", "types": ["dentist", "health", "point_of_interest", "establishment"]}, "ChIJI8lEA7MadkgRIdyIuJoPTWo": {"geometry": {"location": {"lat": 51.5169059, "lng": -0.1728978}, "viewport": {"northeast": {"lat": 51.5182986302915, "lng": -0.171469819708498}, "southwest": {"lat": 51.5156006697085, "lng": -0.174167780291502}}}, "name": "IMPERIAL DOHNS COURSE", "place_id": "ChIJI8lEA7MadkgRIdyIuJoPTWo", "types": ["point_of_interest", "establishment"]}, "ChIJ00_x5rIadkgRpEi_cubWCkw": {"geometry": {"location": {"lat": 51.51691340000001, "lng": -0.1729509}, "viewport": {"northeast": {"lat": 51.5183048302915, "lng": -0.171663369708498}, "southwest": {"lat": 51.5156068697085, "lng": -0.174361330291502}}}, "name": "Mallard Grange", "place_id": "ChIJ00_x5rIadkgRpEi_cubWCkw", "types": ["lodging", "point_of_interest", "establishment"]}, "ChIJO71jAbMadkgRnuiqNQcMxPA": {"geometry": {"location": {"lat": 51.5171763, "lng": -0.1731328}, "viewport": {"northeast": {"lat": 51.5183928302915, "lng": -0.171857519708498}, "southwest": {"lat": 51.5156948697085, "lng": -0.174555480291502}}}, "name": "MR Therapy Centre", "place_id": "ChIJO71jAbMadkgRnuiqNQcMxPA", "types": ["hospital", "health", "point_of_interest", "establishment"]}, "ChIJzy0_CrMadkgRY9NvlLSmiTM": {"geometry": {"location": {"lat": 51.5174268, "lng": -0.1721175}, "viewport": {"northeast": {"lat": 51.5187757802915, "lng": -0.170768519708498}, "southwest": {"lat": 51.5160778197085, "lng": -0.173466480291502}}}, "name": "ABL CENTRE", "place_id": "ChIJzy0_CrMadkgRY9NvlLSmiTM", "types": ["travel_agency", "point_of_interest", "establishment"], "rating": 4.3, "user_ratings_total": 6}, "ChIJuXHeBLMadkgRdaZ33XZZspM": {"geometry": {"location": {"lat": 51.5169125, "lng": -0.1728106}, "viewport": {"northeast": {"lat": 51.5182902802915, "lng": -0.171409569708498}, "southwest": {"lat": 51.5155923197085, "lng": -0.174107530291502}}}, "name": "Micky's Fish & Chips", "place_id": "ChIJuXHeBLMadkgRdaZ33XZZspM", "types": ["meal_takeaway", "restaurant", "food", "point_of_interest", "establishment"], "rating": 4, "user_ratings_total": 791}, "ChIJOXTsD7MadkgRdbwHqMPYGVQ": {"geometry": {"location": {"lat": 51.516969, "lng": -0.172477}, "viewport": {"northeast": {"lat": 51.51831798029149, "lng": -0.171128019708498}, "southwest": {"lat": 51.51562001970849, "lng": -0.1738259802915021}}}, "name": "The Frontline Club", "place_id": "ChIJOXTsD7MadkgRdbwHqMPYGVQ", "types": ["restaurant", "food", "point_of_interest", "establishment"], "rating": 4.2, "user_ratings_total": 128}, "ChIJryLO-7IadkgROavSENUjNos": {"geometry": {"location": {"lat": 51.51745949999999, "lng": -0.172913}, "viewport": {"northeast": {"lat": 51.5189209802915, "lng": -0.171985819708498}, "southwest": {"lat": 51.5162230197085, "lng": -0.174683780291502}}}, "name": "Imperial College London, Saint Mary's Campus", "place_id": "ChIJryLO-7IadkgROavSENUjNos", "types": ["university", "hospital", "health", "point_of_interest", "establishment"], "rating": 4.3, "user_ratings_total": 18}, "ChIJT2fuALMadkgR6e6gW1vDqpc": {"geometry": {"location": {"lat": 51.5175501, "lng": -0.1728399}, "viewport": {"northeast": {"lat": 51.5187900802915, "lng": -0.171759569708498}, "southwest": {"lat": 51.5160921197085, "lng": -0.174457530291502}}}, "name": "Pinnacle Gym St Mary's", "place_id": "ChIJT2fuALMadkgR6e6gW1vDqpc", "types": ["gym", "health", "point_of_interest", "establishment"], "rating": 4.8, "user_ratings_total": 12}, "ChIJtZLCdLMadkgRfayAe0VU6N0": {"geometry": {"location": {"lat": 51.517295, "lng": -0.171815}, "viewport": {"northeast": {"lat": 51.5186439802915, "lng": -0.170466019708498}, "southwest": {"lat": 51.5159460197085, "lng": -0.173163980291502}}}, "name": "Khuttar Iraqi Cuisine", "place_id": "ChIJtZLCdLMadkgRfayAe0VU6N0", "types": ["restaurant", "food", "point_of_interest", "establishment"], "rating": 4.3, "user_ratings_total": 203}, "ChIJr_mjALMadkgRXOBol3hMQ2w": {"geometry": {"location": {"lat": 51.5174861, "lng": -0.1730473}, "viewport": {"northeast": {"lat": 51.5187968802915, "lng": -0.171863269708498}, "southwest": {"lat": 51.5160989197085, "lng": -0.174561230291502}}}, "name": "The Manicaland Centre", "place_id": "ChIJr_mjALMadkgRXOBol3hMQ2w", "types": ["health", "point_of_interest", "establishment"]}, "ChIJr_mjALMadkgR2TWKJ9Kw5e4": {"geometry": {"location": {"lat": 51.5174861, "lng": -0.1730473}, "viewport": {"northeast": {"lat": 51.51877253029149, "lng": -0.171809819708498}, "southwest": {"lat": 51.5160745697085, "lng": -0.174507780291502}}}, "name": "Diagnostics Modelling Consortium", "place_id": "ChIJr_mjALMadkgR2TWKJ9Kw5e4", "types": ["health", "point_of_interest", "establishment"]}, "ChIJA2QkCbMadkgRS6Wv6THqIps": {"geometry": {"location": {"lat": 51.5171308, "lng": -0.172667}, "viewport": {"northeast": {"lat": 51.5184797802915, "lng": -0.171318019708498}, "southwest": {"lat": 51.51578181970851, "lng": -0.1740159802915021}}}, "name": "Natures Way", "place_id": "ChIJA2QkCbMadkgRS6Wv6THqIps", "types": ["spa", "point_of_interest", "establishment"], "rating": 2.4, "user_ratings_total": 20}, "ChIJZxuxVbQadkgR8oIX8Mrd9HM": {"geometry": {"location": {"lat": 51.5170064, "lng": -0.1725261}, "viewport": {"northeast": {"lat": 51.51831973029149, "lng": -0.171242369708498}, "southwest": {"lat": 51.5156217697085, "lng": -0.173940330291502}}}, "name": "Body 4 Life Healthcare", "place_id": "ChIJZxuxVbQadkgR8oIX8Mrd9HM", "types": ["health", "point_of_interest", "establishment"], "rating": 5, "user_ratings_total": 8}, "ChIJubFsBLMadkgRMioifdPyuGg": {"geometry": {"location": {"lat": 51.5170834, "lng": -0.1730791}, "viewport": {"northeast": {"lat": 51.5184079302915, "lng": -0.171695219708498}, "southwest": {"lat": 51.5157099697085, "lng": -0.174393180291502}}}, "name": "Alexander Fleming Museum", "place_id": "ChIJubFsBLMadkgRMioifdPyuGg", "types": ["museum", "tourist_attraction", "point_of_interest", "establishment"], "rating": 4.5, "user_ratings_total": 76}, "ChIJp2YkCbMadkgRNKBhmmPLQew": {"geometry": {"location": {"lat": 51.51719120000001, "lng": -0.1724812}, "viewport": {"northeast": {"lat": 51.5185698302915, "lng": -0.171202669708498}, "southwest": {"lat": 51.5158718697085, "lng": -0.173900630291502}}}, "name": "Consulate General of the Kingdom of Morocco", "place_id": "ChIJp2YkCbMadkgRNKBhmmPLQew", "types": ["embassy", "point_of_interest", "establishment"], "rating": 2.6, "user_ratings_total": 324}, "ChIJFWJsBbMadkgRf0RnO3AgkU4": {"geometry": {"location": {"lat": 51.51698700000001, "lng": -0.172559}, "viewport": {"northeast": {"lat": 51.51833598029151, "lng": -0.171210019708498}, "southwest": {"lat": 51.51563801970852, "lng": -0.1739079802915021}}}, "name": "London Spine & Joint Clinic", "place_id": "ChIJFWJsBbMadkgRf0RnO3AgkU4", "types": ["health", "point_of_interest", "establishment"], "rating": 5, "user_ratings_total": 6}, "ChIJp2YkCbMadkgRb2dM4U_3rqQ": {"geometry": {"location": {"lat": 51.5170937, "lng": -0.1727034}, "viewport": {"northeast": {"lat": 51.51844268029151, "lng": -0.171354419708498}, "southwest": {"lat": 51.51574471970851, "lng": -0.174052380291502}}}, "name": "Apek Pharmacy", "place_id": "ChIJp2YkCbMadkgRb2dM4U_3rqQ", "types": ["pharmacy", "health", "point_of_interest", "store", "establishment"], "rating": 4.5, "user_ratings_total": 16}, "ChIJLZ4ED7MadkgRd7hICho03NM": {"geometry": {"location": {"lat": 51.517052, "lng": -0.172446}, "viewport": {"northeast": {"lat": 51.5183390802915, "lng": -0.171007169708498}, "southwest": {"lat": 51.5156411197085, "lng": -0.173705130291502}}}, "name": "St Marys Hospital", "place_id": "ChIJLZ4ED7MadkgRd7hICho03NM", "types": ["transit_station", "point_of_interest", "establishment"]}, "ChIJp2YkCbMadkgROi3pp4rSF1c": {"geometry": {"location": {"lat": 51.5172403, "lng": -0.1724252}, "viewport": {"northeast": {"lat": 51.51858928029149, "lng": -0.171076219708498}, "southwest": {"lat": 51.5158913197085, "lng": -0.173774180291502}}}, "name": "Attijariwafa Bank", "place_id": "ChIJp2YkCbMadkgROi3pp4rSF1c", "types": ["bank", "finance", "point_of_interest", "establishment"], "rating": 4.6, "user_ratings_total": 60}, "ChIJp2YkCbMadkgR82GCgjhN47o": {"geometry": {"location": {"lat": 51.5174463, "lng": -0.1720567}, "viewport": {"northeast": {"lat": 51.5187952802915, "lng": -0.170707719708498}, "southwest": {"lat": 51.5160973197085, "lng": -0.173405680291502}}}, "name": "Lena's Cafe Praed Street", "place_id": "ChIJp2YkCbMadkgR82GCgjhN47o", "types": ["cafe", "meal_takeaway", "restaurant", "food", "point_of_interest", "establishment"], "rating": 4.6, "user_ratings_total": 47}, "ChIJtVUu3JobdkgRVl5qjocI1R0": {"geometry": {"location": {"lat": 51.5171295, "lng": -0.1725728}, "viewport": {"northeast": {"lat": 51.51851968029151, "lng": -0.171283019708498}, "southwest": {"lat": 51.51582171970851, "lng": -0.173980980291502}}}, "name": "Gold Tattoo @One O Three Studio", "place_id": "ChIJtVUu3JobdkgRVl5qjocI1R0", "types": ["point_of_interest", "store", "establishment"]}, "ChIJo_Q8WhgbdkgRkAzChDNQlcM": {"geometry": {"location": {"lat": 51.5171295, "lng": -0.1725728}, "viewport": {"northeast": {"lat": 51.51851968029151, "lng": -0.171283019708498}, "southwest": {"lat": 51.51582171970851, "lng": -0.173980980291502}}}, "name": "One O Three Studio", "place_id": "ChIJo_Q8WhgbdkgRkAzChDNQlcM", "types": ["beauty_salon", "hair_care", "point_of_interest", "establishment"], "rating": 5, "user_ratings_total": 11}, "ChIJAQBbD7MadkgRAQiYLLTdhjI": {"geometry": {"location": {"lat": 51.5171295, "lng": -0.1725728}, "viewport": {"northeast": {"lat": 51.51851968029151, "lng": -0.171283019708498}, "southwest": {"lat": 51.51582171970851, "lng": -0.173980980291502}}}, "name": "Mahak Management Limited", "place_id": "ChIJAQBbD7MadkgRAQiYLLTdhjI", "types": ["point_of_interest", "establishment"]}, "ChIJkQRWD7MadkgR9C7pzzuo-Ws": {"geometry": {"location": {"lat": 51.5171295, "lng": -0.1725728}, "viewport": {"northeast": {"lat": 51.51851968029151, "lng": -0.171283019708498}, "southwest": {"lat": 51.51582171970851, "lng": -0.173980980291502}}}, "name": "Gold Tattoo @One O Three Studio", "place_id": "ChIJkQRWD7MadkgR9C7pzzuo-Ws", "types": ["point_of_interest", "store", "establishment"], "rating": 4.9, "user_ratings_total": 30}, "ChIJ1XJaD7MadkgRwldBqKHs734": {"geometry": {"location": {"lat": 51.5171295, "lng": -0.1725728}, "viewport": {"northeast": {"lat": 51.51847848029151, "lng": -0.171223819708498}, "southwest": {"lat": 51.51578051970851, "lng": -0.173921780291502}}}, "name": "Gold Hair & Beauty", "place_id": "ChIJ1XJaD7MadkgRwldBqKHs734", "types": ["hair_care", "point_of_interest", "establishment"], "rating": 4.2, "user_ratings_total": 72}, "ChIJkSorD7MadkgREBl9Yz4Stpc": {"geometry": {"location": {"lat": 51.5171806, "lng": -0.1724354}, "viewport": {"northeast": {"lat": 51.51843393029149, "lng": -0.170947569708498}, "southwest": {"lat": 51.51573596970849, "lng": -0.173645530291502}}}, "name": "Khan Traders Groceries & Off Licence", "place_id": "ChIJkSorD7MadkgREBl9Yz4Stpc", "types": ["liquor_store", "point_of_interest", "store", "establishment"]}, "ChIJj8FiD7MadkgRbFYrHRELN8k": {"geometry": {"location": {"lat": 51.51706229999999, "lng": -0.1725999}, "viewport": {"northeast": {"lat": 51.51837443029149, "lng": -0.171317469708498}, "southwest": {"lat": 51.5156764697085, "lng": -0.174015430291502}}}, "name": "Django", "place_id": "ChIJj8FiD7MadkgRbFYrHRELN8k", "types": ["point_of_interest", "establishment"]}, "ChIJj8FiD7MadkgRFO2xvrQ_W6s": {"geometry": {"location": {"lat": 51.51706229999999, "lng": -0.1725999}, "viewport": {"northeast": {"lat": 51.51837443029149, "lng": -0.171317469708498}, "southwest": {"lat": 51.5156764697085, "lng": -0.174015430291502}}}, "name": "emergya digital", "place_id": "ChIJj8FiD7MadkgRFO2xvrQ_W6s", "types": ["point_of_interest", "establishment"]}, "ChIJsxhVD7MadkgRSwVFvcoqEuc": {"geometry": {"location": {"lat": 51.517195, "lng": -0.1725662}, "viewport": {"northeast": {"lat": 51.5185439802915, "lng": -0.171217219708498}, "southwest": {"lat": 51.5158460197085, "lng": -0.173915180291502}}}, "name": "It's All Greek to Me", "place_id": "ChIJsxhVD7MadkgRSwVFvcoqEuc", "types": ["restaurant", "food", "point_of_interest", "establishment"], "rating": 4.3, "user_ratings_total": 730}, "ChIJ4WMaBLMadkgRLwrYEPO8s2E": {"geometry": {"location": {"lat": 51.5170555, "lng": -0.1726357}, "viewport": {"northeast": {"lat": 51.51845653029151, "lng": -0.171361519708498}, "southwest": {"lat": 51.51575856970851, "lng": -0.174059480291502}}}, "name": "Wrought Iron Memorial Gate", "place_id": "ChIJ4WMaBLMadkgRLwrYEPO8s2E", "types": ["point_of_interest", "establishment"], "rating": 5, "user_ratings_total": 2}, "ChIJA-eVBbMadkgRzMrFO6lq54Y": {"geometry": {"location": {"lat": 51.5170798, "lng": -0.1726939}, "viewport": {"northeast": {"lat": 51.5184650802915, "lng": -0.171397069708498}, "southwest": {"lat": 51.5157671197085, "lng": -0.174095030291502}}}, "name": "Residence Clinic", "place_id": "ChIJA-eVBbMadkgRzMrFO6lq54Y", "types": ["health", "point_of_interest", "establishment"]}, "ChIJwQsnrM0bdkgR78EeoPgc8v8": {"geometry": {"location": {"lat": 51.5170798, "lng": -0.1726939}, "viewport": {"northeast": {"lat": 51.5184650802915, "lng": -0.171397069708498}, "southwest": {"lat": 51.5157671197085, "lng": -0.174095030291502}}}, "name": "Ratna Raichura's Podiatry Services", "place_id": "ChIJwQsnrM0bdkgR78EeoPgc8v8", "types": ["doctor", "health", "point_of_interest", "establishment"], "rating": 5, "user_ratings_total": 12}, "ChIJC7ceBrMadkgRI4xNnfTorCY": {"geometry": {"location": {"lat": 51.51724679999999, "lng": -0.1726286}, "viewport": {"northeast": {"lat": 51.51859578029149, "lng": -0.1712796197084979}, "southwest": {"lat": 51.51589781970849, "lng": -0.173977580291502}}}, "name": "SPTHM", "place_id": "ChIJC7ceBrMadkgRI4xNnfTorCY", "types": ["point_of_interest", "establishment"]}, "ChIJC7ceBrMadkgRWahN0q9Aai0": {"geometry": {"location": {"lat": 51.51724679999999, "lng": -0.1726286}, "viewport": {"northeast": {"lat": 51.51859578029149, "lng": -0.1712796197084979}, "southwest": {"lat": 51.51589781970849, "lng": -0.173977580291502}}}, "name": "UK Heayen Group co., LTD", "place_id": "ChIJC7ceBrMadkgRWahN0q9Aai0", "types": ["point_of_interest", "establishment"]}, "ChIJWWcRCbMadkgR2JaUx6JzgP0": {"geometry": {"location": {"lat": 51.517289, "lng": -0.172357}, "viewport": {"northeast": {"lat": 51.5186682802915, "lng": -0.1710516697084979}, "southwest": {"lat": 51.5159703197085, "lng": -0.173749630291502}}}, "name": "IRON TOWER ENGINEERING DESIGN", "place_id": "ChIJWWcRCbMadkgR2JaUx6JzgP0", "types": ["general_contractor", "point_of_interest", "establishment"]}, "ChIJWWcRCbMadkgRD_F0a274Bh4": {"geometry": {"location": {"lat": 51.517316, "lng": -0.172321}, "viewport": {"northeast": {"lat": 51.5186933802915, "lng": -0.171012869708498}, "southwest": {"lat": 51.5159954197085, "lng": -0.173710830291502}}}, "name": "Vip Mobile Numbers", "place_id": "ChIJWWcRCbMadkgRD_F0a274Bh4", "types": ["point_of_interest", "store", "establishment"], "rating": 3.7, "user_ratings_total": 3}, "ChIJ5-goCrMadkgRmnlwABLyfSQ": {"geometry": {"location": {"lat": 51.5173795, "lng": -0.1722248}, "viewport": {"northeast": {"lat": 51.5187541302915, "lng": -0.1709127697084979}, "southwest": {"lat": 51.5160561697085, "lng": -0.173610730291502}}}, "name": "Rapid Btc Limited", "place_id": "ChIJ5-goCrMadkgRmnlwABLyfSQ", "types": ["point_of_interest", "establishment"]}, "ChIJLYYjObIadkgR18D16ohLB1Q": {"geometry": {"location": {"lat": 51.51903805001863, "lng": -0.1742521000160616}, "viewport": {"northeast": {"lat": 51.5203870302915, "lng": -0.172903119708498}, "southwest": {"lat": 51.5176890697085, "lng": -0.175601080291502}}}, "name": "85-91 N Wharf Rd", "place_id": "ChIJLYYjObIadkgR18D16ohLB1Q", "types": ["route"]}, "ChIJs44XFbIadkgRmJ3u6aDlAJs": {"geometry": {"location": {"lat": 51.5189512, "lng": -0.1738453}, "viewport": {"northeast": {"lat": 51.5203718302915, "lng": -0.172523469708498}, "southwest": {"lat": 51.5176738697085, "lng": -0.175221430291502}}}, "name": "Virgin Active", "place_id": "ChIJs44XFbIadkgRmJ3u6aDlAJs", "types": ["gym", "health", "point_of_interest", "store", "establishment"], "rating": 4.1, "user_ratings_total": 151}, "ChIJ24wgUxYbdkgRLMa2kX8hmzI": {"geometry": {"location": {"lat": 51.5191802, "lng": -0.174124}, "viewport": {"northeast": {"lat": 51.5204734302915, "lng": -0.172749869708498}, "southwest": {"lat": 51.5177754697085, "lng": -0.175447830291502}}}, "name": "Betula House", "place_id": "ChIJ24wgUxYbdkgRLMa2kX8hmzI", "types": ["point_of_interest", "establishment"]}, "ChIJj6zhzG0bdkgR8QV2YBtKfFo": {"geometry": {"location": {"lat": 51.519183, "lng": -0.1740896}, "viewport": {"northeast": {"lat": 51.52047533029149, "lng": -0.172716569708498}, "southwest": {"lat": 51.51777736970849, "lng": -0.175414530291502}}}, "name": "Dahlia House", "place_id": "ChIJj6zhzG0bdkgR8QV2YBtKfFo", "types": ["point_of_interest", "establishment"], "rating": 5, "user_ratings_total": 1}, "ChIJe2GvMbIadkgRv1nL9Ereiz4": {"geometry": {"location": {"lat": 51.5194723, "lng": -0.1743328}, "viewport": {"northeast": {"lat": 51.5208212802915, "lng": -0.172983819708498}, "southwest": {"lat": 51.5181233197085, "lng": -0.175681780291502}}}, "name": "Studio Theater", "place_id": "ChIJe2GvMbIadkgRv1nL9Ereiz4", "types": ["point_of_interest", "establishment"], "rating": 3.5, "user_ratings_total": 2}, "ChIJPcbUPrIadkgRg1hsAOUPKxA": {"geometry": {"location": {"lat": 51.5189995, "lng": -0.1744617}, "viewport": {"northeast": {"lat": 51.5203785802915, "lng": -0.173127619708498}, "southwest": {"lat": 51.5176806197085, "lng": -0.175825580291502}}}, "name": "THE SMART LEAD LTD", "place_id": "ChIJPcbUPrIadkgRg1hsAOUPKxA", "types": ["point_of_interest", "establishment"]}, "ChIJMY3YPrIadkgRyt9fuvNix_o": {"geometry": {"location": {"lat": 51.51899, "lng": -0.1745184}, "viewport": {"northeast": {"lat": 51.52036868029149, "lng": -0.173182769708498}, "southwest": {"lat": 51.5176707197085, "lng": -0.175880730291502}}}, "name": "FUTBOL LAB", "place_id": "ChIJMY3YPrIadkgRyt9fuvNix_o", "types": ["point_of_interest", "establishment"]}, "ChIJx0ErObIadkgRzKOwZylzCzo": {"geometry": {"location": {"lat": 51.5189512, "lng": -0.1738454}, "viewport": {"northeast": {"lat": 51.5203718302915, "lng": -0.1725235697084979}, "southwest": {"lat": 51.5176738697085, "lng": -0.175221530291502}}}, "name": "Ren Yoga", "place_id": "ChIJx0ErObIadkgRzKOwZylzCzo", "types": ["school", "point_of_interest", "establishment"]}, "ChIJJUKrkNMbdkgRA9bOvj0iT-M": {"geometry": {"location": {"lat": 51.5190475, "lng": -0.1735859}, "viewport": {"northeast": {"lat": 51.5204415802915, "lng": -0.172259019708498}, "southwest": {"lat": 51.5177436197085, "lng": -0.174956980291502}}}, "name": "Virgin Active Merchant Square", "place_id": "ChIJJUKrkNMbdkgRA9bOvj0iT-M", "types": ["gym", "health", "point_of_interest", "establishment"], "rating": 3.9, "user_ratings_total": 8}, "ChIJ24Fc4RIbdkgRQHZcsXUteME": {"geometry": {"location": {"lat": 51.5189908, "lng": -0.1735857}, "viewport": {"northeast": {"lat": 51.52042533029151, "lng": -0.172182269708498}, "southwest": {"lat": 51.51772736970851, "lng": -0.174880230291502}}}, "name": "Merchant Square Big Screen", "place_id": "ChIJ24Fc4RIbdkgRQHZcsXUteME", "types": ["movie_theater", "point_of_interest", "establishment"], "rating": 5, "user_ratings_total": 4}, "ChIJ66JPyrMadkgRomU6jTLWpaE": {"geometry": {"location": {"lat": 51.51900199999999, "lng": -0.1735192}, "viewport": {"northeast": {"lat": 51.52043103029149, "lng": -0.172148319708498}, "southwest": {"lat": 51.51773306970849, "lng": -0.174846280291502}}}, "name": "Merchant Square Property", "place_id": "ChIJ66JPyrMadkgRomU6jTLWpaE", "types": ["point_of_interest", "establishment"]}, "ChIJB6djV7IadkgRm6BffSxrOgs": {"geometry": {"location": {"lat": 51.51769860008601, "lng": -0.1742107500765184}, "viewport": {"northeast": {"lat": 51.5190475802915, "lng": -0.172861769708498}, "southwest": {"lat": 51.5163496197085, "lng": -0.175559730291502}}}, "name": "South Wharf Road", "place_id": "ChIJB6djV7IadkgRm6BffSxrOgs", "types": ["route"]}, "ChIJvRnKSLIadkgRJI6m1_v6G9c": {"geometry": {"location": {"lat": 51.5185147, "lng": -0.1740523}, "viewport": {"northeast": {"lat": 51.5199254802915, "lng": -0.1710009}, "southwest": {"lat": 51.5172275197085, "lng": -0.1770084999999999}}}, "name": "GoBoat London", "place_id": "ChIJvRnKSLIadkgRJI6m1_v6G9c", "types": ["travel_agency", "point_of_interest", "establishment"], "rating": 4.7, "user_ratings_total": 332}, "ChIJO6udVLIadkgRMZ0t8AK02O8": {"geometry": {"location": {"lat": 51.5178758, "lng": -0.1739596}, "viewport": {"northeast": {"lat": 51.5191626302915, "lng": -0.172582919708498}, "southwest": {"lat": 51.5164646697085, "lng": -0.175280880291502}}}, "name": "QEQM Building", "place_id": "ChIJO6udVLIadkgRMZ0t8AK02O8", "types": ["hospital", "health", "point_of_interest", "establishment"], "rating": 5, "user_ratings_total": 1}, "ChIJ__8v9rIadkgR7_T18o3gDR4": {"geometry": {"location": {"lat": 51.5179263, "lng": -0.1737881}, "viewport": {"northeast": {"lat": 51.5192034802915, "lng": -0.1724068697084981}, "southwest": {"lat": 51.5165055197085, "lng": -0.1751048302915021}}}, "name": "OTL Clinic - Orthopaedic and Trauma London", "place_id": "ChIJ__8v9rIadkgR7_T18o3gDR4", "types": ["doctor", "health", "point_of_interest", "establishment"], "rating": 5, "user_ratings_total": 1}, "ChIJF5cLWbIadkgR_5NvdjM6_Ac": {"geometry": {"location": {"lat": 51.5178095, "lng": -0.1743606}, "viewport": {"northeast": {"lat": 51.5190949802915, "lng": -0.172983369708498}, "southwest": {"lat": 51.5163970197085, "lng": -0.175681330291502}}}, "name": "Medical Media and Design Laboratory", "place_id": "ChIJF5cLWbIadkgR_5NvdjM6_Ac", "types": ["point_of_interest", "establishment"]}, "ChIJU9eu_rIadkgRQBl8NbXFQ-E": {"geometry": {"location": {"lat": 51.5178108, "lng": -0.1743487}, "viewport": {"northeast": {"lat": 51.51909613029149, "lng": -0.172970719708498}, "southwest": {"lat": 51.51639816970849, "lng": -0.175668680291502}}}, "name": "Imperial College Healthcare NHS Trust", "place_id": "ChIJU9eu_rIadkgRQBl8NbXFQ-E", "types": ["hospital", "health", "point_of_interest", "establishment"], "rating": 3, "user_ratings_total": 18}, "ChIJryFAQrIadkgR2XKFWMKkXGw": {"geometry": {"location": {"lat": 51.518407, "lng": -0.1746882}, "viewport": {"northeast": {"lat": 51.5193882302915, "lng": -0.173179419708498}, "southwest": {"lat": 51.5166902697085, "lng": -0.175877380291502}}}, "name": "The Rolling Bridge", "place_id": "ChIJryFAQrIadkgR2XKFWMKkXGw", "types": ["tourist_attraction", "point_of_interest", "establishment"], "rating": 4.1, "user_ratings_total": 225}, "ChIJL3ZjKL0adkgRLFynPGe94KY": {"geometry": {"location": {"lat": 51.5178439, "lng": -0.1741721}, "viewport": {"northeast": {"lat": 51.51912848029149, "lng": -0.172794469708498}, "southwest": {"lat": 51.51643051970849, "lng": -0.175492430291502}}}, "name": "The London Spine Unit", "place_id": "ChIJL3ZjKL0adkgRLFynPGe94KY", "types": ["hospital", "doctor", "health", "point_of_interest", "establishment"]}, "ChIJx3fJW7IadkgRylEJL79xQHY": {"geometry": {"location": {"lat": 51.51790700000001, "lng": -0.1742942}, "viewport": {"northeast": {"lat": 51.5191522802915, "lng": -0.1728979197084979}, "southwest": {"lat": 51.51645431970851, "lng": -0.175595880291502}}}, "name": "Queen Elizabeth The Queen Mother Wing, St Mary's Hospital", "place_id": "ChIJx3fJW7IadkgRylEJL79xQHY", "types": ["hospital", "health", "point_of_interest", "establishment"], "rating": 5, "user_ratings_total": 4}, "ChIJG8adMOcbdkgR_5I7Xk7jAQg": {"geometry": {"location": {"lat": 51.5184551, "lng": -0.17458}, "viewport": {"northeast": {"lat": 51.51980408029149, "lng": -0.173231019708498}, "southwest": {"lat": 51.5171061197085, "lng": -0.175928980291502}}}, "name": "Juju.cravings", "place_id": "ChIJG8adMOcbdkgR_5I7Xk7jAQg", "types": ["food", "point_of_interest", "store", "establishment"]}, "ChIJldC5VrIadkgR3tXY4ZqvpYM": {"geometry": {"location": {"lat": 51.5178914, "lng": -0.1741269}, "viewport": {"northeast": {"lat": 51.51915758029151, "lng": -0.172741019708498}, "southwest": {"lat": 51.51645961970851, "lng": -0.175438980291502}}}, "name": "Hospital", "place_id": "ChIJldC5VrIadkgR3tXY4ZqvpYM", "types": ["hospital", "health", "point_of_interest", "establishment"], "rating": 4, "user_ratings_total": 1}, "ChIJ79scMBsbdkgRpRIM6ZPGgWM": {"geometry": {"location": {"lat": 51.517867, "lng": -0.1741531}, "viewport": {"northeast": {"lat": 51.5191423802915, "lng": -0.172771369708498}, "southwest": {"lat": 51.5164444197085, "lng": -0.1754693302915021}}}, "name": "Imperial Health Charity", "place_id": "ChIJ79scMBsbdkgRpRIM6ZPGgWM", "types": ["point_of_interest", "establishment"]}, "ChIJwYm4Ph0bdkgRaEJMAEWlojA": {"geometry": {"location": {"lat": 51.5180822, "lng": -0.1736556}, "viewport": {"northeast": {"lat": 51.5195140802915, "lng": -0.172239169708498}, "southwest": {"lat": 51.5168161197085, "lng": -0.174937130291502}}}, "name": "Postnatal education center", "place_id": "ChIJwYm4Ph0bdkgRaEJMAEWlojA", "types": ["health", "point_of_interest", "establishment"]}, "ChIJq6pqXLIadkgRDgxxVrWkp6o": {"geometry": {"location": {"lat": 51.51791720000001, "lng": -0.1745438}, "viewport": {"northeast": {"lat": 51.51926618029151, "lng": -0.173194819708498}, "southwest": {"lat": 51.51656821970851, "lng": -0.1758927802915021}}}, "name": "St Mary's Sleep Clinic", "place_id": "ChIJq6pqXLIadkgRDgxxVrWkp6o", "types": ["hospital", "health", "point_of_interest", "establishment"], "rating": 5, "user_ratings_total": 1}, "ChIJzyOq9Y0bdkgRf4uLDdCM0bE": {"geometry": {"location": {"lat": 51.5178836, "lng": -0.1738675}, "viewport": {"northeast": {"lat": 51.5191742802915, "lng": -0.1724919197084979}, "southwest": {"lat": 51.5164763197085, "lng": -0.175189880291502}}}, "name": "Lloyds pharmacy St Mary's hospital Paeds OPD", "place_id": "ChIJzyOq9Y0bdkgRf4uLDdCM0bE", "types": ["pharmacy", "health", "point_of_interest", "store", "establishment"], "rating": 5, "user_ratings_total": 1}, "ChIJq95AUbIadkgRLfv9grTcAXQ": {"geometry": {"location": {"lat": 51.5179065, "lng": -0.1737999}, "viewport": {"northeast": {"lat": 51.5191922802915, "lng": -0.1724224697084979}, "southwest": {"lat": 51.5164943197085, "lng": -0.175120430291502}}}, "name": "Acute Imaging Centre", "place_id": "ChIJq95AUbIadkgRLfv9grTcAXQ", "types": ["health", "point_of_interest", "establishment"]}, "ChIJU_RkelkbdkgRKQNuRut1kiQ": {"geometry": {"location": {"lat": 51.5185803, "lng": -0.1737581}, "viewport": {"northeast": {"lat": 51.5197631302915, "lng": -0.172303719708498}, "southwest": {"lat": 51.5170651697085, "lng": -0.175001680291502}}}, "name": "Openaire Cinema", "place_id": "ChIJU_RkelkbdkgRKQNuRut1kiQ", "types": ["movie_theater", "point_of_interest", "establishment"], "rating": 4.9, "user_ratings_total": 8}, "ChIJq19lsWsbdkgRHW4ej5LyKYI": {"geometry": {"location": {"lat": 51.51865729999999, "lng": -0.1739045}, "viewport": {"northeast": {"lat": 51.5198016302915, "lng": -0.172376919708498}, "southwest": {"lat": 51.5171036697085, "lng": -0.175074880291502}}}, "name": "Office", "place_id": "ChIJq19lsWsbdkgRHW4ej5LyKYI", "types": ["point_of_interest", "establishment"]}, "ChIJnwa8VrIadkgRmTZxGkHGEuY": {"geometry": {"location": {"lat": 51.5177733, "lng": -0.1737822}, "viewport": {"northeast": {"lat": 51.51909158029149, "lng": -0.1724194697084979}, "southwest": {"lat": 51.5163936197085, "lng": -0.175117430291502}}}, "name": "LHSN", "place_id": "ChIJnwa8VrIadkgRmTZxGkHGEuY", "types": ["health", "point_of_interest", "establishment"]}, "ChIJ8wS8VrIadkgRuO-y6b7PyKI": {"geometry": {"location": {"lat": 51.5177725, "lng": -0.1737822}, "viewport": {"northeast": {"lat": 51.5191214802915, "lng": -0.172433219708498}, "southwest": {"lat": 51.5164235197085, "lng": -0.175131180291502}}}, "name": "Prolifica", "place_id": "ChIJ8wS8VrIadkgRuO-y6b7PyKI", "types": ["health", "point_of_interest", "establishment"]}, "ChIJxVWiRZIbdkgRWaNe7EfF66g": {"geometry": {"location": {"lat": 51.5177725, "lng": -0.1737822}, "viewport": {"northeast": {"lat": 51.5191214802915, "lng": -0.172433219708498}, "southwest": {"lat": 51.5164235197085, "lng": -0.175131180291502}}}, "name": "Mr Khaled Sarraf", "place_id": "ChIJxVWiRZIbdkgRWaNe7EfF66g", "types": ["doctor", "health", "point_of_interest", "establishment"]}, "ChIJP_LG8LIadkgRs3wufNnBwDI": {"geometry": {"location": {"lat": 51.5175558, "lng": -0.1742676}, "viewport": {"northeast": {"lat": 51.51899153029149, "lng": -0.172880919708498}, "southwest": {"lat": 51.5162935697085, "lng": -0.175578880291502}}}, "name": "St Mary's Hospital", "place_id": "ChIJP_LG8LIadkgRs3wufNnBwDI", "types": ["hospital", "health", "point_of_interest", "establishment"], "rating": 3.5, "user_ratings_total": 557}, "ChIJ1cPE8LIadkgRMiyzY8dPe8w": {"geometry": {"location": {"lat": 51.51713749999999, "lng": -0.174125}, "viewport": {"northeast": {"lat": 51.5184314802915, "lng": -0.1728771197084979}, "southwest": {"lat": 51.5157335197085, "lng": -0.175575080291502}}}, "name": "Winnicott Foundation", "place_id": "ChIJ1cPE8LIadkgRMiyzY8dPe8w", "types": ["point_of_interest", "establishment"], "rating": 5, "user_ratings_total": 2}, "ChIJgzbU-7IadkgRPBN74e8rnIY": {"geometry": {"location": {"lat": 51.5171673, "lng": -0.1738772}, "viewport": {"northeast": {"lat": 51.51834533029149, "lng": -0.172280719708498}, "southwest": {"lat": 51.5156473697085, "lng": -0.174978680291502}}}, "name": "British Red Cross", "place_id": "ChIJgzbU-7IadkgRPBN74e8rnIY", "types": ["point_of_interest", "establishment"], "rating": 5, "user_ratings_total": 2}, "ChIJvVGy-bIadkgR1bk6wJrBrlk": {"geometry": {"location": {"lat": 51.5173274, "lng": -0.1739476}, "viewport": {"northeast": {"lat": 51.5187902802915, "lng": -0.172400669708498}, "southwest": {"lat": 51.5160923197085, "lng": -0.175098630291502}}}, "name": "Digital Stitch", "place_id": "ChIJvVGy-bIadkgR1bk6wJrBrlk", "types": ["point_of_interest", "establishment"]}, "ChIJH8M_BLMadkgRnyO_WJbv6iw": {"geometry": {"location": {"lat": 51.51743419999999, "lng": -0.1743591}, "viewport": {"northeast": {"lat": 51.51889408029149, "lng": -0.1730595197084979}, "southwest": {"lat": 51.5161961197085, "lng": -0.175757480291502}}}, "name": "The London Bariatric Centre", "place_id": "ChIJH8M_BLMadkgRnyO_WJbv6iw", "types": ["hospital", "health", "point_of_interest", "establishment"]}, "ChIJJ0ka9rIadkgRY0oUPmiLuIA": {"geometry": {"location": {"lat": 51.51747229999999, "lng": -0.1743843}, "viewport": {"northeast": {"lat": 51.5189135802915, "lng": -0.173069669708498}, "southwest": {"lat": 51.5162156197085, "lng": -0.1757676302915021}}}, "name": "Mr Ali Taghi, ENT, Consultant Ear Nose And throat surgeon", "place_id": "ChIJJ0ka9rIadkgRY0oUPmiLuIA", "types": ["hospital", "doctor", "local_government_office", "health", "point_of_interest", "establishment"], "rating": 5, "user_ratings_total": 68}, "ChIJEwBQ_rIadkgRzkWOS2bTgsA": {"geometry": {"location": {"lat": 51.5173029, "lng": -0.1734825}, "viewport": {"northeast": {"lat": 51.51850458029151, "lng": -0.171920219708498}, "southwest": {"lat": 51.51580661970851, "lng": -0.1746181802915021}}}, "name": "Dr Michael Platt (MA MBBS FRCA FFPM RCA)", "place_id": "ChIJEwBQ_rIadkgRzkWOS2bTgsA", "types": ["doctor", "health", "point_of_interest", "establishment"]}, "ChIJ7xqcrLMadkgRud7-yfycudE": {"geometry": {"location": {"lat": 51.5173029, "lng": -0.1734824}, "viewport": {"northeast": {"lat": 51.5185046302915, "lng": -0.171920169708498}, "southwest": {"lat": 51.5158066697085, "lng": -0.174618130291502}}}, "name": "Imperial College Healthcare", "place_id": "ChIJ7xqcrLMadkgRud7-yfycudE", "types": ["health", "point_of_interest", "establishment"], "rating": 2.4, "user_ratings_total": 5}, "ChIJEQBQ_rIadkgRyVllCBMgpvI": {"geometry": {"location": {"lat": 51.5173029, "lng": -0.1734824}, "viewport": {"northeast": {"lat": 51.5185046302915, "lng": -0.171920169708498}, "southwest": {"lat": 51.5158066697085, "lng": -0.174618130291502}}}, "name": "London General Surgery Clinic", "place_id": "ChIJEQBQ_rIadkgRyVllCBMgpvI", "types": ["hospital", "health", "point_of_interest", "establishment"], "rating": 5, "user_ratings_total": 1}, "ChIJEQBQ_rIadkgRY1Sm-vXqprY": {"geometry": {"location": {"lat": 51.5173029, "lng": -0.1734824}, "viewport": {"northeast": {"lat": 51.5185046302915, "lng": -0.171920169708498}, "southwest": {"lat": 51.5158066697085, "lng": -0.174618130291502}}}, "name": "Mr Sanjay Purkayastha", "place_id": "ChIJEQBQ_rIadkgRY1Sm-vXqprY", "types": ["health", "point_of_interest", "establishment"]}, "ChIJEQBQ_rIadkgRbvTg8gzucE4": {"geometry": {"location": {"lat": 51.5173029, "lng": -0.1734824}, "viewport": {"northeast": {"lat": 51.5185046302915, "lng": -0.171920169708498}, "southwest": {"lat": 51.5158066697085, "lng": -0.174618130291502}}}, "name": "More Smiles Appeal", "place_id": "ChIJEQBQ_rIadkgRbvTg8gzucE4", "types": ["point_of_interest", "establishment"]}, "ChIJVcPJWLIadkgRLcFJAO-ZRfM": {"geometry": {"location": {"lat": 51.5175914, "lng": -0.1744197}, "viewport": {"northeast": {"lat": 51.5189733802915, "lng": -0.173085769708498}, "southwest": {"lat": 51.5162754197085, "lng": -0.175783730291502}}}, "name": "Imperial Private Healthcare", "place_id": "ChIJVcPJWLIadkgRLcFJAO-ZRfM", "types": ["hospital", "health", "point_of_interest", "establishment"], "rating": 2.8, "user_ratings_total": 5}, "ChIJQ5NLcwwbdkgRKeScuM4nn8I": {"geometry": {"location": {"lat": 51.5173483, "lng": -0.1742553}, "viewport": {"northeast": {"lat": 51.5186165302915, "lng": -0.173054369708498}, "southwest": {"lat": 51.5159185697085, "lng": -0.175752330291502}}}, "name": "St Harry's Hospital", "place_id": "ChIJQ5NLcwwbdkgRKeScuM4nn8I", "types": ["point_of_interest", "establishment"]}, "ChIJ8_Kq97IadkgRw7NpTVeN21Y": {"geometry": {"location": {"lat": 51.5173483, "lng": -0.1742553}, "viewport": {"northeast": {"lat": 51.5186166302915, "lng": -0.173054469708498}, "southwest": {"lat": 51.5159186697085, "lng": -0.175752430291502}}}, "name": "BASILIScan", "place_id": "ChIJ8_Kq97IadkgRw7NpTVeN21Y", "types": ["point_of_interest", "establishment"]}, "ChIJW6fjfnUbdkgRiJPxHa94G60": {"geometry": {"location": {"lat": 51.5170519, "lng": -0.1747077}, "viewport": {"northeast": {"lat": 51.5184568802915, "lng": -0.173439919708498}, "southwest": {"lat": 51.5157589197085, "lng": -0.176137880291502}}}, "name": "St Mary's Hospital Main Outpatients", "place_id": "ChIJW6fjfnUbdkgRiJPxHa94G60", "types": ["health", "point_of_interest", "establishment"]}, "ChIJ__8v9rIadkgRYQVt7k-7TY0": {"geometry": {"location": {"lat": 51.5174658, "lng": -0.174311}, "viewport": {"northeast": {"lat": 51.5189105802915, "lng": -0.173032769708498}, "southwest": {"lat": 51.5162126197085, "lng": -0.175730730291502}}}, "name": "\u200bLorin Lakasing Ltd", "place_id": "ChIJ__8v9rIadkgRYQVt7k-7TY0", "types": ["health", "point_of_interest", "establishment"]}, "ChIJ__8v9rIadkgRBBqX4dENFAs": {"geometry": {"location": {"lat": 51.5174658, "lng": -0.174311}, "viewport": {"northeast": {"lat": 51.5189103302915, "lng": -0.173033019708498}, "southwest": {"lat": 51.5162123697085, "lng": -0.175730980291502}}}, "name": "Dr. Alex Digesu", "place_id": "ChIJ__8v9rIadkgRBBqX4dENFAs", "types": ["health", "point_of_interest", "establishment"]},