{"E00175210": {"ChIJkfUgL8YadkgR35n_vJTk9iw": {"geometry": {"location": {"lat": 51.5264472, "lng": -0.1621859}, "viewport": {"northeast": {"lat": 51.5277119302915, "lng": -0.160942269708498}, "southwest": {"lat": 51.5250139697085, "lng": -0.163640230291502}}}, "name": "The Windsor Castle Pub", "place_id": "ChIJkfUgL8YadkgR35n_vJTk9iw", "types": ["bar", "restaurant", "food", "point_of_interest", "establishment"], "rating": 4.2, "user_ratings_total": 309}, "ChIJhXoXSsYadkgRdH9wqOvoTsU": {"geometry": {"location": {"lat": 51.5267661, "lng": -0.1613567}, "viewport": {"northeast": {"lat": 51.5281197302915, "lng": -0.160133969708498}, "southwest": {"lat": 51.5254217697085, "lng": -0.162831930291502}}}, "name": "The Nash Lounge", "place_id": "ChIJhXoXSsYadkgRdH9wqOvoTsU", "types": ["restaurant", "food", "point_of_interest", "establishment"], "rating": 4.1, "user_ratings_total": 8}, "ChIJqTWsSsYadkgRRWYShK4sE9A": {"geometry": {"location": {"lat": 51.5267549, "lng": -0.1616093}, "viewport": {"northeast": {"lat": 51.52810213029149, "lng": -0.160211669708498}, "southwest": {"lat": 51.52540416970849, "lng": -0.162909630291502}}}, "name": "British Maternal & Fetal Medicine Society", "place_id": "ChIJqTWsSsYadkgRRWYShK4sE9A", "types": ["point_of_interest", "establishment"]}, "ChIJHWVHtscadkgRGh--unjWZ-4": {"geometry": {"location": {"lat": 51.52681, "lng": -0.1620933}, "viewport": {"northeast": {"lat": 51.5281475802915, "lng": -0.160501719708498}, "southwest": {"lat": 51.5254496197085, "lng": -0.163199680291502}}}, "name": "National Collaborating Centre for Women's & Children's Health", "place_id": "ChIJHWVHtscadkgRGh--unjWZ-4", "types": ["point_of_interest", "establishment"]}, "ChIJA2VHtscadkgRwhzMWv68oQQ": {"geometry": {"location": {"lat": 51.52700839999999, "lng": -0.1620115}, "viewport": {"northeast": {"lat": 51.52835193029149, "lng": -0.160272819708498}, "southwest": {"lat": 51.5256539697085, "lng": -0.162970780291502}}}, "name": "Rooms on Regents Park", "place_id": "ChIJA2VHtscadkgRwhzMWv68oQQ", "types": ["university", "point_of_interest", "establishment"], "rating": 4.8, "user_ratings_total": 4}, "ChIJA2VHtscadkgRbZfBYC0swpM": {"geometry": {"location": {"lat": 51.52680599999999, "lng": -0.1622713}, "viewport": {"northeast": {"lat": 51.52814283029149, "lng": -0.160590969708498}, "southwest": {"lat": 51.52544486970849, "lng": -0.163288930291502}}}, "name": "RCOG Venue Hire", "place_id": "ChIJA2VHtscadkgRbZfBYC0swpM", "types": ["point_of_interest", "establishment"], "rating": 4.5, "user_ratings_total": 4}, "ChIJ0yNVNcYadkgRWK0RhYUrJzg": {"geometry": {"location": {"lat": 51.52671590000001, "lng": -0.1616219}, "viewport": {"northeast": {"lat": 51.5280635302915, "lng": -0.160218369708498}, "southwest": {"lat": 51.52536556970851, "lng": -0.162916330291502}}}, "name": "Markit!! Education", "place_id": "ChIJ0yNVNcYadkgRWK0RhYUrJzg", "types": ["point_of_interest", "establishment"]}, "ChIJ0xUoxscadkgR5vnDTqSQ_vE": {"geometry": {"location": {"lat": 51.5265389, "lng": -0.1623847}, "viewport": {"northeast": {"lat": 51.52788105276291, "lng": -0.1610345132040032}, "southwest": {"lat": 51.52518309217991, "lng": -0.1637324737870072}}}, "name": "Parking lot", "place_id": "ChIJ0xUoxscadkgR5vnDTqSQ_vE", "types": ["parking", "premise", "point_of_interest", "establishment"]}, "ChIJYTtZMsYadkgRdwSef-knVUY": {"geometry": {"location": {"lat": 51.526191, "lng": -0.1614858}, "viewport": {"northeast": {"lat": 51.52752333381631, "lng": -0.1600882105254725}, "southwest": {"lat": 51.52482537323331, "lng": -0.1627861711084766}}}, "name": "Parking lot", "place_id": "ChIJYTtZMsYadkgRdwSef-knVUY", "types": ["parking", "premise", "point_of_interest", "establishment"]}, "ChIJz7q9LMYadkgRKsKeW1zzwUQ": {"geometry": {"location": {"lat": 51.52577663275293, "lng": -0.1615536392644349}, "viewport": {"northeast": {"lat": 51.5271349802915, "lng": -0.160179169708498}, "southwest": {"lat": 51.5244370197085, "lng": -0.162877130291502}}}, "name": "229-247 A41", "place_id": "ChIJz7q9LMYadkgRKsKeW1zzwUQ", "types": ["route"]}, "ChIJ4aakLsYadkgRbgJGuUBhfbo": {"geometry": {"location": {"lat": 51.52583079999999, "lng": -0.161199}, "viewport": {"northeast": {"lat": 51.5271797802915, "lng": -0.159850019708498}, "southwest": {"lat": 51.5244818197085, "lng": -0.162547980291502}}}, "name": "The Bite", "place_id": "ChIJ4aakLsYadkgRbgJGuUBhfbo", "types": ["cafe", "food", "point_of_interest", "establishment"], "rating": 4.5, "user_ratings_total": 6}, "ChIJV5w-28cadkgR6m8a2QWs88o": {"geometry": {"location": {"lat": 51.52581259999999, "lng": -0.1618297}, "viewport": {"northeast": {"lat": 51.5272760302915, "lng": -0.160549319708498}, "southwest": {"lat": 51.5245780697085, "lng": -0.163247280291502}}}, "name": "Flower Station", "place_id": "ChIJV5w-28cadkgR6m8a2QWs88o", "types": ["florist", "point_of_interest", "store", "establishment"], "rating": 4, "user_ratings_total": 1001}, "ChIJg3WMfsgadkgRzQmZ-f-WaDI": {"geometry": {"location": {"lat": 51.52523919999999, "lng": -0.1618114}, "viewport": {"northeast": {"lat": 51.5266364802915, "lng": -0.160188569708498}, "southwest": {"lat": 51.5239385197085, "lng": -0.162886530291502}}}, "name": "Icarus Theatre Collective", "place_id": "ChIJg3WMfsgadkgRzQmZ-f-WaDI", "types": ["point_of_interest", "establishment"]}, "ChIJ_ZGN2scadkgRZUHmmvOi4yM": {"geometry": {"location": {"lat": 51.5257328, "lng": -0.1625137}, "viewport": {"northeast": {"lat": 51.5272776802915, "lng": -0.1609175697084979}, "southwest": {"lat": 51.5245797197085, "lng": -0.163615530291502}}}, "name": "Rudolf Steiner House", "place_id": "ChIJ_ZGN2scadkgRZUHmmvOi4yM", "types": ["point_of_interest", "establishment"], "rating": 4.5, "user_ratings_total": 2}, "ChIJFemugcgadkgRqTM0uXm703E": {"geometry": {"location": {"lat": 51.525339, "lng": -0.1615192}, "viewport": {"northeast": {"lat": 51.5267099302915, "lng": -0.160053969708498}, "southwest": {"lat": 51.5240119697085, "lng": -0.162751930291502}}}, "name": "Sandfords Regents Park", "place_id": "ChIJFemugcgadkgRqTM0uXm703E", "types": ["finance", "real_estate_agency", "point_of_interest", "establishment"], "rating": 4.3, "user_ratings_total": 11}, "ChIJPW2gTukadkgRNFaycWcrfww": {"geometry": {"location": {"lat": 51.5259556, "lng": -0.1621944}, "viewport": {"northeast": {"lat": 51.5273832802915, "lng": -0.160746069708498}, "southwest": {"lat": 51.5246853197085, "lng": -0.163444030291502}}}, "name": "Moulin Rouge", "place_id": "ChIJPW2gTukadkgRNFaycWcrfww", "types": ["cafe", "food", "point_of_interest", "establishment"], "rating": 4.4, "user_ratings_total": 46}, "ChIJV5w-28cadkgRTJpo8Gyn1x0": {"geometry": {"location": {"lat": 51.5261188, "lng": -0.1617039}, "viewport": {"northeast": {"lat": 51.5274677802915, "lng": -0.160354919708498}, "southwest": {"lat": 51.5247698197085, "lng": -0.163052880291502}}}, "name": "Plant Station", "place_id": "ChIJV5w-28cadkgRTJpo8Gyn1x0", "types": ["point_of_interest", "establishment"], "rating": 5, "user_ratings_total": 2}, "ChIJDdJ-1McadkgRrxmq5Is9gf0": {"geometry": {"location": {"lat": 51.52572600000001, "lng": -0.161827}, "viewport": {"northeast": {"lat": 51.52709848029151, "lng": -0.1603320197084979}, "southwest": {"lat": 51.52440051970851, "lng": -0.163029980291502}}}, "name": "JustPark Rossmore Road", "place_id": "ChIJDdJ-1McadkgRrxmq5Is9gf0", "types": ["parking", "point_of_interest", "establishment"], "rating": 2.9, "user_ratings_total": 8}, "ChIJR3e2J1EbdkgRGxYLUtNxe4E": {"geometry": {"location": {"lat": 51.5256158, "lng": -0.1616361}, "viewport": {"northeast": {"lat": 51.5269647802915, "lng": -0.160287119708498}, "southwest": {"lat": 51.5242668197085, "lng": -0.162985080291502}}}, "name": "MASSAGE TANTRIQUE BORDEAUX", "place_id": "ChIJR3e2J1EbdkgRGxYLUtNxe4E", "types": ["point_of_interest", "establishment"]}, "ChIJGVYShJsbdkgRtZJwaA9ft8o": {"geometry": {"location": {"lat": 51.5256158, "lng": -0.1616361}, "viewport": {"northeast": {"lat": 51.5269647802915, "lng": -0.160287119708498}, "southwest": {"lat": 51.5242668197085, "lng": -0.162985080291502}}}, "name": "TANTRAHOME MASSAGE LONDON", "place_id": "ChIJGVYShJsbdkgRtZJwaA9ft8o", "types": ["point_of_interest", "establishment"]}, "ChIJE2c-2McadkgRPobQGrIO3bY": {"geometry": {"location": {"lat": 51.52559189999999, "lng": -0.1621248}, "viewport": {"northeast": {"lat": 51.52690783029149, "lng": -0.160783269708498}, "southwest": {"lat": 51.52420986970849, "lng": -0.163481230291502}}}, "name": "Park Road London Business School", "place_id": "ChIJE2c-2McadkgRPobQGrIO3bY", "types": ["transit_station", "point_of_interest", "establishment"], "rating": 3, "user_ratings_total": 1}, "ChIJ79dFh2UbdkgRB39xoIRveZY": {"geometry": {"location": {"lat": 51.525724, "lng": -0.1613797}, "viewport": {"northeast": {"lat": 51.5270919802915, "lng": -0.160002869708498}, "southwest": {"lat": 51.5243940197085, "lng": -0.162700830291502}}}, "name": "Motor Sourcer", "place_id": "ChIJ79dFh2UbdkgRB39xoIRveZY", "types": ["car_dealer", "car_repair", "point_of_interest", "store", "establishment"], "rating": 5, "user_ratings_total": 6}, "ChIJf8It0scadkgRcrhO12-2VYo": {"geometry": {"location": {"lat": 51.52592010000001, "lng": -0.16195}, "viewport": {"northeast": {"lat": 51.52732978029151, "lng": -0.160650769708498}, "southwest": {"lat": 51.52463181970851, "lng": -0.163348730291502}}}, "name": "Human Appeal", "place_id": "ChIJf8It0scadkgRcrhO12-2VYo", "types": ["point_of_interest", "establishment"]}, "ChIJf8It0scadkgRaooEDA5gALE": {"geometry": {"location": {"lat": 51.52592010000001, "lng": -0.16195}, "viewport": {"northeast": {"lat": 51.52732978029151, "lng": -0.160650769708498}, "southwest": {"lat": 51.52463181970851, "lng": -0.163348730291502}}}, "name": "Human Appeal", "place_id": "ChIJf8It0scadkgRaooEDA5gALE", "types": ["point_of_interest", "establishment"]}, "ChIJRx0p0scadkgR-mml5WMa6rk": {"geometry": {"location": {"lat": 51.52592019999999, "lng": -0.1619499}, "viewport": {"northeast": {"lat": 51.52732983029149, "lng": -0.160650769708498}, "southwest": {"lat": 51.5246318697085, "lng": -0.163348730291502}}}, "name": "Human Appeal", "place_id": "ChIJRx0p0scadkgR-mml5WMa6rk", "types": ["point_of_interest", "establishment"]}, "ChIJ86h30ccadkgRpz8-5JgUKaA": {"geometry": {"location": {"lat": 51.525893, "lng": -0.162045}, "viewport": {"northeast": {"lat": 51.5273162302915, "lng": -0.160669719708498}, "southwest": {"lat": 51.5246182697085, "lng": -0.163367680291502}}}, "name": "Mortar + Pestle Thai Restuarant", "place_id": "ChIJ86h30ccadkgRpz8-5JgUKaA", "types": ["restaurant", "food", "point_of_interest", "establishment"], "rating": 4.5, "user_ratings_total": 107}, "ChIJC2qU0ccadkgR4g0zYLlMEOs": {"geometry": {"location": {"lat": 51.5260002, "lng": -0.1621524}, "viewport": {"northeast": {"lat": 51.5274077802915, "lng": -0.160746319708498}, "southwest": {"lat": 51.5247098197085, "lng": -0.163444280291502}}}, "name": "Park Lane Dry Cleaning & Laundries", "place_id": "ChIJC2qU0ccadkgR4g0zYLlMEOs", "types": ["laundry", "point_of_interest", "establishment"], "rating": 4.2, "user_ratings_total": 10}, "ChIJlTSnaewbdkgRZoW54zaaoXQ": {"geometry": {"location": {"lat": 51.5257405, "lng": -0.1622885}, "viewport": {"northeast": {"lat": 51.52724593029149, "lng": -0.160733869708498}, "southwest": {"lat": 51.52454796970849, "lng": -0.163431830291502}}}, "name": "GOZATO GROCERIES", "place_id": "ChIJlTSnaewbdkgRZoW54zaaoXQ", "types": ["food", "point_of_interest", "establishment"]}, "ChIJ-3zaZ5EbdkgRgTYQwAX0fy4": {"geometry": {"location": {"lat": 51.5257405, "lng": -0.1622885}, "viewport": {"northeast": {"lat": 51.52724593029149, "lng": -0.160733869708498}, "southwest": {"lat": 51.52454796970849, "lng": -0.163431830291502}}}, "name": "NewConsortia London", "place_id": "ChIJ-3zaZ5EbdkgRgTYQwAX0fy4", "types": ["point_of_interest", "establishment"]}, "ChIJqUmxP2cbdkgRq55Ri-7AedU": {"geometry": {"location": {"lat": 51.5257405, "lng": -0.1622885}, "viewport": {"northeast": {"lat": 51.52724593029149, "lng": -0.160733869708498}, "southwest": {"lat": 51.52454796970849, "lng": -0.163431830291502}}}, "name": "Attic Self Storage", "place_id": "ChIJqUmxP2cbdkgRq55Ri-7AedU", "types": ["storage", "point_of_interest", "establishment"], "rating": 5, "user_ratings_total": 41}, "ChIJQxwfmyobdkgRKdUfP0V-gS4": {"geometry": {"location": {"lat": 51.5257405, "lng": -0.1622885}, "viewport": {"northeast": {"lat": 51.52724593029149, "lng": -0.160733869708498}, "southwest": {"lat": 51.52454796970849, "lng": -0.163431830291502}}}, "name": "Shoro", "place_id": "ChIJQxwfmyobdkgRKdUfP0V-gS4", "types": ["point_of_interest", "establishment"]}, "ChIJjVez0McadkgRyYJcCGtVfGI": {"geometry": {"location": {"lat": 51.5257405, "lng": -0.1622885}, "viewport": {"northeast": {"lat": 51.52724593029149, "lng": -0.160733869708498}, "southwest": {"lat": 51.52454796970849, "lng": -0.163431830291502}}}, "name": "Thelondongirl", "place_id": "ChIJjVez0McadkgRyYJcCGtVfGI", "types": ["point_of_interest", "establishment"]}, "ChIJN-mff8gadkgRrYDOgMn0Exk": {"geometry": {"location": {"lat": 51.52537539999999, "lng": -0.1615798}, "viewport": {"northeast": {"lat": 51.52676443029149, "lng": -0.160239969708498}, "southwest": {"lat": 51.5240664697085, "lng": -0.162937930291502}}}, "name": "Mini Market & Deli", "place_id": "ChIJN-mff8gadkgRrYDOgMn0Exk", "types": ["cafe", "food", "point_of_interest", "store", "establishment"], "rating": 5, "user_ratings_total": 9}, "ChIJCaXW0z4bdkgRQha7nJQNnso": {"geometry": {"location": {"lat": 51.52596450000001, "lng": -0.1620334}, "viewport": {"northeast": {"lat": 51.5273639302915, "lng": -0.160694419708498}, "southwest": {"lat": 51.5246659697085, "lng": -0.163392380291502}}}, "name": "Love Rose", "place_id": "ChIJCaXW0z4bdkgRQha7nJQNnso", "types": ["florist", "point_of_interest", "store", "establishment"], "rating": 5, "user_ratings_total": 10}, "ChIJRWiS0ccadkgRnNF3a8h9RE8": {"geometry": {"location": {"lat": 51.5259716, "lng": -0.1620417}, "viewport": {"northeast": {"lat": 51.5273701802915, "lng": -0.160699669708498}, "southwest": {"lat": 51.5246722197085, "lng": -0.163397630291502}}}, "name": "Crouch End Classics", "place_id": "ChIJRWiS0ccadkgRnNF3a8h9RE8", "types": ["point_of_interest", "establishment"]}, "ChIJxQsSgMgadkgRoCBk3NvO0SQ": {"geometry": {"location": {"lat": 51.5253448, "lng": -0.161572}, "viewport": {"northeast": {"lat": 51.5267491302915, "lng": -0.160235719708498}, "southwest": {"lat": 51.5240511697085, "lng": -0.162933680291502}}}, "name": "Ttine Wa Zeytoon Ltd", "place_id": "ChIJxQsSgMgadkgRoCBk3NvO0SQ", "types": ["cafe", "food", "point_of_interest", "establishment"], "rating": 5, "user_ratings_total": 17}, "ChIJPwE_gMgadkgRheG5SZcv9xk": {"geometry": {"location": {"lat": 51.52533769999999, "lng": -0.1615144}, "viewport": {"northeast": {"lat": 51.52670828029149, "lng": -0.160051069708498}, "southwest": {"lat": 51.52401031970849, "lng": -0.162749030291502}}}, "name": "bmortgages", "place_id": "ChIJPwE_gMgadkgRheG5SZcv9xk", "types": ["finance", "insurance_agency", "point_of_interest", "establishment"], "rating": 5, "user_ratings_total": 4}, "ChIJN07D0ccadkgRf7NGZ0at8tw": {"geometry": {"location": {"lat": 51.5260015, "lng": -0.1621398}, "viewport": {"northeast": {"lat": 51.5274067302915, "lng": -0.160719819708498}, "southwest": {"lat": 51.5247087697085, "lng": -0.1634177802915021}}}, "name": "Roya's Cafe", "place_id": "ChIJN07D0ccadkgRf7NGZ0at8tw", "types": ["cafe", "food", "point_of_interest", "establishment"]}, "ChIJx2cVLcYadkgRkFcE7lclx-k": {"geometry": {"location": {"lat": 51.5260406, "lng": -0.1615209}, "viewport": {"northeast": {"lat": 51.5273895802915, "lng": -0.160171919708498}, "southwest": {"lat": 51.5246916197085, "lng": -0.162869880291502}}}, "name": "London Business School Gift Shop", "place_id": "ChIJx2cVLcYadkgRkFcE7lclx-k", "types": ["point_of_interest", "store", "establishment"], "rating": 3.3, "user_ratings_total": 3}, "ChIJCcLELcYadkgR3lGlylS-PTw": {"geometry": {"location": {"lat": 51.5259587, "lng": -0.1613062}, "viewport": {"northeast": {"lat": 51.52724758029149, "lng": -0.1600330197084979}, "southwest": {"lat": 51.52454961970849, "lng": -0.162730980291502}}}, "name": "Enterprise 100 Ltd", "place_id": "ChIJCcLELcYadkgR3lGlylS-PTw", "types": ["university", "point_of_interest", "establishment"], "rating": 5, "user_ratings_total": 1}, "ChIJt6Ab2McadkgRI-iyLwF3YkA": {"geometry": {"location": {"lat": 51.52546100000001, "lng": -0.1623855}, "viewport": {"northeast": {"lat": 51.52679588029149, "lng": -0.1610298197084979}, "southwest": {"lat": 51.5240979197085, "lng": -0.163727780291502}}}, "name": "Park RoadLondon Business Sch", "place_id": "ChIJt6Ab2McadkgRI-iyLwF3YkA", "types": ["transit_station", "point_of_interest", "establishment"]}, "ChIJoyrZzccadkgRrxP089mO_rc": {"geometry": {"location": {"lat": 51.526118, "lng": -0.161814}, "viewport": {"northeast": {"lat": 51.5274425802915, "lng": -0.160523019708498}, "southwest": {"lat": 51.52474461970851, "lng": -0.163220980291502}}}, "name": "London Business School (Stop LB)", "place_id": "ChIJoyrZzccadkgRrxP089mO_rc", "types": ["bus_station", "transit_station", "point_of_interest", "establishment"], "rating": 3.6, "user_ratings_total": 5}, "ChIJJa2D2scadkgR3BQ8JU2eDH0": {"geometry": {"location": {"lat": 51.525931, "lng": -0.1623699}, "viewport": {"northeast": {"lat": 51.5273976802915, "lng": -0.1608919197084979}, "southwest": {"lat": 51.5246997197085, "lng": -0.163589880291502}}}, "name": "Source London Charging Station", "place_id": "ChIJJa2D2scadkgR3BQ8JU2eDH0", "types": ["point_of_interest", "establishment"]}, "ChIJJf0u0McadkgR056s_rhQNp4": {"geometry": {"location": {"lat": 51.5260383, "lng": -0.1622088}, "viewport": {"northeast": {"lat": 51.5274422302915, "lng": -0.160789919708498}, "southwest": {"lat": 51.5247442697085, "lng": -0.163487880291502}}}, "name": "Rossmore Court", "place_id": "ChIJJf0u0McadkgR056s_rhQNp4", "types": ["point_of_interest", "establishment"], "rating": 4.7, "user_ratings_total": 9}, "ChIJYwbfz8cadkgRb9rmKxqo_A8": {"geometry": {"location": {"lat": 51.5260607, "lng": -0.1622552}, "viewport": {"northeast": {"lat": 51.5274562802915, "lng": -0.160828069708498}, "southwest": {"lat": 51.5247583197085, "lng": -0.163526030291502}}}, "name": "Talk Home", "place_id": "ChIJYwbfz8cadkgRb9rmKxqo_A8", "types": ["store", "point_of_interest", "establishment"], "rating": 5, "user_ratings_total": 4}, "ChIJ4zeiQVwbdkgROc0hY_mU200": {"geometry": {"location": {"lat": 51.5253954, "lng": -0.1610831}, "viewport": {"northeast": {"lat": 51.52672623029149, "lng": -0.159830119708498}, "southwest": {"lat": 51.5240282697085, "lng": -0.162528080291502}}}, "name": "Electrician in Regent's Park", "place_id": "ChIJ4zeiQVwbdkgROc0hY_mU200", "types": ["electrician", "point_of_interest", "establishment"]}, "ChIJSfb-18cadkgRyHnVd1L0LAA": {"geometry": {"location": {"lat": 51.5253932, "lng": -0.1625154}, "viewport": {"northeast": {"lat": 51.52676753029151, "lng": -0.161195769708498}, "southwest": {"lat": 51.52406956970851, "lng": -0.163893730291502}}}, "name": "Park Road London Business School (Stop LM)", "place_id": "ChIJSfb-18cadkgRyHnVd1L0LAA", "types": ["bus_station", "transit_station", "point_of_interest", "establishment"]}, "ChIJTSJ1hcgadkgR0O7tWJVD5qI": {"geometry": {"location": {"lat": 51.52487766763082, "lng": -0.161044818360068}, "viewport": {"northeast": {"lat": 51.5262256802915, "lng": -0.159706169708498}, "southwest": {"lat": 51.5235277197085, "lng": -0.162404130291502}}}, "name": "189-203 A41", "place_id": "ChIJTSJ1hcgadkgR0O7tWJVD5qI", "types": ["route"]}, "ChIJVVWWjsgadkgRjFDIUoC8Py8": {"geometry": {"location": {"lat": 51.5244767, "lng": -0.1611425}, "viewport": {"northeast": {"lat": 51.52584383029151, "lng": -0.159673219708498}, "southwest": {"lat": 51.52314586970851, "lng": -0.162371180291502}}}, "name": "Gloucter place", "place_id": "ChIJVVWWjsgadkgRjFDIUoC8Py8", "types": ["lodging", "point_of_interest", "establishment"]}, "ChIJ0wN6Y8gadkgRLLZ0URUffQg": {"geometry": {"location": {"lat": 51.52460970000001, "lng": -0.1619382}, "viewport": {"northeast": {"lat": 51.5259684802915, "lng": -0.160533969708498}, "southwest": {"lat": 51.5232705197085, "lng": -0.163231930291502}}}, "name": "Basho Records", "place_id": "ChIJ0wN6Y8gadkgRLLZ0URUffQg", "types": ["point_of_interest", "establishment"]}, "ChIJ221ZY8gadkgRGNgMmSqRhXw": {"geometry": {"location": {"lat": 51.524713, "lng": -0.1618852}, "viewport": {"northeast": {"lat": 51.52605603029151, "lng": -0.160567019708498}, "southwest": {"lat": 51.52335806970851, "lng": -0.163264980291502}}}, "name": "Gwilym Simcock", "place_id": "ChIJ221ZY8gadkgRGNgMmSqRhXw", "types": ["point_of_interest", "establishment"]}, "ChIJQdLticgadkgRR-P8XLtzQ08": {"geometry": {"location": {"lat": 51.5244752, "lng": -0.1615424}, "viewport": {"northeast": {"lat": 51.5258332802915, "lng": -0.160142619708498}, "southwest": {"lat": 51.5231353197085, "lng": -0.162840580291502}}}, "name": "Shulman & Company", "place_id": "ChIJQdLticgadkgRR-P8XLtzQ08", "types": ["accounting", "finance", "point_of_interest", "establishment"]}, "ChIJd9mPOvS8cEgRtyD6ecf8hPI": {"geometry": {"location": {"lat": 51.52438550000001, "lng": -0.16162}, "viewport": {"northeast": {"lat": 51.52568598029151, "lng": -0.160245569708498}, "southwest": {"lat": 51.52298801970851, "lng": -0.162943530291502}}}, "name": "Amigo", "place_id": "ChIJd9mPOvS8cEgRtyD6ecf8hPI", "types": ["point_of_interest", "establishment"]}, "ChIJsYYfisgadkgRP76FDrKzSTE": {"geometry": {"location": {"lat": 51.5244145, "lng": -0.1615101}, "viewport": {"northeast": {"lat": 51.52571193029149, "lng": -0.160134069708498}, "southwest": {"lat": 51.52301396970849, "lng": -0.162832030291502}}}, "name": "Jeff Wayne Music Group", "place_id": "ChIJsYYfisgadkgRP76FDrKzSTE", "types": ["point_of_interest", "establishment"]}, "ChIJWYpdU8gadkgRcaoX2mgydL0": {"geometry": {"location": {"lat": 51.5243337, "lng": -0.1619224}, "viewport": {"northeast": {"lat": 51.5256321802915, "lng": -0.160549919708498}, "southwest": {"lat": 51.5229342197085, "lng": -0.1632478802915021}}}, "name": "City Business Centre", "place_id": "ChIJWYpdU8gadkgRcaoX2mgydL0", "types": ["point_of_interest", "establishment"]}, "ChIJtUk0YcgadkgRf3yoG8au-HA": {"geometry": {"location": {"lat": 51.5243337, "lng": -0.1619224}, "viewport": {"northeast": {"lat": 51.5256321802915, "lng": -0.160549919708498}, "southwest": {"lat": 51.5229342197085, "lng": -0.1632478802915021}}}, "name": "Easy", "place_id": "ChIJtUk0YcgadkgRf3yoG8au-HA", "types": ["car_rental", "point_of_interest", "establishment"]}, "ChIJC07Gb8gadkgRCsmMGiCSFv4": {"geometry": {"location": {"lat": 51.5246815, "lng": -0.1624806}, "viewport": {"northeast": {"lat": 51.52601938029149, "lng": -0.161190619708498}, "southwest": {"lat": 51.52332141970849, "lng": -0.163888580291502}}}, "name": "The Hand-Dupre Duo", "place_id": "ChIJC07Gb8gadkgRCsmMGiCSFv4", "types": ["electronics_store", "home_goods_store", "point_of_interest", "store", "establishment"]}, "ChIJd5YXj8gadkgRydcZKFZuhJo": {"geometry": {"location": {"lat": 51.52463540000001, "lng": -0.1611477}, "viewport": {"northeast": {"lat": 51.52599908029149, "lng": -0.159709869708498}, "southwest": {"lat": 51.5233011197085, "lng": -0.1624078302915021}}}, "name": "RhubarbLondon LLP", "place_id": "ChIJd5YXj8gadkgRydcZKFZuhJo", "types": ["furniture_store", "home_goods_store", "point_of_interest", "store", "establishment"]}, "ChIJ_d5pj8gadkgRFB6N94CEn8M": {"geometry": {"location": {"lat": 51.5247074, "lng": -0.1612107}, "viewport": {"northeast": {"lat": 51.52604408029149, "lng": -0.159743019708498}, "southwest": {"lat": 51.5233461197085, "lng": -0.162440980291502}}}, "name": "Carmelite Missionaries", "place_id": "ChIJ_d5pj8gadkgRFB6N94CEn8M", "types": ["lodging", "point_of_interest", "establishment"], "rating": 5, "user_ratings_total": 2}, "ChIJ-bYTbsgadkgR-Zuke-mrgGg": {"geometry": {"location": {"lat": 51.52468440000001, "lng": -0.1626594}, "viewport": {"northeast": {"lat": 51.5260326302915, "lng": -0.161314369708498}, "southwest": {"lat": 51.5233346697085, "lng": -0.164012330291502}}}, "name": "Opera A La Carte", "place_id": "ChIJ-bYTbsgadkgR-Zuke-mrgGg", "types": ["point_of_interest", "establishment"], "rating": 5, "user_ratings_total": 1}, "ChIJY8zVddUadkgRB91pCwomgiA": {"geometry": {"location": {"lat": 51.524358, "lng": -0.162576}, "viewport": {"northeast": {"lat": 51.5257176802915, "lng": -0.161170219708498}, "southwest": {"lat": 51.5230197197085, "lng": -0.163868180291502}}}, "name": "Bionic Bodies", "place_id": "ChIJY8zVddUadkgRB91pCwomgiA", "types": ["health", "point_of_interest", "clothing_store", "store", "establishment"]}, "ChIJHwGwZsgadkgRJUNOXUYpu3M": {"geometry": {"location": {"lat": 51.52434, "lng": -0.1619626}, "viewport": {"northeast": {"lat": 51.52563223029149, "lng": -0.160587219708498}, "southwest": {"lat": 51.52293426970849, "lng": -0.163285180291502}}}, "name": "London Concierge", "place_id": "ChIJHwGwZsgadkgRJUNOXUYpu3M", "types": ["point_of_interest", "establishment"]}, "ChIJ4X_U-bUadkgRmPj-HwfkKnU": {"geometry": {"location": {"lat": 51.5244855, "lng": -0.1619678}, "viewport": {"northeast": {"lat": 51.52584233029149, "lng": -0.160574319708498}, "southwest": {"lat": 51.5231443697085, "lng": -0.163272280291502}}}, "name": "Consumer Analysis Ltd", "place_id": "ChIJ4X_U-bUadkgRmPj-HwfkKnU", "types": ["point_of_interest", "establishment"]}, "ChIJQwShjcgadkgRgXsWnVNEwR0": {"geometry": {"location": {"lat": 51.524278, "lng": -0.161299}, "viewport": {"northeast": {"lat": 51.5256269802915, "lng": -0.159950019708498}, "southwest": {"lat": 51.5229290197085, "lng": -0.162647980291502}}}, "name": "Ali Baba Restaurant", "place_id": "ChIJQwShjcgadkgRgXsWnVNEwR0", "types": ["restaurant", "food", "point_of_interest", "establishment"], "rating": 4.4, "user_ratings_total": 287}, "ChIJQdLticgadkgRrTlgfGwUAzI": {"geometry": {"location": {"lat": 51.5244752, "lng": -0.1615424}, "viewport": {"northeast": {"lat": 51.5258332802915, "lng": -0.160142619708498}, "southwest": {"lat": 51.5231353197085, "lng": -0.162840580291502}}}, "name": "Hawkwood International Ltd", "place_id": "ChIJQdLticgadkgRrTlgfGwUAzI", "types": ["point_of_interest", "establishment"]}, "ChIJQdLticgadkgR-rzWwglgHmM": {"geometry": {"location": {"lat": 51.5244752, "lng": -0.1615424}, "viewport": {"northeast": {"lat": 51.5258332802915, "lng": -0.160142619708498}, "southwest": {"lat": 51.5231353197085, "lng": -0.162840580291502}}}, "name": "Entrepreneurs Universe", "place_id": "ChIJQdLticgadkgR-rzWwglgHmM", "types": ["point_of_interest", "establishment"]}, "ChIJsYYfisgadkgRQepG330NM0M": {"geometry": {"location": {"lat": 51.52438550000001, "lng": -0.16162}, "viewport": {"northeast": {"lat": 51.52568598029151, "lng": -0.160245569708498}, "southwest": {"lat": 51.52298801970851, "lng": -0.162943530291502}}}, "name": "Oliver House Recording Studio", "place_id": "ChIJsYYfisgadkgRQepG330NM0M", "types": ["electronics_store", "home_goods_store", "point_of_interest", "store", "establishment"]}, "ChIJQzuHwjsbdkgRhRqS5DOeheQ": {"geometry": {"location": {"lat": 51.5243337, "lng": -0.1619224}, "viewport": {"northeast": {"lat": 51.5256321802915, "lng": -0.160549919708498}, "southwest": {"lat": 51.5229342197085, "lng": -0.1632478802915021}}}, "name": "Nexus Ghostwriting", "place_id": "ChIJQzuHwjsbdkgRhRqS5DOeheQ", "types": ["point_of_interest", "establishment"], "rating": 4.6, "user_ratings_total": 14}, "ChIJ4xpEdSUbdkgRRGltrsh3v1M": {"geometry": {"location": {"lat": 51.5243337, "lng": -0.1619224}, "viewport": {"northeast": {"lat": 51.5256321802915, "lng": -0.160549919708498}, "southwest": {"lat": 51.5229342197085, "lng": -0.1632478802915021}}}, "name": "Assignment Help Service - Custom Writing", "place_id": "ChIJ4xpEdSUbdkgRRGltrsh3v1M", "types": ["point_of_interest", "establishment"]}, "ChIJq8ciQjEbdkgR2-HuJI3etNI": {"geometry": {"location": {"lat": 51.5243452, "lng": -0.1616095}, "viewport": {"northeast": {"lat": 51.5256654302915, "lng": -0.160245419708498}, "southwest": {"lat": 51.5229674697085, "lng": -0.162943380291502}}}, "name": "Clarewell Clinics (Private Sexual Health Clinic)", "place_id": "ChIJq8ciQjEbdkgR2-HuJI3etNI", "types": ["health", "point_of_interest", "establishment"], "rating": 5, "user_ratings_total": 1}, "ChIJHymtbSUbdkgRQubW5sgi5yE": {"geometry": {"location": {"lat": 51.5243205, "lng": -0.1619604}, "viewport": {"northeast": {"lat": 51.52562193029151, "lng": -0.160589319708498}, "southwest": {"lat": 51.52292396970851, "lng": -0.163287280291502}}}, "name": "Ben's Gutter Cleaning London", "place_id": "ChIJHymtbSUbdkgRQubW5sgi5yE", "types": ["point_of_interest", "establishment"]}, "ChIJrWZEbIEbdkgR4dEAgmIwMzA": {"geometry": {"location": {"lat": 51.5244764, "lng": -0.1613266}, "viewport": {"northeast": {"lat": 51.5258165802915, "lng": -0.1600267197084979}, "southwest": {"lat": 51.5231186197085, "lng": -0.162724680291502}}}, "name": "TopEssay24 - Best Essay Help in the UK", "place_id": "ChIJrWZEbIEbdkgR4dEAgmIwMzA", "types": ["point_of_interest", "establishment"], "rating": 5, "user_ratings_total": 2}, "ChIJqaEvZ8gadkgRNzL_ST0ShJI": {"geometry": {"location": {"lat": 51.5242543, "lng": -0.1620324}, "viewport": {"northeast": {"lat": 51.52558518029149, "lng": -0.160675319708498}, "southwest": {"lat": 51.5228872197085, "lng": -0.163373280291502}}}, "name": "Graham Home Care Ltd", "place_id": "ChIJqaEvZ8gadkgRNzL_ST0ShJI", "types": ["health", "point_of_interest", "establishment"]}, "ChIJxyggZ8gadkgRzmH5IeAXXqE": {"geometry": {"location": {"lat": 51.5242517, "lng": -0.1620713}, "viewport": {"northeast": {"lat": 51.5256006802915, "lng": -0.160722319708498}, "southwest": {"lat": 51.5229027197085, "lng": -0.163420280291502}}}, "name": "Gollings Architects", "place_id": "ChIJxyggZ8gadkgRzmH5IeAXXqE", "types": ["point_of_interest", "establishment"]}, "ChIJVxd2hsgadkgRPfByZSd4ADA": {"geometry": {"location": {"lat": 51.52486039999999, "lng": -0.1612511}, "viewport": {"northeast": {"lat": 51.52622538029149, "lng": -0.159805519708498}, "southwest": {"lat": 51.52352741970849, "lng": -0.162503480291502}}}, "name": "Baker Street Apartments", "place_id": "ChIJVxd2hsgadkgRPfByZSd4ADA", "types": ["point_of_interest", "establishment"], "rating": 2.3, "user_ratings_total": 3}, "ChIJBwABlMgadkgRBqPQO5wqduo": {"geometry": {"location": {"lat": 51.52456859999999, "lng": -0.1611182}, "viewport": {"northeast": {"lat": 51.5258315802915, "lng": -0.159725019708498}, "southwest": {"lat": 51.5231336197085, "lng": -0.162422980291502}}}, "name": "TOPMARKET SERVICE", "place_id": "ChIJBwABlMgadkgRBqPQO5wqduo", "types": ["point_of_interest", "establishment"]}, "ChIJ8-fHjcgadkgR_2j4kwn89XU": {"geometry": {"location": {"lat": 51.5243334, "lng": -0.1611021}, "viewport": {"northeast": {"lat": 51.5256823802915, "lng": -0.159753119708498}, "southwest": {"lat": 51.5229844197085, "lng": -0.162451080291502}}}, "name": "Ivory Dental Studio", "place_id": "ChIJ8-fHjcgadkgR_2j4kwn89XU", "types": ["dentist", "health", "point_of_interest", "establishment"], "rating": 4.4, "user_ratings_total": 13}, "ChIJPX5AkscadkgRiTv9lG6M39w": {"geometry": {"location": {"lat": 51.52696070432585, "lng": -0.1637327588459817}, "viewport": {"northeast": {"lat": 51.5283110302915, "lng": -0.162381669708498}, "southwest": {"lat": 51.52561306970851, "lng": -0.165079630291502}}}, "name": "Park Road", "place_id": "ChIJPX5AkscadkgRiTv9lG6M39w", "types": ["route"]}, "ChIJhyiG8scadkgRv-6LenaF0JM": {"geometry": {"location": {"lat": 51.52666019999999, "lng": -0.1637653}, "viewport": {"northeast": {"lat": 51.52795108029149, "lng": -0.162509169708498}, "southwest": {"lat": 51.52525311970849, "lng": -0.1652071302915021}}}, "name": "eLagaan", "place_id": "ChIJhyiG8scadkgRv-6LenaF0JM", "types": ["point_of_interest", "establishment"]}, "ChIJcQHs6ccadkgRRjNlCCO3v6k": {"geometry": {"location": {"lat": 51.52633350000001, "lng": -0.1631663}, "viewport": {"northeast": {"lat": 51.5277600802915, "lng": -0.161710769708498}, "southwest": {"lat": 51.5250621197085, "lng": -0.164408730291502}}}, "name": "euroline design & build", "place_id": "ChIJcQHs6ccadkgRRjNlCCO3v6k", "types": ["general_contractor", "point_of_interest", "establishment"]}, "ChIJRZIhl8cadkgR6AvomCY-qGA": {"geometry": {"location": {"lat": 51.5271327, "lng": -0.1631298}, "viewport": {"northeast": {"lat": 51.52843048029149, "lng": -0.161859419708498}, "southwest": {"lat": 51.5257325197085, "lng": -0.164557380291502}}}, "name": "Orangutan Foundation", "place_id": "ChIJRZIhl8cadkgR6AvomCY-qGA", "types": ["point_of_interest", "establishment"], "rating": 5, "user_ratings_total": 2}, "ChIJz1_jD1obdkgRj7N7htjamx8": {"geometry": {"location": {"lat": 51.52689360000001, "lng": -0.1635722}, "viewport": {"northeast": {"lat": 51.5282488302915, "lng": -0.162213269708498}, "southwest": {"lat": 51.5255508697085, "lng": -0.164911230291502}}}, "name": "Lorry Mounted Crane Transport Services", "place_id": "ChIJz1_jD1obdkgRj7N7htjamx8", "types": ["point_of_interest", "establishment"]}, "ChIJhSo-7ccadkgRJ_6QMrf2njg": {"geometry": {"location": {"lat": 51.5266398, "lng": -0.1637301}, "viewport": {"northeast": {"lat": 51.5280706302915, "lng": -0.162254769708498}, "southwest": {"lat": 51.5253726697085, "lng": -0.164952730291502}}}, "name": "Translations For All", "place_id": "ChIJhSo-7ccadkgRJ_6QMrf2njg", "types": ["point_of_interest", "establishment"]}, "ChIJxZLr6scadkgRhG_JSv9dedM": {"geometry": {"location": {"lat": 51.5266229, "lng": -0.1632072}, "viewport": {"northeast": {"lat": 51.52795888029149, "lng": -0.161879019708498}, "southwest": {"lat": 51.52526091970849, "lng": -0.164576980291502}}}, "name": "tvrepairexpert", "place_id": "ChIJxZLr6scadkgRhG_JSv9dedM", "types": ["electronics_store", "point_of_interest", "store", "establishment"]}, "ChIJK10uvMUbdkgRkQd5i8mt3c0": {"geometry": {"location": {"lat": 51.5265679, "lng": -0.1638618}, "viewport": {"northeast": {"lat": 51.52789943029151, "lng": -0.162540719708498}, "southwest": {"lat": 51.52520146970851, "lng": -0.165238680291502}}}, "name": "Dochomerepair.com", "place_id": "ChIJK10uvMUbdkgRkQd5i8mt3c0", "types": ["general_contractor", "point_of_interest", "establishment"]}, "ChIJwd1j-3EbdkgR90UejfULPxw": {"geometry": {"location": {"lat": 51.5272331, "lng": -0.1633431}, "viewport": {"northeast": {"lat": 51.52853898029149, "lng": -0.162061869708498}, "southwest": {"lat": 51.52584101970849, "lng": -0.164759830291502}}}, "name": "E. H. Shepard Blue Plaque", "place_id": "ChIJwd1j-3EbdkgR90UejfULPxw", "types": ["point_of_interest", "establishment"], "rating": 4, "user_ratings_total": 1}, "ChIJw8u8jscadkgRWBIMHS8EWyg": {"geometry": {"location": {"lat": 51.52709199999999, "lng": -0.164129}, "viewport": {"northeast": {"lat": 51.5284695302915, "lng": -0.162734569708498}, "southwest": {"lat": 51.5257715697085, "lng": -0.165432530291502}}}, "name": "Alpha Close (Stop LC)", "place_id": "ChIJw8u8jscadkgRWBIMHS8EWyg", "types": ["transit_station", "point_of_interest", "establishment"], "rating": 4, "user_ratings_total": 1}, "ChIJ01RX7scadkgR11z_BreaBFQ": {"geometry": {"location": {"lat": 51.5262693, "lng": -0.163671}, "viewport": {"northeast": {"lat": 51.5276403802915, "lng": -0.162285919708498}, "southwest": {"lat": 51.5249424197085, "lng": -0.164983880291502}}}, "name": "Adam Saran Photography", "place_id": "ChIJ01RX7scadkgR11z_BreaBFQ", "types": ["point_of_interest", "establishment"]}, "ChIJ63mQCcgadkgRRf00IyWDMSs": {"geometry": {"location": {"lat": 51.52527758369467, "lng": -0.1634985964663591}, "viewport": {"northeast": {"lat": 51.5266263802915, "lng": -0.162149519708498}, "southwest": {"lat": 51.5239284197085, "lng": -0.164847480291502}}}, "name": "61 Rossmore Rd", "place_id": "ChIJ63mQCcgadkgRRf00IyWDMSs", "types": ["route"]}, "ChIJm9Lf3scadkgRreREx38Zb_Y": {"geometry": {"location": {"lat": 51.52562, "lng": -0.1629045}, "viewport": {"northeast": {"lat": 51.5269317302915, "lng": -0.161590619708498}, "southwest": {"lat": 51.5242337697085, "lng": -0.164288580291502}}}, "name": "Thai London Therapy Marylebone", "place_id": "ChIJm9Lf3scadkgRreREx38Zb_Y", "types": ["beauty_salon", "hair_care", "spa", "health", "point_of_interest", "establishment"], "rating": 4.4, "user_ratings_total": 124}, "ChIJm9Lf3scadkgRvDJyA1IiLgQ": {"geometry": {"location": {"lat": 51.5255889, "lng": -0.1628752}, "viewport": {"northeast": {"lat": 51.5269091802915, "lng": -0.161553919708498}, "southwest": {"lat": 51.5242112197085, "lng": -0.164251880291502}}}, "name": "Ultra Estates", "place_id": "ChIJm9Lf3scadkgRvDJyA1IiLgQ", "types": ["real_estate_agency", "point_of_interest", "establishment"], "rating": 4.7, "user_ratings_total": 61}, "ChIJFcFg5scadkgRgsNHB7575Zc": {"geometry": {"location": {"lat": 51.52591719999999, "lng": -0.1633768}, "viewport": {"northeast": {"lat": 51.52725943029149, "lng": -0.162048319708498}, "southwest": {"lat": 51.52456146970849, "lng": -0.164746280291502}}}, "name": "KAST INTERNATIONAL LTD", "place_id": "ChIJFcFg5scadkgRgsNHB7575Zc", "types": ["point_of_interest", "establishment"]}, "ChIJKQxsAcgadkgRw6GfjNOeXDs": {"geometry": {"location": {"lat": 51.5255424, "lng": -0.1630331}, "viewport": {"northeast": {"lat": 51.5268961302915, "lng": -0.161628169708498}, "southwest": {"lat": 51.5241981697085, "lng": -0.164326130291502}}}, "name": "Palgrave Gardens Gate", "place_id": "ChIJKQxsAcgadkgRw6GfjNOeXDs", "types": ["point_of_interest", "establishment"], "rating": 4.4, "user_ratings_total": 16}, "ChIJayv4wi4bdkgRW3IVtEs7Itw": {"geometry": {"location": {"lat": 51.5259742, "lng": -0.1638021}, "viewport": {"northeast": {"lat": 51.52740448029149, "lng": -0.162297919708498}, "southwest": {"lat": 51.5247065197085, "lng": -0.164995880291502}}}, "name": "Stephanie Harrison", "place_id": "ChIJayv4wi4bdkgRW3IVtEs7Itw", "types": ["point_of_interest", "establishment"]}, "ChIJTcq3CcgadkgR4rqXQGrFKAE": {"geometry": {"location": {"lat": 51.52532099999999, "lng": -0.163607}, "viewport": {"northeast": {"lat": 51.5266414802915, "lng": -0.162236769708498}, "southwest": {"lat": 51.5239435197085, "lng": -0.164934730291502}}}, "name": "ubitricity Charging Station", "place_id": "ChIJTcq3CcgadkgR4rqXQGrFKAE", "types": ["point_of_interest", "establishment"]}, "ChIJu8P33scadkgR0_HRvvQGG5s": {"geometry": {"location": {"lat": 51.52562, "lng": -0.1629045}, "viewport": {"northeast": {"lat": 51.5269317302915, "lng": -0.161590619708498}, "southwest": {"lat": 51.5242337697085, "lng": -0.164288580291502}}}, "name": "Massage Angels", "place_id": "ChIJu8P33scadkgR0_HRvvQGG5s", "types": ["point_of_interest", "establishment"]}, "ChIJgSDQ3scadkgRaafggHqdJqI": {"geometry": {"location": {"lat": 51.5256234, "lng": -0.1628655}, "viewport": {"northeast": {"lat": 51.5269296802915, "lng": -0.161557769708498}, "southwest": {"lat": 51.5242317197085, "lng": -0.164255730291502}}}, "name": "The Rossmore Spa", "place_id": "ChIJgSDQ3scadkgRaafggHqdJqI", "types": ["spa", "point_of_interest", "establishment"], "rating": 4, "user_ratings_total": 4}, "ChIJ4bUydcgadkgRo9-LUKH1RSA": {"geometry": {"location": {"lat": 51.52529, "lng": -0.163089}, "viewport": {"northeast": {"lat": 51.52666748029149, "lng": -0.161753469708498}, "southwest": {"lat": 51.52396951970849, "lng": -0.164451430291502}}}, "name": "ubitricity Charging Station", "place_id": "ChIJ4bUydcgadkgRo9-LUKH1RSA", "types": ["point_of_interest", "establishment"]}, "ChIJv5IeE8gadkgRCtduYjBU5GQ": {"geometry": {"location": {"lat": 51.52455456716978, "lng": -0.1631605548561013}, "viewport": {"northeast": {"lat": 51.5259004802915, "lng": -0.161828769708498}, "southwest": {"lat": 51.52320251970851, "lng": -0.164526730291502}}}, "name": "106-62 Boston Pl", "place_id": "ChIJv5IeE8gadkgRCtduYjBU5GQ", "types": ["route"]}, "ChIJySAlc8gadkgRgTDcdAfb7Yw": {"geometry": {"location": {"lat": 51.5249527, "lng": -0.1630313}, "viewport": {"northeast": {"lat": 51.52632668029149, "lng": -0.1615495197084979}, "southwest": {"lat": 51.52362871970849, "lng": -0.164247480291502}}}, "name": "D B Photography", "place_id": "ChIJySAlc8gadkgRgTDcdAfb7Yw", "types": ["point_of_interest", "establishment"]}, "ChIJfbIuHMgadkgRbgDPkFb2Yf8": {"geometry": {"location": {"lat": 51.52444209999999, "lng": -0.1643472}, "viewport": {"northeast": {"lat": 51.5257063802915, "lng": -0.163467869708498}, "southwest": {"lat": 51.5230084197085, "lng": -0.166165830291502}}}, "name": "Daniel Rouah Male Grooming", "place_id": "ChIJfbIuHMgadkgRbgDPkFb2Yf8", "types": ["beauty_salon", "point_of_interest", "establishment"]}, "ChIJT2CRAeIbdkgRQtDqk7AXTuk": {"geometry": {"location": {"lat": 51.524794, "lng": -0.1628106}, "viewport": {"northeast": {"lat": 51.5261556302915, "lng": -0.161394519708498}, "southwest": {"lat": 51.52345766970851, "lng": -0.164092480291502}}}, "name": "Tbx Host", "place_id": "ChIJT2CRAeIbdkgRQtDqk7AXTuk", "types": ["point_of_interest", "establishment"]}, "ChIJfbIuHMgadkgRUE5odPTGBGc": {"geometry": {"location": {"lat": 51.52444209999999, "lng": -0.1643472}, "viewport": {"northeast": {"lat": 51.5257063802915, "lng": -0.163467869708498}, "southwest": {"lat": 51.5230084197085, "lng": -0.166165830291502}}}, "name": "Keith's Rubbish Clearance Ltd", "place_id": "ChIJfbIuHMgadkgRUE5odPTGBGc", "types": ["point_of_interest", "establishment"]}, "ChIJKfHUH8gadkgRR-3mrK8vlMs": {"geometry": {"location": {"lat": 51.5242769, "lng": -0.1644872}, "viewport": {"northeast": {"lat": 51.5255954737978, "lng": -0.163220610564237}, "southwest": {"lat": 51.5228975132148, "lng": -0.165918571147241}}}, "name": "Parking lot", "place_id": "ChIJKfHUH8gadkgRR-3mrK8vlMs", "types": ["parking", "premise", "point_of_interest", "establishment"]}, "ChIJFdV0argadkgR5rdUSrSdvwc": {"geometry": {"location": {"lat": 51.52697870193796, "lng": -0.1659948976221475}, "viewport": {"northeast": {"lat": 51.52831898029149, "lng": -0.164675269708498}, "southwest": {"lat": 51.5256210197085, "lng": -0.167373230291502}}}, "name": "Paveley Street", "place_id": "ChIJFdV0argadkgR5rdUSrSdvwc", "types": ["route"]}, "ChIJr6cK8bkbdkgRSQp94V56jv0": {"geometry": {"location": {"lat": 51.5272541, "lng": -0.1648957}, "viewport": {"northeast": {"lat": 51.5287088802915, "lng": -0.163369469708498}, "southwest": {"lat": 51.5260109197085, "lng": -0.166067430291502}}}, "name": "Top Events Videographer Marylebone", "place_id": "ChIJr6cK8bkbdkgRSQp94V56jv0", "types": ["point_of_interest", "establishment"]}, "ChIJgwYKGbgadkgR7ubNmhaYxUw": {"geometry": {"location": {"lat": 51.52583538162441, "lng": -0.165703276489874}, "viewport": {"northeast": {"lat": 51.52723878029149, "lng": -0.164421819708498}, "southwest": {"lat": 51.5245408197085, "lng": -0.167119780291502}}}, "name": "2-24 Paveley St", "place_id": "ChIJgwYKGbgadkgR7ubNmhaYxUw", "types": ["route"]}, "ChIJeai7GbgadkgRPlJacaZvTmo": {"geometry": {"location": {"lat": 51.52594930000001, "lng": -0.1657936}, "viewport": {"northeast": {"lat": 51.5272559302915, "lng": -0.164375019708498}, "southwest": {"lat": 51.52455796970851, "lng": -0.167072980291502}}}, "name": "Enes Massage Mobile Therapist London", "place_id": "ChIJeai7GbgadkgRPlJacaZvTmo", "types": ["point_of_interest", "establishment"], "rating": 5, "user_ratings_total": 3}, "ChIJeai7GbgadkgR0b3PqwEEMtQ": {"geometry": {"location": {"lat": 51.525949, "lng": -0.165794}, "viewport": {"northeast": {"lat": 51.5272556302915, "lng": -0.164375469708498}, "southwest": {"lat": 51.5245576697085, "lng": -0.167073430291502}}}, "name": "ABC Massage - Mobile Massage Therapist London", "place_id": "ChIJeai7GbgadkgR0b3PqwEEMtQ", "types": ["point_of_interest", "establishment"], "rating": 5, "user_ratings_total": 4}, "ChIJ48O3ircadkgRFk22VHxbcHc": {"geometry": {"location": {"lat": 51.5253786, "lng": -0.1659692}, "viewport": {"northeast": {"lat": 51.5267051302915, "lng": -0.164664019708498}, "southwest": {"lat": 51.5240071697085, "lng": -0.167361980291502}}}, "name": "Zumba Classes London", "place_id": "ChIJ48O3ircadkgRFk22VHxbcHc", "types": ["point_of_interest", "establishment"], "rating": 5, "user_ratings_total": 1}, "ChIJIz3t-bcadkgR7C3uKPmH9gg": {"geometry": {"location": {"lat": 51.5251385, "lng": -0.1651822}, "viewport": {"northeast": {"lat": 51.5264855222381, "lng": -0.1638643629128073}, "southwest": {"lat": 51.5237875616551, "lng": -0.1665623234958113}}}, "name": "Parking lot", "place_id": "ChIJIz3t-bcadkgR7C3uKPmH9gg", "types": ["parking", "premise", "point_of_interest", "establishment"]}, "ChIJCajrlrcadkgRvilKdJs1rAk": {"geometry": {"location": {"lat": 51.5245797, "lng": -0.1658757}, "viewport": {"northeast": {"lat": 51.52599378029151, "lng": -0.164590169708498}, "southwest": {"lat": 51.52329581970851, "lng": -0.167288130291502}}}, "name": "RawSilk Wedding Photographers London", "place_id": "ChIJCajrlrcadkgRvilKdJs1rAk", "types": ["point_of_interest", "establishment"], "rating": 5, "user_ratings_total": 5}, "ChIJc3XSv7cadkgRmJv0FyaMzbQ": {"geometry": {"location": {"lat": 51.5242297, "lng": -0.1658827}, "viewport": {"northeast": {"lat": 51.5256273802915, "lng": -0.164600169708498}, "southwest": {"lat": 51.5229294197085, "lng": -0.167298130291502}}}, "name": "Hopkins Architects", "place_id": "ChIJc3XSv7cadkgRmJv0FyaMzbQ", "types": ["point_of_interest", "establishment"], "rating": 4.7, "user_ratings_total": 16}, "ChIJNfP66LcadkgRufjJF0JX9Ug": {"geometry": {"location": {"lat": 51.5243286, "lng": -0.165479}, "viewport": {"northeast": {"lat": 51.5256914302915, "lng": -0.164053269708498}, "southwest": {"lat": 51.5229934697085, "lng": -0.166751230291502}}}, "name": "SIEFF", "place_id": "ChIJNfP66LcadkgRufjJF0JX9Ug", "types": ["jewelry_store", "point_of_interest", "store", "establishment"]}, "ChIJ63PA_LcadkgR3TNIV0KkW8E": {"geometry": {"location": {"lat": 51.52482480000001, "lng": -0.1648336}, "viewport": {"northeast": {"lat": 51.52615908029151, "lng": -0.163565819708498}, "southwest": {"lat": 51.52346111970851, "lng": -0.166263780291502}}}, "name": "Four Feathers", "place_id": "ChIJ63PA_LcadkgR3TNIV0KkW8E", "types": ["point_of_interest", "establishment"]}, "ChIJHWsmTmIQdkgREouHdxrQ1NA": {"geometry": {"location": {"lat": 51.524853, "lng": -0.1647678}, "viewport": {"northeast": {"lat": 51.5261411802915, "lng": -0.163390669708498}, "southwest": {"lat": 51.52344321970851, "lng": -0.166088630291502}}}, "name": "Chantraine School of Dance (NW London)", "place_id": "ChIJHWsmTmIQdkgREouHdxrQ1NA", "types": ["point_of_interest", "establishment"], "rating": 5, "user_ratings_total": 3}, "ChIJB757_LcadkgR-nof2J4mqF4": {"geometry": {"location": {"lat": 51.524853, "lng": -0.1647678}, "viewport": {"northeast": {"lat": 51.5261411802915, "lng": -0.163390669708498}, "southwest": {"lat": 51.52344321970851, "lng": -0.166088630291502}}}, "name": "The Fourth Feathers Youth & Community Centre", "place_id": "ChIJB757_LcadkgR-nof2J4mqF4", "types": ["point_of_interest", "establishment"], "rating": 4.5, "user_ratings_total": 10}, "ChIJQ-sx77cadkgRh8zN2StdZBU": {"geometry": {"location": {"lat": 51.524444, "lng": -0.1654256}, "viewport": {"northeast": {"lat": 51.5257940802915, "lng": -0.164070569708498}, "southwest": {"lat": 51.5230961197085, "lng": -0.166768530291502}}}, "name": "Meal on Wheels", "place_id": "ChIJQ-sx77cadkgRh8zN2StdZBU", "types": ["restaurant", "food", "point_of_interest", "establishment"]}, "ChIJ-4wp7LcadkgR-0t4TyT2HKw": {"geometry": {"location": {"lat": 51.52456100000001, "lng": -0.165668}, "viewport": {"northeast": {"lat": 51.5259046802915, "lng": -0.164311869708498}, "southwest": {"lat": 51.5232067197085, "lng": -0.167009830291502}}}, "name": "Santander Cycles", "place_id": "ChIJ-4wp7LcadkgR-0t4TyT2HKw", "types": ["point_of_interest", "establishment"]}, "ChIJxcCIW7wbdkgRc_8J_o5reJQ": {"geometry": {"location": {"lat": 51.5248658, "lng": -0.1651993}, "viewport": {"northeast": {"lat": 51.5262519302915, "lng": -0.163873569708498}, "southwest": {"lat": 51.5235539697085, "lng": -0.166571530291502}}}, "name": "London Nordic Choir", "place_id": "ChIJxcCIW7wbdkgRc_8J_o5reJQ", "types": ["point_of_interest", "establishment"]}, "ChIJMfWf6LcadkgRhh74SGL8f3U": {"geometry": {"location": {"lat": 51.5243477, "lng": -0.1654172}, "viewport": {"northeast": {"lat": 51.5257015302915, "lng": -0.164022619708498}, "southwest": {"lat": 51.52300356970851, "lng": -0.166720580291502}}}, "name": "ubitricity Charging Station", "place_id": "ChIJMfWf6LcadkgRhh74SGL8f3U", "types": ["point_of_interest", "establishment"]}, "ChIJ5TC17rcadkgR8JUB1RxT1_8": {"geometry": {"location": {"lat": 51.52438809999999, "lng": -0.165561}, "viewport": {"northeast": {"lat": 51.52575543029149, "lng": -0.1641102197084979}, "southwest": {"lat": 51.52305746970849, "lng": -0.166808180291502}}}, "name": "Black Valentine Design", "place_id": "ChIJ5TC17rcadkgR8JUB1RxT1_8", "types": ["point_of_interest", "establishment"]}, "ChIJ6XPA_LcadkgRFh-Z9WAp704": {"geometry": {"location": {"lat": 51.5248247, "lng": -0.1648336}, "viewport": {"northeast": {"lat": 51.52615898029151, "lng": -0.163565819708498}, "southwest": {"lat": 51.52346101970851, "lng": -0.166263780291502}}}, "name": "Service Association", "place_id": "ChIJ6XPA_LcadkgRFh-Z9WAp704", "types": ["point_of_interest", "establishment"]}, "ChIJB757_LcadkgRTwwoiOvmqGQ": {"geometry": {"location": {"lat": 51.52485159999999, "lng": -0.1647698}, "viewport": {"northeast": {"lat": 51.52614028029149, "lng": -0.163392869708498}, "southwest": {"lat": 51.52344231970849, "lng": -0.166090830291502}}}, "name": "The Feathers Association", "place_id": "ChIJB757_LcadkgRTwwoiOvmqGQ", "types": ["point_of_interest", "establishment"], "rating": 4, "user_ratings_total": 1}, "ChIJz0Hw38kadkgRZmSS5nYGXhE": {"geometry": {"location": {"lat": 51.524855, "lng": -0.1647584}, "viewport": {"northeast": {"lat": 51.5261430802915, "lng": -0.163381169708498}, "southwest": {"lat": 51.5234451197085, "lng": -0.166079130291502}}}, "name": "Ballet Black", "place_id": "ChIJz0Hw38kadkgRZmSS5nYGXhE", "types": ["point_of_interest", "establishment"], "rating": 5, "user_ratings_total": 3}, "ChIJR25A7bcadkgRo4yc7Qn3I6s": {"geometry": {"location": {"lat": 51.524668, "lng": -0.165946}, "viewport": {"northeast": {"lat": 51.5260389302915, "lng": -0.164623219708498}, "southwest": {"lat": 51.5233409697085, "lng": -0.167321180291502}}}, "name": "ubitricity Charging Station", "place_id": "ChIJR25A7bcadkgRo4yc7Qn3I6s", "types": ["point_of_interest", "establishment"]}, "ChIJ4zja-7cadkgR0KUoXpIg6HQ": {"geometry": {"location": {"lat": 51.525052, "lng": -0.165059}, "viewport": {"northeast": {"lat": 51.5263706802915, "lng": -0.163694169708498}, "southwest": {"lat": 51.5236727197085, "lng": -0.166392130291502}}}, "name": "ubitricity Charging Station", "place_id": "ChIJ4zja-7cadkgR0KUoXpIg6HQ", "types": ["point_of_interest", "establishment"]}, "ChIJOW7R_LcadkgRQWInX6-cDic": {"geometry": {"location": {"lat": 51.5246254, "lng": -0.1649722}, "viewport": {"northeast": {"lat": 51.52603641141025, "lng": -0.1635022584401467}, "southwest": {"lat": 51.52333845082725, "lng": -0.1662002190231507}}}, "name": "Parking lot", "place_id": "ChIJOW7R_LcadkgRQWInX6-cDic", "types": ["parking", "premise", "point_of_interest", "establishment"]}, "ChIJkcIJircadkgRWDHUnINv8hQ": {"geometry": {"location": {"lat": 51.52540080000001, "lng": -0.1663396}, "viewport": {"northeast": {"lat": 51.5267778802915, "lng": -0.164929119708498}, "southwest": {"lat": 51.52407991970851, "lng": -0.167627080291502}}}, "name": "Hagakure Dojo", "place_id": "ChIJkcIJircadkgRWDHUnINv8hQ", "types": ["health", "point_of_interest", "establishment"], "rating": 5, "user_ratings_total": 3}, "ChIJ48O3ircadkgRElRXLx0J67o": {"geometry": {"location": {"lat": 51.5253777, "lng": -0.1663193}, "viewport": {"northeast": {"lat": 51.5267578802915, "lng": -0.164909419708498}, "southwest": {"lat": 51.5240599197085, "lng": -0.167607380291502}}}, "name": "CityWest Homes | Central area service centre", "place_id": "ChIJ48O3ircadkgRElRXLx0J67o", "types": ["local_government_office", "point_of_interest", "establishment"], "rating": 2.3, "user_ratings_total": 6}, "ChIJD6G3IbgadkgRplVyxeJWCI8": {"geometry": {"location": {"lat": 51.5256036, "lng": -0.1661384}, "viewport": {"northeast": {"lat": 51.5267514302915, "lng": -0.164617819708498}, "southwest": {"lat": 51.5240534697085, "lng": -0.167315780291502}}}, "name": "Hardwick House", "place_id": "ChIJD6G3IbgadkgRplVyxeJWCI8", "types": ["point_of_interest", "establishment"], "rating": 5, "user_ratings_total": 4}, "ChIJCajrlrcadkgRe_vRiMKZxFs": {"geometry": {"location": {"lat": 51.52435639999999, "lng": -0.1663734}, "viewport": {"northeast": {"lat": 51.5257053802915, "lng": -0.165024419708498}, "southwest": {"lat": 51.5230074197085, "lng": -0.167722380291502}}}, "name": "St Paul's Church, Marylebone", "place_id": "ChIJCajrlrcadkgRe_vRiMKZxFs", "types": ["church", "place_of_worship", "point_of_interest", "establishment"], "rating": 4.1, "user_ratings_total": 14}, "ChIJZeE7krcadkgRmMbRgDEM3ss": {"geometry": {"location": {"lat": 51.524647, "lng": -0.166318}, "viewport": {"northeast": {"lat": 51.52597203029151, "lng": -0.164942469708498}, "southwest": {"lat": 51.52327406970851, "lng": -0.167640430291502}}}, "name": "Rossmore Road Lisson Grove (Stop LK)", "place_id": "ChIJZeE7krcadkgRmMbRgDEM3ss", "types": ["bus_station", "transit_station", "point_of_interest", "establishment"], "rating": 4, "user_ratings_total": 1}, "ChIJhcaBsiUbdkgRT22bi3jaiDI": {"geometry": {"location": {"lat": 51.5248943, "lng": -0.1664214}, "viewport": {"northeast": {"lat": 51.5262733802915, "lng": -0.165084119708498}, "southwest": {"lat": 51.52357541970851, "lng": -0.167782080291502}}}, "name": "Dales Deal", "place_id": "ChIJhcaBsiUbdkgRT22bi3jaiDI", "types": ["car_dealer", "point_of_interest", "store", "establishment"]}, "ChIJn_ZVh_EPdkgRVKXbeIAsTs0": {"geometry": {"location": {"lat": 51.52442929999999, "lng": -0.1662529}, "viewport": {"northeast": {"lat": 51.5257121302915, "lng": -0.164813669708498}, "southwest": {"lat": 51.5230141697085, "lng": -0.167511630291502}}}, "name": "Abingdon House School & College", "place_id": "ChIJn_ZVh_EPdkgRVKXbeIAsTs0", "types": ["school", "point_of_interest", "establishment"], "rating": 4.3, "user_ratings_total": 21}, "ChIJgw13LMYadkgRIyUZzXKaUzg": {"geometry": {"location": {"lat": 51.52579933777542, "lng": -0.1613775126111811}, "viewport": {"northeast": {"lat": 51.5271427802915, "lng": -0.160036119708498}, "southwest": {"lat": 51.5244448197085, "lng": -0.162734080291502}}}, "name": "74-56 A41", "place_id": "ChIJgw13LMYadkgRIyUZzXKaUzg", "types": ["route"]}, "ChIJ7fS3McYadkgRMTmRek5Wpb4": {"geometry": {"location": {"lat": 51.5261551, "lng": -0.1611167}, "viewport": {"northeast": {"lat": 51.52750998029151, "lng": -0.159809469708498}, "southwest": {"lat": 51.52481201970851, "lng": -0.162507430291502}}}, "name": "Educational Consultant & Tutor", "place_id": "ChIJ7fS3McYadkgRMTmRek5Wpb4", "types": ["point_of_interest", "establishment"]}, "ChIJe3XEMMYadkgRGJK9PJ6dOGk": {"geometry": {"location": {"lat": 51.52633549999999, "lng": -0.1610101}, "viewport": {"northeast": {"lat": 51.5276377302915, "lng": -0.159756169708498}, "southwest": {"lat": 51.5249397697085, "lng": -0.162454130291502}}}, "name": "London Business School Photography Club", "place_id": "ChIJe3XEMMYadkgRGJK9PJ6dOGk", "types": ["point_of_interest", "establishment"]}, "ChIJdWwTqOYbdkgRehh7W1lX3ys": {"geometry": {"location": {"lat": 51.52635590000001, "lng": -0.1610269}, "viewport": {"northeast": {"lat": 51.5276567302915, "lng": -0.159775769708498}, "southwest": {"lat": 51.5249587697085, "lng": -0.162473730291502}}}, "name": "Whisk Away", "place_id": "ChIJdWwTqOYbdkgRehh7W1lX3ys", "types": ["travel_agency", "point_of_interest", "establishment"], "rating": 4.2, "user_ratings_total": 5}, "ChIJAwDQMMYadkgRLBS5bvnImhg": {"geometry": {"location": {"lat": 51.526356, "lng": -0.1610269}, "viewport": {"northeast": {"lat": 51.5276568302915, "lng": -0.159775819708498}, "southwest": {"lat": 51.5249588697085, "lng": -0.162473780291502}}}, "name": "ELVO", "place_id": "ChIJAwDQMMYadkgRLBS5bvnImhg", "types": ["point_of_interest", "establishment"]}, "ChIJm1LXg8gadkgRsHw2r7I0WgU": {"geometry": {"location": {"lat": 51.52512630000228, "lng": -0.1611610499762572}, "viewport": {"northeast": {"lat": 51.5264752802915, "lng": -0.159812069708498}, "southwest": {"lat": 51.5237773197085, "lng": -0.162510030291502}}}, "name": "203-207 A41", "place_id": "ChIJm1LXg8gadkgRsHw2r7I0WgU", "types": ["route"]}, "ChIJ23WIhf8bdkgRWTDqyueFo9M": {"geometry": {"location": {"lat": 51.52522150000001, "lng": -0.1610587}, "viewport": {"northeast": {"lat": 51.5265575802915, "lng": -0.159778019708498}, "southwest": {"lat": 51.5238596197085, "lng": -0.162475980291502}}}, "name": "Casa George", "place_id": "ChIJ23WIhf8bdkgRWTDqyueFo9M", "types": ["point_of_interest", "establishment"]}, "ChIJR_qVhMgadkgRTq0NxNoUWi8": {"geometry": {"location": {"lat": 51.52502379999999, "lng": -0.1609774}, "viewport": {"northeast": {"lat": 51.52636223029149, "lng": -0.159692219708498}, "southwest": {"lat": 51.52366426970849, "lng": -0.162390180291502}}}, "name": "NW1 Wedding Photography", "place_id": "ChIJR_qVhMgadkgRTq0NxNoUWi8", "types": ["point_of_interest", "establishment"]}, "ChIJR3dTgsgadkgRBS2HEbbRdVs": {"geometry": {"location": {"lat": 51.525256, "lng": -0.1610927}, "viewport": {"northeast": {"lat": 51.5265935802915, "lng": -0.159804169708498}, "southwest": {"lat": 51.5238956197085, "lng": -0.162502130291502}}}, "name": "Zipcar", "place_id": "ChIJR3dTgsgadkgRBS2HEbbRdVs", "types": ["car_rental", "point_of_interest", "establishment"], "rating": 5, "user_ratings_total": 1}, "ChIJoyY4g8gadkgR6T2J4MX0OlU": {"geometry": {"location": {"lat": 51.5250706, "lng": -0.1613036}, "viewport": {"northeast": {"lat": 51.5264344802915, "lng": -0.159876919708498}, "southwest": {"lat": 51.5237365197085, "lng": -0.162574880291502}}}, "name": "Rudolph Steiner Theatre", "place_id": "ChIJoyY4g8gadkgR6T2J4MX0OlU", "types": ["point_of_interest", "establishment"], "rating": 4.4, "user_ratings_total": 5}, "ChIJz7PKhsgadkgR7ran2RwkevQ": {"geometry": {"location": {"lat": 51.525081, "lng": -0.161345}, "viewport": {"northeast": {"lat": 51.5264480802915, "lng": -0.159901769708498}, "southwest": {"lat": 51.5237501197085, "lng": -0.162599730291502}}}, "name": "Guitar Lessons Marylebone Central London", "place_id": "ChIJz7PKhsgadkgR7ran2RwkevQ", "types": ["point_of_interest", "establishment"], "rating": 5, "user_ratings_total": 3}, "ChIJycLhko8bdkgRr2ACGP7ryV0": {"geometry": {"location": {"lat": 51.52513980000001, "lng": -0.1614418000000001}, "viewport": {"northeast": {"lat": 51.5265124802915, "lng": -0.159967469708498}, "southwest": {"lat": 51.52381451970851, "lng": -0.162665430291502}}}, "name": "Debora", "place_id": "ChIJycLhko8bdkgRr2ACGP7ryV0", "types": ["lodging", "point_of_interest", "establishment"]}, "ChIJFTnrMnUPdkgRHuKoR5KWCBo": {"geometry": {"location": {"lat": 51.5243198, "lng": -0.1610328}, "viewport": {"northeast": {"lat": 51.5256872302915, "lng": -0.159584669708498}, "southwest": {"lat": 51.5229892697085, "lng": -0.1622826302915021}}}, "name": "French Dentist London - Dr Delaunay at Ivory Dental Studio - Marylebone", "place_id": "ChIJFTnrMnUPdkgRHuKoR5KWCBo", "types": ["dentist", "health", "point_of_interest", "establishment"], "rating": 5, "user_ratings_total": 3}, "ChIJ4whHjMgadkgRjfOKJ62lMjw": {"geometry": {"location": {"lat": 51.5243182, "lng": -0.1610846}, "viewport": {"northeast": {"lat": 51.5256893802915, "lng": -0.159612469708498}, "southwest": {"lat": 51.5229914197085, "lng": -0.162310430291502}}}, "name": "Dr Pauline Abitbol", "place_id": "ChIJ4whHjMgadkgRjfOKJ62lMjw", "types": ["dentist", "health", "point_of_interest", "establishment"]}, "ChIJT4g5jcgadkgRydHJUniOTdg": {"geometry": {"location": {"lat": 51.5241452, "lng": -0.1609906}, "viewport": {"northeast": {"lat": 51.5255151802915, "lng": -0.159524669708498}, "southwest": {"lat": 51.5228172197085, "lng": -0.162222630291502}}}, "name": "Fermata Easybus", "place_id": "ChIJT4g5jcgadkgRydHJUniOTdg", "types": ["cafe", "food", "point_of_interest", "establishment"]}, "ChIJh3pewccadkgRfAB3-qjpXc8": {"geometry": {"location": {"lat": 51.52640891868296, "lng": -0.1627617176400659}, "viewport": {"northeast": {"lat": 51.52777083029149, "lng": -0.161397919708498}, "southwest": {"lat": 51.5250728697085, "lng": -0.164095880291502}}}, "name": "100 A41", "place_id": "ChIJh3pewccadkgRfAB3-qjpXc8", "types": ["route"]}, "ChIJTfzX084adkgRvUbr2xcY3zY": {"geometry": {"location": {"lat": 51.52599759999999, "lng": -0.1626124}, "viewport": {"northeast": {"lat": 51.52748043029149, "lng": -0.161050219708498}, "southwest": {"lat": 51.52478246970849, "lng": -0.163748180291502}}}, "name": "Aston Chase", "place_id": "ChIJTfzX084adkgRvUbr2xcY3zY", "types": ["finance", "real_estate_agency", "point_of_interest", "establishment"], "rating": 5, "user_ratings_total": 138}, "ChIJUS53xccadkgR5C-Sh5wA5sw": {"geometry": {"location": {"lat": 51.5261779, "lng": -0.1623375}, "viewport": {"northeast": {"lat": 51.5275555802915, "lng": -0.160958669708498}, "southwest": {"lat": 51.5248576197085, "lng": -0.163656630291502}}}, "name": "ESB ecars Charging Station", "place_id": "ChIJUS53xccadkgR5C-Sh5wA5sw", "types": ["point_of_interest", "establishment"]}, "ChIJP6c-28cadkgR1LwQmeHkWIQ": {"geometry": {"location": {"lat": 51.52600100000001, "lng": -0.162612}, "viewport": {"northeast": {"lat": 51.5272847302915, "lng": -0.160775919708498}, "southwest": {"lat": 51.5245867697085, "lng": -0.163473880291502}}}, "name": "Chargemaster Charging Station", "place_id": "ChIJP6c-28cadkgR1LwQmeHkWIQ", "types": ["point_of_interest", "establishment"]}, "ChIJUch-dcgadkgRXpoRcGe7dC0": {"geometry": {"location": {"lat": 51.52538695009672, "lng": -0.1628963500846454}, "viewport": {"northeast": {"lat": 51.5267359302915, "lng": -0.161547369708498}, "southwest": {"lat": 51.5240379697085, "lng": -0.164245330291502}}}, "name": "Rossmore Road", "place_id": "ChIJUch-dcgadkgRXpoRcGe7dC0", "types": ["route"]}, "ChIJ4Rf8dsgadkgRxYesDCf25sA": {"geometry": {"location": {"lat": 51.52522920000001, "lng": -0.162504}, "viewport": {"northeast": {"lat": 51.5264838802915, "lng": -0.161293969708498}, "southwest": {"lat": 51.5237859197085, "lng": -0.163991930291502}}}, "name": "London Business School Fitness Centre", "place_id": "ChIJ4Rf8dsgadkgRxYesDCf25sA", "types": ["gym", "health", "point_of_interest", "establishment"], "rating": 4.3, "user_ratings_total": 30}, "ChIJWyCh6rYcdkgRbr_nfAKGWvg": {"geometry": {"location": {"lat": 51.5255288, "lng": -0.1626488}, "viewport": {"northeast": {"lat": 51.5268324302915, "lng": -0.161278369708498}, "southwest": {"lat": 51.5241344697085, "lng": -0.163976330291502}}}, "name": "4 Balance & Health", "place_id": "ChIJWyCh6rYcdkgRbr_nfAKGWvg", "types": ["health", "point_of_interest", "establishment"], "rating": 4.9, "user_ratings_total": 78}, "ChIJp5um2McadkgRPPqHivt-Ups": {"geometry": {"location": {"lat": 51.5255288, "lng": -0.1626488}, "viewport": {"northeast": {"lat": 51.52687778029151, "lng": -0.161299819708498}, "southwest": {"lat": 51.52417981970851, "lng": -0.1639977802915021}}}, "name": "Manuel Galizia", "place_id": "ChIJp5um2McadkgRPPqHivt-Ups", "types": ["gym", "health", "point_of_interest", "establishment"], "rating": 5, "user_ratings_total": 2}, "ChIJB8j_am8bdkgRb9mHPWUGsIs": {"geometry": {"location": {"lat": 51.5255288, "lng": -0.1626488}, "viewport": {"northeast": {"lat": 51.5268324302915, "lng": -0.161278369708498}, "southwest": {"lat": 51.5241344697085, "lng": -0.163976330291502}}}, "name": "Tom Winterbottom Personal Training", "place_id": "ChIJB8j_am8bdkgRb9mHPWUGsIs", "types": ["gym", "health", "point_of_interest", "establishment"], "rating": 5, "user_ratings_total": 31}, "ChIJ8f08bsgadkgRw7lXnAn0ZOM": {"geometry": {"location": {"lat": 51.52467805770397, "lng": -0.1626086597393178}, "viewport": {"northeast": {"lat": 51.52602718029149, "lng": -0.161258919708498}, "southwest": {"lat": 51.52332921970849, "lng": -0.163956880291502}}}, "name": "62-92 Balcombe St", "place_id": "ChIJ8f08bsgadkgRw7lXnAn0ZOM", "types": ["route"]}, "ChIJZSa2acgadkgRWmcsQ6BsvjI": {"geometry": {"location": {"lat": 51.5241872, "lng": -0.1625895}, "viewport": {"northeast": {"lat": 51.5255556302915, "lng": -0.161139369708498}, "southwest": {"lat": 51.5228576697085, "lng": -0.163837330291502}}}, "name": "Balcombe Street Developments", "place_id": "ChIJZSa2acgadkgRWmcsQ6BsvjI", "types": ["home_goods_store", "general_contractor", "point_of_interest", "store", "establishment"], "rating": 3, "user_ratings_total": 2}, "ChIJkSEXbMgadkgRaS_Ep-9Ynqc": {"geometry": {"location": {"lat": 51.52433079999999, "lng": -0.1626593}, "viewport": {"northeast": {"lat": 51.5256988302915, "lng": -0.161209269708498}, "southwest": {"lat": 51.5230008697085, "lng": -0.163907230291502}}}, "name": "therapycounselling.com", "place_id": "ChIJkSEXbMgadkgRaS_Ep-9Ynqc", "types": ["health", "point_of_interest", "establishment"], "rating": 1, "user_ratings_total": 1}, "ChIJHeIJXMgadkgRjDnBHJOKNmE": {"geometry": {"location": {"lat": 51.52416849999999, "lng": -0.1625584}, "viewport": {"northeast": {"lat": 51.52553433029149, "lng": -0.161120369708498}, "southwest": {"lat": 51.5228363697085, "lng": -0.163818330291502}}}, "name": "THE LONDON FLATS NET", "place_id": "ChIJHeIJXMgadkgRjDnBHJOKNmE", "types": ["real_estate_agency", "travel_agency", "point_of_interest", "establishment"]}, "ChIJK1DZ1tgPdkgRgZKrtZ_uqPc": {"geometry": {"location": {"lat": 51.5241727, "lng": -0.1625362}, "viewport": {"northeast": {"lat": 51.5254853802915, "lng": -0.161169919708498}, "southwest": {"lat": 51.5227874197085, "lng": -0.163867880291502}}}, "name": "16b", "place_id": "ChIJK1DZ1tgPdkgRgZKrtZ_uqPc", "types": ["point_of_interest", "establishment"]}, "ChIJgRXfUcgadkgRGkx5BQ4w2Ro": {"geometry": {"location": {"lat": 51.5241872, "lng": -0.1625895}, "viewport": {"northeast": {"lat": 51.5255556302915, "lng": -0.161139369708498}, "southwest": {"lat": 51.5228576697085, "lng": -0.163837330291502}}}, "name": "Marylebone Car Centre - Used Cars London - Car Servicing & Mot's", "place_id": "ChIJgRXfUcgadkgRGkx5BQ4w2Ro", "types": ["car_dealer", "point_of_interest", "store", "establishment"], "rating": 3.8, "user_ratings_total": 19}, "ChIJb35ZZMUadkgREhy-1BxYhUA": {"geometry": {"location": {"lat": 51.52423100000001, "lng": -0.162552}, "viewport": {"northeast": {"lat": 51.5255942302915, "lng": -0.161128919708498}, "southwest": {"lat": 51.52289626970851, "lng": -0.163826880291502}}}, "name": "Central London Counselling and Psychotherapy", "place_id": "ChIJb35ZZMUadkgREhy-1BxYhUA", "types": ["health", "point_of_interest", "establishment"]}, "ChIJUUp3lzMbdkgRflMNQHm8OPE": {"geometry": {"location": {"lat": 51.5241872, "lng": -0.1625895}, "viewport": {"northeast": {"lat": 51.5255549302915, "lng": -0.161141369708498}, "southwest": {"lat": 51.5228569697085, "lng": -0.163839330291502}}}, "name": "Queens lashes", "place_id": "ChIJUUp3lzMbdkgRflMNQHm8OPE", "types": ["beauty_salon", "point_of_interest", "establishment"]}, "ChIJkSEXbMgadkgRcKigmLH5S2o": {"geometry": {"location": {"lat": 51.5241872, "lng": -0.1625895}, "viewport": {"northeast": {"lat": 51.5255556302915, "lng": -0.161139369708498}, "southwest": {"lat": 51.5228576697085, "lng": -0.163837330291502}}}, "name": "Quince Studios", "place_id": "ChIJkSEXbMgadkgRcKigmLH5S2o", "types": ["electronics_store", "home_goods_store", "point_of_interest", "store", "establishment"], "rating": 5, "user_ratings_total": 8}, "ChIJkSEXbMgadkgRptav6aG59kA": {"geometry": {"location": {"lat": 51.52418729999999, "lng": -0.1625894}, "viewport": {"northeast": {"lat": 51.52555573029149, "lng": -0.161139319708498}, "southwest": {"lat": 51.52285776970849, "lng": -0.163837280291502}}}, "name": "Tustins Ltd", "place_id": "ChIJkSEXbMgadkgRptav6aG59kA", "types": ["general_contractor", "point_of_interest", "establishment"]}, "ChIJp3rTE7gadkgR07sxZGPwLvo": {"geometry": {"location": {"lat": 51.52643605226108, "lng": -0.1654232993219313}, "viewport": {"northeast": {"lat": 51.52777158029149, "lng": -0.164119219708498}, "southwest": {"lat": 51.52507361970849, "lng": -0.166817180291502}}}, "name": "Paveley Street", "place_id": "ChIJp3rTE7gadkgR07sxZGPwLvo", "types": ["route"]}, "ChIJvwn1-7cadkgR-3BrF0I8jLU": {"geometry": {"location": {"lat": 51.5263517, "lng": -0.1640625}, "viewport": {"northeast": {"lat": 51.52774133029149, "lng": -0.162647069708498}, "southwest": {"lat": 51.5250433697085, "lng": -0.165345030291502}}}, "name": "energie personal trainer", "place_id": "ChIJvwn1-7cadkgR-3BrF0I8jLU", "types": ["health", "point_of_interest", "establishment"]}, "ChIJtSiHLs8adkgR935U3bjA-wE": {"geometry": {"location": {"lat": 51.5263218, "lng": -0.1646501}, "viewport": {"northeast": {"lat": 51.5276202302915, "lng": -0.163591869708498}, "southwest": {"lat": 51.5249222697085, "lng": -0.166289830291502}}}, "name": "London Miss Linda", "place_id": "ChIJtSiHLs8adkgR935U3bjA-wE", "types": ["point_of_interest", "establishment"]}, "ChIJAVIi98cadkgRr6g9EPdQNew": {"geometry": {"location": {"lat": 51.52619989999999, "lng": -0.1642814}, "viewport": {"northeast": {"lat": 51.5276608302915, "lng": -0.162749269708498}, "southwest": {"lat": 51.5249628697085, "lng": -0.165447230291502}}}, "name": "EG GROUP", "place_id": "ChIJAVIi98cadkgRr6g9EPdQNew", "types": ["point_of_interest", "establishment"]}, "ChIJHYjABsgadkgRnDVCx61tpPs": {"geometry": {"location": {"lat": 51.52512429016951, "lng": -0.1643264192207019}, "viewport": {"northeast": {"lat": 51.52647323029149, "lng": -0.162977419708498}, "southwest": {"lat": 51.52377526970849, "lng": -0.165675380291502}}}, "name": "Rossmore Road", "place_id": "ChIJHYjABsgadkgRnDVCx61tpPs", "types": ["route"]}, "ChIJcR8SAcgadkgRPeXHlreShJ8": {"geometry": {"location": {"lat": 51.52518, "lng": -0.164326}, "viewport": {"northeast": {"lat": 51.5265079802915, "lng": -0.162967069708498}, "southwest": {"lat": 51.5238100197085, "lng": -0.165665030291502}}}, "name": "ubitricity Charging Station", "place_id": "ChIJcR8SAcgadkgRPeXHlreShJ8", "types": ["point_of_interest", "establishment"]}, "ChIJS-Pf_bcadkgRLdqPpxAzatE": {"geometry": {"location": {"lat": 51.5251238, "lng": -0.1646807}, "viewport": {"northeast": {"lat": 51.5264406802915, "lng": -0.1633356197084979}, "southwest": {"lat": 51.5237427197085, "lng": -0.166033580291502}}}, "name": "ESB Charging Station", "place_id": "ChIJS-Pf_bcadkgRLdqPpxAzatE", "types": ["point_of_interest", "establishment"]}, "ChIJlap9_rcadkgRLvrE6tpQ2cY": {"geometry": {"location": {"lat": 51.525108, "lng": -0.164734}, "viewport": {"northeast": {"lat": 51.52643003029151, "lng": -0.163371819708498}, "southwest": {"lat": 51.52373206970851, "lng": -0.166069780291502}}}, "name": "ubitricity Charging Station", "place_id": "ChIJlap9_rcadkgRLvrE6tpQ2cY", "types": ["point_of_interest", "establishment"], "rating": 5, "user_ratings_total": 1}, "ChIJs9JLPrgadkgR4ofB7FLMzSM": {"geometry": {"location": {"lat": 51.526536, "lng": -0.1661449}, "viewport": {"northeast": {"lat": 51.5278914302915, "lng": -0.164804619708498}, "southwest": {"lat": 51.5251934697085, "lng": -0.167502580291502}}}, "name": "ubitricity Charging Station", "place_id": "ChIJs9JLPrgadkgR4ofB7FLMzSM", "types": ["point_of_interest", "establishment"]}, "ChIJsejMEbgadkgRCcQgwvQmNzA": {"geometry": {"location": {"lat": 51.5262329, "lng": -0.1653642}, "viewport": {"northeast": {"lat": 51.52770033029149, "lng": -0.1641212197084979}, "southwest": {"lat": 51.5250023697085, "lng": -0.166819180291502}}}, "name": "Linslade House", "place_id": "ChIJsejMEbgadkgRCcQgwvQmNzA", "types": ["point_of_interest", "establishment"], "rating": 3, "user_ratings_total": 1}, "ChIJc6nJi7cadkgRHShNPcFCUYQ": {"geometry": {"location": {"lat": 51.5252682, "lng": -0.1661724}, "viewport": {"northeast": {"lat": 51.5264988802915, "lng": -0.165051769708498}, "southwest": {"lat": 51.5238009197085, "lng": -0.167749730291502}}}, "name": "Greenside Community Centre", "place_id": "ChIJc6nJi7cadkgRHShNPcFCUYQ", "types": ["point_of_interest", "establishment"], "rating": 4, "user_ratings_total": 88}, "ChIJffuU87cadkgRnHggUhqdl_Q": {"geometry": {"location": {"lat": 51.5251105, "lng": -0.1659947}, "viewport": {"northeast": {"lat": 51.5264694802915, "lng": -0.164659619708498}, "southwest": {"lat": 51.5237715197085, "lng": -0.1673575802915021}}}, "name": "Risborough House", "place_id": "ChIJffuU87cadkgRnHggUhqdl_Q", "types": ["point_of_interest", "establishment"]}, "ChIJI3cdi7cadkgRw-rzcNNmyjo": {"geometry": {"location": {"lat": 51.52523669999999, "lng": -0.1661613}, "viewport": {"northeast": {"lat": 51.52647213029149, "lng": -0.1650315197084979}, "southwest": {"lat": 51.5237741697085, "lng": -0.167729480291502}}}, "name": "Covid-19 Walk-through Testing Site - Westminster (Greenside Community Centre)", "place_id": "ChIJI3cdi7cadkgRw-rzcNNmyjo", "types": ["health", "point_of_interest", "establishment"]}, "ChIJ5UNzjLcadkgRR4W_V6Fg3wk": {"geometry": {"location": {"lat": 51.525051, "lng": -0.166304}, "viewport": {"northeast": {"lat": 51.52639688029149, "lng": -0.164950719708498}, "southwest": {"lat": 51.52369891970849, "lng": -0.167648680291502}}}, "name": "Santander Cycles", "place_id": "ChIJ5UNzjLcadkgRR4W_V6Fg3wk", "types": ["point_of_interest", "establishment"], "rating": 2, "user_ratings_total": 1}, "ChIJPZFUQ7cadkgR8RXquifPKQg": {"geometry": {"location": {"lat": 51.5244873, "lng": -0.1661439}, "viewport": {"northeast": {"lat": 51.52589173029151, "lng": -0.164856469708498}, "southwest": {"lat": 51.52319376970851, "lng": -0.167554430291502}}}, "name": "Home-Start Westminster", "place_id": "ChIJPZFUQ7cadkgR8RXquifPKQg", "types": ["point_of_interest", "establishment"], "rating": 3.7, "user_ratings_total": 3}, "ChIJP4hrk7cadkgRR3ymKCV8OfI": {"geometry": {"location": {"lat": 51.5244873, "lng": -0.1661439}, "viewport": {"northeast": {"lat": 51.5258912802915, "lng": -0.164857719708498}, "southwest": {"lat": 51.5231933197085, "lng": -0.167555680291502}}}, "name": "Being Alongside", "place_id": "ChIJP4hrk7cadkgRR3ymKCV8OfI", "types": ["point_of_interest", "establishment"]}, "ChIJARvXDbIbdkgRWLHJBrmiouE": {"geometry": {"location": {"lat": 51.5244958, "lng": -0.1661472}, "viewport": {"northeast": {"lat": 51.52589683029149, "lng": -0.164856069708498}, "southwest": {"lat": 51.5231988697085, "lng": -0.167554030291502}}}, "name": "Hartbeeps Marylebone", "place_id": "ChIJARvXDbIbdkgRWLHJBrmiouE", "types": ["point_of_interest", "establishment"]}, "ChIJM71sk7cadkgREnZ5NEscimo": {"geometry": {"location": {"lat": 51.5244958, "lng": -0.1661472}, "viewport": {"northeast": {"lat": 51.52589683029149, "lng": -0.164856069708498}, "southwest": {"lat": 51.5231988697085, "lng": -0.167554030291502}}}, "name": "Raquel Greenberg Tango Academy", "place_id": "ChIJM71sk7cadkgREnZ5NEscimo", "types": ["point_of_interest", "establishment"], "rating": 4.3, "user_ratings_total": 6}}}