{"E00175258": {"ChIJzSuIZeQEdkgRKw3pCy-ywos": {"geometry": {"location": {"lat": 51.48690667083626, "lng": -0.1340802147206429}, "viewport": {"northeast": {"lat": 51.48825603029149, "lng": -0.132729119708498}, "southwest": {"lat": 51.4855580697085, "lng": -0.135427080291502}}}, "name": "79-109 St.George's Square", "place_id": "ChIJzSuIZeQEdkgRKw3pCy-ywos", "types": ["route"]}, "ChIJLRi0ZuQEdkgRPBZpKSVn-K8": {"geometry": {"location": {"lat": 51.486374, "lng": -0.133771}, "viewport": {"northeast": {"lat": 51.4877216802915, "lng": -0.132428919708498}, "southwest": {"lat": 51.4850237197085, "lng": -0.135126880291502}}}, "name": "ubitricity Charging Station", "place_id": "ChIJLRi0ZuQEdkgRPBZpKSVn-K8", "types": ["point_of_interest", "establishment"]}, "ChIJ-y4pYeQEdkgRBdWl1dDonFo": {"geometry": {"location": {"lat": 51.486327, "lng": -0.133682}, "viewport": {"northeast": {"lat": 51.4876652802915, "lng": -0.132391419708498}, "southwest": {"lat": 51.4849673197085, "lng": -0.1350893802915021}}}, "name": "Turenne Consulting Ltd", "place_id": "ChIJ-y4pYeQEdkgRBdWl1dDonFo", "types": ["point_of_interest", "establishment"]}, "ChIJBXkjieQEdkgRqrbWrWtiAVE": {"geometry": {"location": {"lat": 51.48582070014694, "lng": -0.1340019001369841}, "viewport": {"northeast": {"lat": 51.48716968029149, "lng": -0.132652919708498}, "southwest": {"lat": 51.48447171970849, "lng": -0.135350880291502}}}, "name": "Grosvenor Road", "place_id": "ChIJBXkjieQEdkgRqrbWrWtiAVE", "types": ["route"]}, "ChIJc-_jjuQEdkgRhk1bnqFjkr4": {"geometry": {"location": {"lat": 51.4855934, "lng": -0.1340055}, "viewport": {"northeast": {"lat": 51.4869423802915, "lng": -0.132656519708498}, "southwest": {"lat": 51.4842444197085, "lng": -0.135354480291502}}}, "name": "Pimlico Gardens", "place_id": "ChIJc-_jjuQEdkgRhk1bnqFjkr4", "types": ["tourist_attraction", "park", "point_of_interest", "establishment"], "rating": 4.4, "user_ratings_total": 54}, "ChIJI3a0juQEdkgRKGLilR4dAjo": {"geometry": {"location": {"lat": 51.4855426, "lng": -0.1343666}, "viewport": {"northeast": {"lat": 51.4868915802915, "lng": -0.133017619708498}, "southwest": {"lat": 51.4841936197085, "lng": -0.135715580291502}}}, "name": "The Helmsman", "place_id": "ChIJI3a0juQEdkgRKGLilR4dAjo", "types": ["point_of_interest", "establishment"], "rating": 5, "user_ratings_total": 1}, "ChIJv34hX-QEdkgRpIVb9g9uoyc": {"geometry": {"location": {"lat": 51.4856685, "lng": -0.1334493}, "viewport": {"northeast": {"lat": 51.48713263029149, "lng": -0.132153169708498}, "southwest": {"lat": 51.48443466970849, "lng": -0.134851130291502}}}, "name": "William Huskisson Memorial", "place_id": "ChIJv34hX-QEdkgRpIVb9g9uoyc", "types": ["point_of_interest", "establishment"], "rating": 4.7, "user_ratings_total": 11}, "ChIJp8B_iuQEdkgR9-FqEFDXV08": {"geometry": {"location": {"lat": 51.48602140000001, "lng": -0.1336653}, "viewport": {"northeast": {"lat": 51.48737868029149, "lng": -0.132269569708498}, "southwest": {"lat": 51.48468071970849, "lng": -0.134967530291502}}}, "name": "Stentor Finance Ltd", "place_id": "ChIJp8B_iuQEdkgR9-FqEFDXV08", "types": ["point_of_interest", "establishment"]}, "ChIJ4RiPjOQEdkgRc4GQn7jnM9A": {"geometry": {"location": {"lat": 51.4856168, "lng": -0.1339331}, "viewport": {"northeast": {"lat": 51.48696301457204, "lng": -0.1326969358683757}, "southwest": {"lat": 51.48426505398904, "lng": -0.1353948964513798}}}, "name": "Pimlico Garden & Shrubbery", "place_id": "ChIJ4RiPjOQEdkgRc4GQn7jnM9A", "types": ["park", "premise", "point_of_interest", "establishment"]}, "ChIJ5V_kieMEdkgRbzV0-YJR1w8": {"geometry": {"location": {"lat": 51.4867578967851, "lng": -0.1348838492310858}, "viewport": {"northeast": {"lat": 51.48810693029149, "lng": -0.133534569708498}, "southwest": {"lat": 51.48540896970849, "lng": -0.136232530291502}}}, "name": "94-64 St.George's Square", "place_id": "ChIJ5V_kieMEdkgRbzV0-YJR1w8", "types": ["route"]}, "ChIJ0RacwOMEdkgRFLownbCR6BI": {"geometry": {"location": {"lat": 51.48660529999999, "lng": -0.1355797}, "viewport": {"northeast": {"lat": 51.4880420302915, "lng": -0.134165019708498}, "southwest": {"lat": 51.4853440697085, "lng": -0.136862980291502}}}, "name": "Designers Forum Ltd", "place_id": "ChIJ0RacwOMEdkgRFLownbCR6BI", "types": ["point_of_interest", "establishment"], "rating": 3, "user_ratings_total": 2}, "ChIJ12GxmuMEdkgRyL8RoNmg3Bc": {"geometry": {"location": {"lat": 51.48704300000001, "lng": -0.1357533}, "viewport": {"northeast": {"lat": 51.48839803029151, "lng": -0.134341519708498}, "southwest": {"lat": 51.48570006970851, "lng": -0.137039480291502}}}, "name": "Genever & Partners Ltd.", "place_id": "ChIJ12GxmuMEdkgRyL8RoNmg3Bc", "types": ["point_of_interest", "establishment"]}, "ChIJTc-IvuMEdkgRdniZOyQKTRQ": {"geometry": {"location": {"lat": 51.4869375, "lng": -0.1364365}, "viewport": {"northeast": {"lat": 51.48849703029151, "lng": -0.135211619708498}, "southwest": {"lat": 51.48579906970851, "lng": -0.137909580291502}}}, "name": "Dolphin Square", "place_id": "ChIJTc-IvuMEdkgRdniZOyQKTRQ", "types": ["real_estate_agency", "point_of_interest", "establishment"], "rating": 3.8, "user_ratings_total": 33}, "ChIJvf1HheMEdkgRnikCSg7uPng": {"geometry": {"location": {"lat": 51.4866833, "lng": -0.1350045}, "viewport": {"northeast": {"lat": 51.4880448302915, "lng": -0.133583969708498}, "southwest": {"lat": 51.4853468697085, "lng": -0.136281930291502}}}, "name": "Hy Consulting", "place_id": "ChIJvf1HheMEdkgRnikCSg7uPng", "types": ["point_of_interest", "establishment"]}, "ChIJxVDSi-MEdkgRR4id6RVNHqY": {"geometry": {"location": {"lat": 51.4871619, "lng": -0.1353422}, "viewport": {"northeast": {"lat": 51.48853368029149, "lng": -0.133866419708498}, "southwest": {"lat": 51.48583571970849, "lng": -0.136564380291502}}}, "name": "Spanish Gospel Mission", "place_id": "ChIJxVDSi-MEdkgRR4id6RVNHqY", "types": ["point_of_interest", "establishment"]}, "ChIJvf1HheMEdkgRzfvNtAejoSY": {"geometry": {"location": {"lat": 51.4866018, "lng": -0.1356358}, "viewport": {"northeast": {"lat": 51.4880402802915, "lng": -0.134193119708498}, "southwest": {"lat": 51.4853423197085, "lng": -0.136891080291502}}}, "name": "USA/UK Financial Concierge Ltd.", "place_id": "ChIJvf1HheMEdkgRzfvNtAejoSY", "types": ["finance", "point_of_interest", "establishment"]}, "ChIJAdaLxfYFdkgRYrBC6KmNN7k": {"geometry": {"location": {"lat": 51.4866018, "lng": -0.1356358}, "viewport": {"northeast": {"lat": 51.4880402802915, "lng": -0.134193119708498}, "southwest": {"lat": 51.4853423197085, "lng": -0.136891080291502}}}, "name": "Arkerton", "place_id": "ChIJAdaLxfYFdkgRYrBC6KmNN7k", "types": ["point_of_interest", "establishment"], "rating": 5, "user_ratings_total": 3}, "ChIJf5c2heMEdkgRjycwv5WXsEo": {"geometry": {"location": {"lat": 51.4865853, "lng": -0.1356561}, "viewport": {"northeast": {"lat": 51.4880320302915, "lng": -0.134200569708498}, "southwest": {"lat": 51.48533406970851, "lng": -0.136898530291502}}}, "name": "Personal Time Saver Ltd", "place_id": "ChIJf5c2heMEdkgRjycwv5WXsEo", "types": ["point_of_interest", "establishment"]}, "ChIJ05Q_heMEdkgReBfOg1CFM38": {"geometry": {"location": {"lat": 51.4865957, "lng": -0.135596}, "viewport": {"northeast": {"lat": 51.4880372302915, "lng": -0.134170519708498}, "southwest": {"lat": 51.4853392697085, "lng": -0.136868480291502}}}, "name": "South East Diagnostic", "place_id": "ChIJ05Q_heMEdkgReBfOg1CFM38", "types": ["health", "point_of_interest", "establishment"]}, "ChIJLTdQieMEdkgRIJwSxlcJPwM": {"geometry": {"location": {"lat": 51.48697379999999, "lng": -0.1352799}, "viewport": {"northeast": {"lat": 51.4883470802915, "lng": -0.133792869708498}, "southwest": {"lat": 51.4856491197085, "lng": -0.1364908302915021}}}, "name": "Pimlico Man and Van", "place_id": "ChIJLTdQieMEdkgRIJwSxlcJPwM", "types": ["moving_company", "point_of_interest", "establishment"]}, "ChIJiw7gmOMEdkgR9sMV-YBbZiI": {"geometry": {"location": {"lat": 51.486437, "lng": -0.1362361}, "viewport": {"northeast": {"lat": 51.4877159802915, "lng": -0.135300669708498}, "southwest": {"lat": 51.4850180197085, "lng": -0.137998630291502}}}, "name": "Dolphin Fountain", "place_id": "ChIJiw7gmOMEdkgR9sMV-YBbZiI", "types": ["point_of_interest", "store", "establishment"], "rating": 1, "user_ratings_total": 2}, "ChIJ_YwZB4IFdkgRNsuCP44kGEA": {"geometry": {"location": {"lat": 51.48688790000001, "lng": -0.1351785}, "viewport": {"northeast": {"lat": 51.4882560802915, "lng": -0.133720369708498}, "southwest": {"lat": 51.48555811970851, "lng": -0.136418330291502}}}, "name": "secretstudio", "place_id": "ChIJ_YwZB4IFdkgRNsuCP44kGEA", "types": ["point_of_interest", "establishment"]}, "ChIJKX2RDwMFdkgRYK80zRUtusw": {"geometry": {"location": {"lat": 51.48642550000001, "lng": -0.1363367}, "viewport": {"northeast": {"lat": 51.4877127802915, "lng": -0.135352069708498}, "southwest": {"lat": 51.4850148197085, "lng": -0.138050030291502}}}, "name": "Ryan McMahon Fitness", "place_id": "ChIJKX2RDwMFdkgRYK80zRUtusw", "types": ["health", "point_of_interest", "establishment"], "rating": 5, "user_ratings_total": 22}, "ChIJZwSkBLUFdkgRudqy2qMPkdc": {"geometry": {"location": {"lat": 51.4863203, "lng": -0.1354412}, "viewport": {"northeast": {"lat": 51.48789953029149, "lng": -0.1341010697084979}, "southwest": {"lat": 51.48520156970849, "lng": -0.136799030291502}}}, "name": "Haynes\u2019 London Stay", "place_id": "ChIJZwSkBLUFdkgRudqy2qMPkdc", "types": ["night_club", "point_of_interest", "establishment"]}, "ChIJ32GxmuMEdkgRvSksVXAJiko": {"geometry": {"location": {"lat": 51.4870162, "lng": -0.1364477}, "viewport": {"northeast": {"lat": 51.48854318029149, "lng": -0.135290419708498}, "southwest": {"lat": 51.4858452197085, "lng": -0.137988380291502}}}, "name": "Calmer Clinics", "place_id": "ChIJ32GxmuMEdkgRvSksVXAJiko", "types": ["physiotherapist", "health", "point_of_interest", "establishment"], "rating": 4.5, "user_ratings_total": 8}, "ChIJ1ZEKhOMEdkgRibXusCoITNU": {"geometry": {"location": {"lat": 51.4862733, "lng": -0.1355277}, "viewport": {"northeast": {"lat": 51.4878815302915, "lng": -0.134218569708498}, "southwest": {"lat": 51.4851835697085, "lng": -0.136916530291502}}}, "name": "Collingwood House", "place_id": "ChIJ1ZEKhOMEdkgRibXusCoITNU", "types": ["point_of_interest", "establishment"], "rating": 3, "user_ratings_total": 2}, "ChIJ21DSi-MEdkgR-cIZgEd2pas": {"geometry": {"location": {"lat": 51.4870439, "lng": -0.1351465}, "viewport": {"northeast": {"lat": 51.48840373029149, "lng": -0.133735969708498}, "southwest": {"lat": 51.4857057697085, "lng": -0.1364339302915021}}}, "name": "The Sheldon Trust", "place_id": "ChIJ21DSi-MEdkgR-cIZgEd2pas", "types": ["point_of_interest", "establishment"]}, "ChIJ21DSi-MEdkgRmCy9cnPwTgk": {"geometry": {"location": {"lat": 51.4870439, "lng": -0.1351465}, "viewport": {"northeast": {"lat": 51.48840373029149, "lng": -0.133735969708498}, "southwest": {"lat": 51.4857057697085, "lng": -0.1364339302915021}}}, "name": "Ulting Overseas Trust", "place_id": "ChIJ21DSi-MEdkgRmCy9cnPwTgk", "types": ["point_of_interest", "establishment"]}, "ChIJ21DSi-MEdkgRKRO6uJzeioI": {"geometry": {"location": {"lat": 51.4870439, "lng": -0.1351465}, "viewport": {"northeast": {"lat": 51.48840373029149, "lng": -0.133735969708498}, "southwest": {"lat": 51.4857057697085, "lng": -0.1364339302915021}}}, "name": "The Field Family Charitable Trust", "place_id": "ChIJ21DSi-MEdkgRKRO6uJzeioI", "types": ["point_of_interest", "establishment"]}, "ChIJ21DSi-MEdkgREP9182rCceg": {"geometry": {"location": {"lat": 51.4870439, "lng": -0.1351465}, "viewport": {"northeast": {"lat": 51.48840373029149, "lng": -0.133735969708498}, "southwest": {"lat": 51.4857057697085, "lng": -0.1364339302915021}}}, "name": "Veneziana Fund", "place_id": "ChIJ21DSi-MEdkgREP9182rCceg", "types": ["point_of_interest", "establishment"]}, "ChIJ21DSi-MEdkgRwirR-Z3BHUg": {"geometry": {"location": {"lat": 51.4870439, "lng": -0.1351465}, "viewport": {"northeast": {"lat": 51.48840373029149, "lng": -0.133735969708498}, "southwest": {"lat": 51.4857057697085, "lng": -0.1364339302915021}}}, "name": "The Simpson Foundation", "place_id": "ChIJ21DSi-MEdkgRwirR-Z3BHUg", "types": ["point_of_interest", "establishment"]}, "ChIJ21DSi-MEdkgRm2RUn6DzPV8": {"geometry": {"location": {"lat": 51.4870439, "lng": -0.1351465}, "viewport": {"northeast": {"lat": 51.48840373029149, "lng": -0.133735969708498}, "southwest": {"lat": 51.4857057697085, "lng": -0.1364339302915021}}}, "name": "Holy Rood Trust", "place_id": "ChIJ21DSi-MEdkgRm2RUn6DzPV8", "types": ["point_of_interest", "establishment"]}, "ChIJ21DSi-MEdkgRKAO5Etp7VdI": {"geometry": {"location": {"lat": 51.4870439, "lng": -0.1351465}, "viewport": {"northeast": {"lat": 51.48840373029149, "lng": -0.133735969708498}, "southwest": {"lat": 51.4857057697085, "lng": -0.1364339302915021}}}, "name": "Jm-Ca (1931)", "place_id": "ChIJ21DSi-MEdkgRKAO5Etp7VdI", "types": ["point_of_interest", "establishment"]}, "ChIJxVDSi-MEdkgRaWoSPtmQ1VY": {"geometry": {"location": {"lat": 51.4870317, "lng": -0.1351316}, "viewport": {"northeast": {"lat": 51.4883907302915, "lng": -0.133725419708498}, "southwest": {"lat": 51.4856927697085, "lng": -0.136423380291502}}}, "name": "Luxury Homes Turkey Ltd", "place_id": "ChIJxVDSi-MEdkgRaWoSPtmQ1VY", "types": ["point_of_interest", "establishment"]}, "ChIJKdfWveMEdkgRTVSzN27YKCs": {"geometry": {"location": {"lat": 51.4869919, "lng": -0.1365441}, "viewport": {"northeast": {"lat": 51.48852248029149, "lng": -0.135338619708498}, "southwest": {"lat": 51.4858245197085, "lng": -0.138036580291502}}}, "name": "Dolphin International Travel", "place_id": "ChIJKdfWveMEdkgRTVSzN27YKCs", "types": ["travel_agency", "point_of_interest", "establishment"]}, "ChIJSWAYcuMEdkgRoZVmSJF0nR0": {"geometry": {"location": {"lat": 51.48544711879729, "lng": -0.136078180284067}, "viewport": {"northeast": {"lat": 51.48679558029151, "lng": -0.134728969708498}, "southwest": {"lat": 51.48409761970851, "lng": -0.137426930291502}}}, "name": "132-144 Grosvenor Rd", "place_id": "ChIJSWAYcuMEdkgRoZVmSJF0nR0", "types": ["route"]}, "ChIJpSFBheMEdkgRX_p4FgoicsQ": {"geometry": {"location": {"lat": 51.4856145, "lng": -0.1360155}, "viewport": {"northeast": {"lat": 51.48699703029149, "lng": -0.135066169708498}, "southwest": {"lat": 51.4842990697085, "lng": -0.137764130291502}}}, "name": "Dolphin Square Trust Ltd", "place_id": "ChIJpSFBheMEdkgRX_p4FgoicsQ", "types": ["finance", "point_of_interest", "establishment"]}, "ChIJD3zWcOMEdkgRsrz3pVOsaNw": {"geometry": {"location": {"lat": 51.48551550000001, "lng": -0.1362362}, "viewport": {"northeast": {"lat": 51.4868199802915, "lng": -0.134868319708498}, "southwest": {"lat": 51.4841220197085, "lng": -0.1375662802915021}}}, "name": "Raleigh House", "place_id": "ChIJD3zWcOMEdkgRsrz3pVOsaNw", "types": ["point_of_interest", "establishment"], "rating": 3.3, "user_ratings_total": 4}, "ChIJ82I3d-MEdkgRxpCuRy7rFg0": {"geometry": {"location": {"lat": 51.4857375, "lng": -0.1357846}, "viewport": {"northeast": {"lat": 51.4869742802915, "lng": -0.134382719708498}, "southwest": {"lat": 51.4842763197085, "lng": -0.137080680291502}}}, "name": "Pimlico resource centre Aylesford Street SW1V 3LR", "place_id": "ChIJ82I3d-MEdkgRxpCuRy7rFg0", "types": ["point_of_interest", "establishment"]}, "ChIJEbBJeeMEdkgROQUQtsfznCg": {"geometry": {"location": {"lat": 51.4857352, "lng": -0.1353522}, "viewport": {"northeast": {"lat": 51.4871201302915, "lng": -0.133807119708498}, "southwest": {"lat": 51.4844221697085, "lng": -0.136505080291502}}}, "name": "Drake House", "place_id": "ChIJEbBJeeMEdkgROQUQtsfznCg", "types": ["point_of_interest", "establishment"]}, "ChIJ53UcfOMEdkgRz4MYQ-rVhcY": {"geometry": {"location": {"lat": 51.4856772, "lng": -0.1352486}, "viewport": {"northeast": {"lat": 51.48698738029149, "lng": -0.133881719708498}, "southwest": {"lat": 51.4842894197085, "lng": -0.136579680291502}}}, "name": "OC SPORTS & MANAGEMENT", "place_id": "ChIJ53UcfOMEdkgRz4MYQ-rVhcY", "types": ["point_of_interest", "establishment"]}, "ChIJF-f9tdgFdkgRUq4FRomCGvs": {"geometry": {"location": {"lat": 51.4852672, "lng": -0.1357768}, "viewport": {"northeast": {"lat": 51.4867227802915, "lng": -0.134471919708498}, "southwest": {"lat": 51.48402481970851, "lng": -0.137169880291502}}}, "name": "Tennis Court", "place_id": "ChIJF-f9tdgFdkgRUq4FRomCGvs", "types": ["point_of_interest", "establishment"], "rating": 5, "user_ratings_total": 2}, "ChIJPWfAKagFdkgRLYkWph1HzaI": {"geometry": {"location": {"lat": 51.4852599, "lng": -0.1357258}, "viewport": {"northeast": {"lat": 51.4867239302915, "lng": -0.134427369708498}, "southwest": {"lat": 51.4840259697085, "lng": -0.137125330291502}}}, "name": "Grosvenor Road - Riverside Tennis Court", "place_id": "ChIJPWfAKagFdkgRLYkWph1HzaI", "types": ["point_of_interest", "establishment"]}, "ChIJf88sc-MEdkgRvSireXpZDEM": {"geometry": {"location": {"lat": 51.48578329999999, "lng": -0.1351747}, "viewport": {"northeast": {"lat": 51.48715133029149, "lng": -0.133721719708498}, "southwest": {"lat": 51.4844533697085, "lng": -0.136419680291502}}}, "name": "Grenville House", "place_id": "ChIJf88sc-MEdkgRvSireXpZDEM", "types": ["point_of_interest", "establishment"]}, "ChIJy4qbEuMEdkgRTNbXYb0JUoI": {"geometry": {"location": {"lat": 51.4852664, "lng": -0.1362442}, "viewport": {"northeast": {"lat": 51.48668668029151, "lng": -0.134925469708498}, "southwest": {"lat": 51.48398871970851, "lng": -0.137623430291502}}}, "name": "nubeginningsfrance", "place_id": "ChIJy4qbEuMEdkgRTNbXYb0JUoI", "types": ["health", "point_of_interest", "establishment"]}, "ChIJcT5P1PIFdkgRvzw_RNkEr34": {"geometry": {"location": {"lat": 51.4858826, "lng": -0.1364269}, "viewport": {"northeast": {"lat": 51.4872002802915, "lng": -0.135292369708498}, "southwest": {"lat": 51.4845023197085, "lng": -0.137990330291502}}}, "name": "Hawkins house", "place_id": "ChIJcT5P1PIFdkgRvzw_RNkEr34", "types": ["point_of_interest", "establishment"]}, "ChIJoTZ0-6QFdkgREGemtL2_1_o": {"geometry": {"location": {"lat": 51.4855325, "lng": -0.1365319}, "viewport": {"northeast": {"lat": 51.4878164, "lng": -0.134730819708498}, "southwest": {"lat": 51.4847712, "lng": -0.137428780291502}}}, "name": "Keyes House", "place_id": "ChIJoTZ0-6QFdkgREGemtL2_1_o", "types": ["lodging", "point_of_interest", "establishment"], "rating": 4.8, "user_ratings_total": 4}, "ChIJibYUoOgFdkgRjfyi2DU2Aac": {"geometry": {"location": {"lat": 51.4860531, "lng": -0.1353537}, "viewport": {"northeast": {"lat": 51.4874534802915, "lng": -0.133931419708498}, "southwest": {"lat": 51.4847555197085, "lng": -0.136629380291502}}}, "name": "videography Pimlico", "place_id": "ChIJibYUoOgFdkgRjfyi2DU2Aac", "types": ["point_of_interest", "establishment"]}, "ChIJz5YFguMEdkgRvDXmMuuFevY": {"geometry": {"location": {"lat": 51.4860531, "lng": -0.1353537}, "viewport": {"northeast": {"lat": 51.4874534802915, "lng": -0.133931419708498}, "southwest": {"lat": 51.4847555197085, "lng": -0.136629380291502}}}, "name": "Frobisher House", "place_id": "ChIJz5YFguMEdkgRvDXmMuuFevY", "types": ["point_of_interest", "establishment"], "rating": 4, "user_ratings_total": 1}, "ChIJz94TfhgFdkgRpy0fG0qAYFE": {"geometry": {"location": {"lat": 51.48525369999999, "lng": -0.1363485}, "viewport": {"northeast": {"lat": 51.4866715802915, "lng": -0.135029469708498}, "southwest": {"lat": 51.4839736197085, "lng": -0.137727430291502}}}, "name": "Shell", "place_id": "ChIJz94TfhgFdkgRpy0fG0qAYFE", "types": ["gas_station", "convenience_store", "food", "point_of_interest", "store", "establishment"], "rating": 3, "user_ratings_total": 35}, "ChIJXZAabeMEdkgRuIjhD8llvt8": {"geometry": {"location": {"lat": 51.48518129999999, "lng": -0.1362528}, "viewport": {"northeast": {"lat": 51.48663998029149, "lng": -0.134954619708498}, "southwest": {"lat": 51.48394201970849, "lng": -0.137652580291502}}}, "name": "ATM", "place_id": "ChIJXZAabeMEdkgRuIjhD8llvt8", "types": ["atm", "finance", "point_of_interest", "establishment"], "rating": 5, "user_ratings_total": 1}, "ChIJHQcPsuMEdkgRhyldFotC0UI": {"geometry": {"location": {"lat": 51.48664900000001, "lng": -0.1376218}, "viewport": {"northeast": {"lat": 51.4879801802915, "lng": -0.1363868697084979}, "southwest": {"lat": 51.4852822197085, "lng": -0.139084830291502}}}, "name": "Page Property Services", "place_id": "ChIJHQcPsuMEdkgRhyldFotC0UI", "types": ["finance", "point_of_interest", "establishment"]}, "ChIJPx6jsOMEdkgR8najCw5AuDI": {"geometry": {"location": {"lat": 51.4869372, "lng": -0.1371918}, "viewport": {"northeast": {"lat": 51.4880780802915, "lng": -0.135861219708498}, "southwest": {"lat": 51.4853801197085, "lng": -0.138559180291502}}}, "name": "Integria Consulting Ltd", "place_id": "ChIJPx6jsOMEdkgR8najCw5AuDI", "types": ["point_of_interest", "establishment"]}, "ChIJ___b31wOdkgRQZYmmUNL0QU": {"geometry": {"location": {"lat": 51.4870894, "lng": -0.1374492}, "viewport": {"northeast": {"lat": 51.4885052302915, "lng": -0.135832469708498}, "southwest": {"lat": 51.4858072697085, "lng": -0.138530430291502}}}, "name": "Corporate Living - Dolphin Square", "place_id": "ChIJ___b31wOdkgRQZYmmUNL0QU", "types": ["lodging", "point_of_interest", "establishment"], "rating": 5, "user_ratings_total": 6}, "ChIJl_Zqp-MEdkgR_cw0CdhuMX0": {"geometry": {"location": {"lat": 51.48672879999999, "lng": -0.1376861}, "viewport": {"northeast": {"lat": 51.48806233029149, "lng": -0.136436069708498}, "southwest": {"lat": 51.4853643697085, "lng": -0.139134030291502}}}, "name": "Howard House", "place_id": "ChIJl_Zqp-MEdkgR_cw0CdhuMX0", "types": ["lodging", "point_of_interest", "establishment"]}, "ChIJNZr_TMQFdkgRKy3kWQC1mP4": {"geometry": {"location": {"lat": 51.4867789, "lng": -0.137181}, "viewport": {"northeast": {"lat": 51.4879998802915, "lng": -0.135830969708498}, "southwest": {"lat": 51.4853019197085, "lng": -0.138528930291502}}}, "name": "Duncan House", "place_id": "ChIJNZr_TMQFdkgRKy3kWQC1mP4", "types": ["lodging", "point_of_interest", "establishment"], "rating": 3.5, "user_ratings_total": 2}, "ChIJnXGHr-MEdkgRs0t1_Js2Hzk": {"geometry": {"location": {"lat": 51.4865458, "lng": -0.1369043}, "viewport": {"northeast": {"lat": 51.4878769802915, "lng": -0.135681319708498}, "southwest": {"lat": 51.4851790197085, "lng": -0.138379280291502}}}, "name": "Beatty House", "place_id": "ChIJnXGHr-MEdkgRs0t1_Js2Hzk", "types": ["lodging", "point_of_interest", "establishment"], "rating": 4, "user_ratings_total": 5}, "ChIJdU80sOMEdkgRJAdp6Se3RcI": {"geometry": {"location": {"lat": 51.4864956, "lng": -0.1372193}, "viewport": {"northeast": {"lat": 51.48760321928631, "lng": -0.1357570783875004}, "southwest": {"lat": 51.48490525870331, "lng": -0.1384550389705044}}}, "name": "Parking lot", "place_id": "ChIJdU80sOMEdkgRJAdp6Se3RcI", "types": ["parking", "premise", "point_of_interest", "establishment"]}, "ChIJV3U9EOMEdkgRxgJyHxeAp7E": {"geometry": {"location": {"lat": 51.48528595031112, "lng": -0.1370210002725813}, "viewport": {"northeast": {"lat": 51.4866349302915, "lng": -0.135672019708498}, "southwest": {"lat": 51.4839369697085, "lng": -0.138369980291502}}}, "name": "94-92 Grosvenor Rd", "place_id": "ChIJV3U9EOMEdkgRxgJyHxeAp7E", "types": ["route"]}, "ChIJ1WtvBeMEdkgRjON0T8xcHVM": {"geometry": {"location": {"lat": 51.4854699, "lng": -0.1371429}, "viewport": {"northeast": {"lat": 51.4867236802915, "lng": -0.135752369708498}, "southwest": {"lat": 51.4840257197085, "lng": -0.138450330291502}}}, "name": "Holistic Health Consultancy & College", "place_id": "ChIJ1WtvBeMEdkgRjON0T8xcHVM", "types": ["health", "point_of_interest", "establishment"]}, "ChIJO_iJD-MEdkgRJhdRgqFpJzE": {"geometry": {"location": {"lat": 51.4854699, "lng": -0.1371428}, "viewport": {"northeast": {"lat": 51.4867236802915, "lng": -0.135752269708498}, "southwest": {"lat": 51.4840257197085, "lng": -0.1384502302915021}}}, "name": "Decibel Designs", "place_id": "ChIJO_iJD-MEdkgRJhdRgqFpJzE", "types": ["general_contractor", "point_of_interest", "establishment"]}, "ChIJydrmfOMEdkgRtoN9Qb3ke28": {"geometry": {"location": {"lat": 51.4851831, "lng": -0.1372874}, "viewport": {"northeast": {"lat": 51.4865550802915, "lng": -0.135949819708498}, "southwest": {"lat": 51.4838571197085, "lng": -0.138647780291502}}}, "name": "Logic ICT Ltd", "place_id": "ChIJydrmfOMEdkgRtoN9Qb3ke28", "types": ["point_of_interest", "establishment"]}, "ChIJo8JpAeMEdkgRevRQqMYIRvs": {"geometry": {"location": {"lat": 51.48575100000001, "lng": -0.137609}, "viewport": {"northeast": {"lat": 51.48710783029151, "lng": -0.136210119708498}, "southwest": {"lat": 51.48440986970851, "lng": -0.138908080291502}}}, "name": "ubitricity Charging Station", "place_id": "ChIJo8JpAeMEdkgRevRQqMYIRvs", "types": ["point_of_interest", "establishment"]}, "ChIJQyIw9UwFdkgRyRkJfxQtFIw": {"geometry": {"location": {"lat": 51.4854969, "lng": -0.1373999}, "viewport": {"northeast": {"lat": 51.4868390802915, "lng": -0.1361001697084979}, "southwest": {"lat": 51.4841411197085, "lng": -0.138798130291502}}}, "name": "SW1V 3BQ", "place_id": "ChIJQyIw9UwFdkgRyRkJfxQtFIw", "types": ["point_of_interest", "establishment"], "rating": 5, "user_ratings_total": 1}, "ChIJ4wDsBuMEdkgRx0TC8o79gr0": {"geometry": {"location": {"lat": 51.48579669999999, "lng": -0.1373988}, "viewport": {"northeast": {"lat": 51.48713663029149, "lng": -0.136107469708498}, "southwest": {"lat": 51.48443866970849, "lng": -0.138805430291502}}}, "name": "Yellow Door Impact Ltd", "place_id": "ChIJ4wDsBuMEdkgRx0TC8o79gr0", "types": ["point_of_interest", "establishment"]}, "ChIJIVVBA-MEdkgRu3MagEjF3yk": {"geometry": {"location": {"lat": 51.4854521, "lng": -0.1376121}, "viewport": {"northeast": {"lat": 51.48680108029149, "lng": -0.136263119708498}, "southwest": {"lat": 51.48410311970849, "lng": -0.138961080291502}}}, "name": "Hungerford House", "place_id": "ChIJIVVBA-MEdkgRu3MagEjF3yk", "types": ["point_of_interest", "establishment"], "rating": 4.5, "user_ratings_total": 15}, "ChIJAfjbZe0FdkgRrSuSm7F9cnw": {"geometry": {"location": {"lat": 51.4860263, "lng": -0.1373949}, "viewport": {"northeast": {"lat": 51.4873590802915, "lng": -0.136149119708498}, "southwest": {"lat": 51.4846611197085, "lng": -0.138847080291502}}}, "name": "Happy removal Chelsea", "place_id": "ChIJAfjbZe0FdkgRrSuSm7F9cnw", "types": ["moving_company", "point_of_interest", "establishment"], "rating": 5, "user_ratings_total": 4}, "ChIJo6plYAYFdkgRvlHAM4KR6mU": {"geometry": {"location": {"lat": 51.4860263, "lng": -0.1373949}, "viewport": {"northeast": {"lat": 51.4873590802915, "lng": -0.136149119708498}, "southwest": {"lat": 51.4846611197085, "lng": -0.138847080291502}}}, "name": "Brilliant cleaner Chelsea", "place_id": "ChIJo6plYAYFdkgRvlHAM4KR6mU", "types": ["point_of_interest", "establishment"], "rating": 5, "user_ratings_total": 13}, "ChIJny3UqeMEdkgRnpWtxupT1_I": {"geometry": {"location": {"lat": 51.4860343, "lng": -0.1373522}, "viewport": {"northeast": {"lat": 51.48736368029149, "lng": -0.136128019708498}, "southwest": {"lat": 51.4846657197085, "lng": -0.138825980291502}}}, "name": "Digital Direct", "place_id": "ChIJny3UqeMEdkgRnpWtxupT1_I", "types": ["point_of_interest", "establishment"], "rating": 4, "user_ratings_total": 4}, "ChIJAQCCquMEdkgREKp7cR06wkQ": {"geometry": {"location": {"lat": 51.48602299999999, "lng": -0.137722}, "viewport": {"northeast": {"lat": 51.48738003029149, "lng": -0.136321869708498}, "southwest": {"lat": 51.48468206970849, "lng": -0.139019830291502}}}, "name": "Claverton St Churchill Gdns (Stop A)", "place_id": "ChIJAQCCquMEdkgREKp7cR06wkQ", "types": ["transit_station", "point_of_interest", "establishment"], "rating": 5, "user_ratings_total": 1}, "ChIJMcDnC-MEdkgRqb_Ccax8yb4": {"geometry": {"location": {"lat": 51.4858157, "lng": -0.1367311}, "viewport": {"northeast": {"lat": 51.4871726302915, "lng": -0.135444069708498}, "southwest": {"lat": 51.4844746697085, "lng": -0.138142030291502}}}, "name": "Nelson House", "place_id": "ChIJMcDnC-MEdkgRqb_Ccax8yb4", "types": ["point_of_interest", "establishment"], "rating": 2.5, "user_ratings_total": 6}, "ChIJQ1dzdOQEdkgRFf7sZZVLH34": {"geometry": {"location": {"lat": 51.4872585, "lng": -0.1347219}, "viewport": {"northeast": {"lat": 51.4885750802915, "lng": -0.133553069708498}, "southwest": {"lat": 51.4858771197085, "lng": -0.136251030291502}}}, "name": "St George's Square", "place_id": "ChIJQ1dzdOQEdkgRFf7sZZVLH34", "types": ["park", "point_of_interest", "establishment"], "rating": 4.4, "user_ratings_total": 284}, "ChIJRztdgeQEdkgRa1V3qQAa81s": {"geometry": {"location": {"lat": 51.48570320023603, "lng": -0.134654400227341}, "viewport": {"northeast": {"lat": 51.4870521802915, "lng": -0.133305419708498}, "southwest": {"lat": 51.4843542197085, "lng": -0.136003380291502}}}, "name": "Grosvenor Road", "place_id": "ChIJRztdgeQEdkgRa1V3qQAa81s", "types": ["route"]}, "ChIJLb8il-MEdkgRCe1PxRoDZj0": {"geometry": {"location": {"lat": 51.486144, "lng": -0.1352627}, "viewport": {"northeast": {"lat": 51.4874921802915, "lng": -0.133908069708498}, "southwest": {"lat": 51.4847942197085, "lng": -0.136606030291502}}}, "name": "TCS Groundworks", "place_id": "ChIJLb8il-MEdkgRCe1PxRoDZj0", "types": ["point_of_interest", "establishment"]}, "ChIJiw8Ngr0FdkgRq_8v26QciFU": {"geometry": {"location": {"lat": 51.48613739999999, "lng": -0.1347421}, "viewport": {"northeast": {"lat": 51.4874981802915, "lng": -0.133327269708498}, "southwest": {"lat": 51.4848002197085, "lng": -0.136025230291502}}}, "name": "Petit Bonheurs", "place_id": "ChIJiw8Ngr0FdkgRq_8v26QciFU", "types": ["bakery", "food", "point_of_interest", "store", "establishment"]}, "ChIJ7f-_5kEFdkgRZntBl4ge4cI": {"geometry": {"location": {"lat": 51.48637300000001, "lng": -0.1349996}, "viewport": {"northeast": {"lat": 51.48774608029149, "lng": -0.133516119708498}, "southwest": {"lat": 51.4850481197085, "lng": -0.136214080291502}}}, "name": "Cloud Zones Ltd", "place_id": "ChIJ7f-_5kEFdkgRZntBl4ge4cI", "types": ["point_of_interest", "establishment"]}, "ChIJv1hngOQEdkgRjbIfWzz6u2o": {"geometry": {"location": {"lat": 51.4859445, "lng": -0.1347878}, "viewport": {"northeast": {"lat": 51.48731643029149, "lng": -0.133310769708498}, "southwest": {"lat": 51.48461846970849, "lng": -0.136008730291502}}}, "name": "The Levantine Foundation", "place_id": "ChIJv1hngOQEdkgRjbIfWzz6u2o", "types": ["point_of_interest", "establishment"]}, "ChIJF-ViHHUFdkgRSF6yOWDpQeA": {"geometry": {"location": {"lat": 51.4859387, "lng": -0.1347978}, "viewport": {"northeast": {"lat": 51.4873116802915, "lng": -0.133314919708498}, "southwest": {"lat": 51.4846137197085, "lng": -0.136012880291502}}}, "name": "The Metis Institute", "place_id": "ChIJF-ViHHUFdkgRSF6yOWDpQeA", "types": ["point_of_interest", "establishment"]}, "ChIJp-KRnrAFdkgRdYGDk7VvOkA": {"geometry": {"location": {"lat": 51.486265, "lng": -0.1353369}, "viewport": {"northeast": {"lat": 51.48761408029149, "lng": -0.1339872197084979}, "southwest": {"lat": 51.4849161197085, "lng": -0.136685180291502}}}, "name": "Cliden Construction (London) Ltd.", "place_id": "ChIJp-KRnrAFdkgRdYGDk7VvOkA", "types": ["general_contractor", "point_of_interest", "establishment"]}, "ChIJN6DxiyUFdkgR916qdJo1f-U": {"geometry": {"location": {"lat": 51.4865609, "lng": -0.1349237}, "viewport": {"northeast": {"lat": 51.48792038029151, "lng": -0.133514919708498}, "southwest": {"lat": 51.48522241970851, "lng": -0.136212880291502}}}, "name": "Roman's Turo Car-Sharing", "place_id": "ChIJN6DxiyUFdkgR916qdJo1f-U", "types": ["car_rental", "point_of_interest", "establishment"]}, "ChIJ1cM3Gc4FdkgRC8u3auIU3uE": {"geometry": {"location": {"lat": 51.4865609, "lng": -0.1349237}, "viewport": {"northeast": {"lat": 51.48792038029151, "lng": -0.133514919708498}, "southwest": {"lat": 51.48522241970851, "lng": -0.136212880291502}}}, "name": "Roman's Neighbourhood Car Rental", "place_id": "ChIJ1cM3Gc4FdkgRC8u3auIU3uE", "types": ["car_rental", "point_of_interest", "establishment"]}, "ChIJral5e-MEdkgRSaFBHPBY93g": {"geometry": {"location": {"lat": 51.48557521431262, "lng": -0.135349063886243}, "viewport": {"northeast": {"lat": 51.4869250802915, "lng": -0.134000519708498}, "southwest": {"lat": 51.4842271197085, "lng": -0.136698480291502}}}, "name": "136-135 Grosvenor Rd", "place_id": "ChIJral5e-MEdkgRSaFBHPBY93g", "types": ["route"]}, "ChIJ4ZhffeMEdkgRGzMZ9xk4-vE": {"geometry": {"location": {"lat": 51.4852664, "lng": -0.1347711}, "viewport": {"northeast": {"lat": 51.4866153802915, "lng": -0.133422119708498}, "southwest": {"lat": 51.4839174197085, "lng": -0.136120080291502}}}, "name": "Westminster Boating Base", "place_id": "ChIJ4ZhffeMEdkgRGzMZ9xk4-vE", "types": ["point_of_interest", "establishment"], "rating": 4.9, "user_ratings_total": 78}, "ChIJDV1lcAoFdkgR9CtrnsoxWhw": {"geometry": {"location": {"lat": 51.4852909, "lng": -0.1347908}, "viewport": {"northeast": {"lat": 51.4868160302915, "lng": -0.133530119708498}, "southwest": {"lat": 51.4841180697085, "lng": -0.136228080291502}}}, "name": "Warships museum", "place_id": "ChIJDV1lcAoFdkgR9CtrnsoxWhw", "types": ["museum", "point_of_interest", "establishment"]}, "ChIJ2SDiH10OdkgRMCilN79CRe8": {"geometry": {"location": {"lat": 51.48725090000001, "lng": -0.13666}, "viewport": {"northeast": {"lat": 51.4886465302915, "lng": -0.135396569708498}, "southwest": {"lat": 51.4859485697085, "lng": -0.138094530291502}}}, "name": "Dolphin House - Serviced Apartments", "place_id": "ChIJ2SDiH10OdkgRMCilN79CRe8", "types": ["lodging", "point_of_interest", "establishment"], "rating": 4.1, "user_ratings_total": 594}, "ChIJu4XTCuMEdkgR2rsZM6ZaHL0": {"geometry": {"location": {"lat": 51.4870426, "lng": -0.1365423}, "viewport": {"northeast": {"lat": 51.4885497802915, "lng": -0.135337719708498}, "southwest": {"lat": 51.4858518197085, "lng": -0.138035680291502}}}, "name": "DSQ GYM", "place_id": "ChIJu4XTCuMEdkgR2rsZM6ZaHL0", "types": ["gym", "health", "point_of_interest", "establishment"], "rating": 3.8, "user_ratings_total": 165}, "ChIJ12GxmuMEdkgRIciWi6PFS4I": {"geometry": {"location": {"lat": 51.4870916, "lng": -0.1365107}, "viewport": {"northeast": {"lat": 51.4885785302915, "lng": -0.135321919708498}, "southwest": {"lat": 51.4858805697085, "lng": -0.138019880291502}}}, "name": "The Entertainment Agents' Association", "place_id": "ChIJ12GxmuMEdkgRIciWi6PFS4I", "types": ["point_of_interest", "establishment"]}, "ChIJu4XTCuMEdkgRBTIuTdRWako": {"geometry": {"location": {"lat": 51.4870916, "lng": -0.1365107}, "viewport": {"northeast": {"lat": 51.4885785302915, "lng": -0.135321919708498}, "southwest": {"lat": 51.4858805697085, "lng": -0.138019880291502}}}, "name": "David Propert", "place_id": "ChIJu4XTCuMEdkgRBTIuTdRWako", "types": ["health", "point_of_interest", "establishment"], "rating": 5, "user_ratings_total": 8}, "ChIJS6eKLVEDdkgRlzdZKHdxA44": {"geometry": {"location": {"lat": 51.4870916, "lng": -0.1365107}, "viewport": {"northeast": {"lat": 51.4885785302915, "lng": -0.135321919708498}, "southwest": {"lat": 51.4858805697085, "lng": -0.138019880291502}}}, "name": "Good For The Sole", "place_id": "ChIJS6eKLVEDdkgRlzdZKHdxA44", "types": ["health", "point_of_interest", "establishment"], "rating": 5, "user_ratings_total": 2}, "ChIJ-2l5JOIEdkgRkwZfjUVlJA4": {"geometry": {"location": {"lat": 51.4870916, "lng": -0.1365107}, "viewport": {"northeast": {"lat": 51.4885785302915, "lng": -0.135321919708498}, "southwest": {"lat": 51.4858805697085, "lng": -0.138019880291502}}}, "name": "Ghazaleh Rahimi Podiatry (Pimlico Podiatry)", "place_id": "ChIJ-2l5JOIEdkgRkwZfjUVlJA4", "types": ["doctor", "health", "point_of_interest", "establishment"], "rating": 5, "user_ratings_total": 32}, "ChIJcUaXl-MEdkgRDxvj5xGwTJU": {"geometry": {"location": {"lat": 51.4870989, "lng": -0.136454}, "viewport": {"northeast": {"lat": 51.48858698029149, "lng": -0.135293569708498}, "southwest": {"lat": 51.4858890197085, "lng": -0.137991530291502}}}, "name": "The Spa - In Dolphin Square", "place_id": "ChIJcUaXl-MEdkgRDxvj5xGwTJU", "types": ["beauty_salon", "hair_care", "spa", "point_of_interest", "establishment"], "rating": 4.5, "user_ratings_total": 375}, "ChIJUfpeleMEdkgRAenv5Yp5zQg": {"geometry": {"location": {"lat": 51.4870916, "lng": -0.1365107}, "viewport": {"northeast": {"lat": 51.4885785302915, "lng": -0.135321919708498}, "southwest": {"lat": 51.4858805697085, "lng": -0.138019880291502}}}, "name": "Dolphin Bar and Grill", "place_id": "ChIJUfpeleMEdkgRAenv5Yp5zQg", "types": ["restaurant", "cafe", "bar", "food", "point_of_interest", "store", "establishment"], "rating": 3.5, "user_ratings_total": 56}, "ChIJKdfWveMEdkgR-JIcQ2BfQag": {"geometry": {"location": {"lat": 51.4870916, "lng": -0.1365107}, "viewport": {"northeast": {"lat": 51.4885785302915, "lng": -0.135321919708498}, "southwest": {"lat": 51.4858805697085, "lng": -0.138019880291502}}}, "name": "The Hungry Dolphin Caf\u00e9", "place_id": "ChIJKdfWveMEdkgR-JIcQ2BfQag", "types": ["cafe", "restaurant", "food", "point_of_interest", "store", "establishment"], "rating": 5, "user_ratings_total": 2}, "ChIJyRn33Y4FdkgRWwHXkEHS3Xo": {"geometry": {"location": {"lat": 51.4871254, "lng": -0.136602}, "viewport": {"northeast": {"lat": 51.48858933029149, "lng": -0.135367569708498}, "southwest": {"lat": 51.48589136970849, "lng": -0.138065530291502}}}, "name": "Serviced Rentals - Dolphin Square", "place_id": "ChIJyRn33Y4FdkgRWwHXkEHS3Xo", "types": ["real_estate_agency", "point_of_interest", "establishment"]}, "ChIJhVwH0VoFdkgRSdx4yOoIIrw": {"geometry": {"location": {"lat": 51.4870916, "lng": -0.1365107}, "viewport": {"northeast": {"lat": 51.4885785302915, "lng": -0.135321919708498}, "southwest": {"lat": 51.4858805697085, "lng": -0.138019880291502}}}, "name": "Any London Waste", "place_id": "ChIJhVwH0VoFdkgRSdx4yOoIIrw", "types": ["point_of_interest", "establishment"]}, "ChIJOzg2heMEdkgRxV74lyoC8B8": {"geometry": {"location": {"lat": 51.4870916, "lng": -0.1365107}, "viewport": {"northeast": {"lat": 51.4885785302915, "lng": -0.135321919708498}, "southwest": {"lat": 51.4858805697085, "lng": -0.138019880291502}}}, "name": "Colour Affects", "place_id": "ChIJOzg2heMEdkgRxV74lyoC8B8", "types": ["point_of_interest", "establishment"]}, "ChIJKdfWveMEdkgRae_RBg63Xo8": {"geometry": {"location": {"lat": 51.4870916, "lng": -0.1365107}, "viewport": {"northeast": {"lat": 51.4885785302915, "lng": -0.135321919708498}, "southwest": {"lat": 51.4858805697085, "lng": -0.138019880291502}}}, "name": "Dolphin News", "place_id": "ChIJKdfWveMEdkgRae_RBg63Xo8", "types": ["point_of_interest", "establishment"]}, "ChIJR4_oGHwFdkgR2LQ2x_xYMMU": {"geometry": {"location": {"lat": 51.4870256, "lng": -0.136727}, "viewport": {"northeast": {"lat": 51.4885258802915, "lng": -0.135445219708498}, "southwest": {"lat": 51.4858279197085, "lng": -0.138143180291502}}}, "name": "Jgfitness360", "place_id": "ChIJR4_oGHwFdkgR2LQ2x_xYMMU", "types": ["health", "point_of_interest", "establishment"], "rating": 5, "user_ratings_total": 4}, "ChIJM2xwoogFdkgRAwFdYJwbeLg": {"geometry": {"location": {"lat": 51.48725400000001, "lng": -0.1361915}, "viewport": {"northeast": {"lat": 51.4886841302915, "lng": -0.135162319708498}, "southwest": {"lat": 51.4859861697085, "lng": -0.137860280291502}}}, "name": "Dolphin Square Caf\u00e9", "place_id": "ChIJM2xwoogFdkgRAwFdYJwbeLg", "types": ["cafe", "food", "point_of_interest", "establishment"]}, "ChIJH_BO404FdkgRg-V3uxWjVXE": {"geometry": {"location": {"lat": 51.48696469999999, "lng": -0.1366936}, "viewport": {"northeast": {"lat": 51.4884959302915, "lng": -0.135425619708498}, "southwest": {"lat": 51.4857979697085, "lng": -0.138123580291502}}}, "name": "Dino Chavda Online Coaching", "place_id": "ChIJH_BO404FdkgRg-V3uxWjVXE", "types": ["health", "point_of_interest", "establishment"], "rating": 5, "user_ratings_total": 8}, "ChIJTTWnqOMEdkgRBWTwOJYQ1tc": {"geometry": {"location": {"lat": 51.48630991498616, "lng": -0.137068848081647}, "viewport": {"northeast": {"lat": 51.48767075000006, "lng": -0.135808969708498}, "southwest": {"lat": 51.48491054999994, "lng": -0.138506930291502}}}, "name": "42 Dolphin Square West Side", "place_id": "ChIJTTWnqOMEdkgRBWTwOJYQ1tc", "types": ["route"]}, "ChIJ1UrZuskFdkgRa_xFmSGC7QY": {"geometry": {"location": {"lat": 51.48617400000001, "lng": -0.1373937}, "viewport": {"northeast": {"lat": 51.4875025302915, "lng": -0.136176519708498}, "southwest": {"lat": 51.4848045697085, "lng": -0.138874480291502}}}, "name": "Cleaners R Us Purley", "place_id": "ChIJ1UrZuskFdkgRa_xFmSGC7QY", "types": ["point_of_interest", "establishment"]}, "ChIJJaNBEuMEdkgRMOboWQru46s": {"geometry": {"location": {"lat": 51.48534785003365, "lng": -0.1366615500311137}, "viewport": {"northeast": {"lat": 51.4866968302915, "lng": -0.135312569708498}, "southwest": {"lat": 51.4839988697085, "lng": -0.138010530291502}}}, "name": "Grosvenor Road", "place_id": "ChIJJaNBEuMEdkgRMOboWQru46s", "types": ["route"]}, "ChIJqdkcE-MEdkgRFoIThty1AzU": {"geometry": {"location": {"lat": 51.4851923, "lng": -0.1365438}, "viewport": {"northeast": {"lat": 51.48662283029149, "lng": -0.135232519708498}, "southwest": {"lat": 51.4839248697085, "lng": -0.137930480291502}}}, "name": "Shop'n Drive", "place_id": "ChIJqdkcE-MEdkgRFoIThty1AzU", "types": ["convenience_store", "food", "point_of_interest", "store", "establishment"], "rating": 3, "user_ratings_total": 2}, "ChIJi-YpVeIEdkgReBVoluSFOuw": {"geometry": {"location": {"lat": 51.4862069, "lng": -0.1377964}, "viewport": {"northeast": {"lat": 51.48756583029149, "lng": -0.136396619708498}, "southwest": {"lat": 51.48486786970849, "lng": -0.139094580291502}}}, "name": "ubitricity Charging Station", "place_id": "ChIJi-YpVeIEdkgReBVoluSFOuw", "types": ["point_of_interest", "establishment"]}}}