{"E00175225": {"ChIJFwOvcuQEdkgRr6gqo-9gXdk": {"geometry": {"location": {"lat": 51.48798329336206, "lng": -0.134569153056305}, "viewport": {"northeast": {"lat": 51.48933323029149, "lng": -0.133214569708498}, "southwest": {"lat": 51.4866352697085, "lng": -0.135912530291502}}}, "name": "73-35 St.George's Square", "place_id": "ChIJFwOvcuQEdkgRr6gqo-9gXdk", "types": ["route"]}, "ChIJUe-4BeQEdkgRHzUdQKWVaEY": {"geometry": {"location": {"lat": 51.4880642, "lng": -0.1344588}, "viewport": {"northeast": {"lat": 51.48940143029149, "lng": -0.133177769708498}, "southwest": {"lat": 51.48670346970849, "lng": -0.135875730291502}}}, "name": "EagleCrown", "place_id": "ChIJUe-4BeQEdkgRHzUdQKWVaEY", "types": ["point_of_interest", "establishment"]}, "ChIJY1CLB-QEdkgRupKRTDly-I4": {"geometry": {"location": {"lat": 51.4880406, "lng": -0.1344343}, "viewport": {"northeast": {"lat": 51.4893717302915, "lng": -0.133157569708498}, "southwest": {"lat": 51.4866737697085, "lng": -0.135855530291502}}}, "name": "ubitricity Charging Station", "place_id": "ChIJY1CLB-QEdkgRupKRTDly-I4", "types": ["point_of_interest", "establishment"]}, "ChIJCZp98OMEdkgRd84SdRotpyM": {"geometry": {"location": {"lat": 51.4878344, "lng": -0.1345786}, "viewport": {"northeast": {"lat": 51.48918708029149, "lng": -0.133208069708498}, "southwest": {"lat": 51.48648911970849, "lng": -0.135906030291502}}}, "name": "Zipcar", "place_id": "ChIJCZp98OMEdkgRd84SdRotpyM", "types": ["car_rental", "point_of_interest", "establishment"]}, "ChIJwUBFgk4FdkgRuUWf9_som_M": {"geometry": {"location": {"lat": 51.4882539, "lng": -0.1343019}, "viewport": {"northeast": {"lat": 51.48961693029149, "lng": -0.132873169708498}, "southwest": {"lat": 51.4869189697085, "lng": -0.135571130291502}}}, "name": "The Royal Aylesford Club", "place_id": "ChIJwUBFgk4FdkgRuUWf9_som_M", "types": ["food", "point_of_interest", "establishment"], "rating": 5, "user_ratings_total": 4}, "ChIJlQGT_OMEdkgRr1ZXl3M3RGs": {"geometry": {"location": {"lat": 51.4883184, "lng": -0.1352115}, "viewport": {"northeast": {"lat": 51.4896360802915, "lng": -0.134041819708498}, "southwest": {"lat": 51.4869381197085, "lng": -0.136739780291502}}}, "name": "Young England Kindergarten", "place_id": "ChIJlQGT_OMEdkgRr1ZXl3M3RGs", "types": ["school", "point_of_interest", "establishment"], "rating": 5, "user_ratings_total": 7}, "ChIJfSd5AeQEdkgRFmpYsy1DZLo": {"geometry": {"location": {"lat": 51.4884792, "lng": -0.1346161}, "viewport": {"northeast": {"lat": 51.48981518029149, "lng": -0.1333462697084979}, "southwest": {"lat": 51.48711721970849, "lng": -0.136044230291502}}}, "name": "Inter-Sol", "place_id": "ChIJfSd5AeQEdkgRFmpYsy1DZLo", "types": ["point_of_interest", "establishment"]}, "ChIJA_1WDVEEdkgRunlHgXcIWP4": {"geometry": {"location": {"lat": 51.4884268, "lng": -0.1343461}, "viewport": {"northeast": {"lat": 51.4897693802915, "lng": -0.132925069708498}, "southwest": {"lat": 51.4870714197085, "lng": -0.135623030291502}}}, "name": "Good Things Magazine", "place_id": "ChIJA_1WDVEEdkgRunlHgXcIWP4", "types": ["point_of_interest", "establishment"]}, "ChIJpTPbwd8FdkgR_9bBlSzkNxE": {"geometry": {"location": {"lat": 51.4884874, "lng": -0.1345891}, "viewport": {"northeast": {"lat": 51.48982108029149, "lng": -0.1333335197084979}, "southwest": {"lat": 51.4871231197085, "lng": -0.136031480291502}}}, "name": "Bonita Redman", "place_id": "ChIJpTPbwd8FdkgR_9bBlSzkNxE", "types": ["point_of_interest", "establishment"]}, "ChIJw8vEauQEdkgRiwctyjxeyyA": {"geometry": {"location": {"lat": 51.4884762, "lng": -0.1342943}, "viewport": {"northeast": {"lat": 51.4898141802915, "lng": -0.132894969708498}, "southwest": {"lat": 51.4871162197085, "lng": -0.135592930291502}}}, "name": "MEGAPLAN", "place_id": "ChIJw8vEauQEdkgRiwctyjxeyyA", "types": ["general_contractor", "point_of_interest", "establishment"], "rating": 5, "user_ratings_total": 1}, "ChIJq1SLhqgEdkgRv3tY4GZ5K-w": {"geometry": {"location": {"lat": 51.4885098, "lng": -0.1342685}, "viewport": {"northeast": {"lat": 51.4898415802915, "lng": -0.132874869708498}, "southwest": {"lat": 51.4871436197085, "lng": -0.135572830291502}}}, "name": "dpa lighting consultants London", "place_id": "ChIJq1SLhqgEdkgRv3tY4GZ5K-w", "types": ["point_of_interest", "establishment"], "rating": 4, "user_ratings_total": 2}, "ChIJ5V_kieMEdkgRbzV0-YJR1w8": {"geometry": {"location": {"lat": 51.4867578967851, "lng": -0.1348838492310858}, "viewport": {"northeast": {"lat": 51.48810693029149, "lng": -0.133534569708498}, "southwest": {"lat": 51.48540896970849, "lng": -0.136232530291502}}}, "name": "94-64 St.George's Square", "place_id": "ChIJ5V_kieMEdkgRbzV0-YJR1w8", "types": ["route"]}, "ChIJvf1HheMEdkgRnikCSg7uPng": {"geometry": {"location": {"lat": 51.4866833, "lng": -0.1350045}, "viewport": {"northeast": {"lat": 51.4880448302915, "lng": -0.133583969708498}, "southwest": {"lat": 51.4853468697085, "lng": -0.136281930291502}}}, "name": "Hy Consulting", "place_id": "ChIJvf1HheMEdkgRnikCSg7uPng", "types": ["point_of_interest", "establishment"]}, "ChIJxVDSi-MEdkgRR4id6RVNHqY": {"geometry": {"location": {"lat": 51.4871619, "lng": -0.1353422}, "viewport": {"northeast": {"lat": 51.48853368029149, "lng": -0.133866419708498}, "southwest": {"lat": 51.48583571970849, "lng": -0.136564380291502}}}, "name": "Spanish Gospel Mission", "place_id": "ChIJxVDSi-MEdkgRR4id6RVNHqY", "types": ["point_of_interest", "establishment"]}, "ChIJg50p-MwEdkgRieuCP1Py5C0": {"geometry": {"location": {"lat": 51.4873901, "lng": -0.135223}, "viewport": {"northeast": {"lat": 51.48873853029149, "lng": -0.133876819708498}, "southwest": {"lat": 51.48604056970849, "lng": -0.136574780291502}}}, "name": "Lucky 8 PR", "place_id": "ChIJg50p-MwEdkgRieuCP1Py5C0", "types": ["point_of_interest", "establishment"], "rating": 1, "user_ratings_total": 1}, "ChIJxVDSi-MEdkgRaWoSPtmQ1VY": {"geometry": {"location": {"lat": 51.4870317, "lng": -0.1351316}, "viewport": {"northeast": {"lat": 51.4883907302915, "lng": -0.133725419708498}, "southwest": {"lat": 51.4856927697085, "lng": -0.136423380291502}}}, "name": "Luxury Homes Turkey Ltd", "place_id": "ChIJxVDSi-MEdkgRaWoSPtmQ1VY", "types": ["point_of_interest", "establishment"]}, "ChIJ21DSi-MEdkgR-cIZgEd2pas": {"geometry": {"location": {"lat": 51.4870439, "lng": -0.1351465}, "viewport": {"northeast": {"lat": 51.48840373029149, "lng": -0.133735969708498}, "southwest": {"lat": 51.4857057697085, "lng": -0.1364339302915021}}}, "name": "The Sheldon Trust", "place_id": "ChIJ21DSi-MEdkgR-cIZgEd2pas", "types": ["point_of_interest", "establishment"]}, "ChIJ21DSi-MEdkgRmCy9cnPwTgk": {"geometry": {"location": {"lat": 51.4870439, "lng": -0.1351465}, "viewport": {"northeast": {"lat": 51.48840373029149, "lng": -0.133735969708498}, "southwest": {"lat": 51.4857057697085, "lng": -0.1364339302915021}}}, "name": "Ulting Overseas Trust", "place_id": "ChIJ21DSi-MEdkgRmCy9cnPwTgk", "types": ["point_of_interest", "establishment"]}, "ChIJ21DSi-MEdkgRKRO6uJzeioI": {"geometry": {"location": {"lat": 51.4870439, "lng": -0.1351465}, "viewport": {"northeast": {"lat": 51.48840373029149, "lng": -0.133735969708498}, "southwest": {"lat": 51.4857057697085, "lng": -0.1364339302915021}}}, "name": "The Field Family Charitable Trust", "place_id": "ChIJ21DSi-MEdkgRKRO6uJzeioI", "types": ["point_of_interest", "establishment"]}, "ChIJ21DSi-MEdkgREP9182rCceg": {"geometry": {"location": {"lat": 51.4870439, "lng": -0.1351465}, "viewport": {"northeast": {"lat": 51.48840373029149, "lng": -0.133735969708498}, "southwest": {"lat": 51.4857057697085, "lng": -0.1364339302915021}}}, "name": "Veneziana Fund", "place_id": "ChIJ21DSi-MEdkgREP9182rCceg", "types": ["point_of_interest", "establishment"]}, "ChIJ21DSi-MEdkgRwirR-Z3BHUg": {"geometry": {"location": {"lat": 51.4870439, "lng": -0.1351465}, "viewport": {"northeast": {"lat": 51.48840373029149, "lng": -0.133735969708498}, "southwest": {"lat": 51.4857057697085, "lng": -0.1364339302915021}}}, "name": "The Simpson Foundation", "place_id": "ChIJ21DSi-MEdkgRwirR-Z3BHUg", "types": ["point_of_interest", "establishment"]}, "ChIJ21DSi-MEdkgRm2RUn6DzPV8": {"geometry": {"location": {"lat": 51.4870439, "lng": -0.1351465}, "viewport": {"northeast": {"lat": 51.48840373029149, "lng": -0.133735969708498}, "southwest": {"lat": 51.4857057697085, "lng": -0.1364339302915021}}}, "name": "Holy Rood Trust", "place_id": "ChIJ21DSi-MEdkgRm2RUn6DzPV8", "types": ["point_of_interest", "establishment"]}, "ChIJ21DSi-MEdkgRKAO5Etp7VdI": {"geometry": {"location": {"lat": 51.4870439, "lng": -0.1351465}, "viewport": {"northeast": {"lat": 51.48840373029149, "lng": -0.133735969708498}, "southwest": {"lat": 51.4857057697085, "lng": -0.1364339302915021}}}, "name": "Jm-Ca (1931)", "place_id": "ChIJ21DSi-MEdkgRKAO5Etp7VdI", "types": ["point_of_interest", "establishment"]}, "ChIJQ1dzdOQEdkgRFf7sZZVLH34": {"geometry": {"location": {"lat": 51.4872585, "lng": -0.1347219}, "viewport": {"northeast": {"lat": 51.4885750802915, "lng": -0.133553069708498}, "southwest": {"lat": 51.4858771197085, "lng": -0.136251030291502}}}, "name": "St George's Square", "place_id": "ChIJQ1dzdOQEdkgRFf7sZZVLH34", "types": ["park", "point_of_interest", "establishment"], "rating": 4.4, "user_ratings_total": 284}, "ChIJ_YwZB4IFdkgRNsuCP44kGEA": {"geometry": {"location": {"lat": 51.48688790000001, "lng": -0.1351785}, "viewport": {"northeast": {"lat": 51.4882560802915, "lng": -0.133720369708498}, "southwest": {"lat": 51.48555811970851, "lng": -0.136418330291502}}}, "name": "secretstudio", "place_id": "ChIJ_YwZB4IFdkgRNsuCP44kGEA", "types": ["point_of_interest", "establishment"]}, "ChIJLTdQieMEdkgRIJwSxlcJPwM": {"geometry": {"location": {"lat": 51.48697379999999, "lng": -0.1352799}, "viewport": {"northeast": {"lat": 51.4883470802915, "lng": -0.133792869708498}, "southwest": {"lat": 51.4856491197085, "lng": -0.1364908302915021}}}, "name": "Pimlico Man and Van", "place_id": "ChIJLTdQieMEdkgRIJwSxlcJPwM", "types": ["moving_company", "point_of_interest", "establishment"]}, "ChIJQaMjTuEEdkgRb9Pd8eevCxk": {"geometry": {"location": {"lat": 51.48731249999999, "lng": -0.1351373}, "viewport": {"northeast": {"lat": 51.48865273029149, "lng": -0.133836919708498}, "southwest": {"lat": 51.48595476970849, "lng": -0.136534880291502}}}, "name": "flats4U London", "place_id": "ChIJQaMjTuEEdkgRb9Pd8eevCxk", "types": ["point_of_interest", "establishment"]}, "ChIJN6DxiyUFdkgR916qdJo1f-U": {"geometry": {"location": {"lat": 51.4865609, "lng": -0.1349237}, "viewport": {"northeast": {"lat": 51.48792038029151, "lng": -0.133514919708498}, "southwest": {"lat": 51.48522241970851, "lng": -0.136212880291502}}}, "name": "Roman's Turo Car-Sharing", "place_id": "ChIJN6DxiyUFdkgR916qdJo1f-U", "types": ["car_rental", "point_of_interest", "establishment"]}, "ChIJ1cM3Gc4FdkgRC8u3auIU3uE": {"geometry": {"location": {"lat": 51.4865609, "lng": -0.1349237}, "viewport": {"northeast": {"lat": 51.48792038029151, "lng": -0.133514919708498}, "southwest": {"lat": 51.48522241970851, "lng": -0.136212880291502}}}, "name": "Roman's Neighbourhood Car Rental", "place_id": "ChIJ1cM3Gc4FdkgRC8u3auIU3uE", "types": ["car_rental", "point_of_interest", "establishment"]}, "ChIJRztdgeQEdkgRa1V3qQAa81s": {"geometry": {"location": {"lat": 51.48570320023603, "lng": -0.134654400227341}, "viewport": {"northeast": {"lat": 51.4870521802915, "lng": -0.133305419708498}, "southwest": {"lat": 51.4843542197085, "lng": -0.136003380291502}}}, "name": "Grosvenor Road", "place_id": "ChIJRztdgeQEdkgRa1V3qQAa81s", "types": ["route"]}, "ChIJLb8il-MEdkgRCe1PxRoDZj0": {"geometry": {"location": {"lat": 51.486144, "lng": -0.1352627}, "viewport": {"northeast": {"lat": 51.4874921802915, "lng": -0.133908069708498}, "southwest": {"lat": 51.4847942197085, "lng": -0.136606030291502}}}, "name": "TCS Groundworks", "place_id": "ChIJLb8il-MEdkgRCe1PxRoDZj0", "types": ["point_of_interest", "establishment"]}, "ChIJF-ViHHUFdkgRSF6yOWDpQeA": {"geometry": {"location": {"lat": 51.4859387, "lng": -0.1347978}, "viewport": {"northeast": {"lat": 51.4873116802915, "lng": -0.133314919708498}, "southwest": {"lat": 51.4846137197085, "lng": -0.136012880291502}}}, "name": "The Metis Institute", "place_id": "ChIJF-ViHHUFdkgRSF6yOWDpQeA", "types": ["point_of_interest", "establishment"]}, "ChIJv1hngOQEdkgRjbIfWzz6u2o": {"geometry": {"location": {"lat": 51.4859445, "lng": -0.1347878}, "viewport": {"northeast": {"lat": 51.48731643029149, "lng": -0.133310769708498}, "southwest": {"lat": 51.48461846970849, "lng": -0.136008730291502}}}, "name": "The Levantine Foundation", "place_id": "ChIJv1hngOQEdkgRjbIfWzz6u2o", "types": ["point_of_interest", "establishment"]}, "ChIJiw8Ngr0FdkgRq_8v26QciFU": {"geometry": {"location": {"lat": 51.48613739999999, "lng": -0.1347421}, "viewport": {"northeast": {"lat": 51.4874981802915, "lng": -0.133327269708498}, "southwest": {"lat": 51.4848002197085, "lng": -0.136025230291502}}}, "name": "Petit Bonheurs", "place_id": "ChIJiw8Ngr0FdkgRq_8v26QciFU", "types": ["bakery", "food", "point_of_interest", "store", "establishment"]}, "ChIJf88sc-MEdkgRvSireXpZDEM": {"geometry": {"location": {"lat": 51.48578329999999, "lng": -0.1351747}, "viewport": {"northeast": {"lat": 51.48715133029149, "lng": -0.133721719708498}, "southwest": {"lat": 51.4844533697085, "lng": -0.136419680291502}}}, "name": "Grenville House", "place_id": "ChIJf88sc-MEdkgRvSireXpZDEM", "types": ["point_of_interest", "establishment"]}, "ChIJ53UcfOMEdkgRz4MYQ-rVhcY": {"geometry": {"location": {"lat": 51.4856772, "lng": -0.1352486}, "viewport": {"northeast": {"lat": 51.48698738029149, "lng": -0.133881719708498}, "southwest": {"lat": 51.4842894197085, "lng": -0.136579680291502}}}, "name": "OC SPORTS & MANAGEMENT", "place_id": "ChIJ53UcfOMEdkgRz4MYQ-rVhcY", "types": ["point_of_interest", "establishment"]}, "ChIJEbBJeeMEdkgROQUQtsfznCg": {"geometry": {"location": {"lat": 51.4857352, "lng": -0.1353522}, "viewport": {"northeast": {"lat": 51.4871201302915, "lng": -0.133807119708498}, "southwest": {"lat": 51.4844221697085, "lng": -0.136505080291502}}}, "name": "Drake House", "place_id": "ChIJEbBJeeMEdkgROQUQtsfznCg", "types": ["point_of_interest", "establishment"]}, "ChIJI3a0juQEdkgRKGLilR4dAjo": {"geometry": {"location": {"lat": 51.4855426, "lng": -0.1343666}, "viewport": {"northeast": {"lat": 51.4868915802915, "lng": -0.133017619708498}, "southwest": {"lat": 51.4841936197085, "lng": -0.135715580291502}}}, "name": "The Helmsman", "place_id": "ChIJI3a0juQEdkgRKGLilR4dAjo", "types": ["point_of_interest", "establishment"], "rating": 5, "user_ratings_total": 1}, "ChIJibYUoOgFdkgRjfyi2DU2Aac": {"geometry": {"location": {"lat": 51.4860531, "lng": -0.1353537}, "viewport": {"northeast": {"lat": 51.4874534802915, "lng": -0.133931419708498}, "southwest": {"lat": 51.4847555197085, "lng": -0.136629380291502}}}, "name": "videography Pimlico", "place_id": "ChIJibYUoOgFdkgRjfyi2DU2Aac", "types": ["point_of_interest", "establishment"]}, "ChIJz5YFguMEdkgRvDXmMuuFevY": {"geometry": {"location": {"lat": 51.4860531, "lng": -0.1353537}, "viewport": {"northeast": {"lat": 51.4874534802915, "lng": -0.133931419708498}, "southwest": {"lat": 51.4847555197085, "lng": -0.136629380291502}}}, "name": "Frobisher House", "place_id": "ChIJz5YFguMEdkgRvDXmMuuFevY", "types": ["point_of_interest", "establishment"], "rating": 4, "user_ratings_total": 1}, "ChIJ7f-_5kEFdkgRZntBl4ge4cI": {"geometry": {"location": {"lat": 51.48637300000001, "lng": -0.1349996}, "viewport": {"northeast": {"lat": 51.48774608029149, "lng": -0.133516119708498}, "southwest": {"lat": 51.4850481197085, "lng": -0.136214080291502}}}, "name": "Cloud Zones Ltd", "place_id": "ChIJ7f-_5kEFdkgRZntBl4ge4cI", "types": ["point_of_interest", "establishment"]}, "ChIJp-KRnrAFdkgRdYGDk7VvOkA": {"geometry": {"location": {"lat": 51.486265, "lng": -0.1353369}, "viewport": {"northeast": {"lat": 51.48761408029149, "lng": -0.1339872197084979}, "southwest": {"lat": 51.4849161197085, "lng": -0.136685180291502}}}, "name": "Cliden Construction (London) Ltd.", "place_id": "ChIJp-KRnrAFdkgRdYGDk7VvOkA", "types": ["general_contractor", "point_of_interest", "establishment"]}, "ChIJ4RiPjOQEdkgRc4GQn7jnM9A": {"geometry": {"location": {"lat": 51.4856168, "lng": -0.1339331}, "viewport": {"northeast": {"lat": 51.48696301457204, "lng": -0.1326969358683757}, "southwest": {"lat": 51.48426505398904, "lng": -0.1353948964513798}}}, "name": "Pimlico Garden & Shrubbery", "place_id": "ChIJ4RiPjOQEdkgRc4GQn7jnM9A", "types": ["park", "premise", "point_of_interest", "establishment"]}, "ChIJ4ZhffeMEdkgRGzMZ9xk4-vE": {"geometry": {"location": {"lat": 51.4852664, "lng": -0.1347711}, "viewport": {"northeast": {"lat": 51.4866153802915, "lng": -0.133422119708498}, "southwest": {"lat": 51.4839174197085, "lng": -0.136120080291502}}}, "name": "Westminster Boating Base", "place_id": "ChIJ4ZhffeMEdkgRGzMZ9xk4-vE", "types": ["point_of_interest", "establishment"], "rating": 4.9, "user_ratings_total": 78}, "ChIJDV1lcAoFdkgR9CtrnsoxWhw": {"geometry": {"location": {"lat": 51.4852909, "lng": -0.1347908}, "viewport": {"northeast": {"lat": 51.4868160302915, "lng": -0.133530119708498}, "southwest": {"lat": 51.4841180697085, "lng": -0.136228080291502}}}, "name": "Warships museum", "place_id": "ChIJDV1lcAoFdkgR9CtrnsoxWhw", "types": ["museum", "point_of_interest", "establishment"]}, "ChIJpYFM3uMEdkgREfISgVGDkBI": {"geometry": {"location": {"lat": 51.48848367755205, "lng": -0.1365211434147427}, "viewport": {"northeast": {"lat": 51.48983073029149, "lng": -0.13495055}, "southwest": {"lat": 51.4871327697085, "lng": -0.13808995}}}, "name": "32-10 Lupus St", "place_id": "ChIJpYFM3uMEdkgREfISgVGDkBI", "types": ["route"]}, "ChIJ6UiF0OMEdkgR-acT8e3bJMo": {"geometry": {"location": {"lat": 51.4880398, "lng": -0.1371874}, "viewport": {"northeast": {"lat": 51.48953753029149, "lng": -0.136049519708498}, "southwest": {"lat": 51.48683956970849, "lng": -0.138747480291502}}}, "name": "Capital Carboot", "place_id": "ChIJ6UiF0OMEdkgR-acT8e3bJMo", "types": ["point_of_interest", "establishment"], "rating": 3.9, "user_ratings_total": 202}, "ChIJHZsf3uMEdkgRuGIAQT5vkdQ": {"geometry": {"location": {"lat": 51.4882678, "lng": -0.1366178}, "viewport": {"northeast": {"lat": 51.4896283302915, "lng": -0.135764719708498}, "southwest": {"lat": 51.4869303697085, "lng": -0.138462680291502}}}, "name": "Pimlico Primary", "place_id": "ChIJHZsf3uMEdkgRuGIAQT5vkdQ", "types": ["school", "point_of_interest", "establishment"], "rating": 4.9, "user_ratings_total": 10}, "ChIJF6m_2uMEdkgRg21WwKSexxY": {"geometry": {"location": {"lat": 51.4880668, "lng": -0.1370759}, "viewport": {"northeast": {"lat": 51.4895606802915, "lng": -0.135993769708498}, "southwest": {"lat": 51.4868627197085, "lng": -0.138691730291502}}}, "name": "Alpha Church", "place_id": "ChIJF6m_2uMEdkgRg21WwKSexxY", "types": ["point_of_interest", "establishment"], "rating": 4.8, "user_ratings_total": 28}, "ChIJ45of3uMEdkgRWSbPmTPVPpg": {"geometry": {"location": {"lat": 51.4881811, "lng": -0.1371032}, "viewport": {"northeast": {"lat": 51.48958383029151, "lng": -0.136007419708498}, "southwest": {"lat": 51.48688586970851, "lng": -0.138705380291502}}}, "name": "FUTURE", "place_id": "ChIJ45of3uMEdkgRWSbPmTPVPpg", "types": ["point_of_interest", "establishment"]}, "ChIJG4EIs2MddkgR_TXo0hgeVBw": {"geometry": {"location": {"lat": 51.4884936, "lng": -0.1368608}, "viewport": {"northeast": {"lat": 51.48980933029149, "lng": -0.135496069708498}, "southwest": {"lat": 51.48711136970849, "lng": -0.138194030291502}}}, "name": "ALFA Serviced Apartments", "place_id": "ChIJG4EIs2MddkgR_TXo0hgeVBw", "types": ["lodging", "point_of_interest", "establishment"], "rating": 5, "user_ratings_total": 2}, "ChIJ7_xU--MEdkgRUQV7EybDQg0": {"geometry": {"location": {"lat": 51.488226, "lng": -0.135635}, "viewport": {"northeast": {"lat": 51.48957918029149, "lng": -0.134262119708498}, "southwest": {"lat": 51.48688121970849, "lng": -0.136960080291502}}}, "name": "Santander Cycles", "place_id": "ChIJ7_xU--MEdkgRUQV7EybDQg0", "types": ["point_of_interest", "establishment"], "rating": 5, "user_ratings_total": 2}, "ChIJScUk7OMEdkgRxiKmRzgaLls": {"geometry": {"location": {"lat": 51.4876259, "lng": -0.1359166}, "viewport": {"northeast": {"lat": 51.48897777804937, "lng": -0.1345821269674574}, "southwest": {"lat": 51.48627981746637, "lng": -0.1372800875504614}}}, "name": "Parking lot", "place_id": "ChIJScUk7OMEdkgRxiKmRzgaLls", "types": ["parking", "premise", "point_of_interest", "establishment"]}, "ChIJ0Q6bwOMEdkgRqN_Ykj2CS7I": {"geometry": {"location": {"lat": 51.48736118591805, "lng": -0.1366699453754653}, "viewport": {"northeast": {"lat": 51.48871018029151, "lng": -0.1348092500000001}, "southwest": {"lat": 51.48601221970851, "lng": -0.1385306499999999}}}, "name": "2-46 Chichester St", "place_id": "ChIJ0Q6bwOMEdkgRqN_Ykj2CS7I", "types": ["route"]}, "ChIJ2SDiH10OdkgRMCilN79CRe8": {"geometry": {"location": {"lat": 51.48725090000001, "lng": -0.13666}, "viewport": {"northeast": {"lat": 51.4886465302915, "lng": -0.135396569708498}, "southwest": {"lat": 51.4859485697085, "lng": -0.138094530291502}}}, "name": "Dolphin House - Serviced Apartments", "place_id": "ChIJ2SDiH10OdkgRMCilN79CRe8", "types": ["lodging", "point_of_interest", "establishment"], "rating": 4.1, "user_ratings_total": 594}, "ChIJu4XTCuMEdkgR2rsZM6ZaHL0": {"geometry": {"location": {"lat": 51.4870426, "lng": -0.1365423}, "viewport": {"northeast": {"lat": 51.4885497802915, "lng": -0.135337719708498}, "southwest": {"lat": 51.4858518197085, "lng": -0.138035680291502}}}, "name": "DSQ GYM", "place_id": "ChIJu4XTCuMEdkgR2rsZM6ZaHL0", "types": ["gym", "health", "point_of_interest", "establishment"], "rating": 3.8, "user_ratings_total": 165}, "ChIJ12GxmuMEdkgRIciWi6PFS4I": {"geometry": {"location": {"lat": 51.4870916, "lng": -0.1365107}, "viewport": {"northeast": {"lat": 51.4885785302915, "lng": -0.135321919708498}, "southwest": {"lat": 51.4858805697085, "lng": -0.138019880291502}}}, "name": "The Entertainment Agents' Association", "place_id": "ChIJ12GxmuMEdkgRIciWi6PFS4I", "types": ["point_of_interest", "establishment"]}, "ChIJu4XTCuMEdkgRBTIuTdRWako": {"geometry": {"location": {"lat": 51.4870916, "lng": -0.1365107}, "viewport": {"northeast": {"lat": 51.4885785302915, "lng": -0.135321919708498}, "southwest": {"lat": 51.4858805697085, "lng": -0.138019880291502}}}, "name": "David Propert", "place_id": "ChIJu4XTCuMEdkgRBTIuTdRWako", "types": ["health", "point_of_interest", "establishment"], "rating": 5, "user_ratings_total": 8}, "ChIJS6eKLVEDdkgRlzdZKHdxA44": {"geometry": {"location": {"lat": 51.4870916, "lng": -0.1365107}, "viewport": {"northeast": {"lat": 51.4885785302915, "lng": -0.135321919708498}, "southwest": {"lat": 51.4858805697085, "lng": -0.138019880291502}}}, "name": "Good For The Sole", "place_id": "ChIJS6eKLVEDdkgRlzdZKHdxA44", "types": ["health", "point_of_interest", "establishment"], "rating": 5, "user_ratings_total": 2}, "ChIJTc-IvuMEdkgRdniZOyQKTRQ": {"geometry": {"location": {"lat": 51.4869375, "lng": -0.1364365}, "viewport": {"northeast": {"lat": 51.48849703029151, "lng": -0.135211619708498}, "southwest": {"lat": 51.48579906970851, "lng": -0.137909580291502}}}, "name": "Dolphin Square", "place_id": "ChIJTc-IvuMEdkgRdniZOyQKTRQ", "types": ["real_estate_agency", "point_of_interest", "establishment"], "rating": 3.8, "user_ratings_total": 33}, "ChIJcUaXl-MEdkgRDxvj5xGwTJU": {"geometry": {"location": {"lat": 51.4870989, "lng": -0.136454}, "viewport": {"northeast": {"lat": 51.48858698029149, "lng": -0.135293569708498}, "southwest": {"lat": 51.4858890197085, "lng": -0.137991530291502}}}, "name": "The Spa - In Dolphin Square", "place_id": "ChIJcUaXl-MEdkgRDxvj5xGwTJU", "types": ["beauty_salon", "hair_care", "spa", "point_of_interest", "establishment"], "rating": 4.5, "user_ratings_total": 375}, "ChIJ-2l5JOIEdkgRkwZfjUVlJA4": {"geometry": {"location": {"lat": 51.4870916, "lng": -0.1365107}, "viewport": {"northeast": {"lat": 51.4885785302915, "lng": -0.135321919708498}, "southwest": {"lat": 51.4858805697085, "lng": -0.138019880291502}}}, "name": "Ghazaleh Rahimi Podiatry (Pimlico Podiatry)", "place_id": "ChIJ-2l5JOIEdkgRkwZfjUVlJA4", "types": ["doctor", "health", "point_of_interest", "establishment"], "rating": 5, "user_ratings_total": 32}, "ChIJjepWleMEdkgRPlblQDvZC4Q": {"geometry": {"location": {"lat": 51.48731180000001, "lng": -0.1364031000000001}, "viewport": {"northeast": {"lat": 51.48863248029151, "lng": -0.135287369708498}, "southwest": {"lat": 51.48593451970851, "lng": -0.137985330291502}}}, "name": "Rodney House", "place_id": "ChIJjepWleMEdkgRPlblQDvZC4Q", "types": ["point_of_interest", "establishment"], "rating": 5, "user_ratings_total": 1}, "ChIJr8XGlOMEdkgRT_izjLM60l0": {"geometry": {"location": {"lat": 51.4872798, "lng": -0.1361597}, "viewport": {"northeast": {"lat": 51.4886876302915, "lng": -0.1351464197084979}, "southwest": {"lat": 51.4859896697085, "lng": -0.137844380291502}}}, "name": "Newsagents - Dolphin Square Arcade", "place_id": "ChIJr8XGlOMEdkgRT_izjLM60l0", "types": ["point_of_interest", "store", "establishment"]}, "ChIJwxmcwOMEdkgR9cdk6TrsVRE": {"geometry": {"location": {"lat": 51.487354, "lng": -0.13667}, "viewport": {"northeast": {"lat": 51.4887366802915, "lng": -0.135336019708498}, "southwest": {"lat": 51.4860387197085, "lng": -0.138033980291502}}}, "name": "Tai Chi City", "place_id": "ChIJwxmcwOMEdkgR9cdk6TrsVRE", "types": ["school", "health", "point_of_interest", "establishment"], "rating": 4.9, "user_ratings_total": 16}, "ChIJNwmbwOMEdkgRvPQZyiZR_Js": {"geometry": {"location": {"lat": 51.487365, "lng": -0.13666}, "viewport": {"northeast": {"lat": 51.4887423302915, "lng": -0.135323619708498}, "southwest": {"lat": 51.4860443697085, "lng": -0.138021580291502}}}, "name": "Love Swimming", "place_id": "ChIJNwmbwOMEdkgRvPQZyiZR_Js", "types": ["point_of_interest", "establishment"], "rating": 3.7, "user_ratings_total": 3}, "ChIJ12GxmuMEdkgRyL8RoNmg3Bc": {"geometry": {"location": {"lat": 51.48704300000001, "lng": -0.1357533}, "viewport": {"northeast": {"lat": 51.48839803029151, "lng": -0.134341519708498}, "southwest": {"lat": 51.48570006970851, "lng": -0.137039480291502}}}, "name": "Genever & Partners Ltd.", "place_id": "ChIJ12GxmuMEdkgRyL8RoNmg3Bc", "types": ["point_of_interest", "establishment"]}, "ChIJPx6jsOMEdkgR8najCw5AuDI": {"geometry": {"location": {"lat": 51.4869372, "lng": -0.1371918}, "viewport": {"northeast": {"lat": 51.4880780802915, "lng": -0.135861219708498}, "southwest": {"lat": 51.4853801197085, "lng": -0.138559180291502}}}, "name": "Integria Consulting Ltd", "place_id": "ChIJPx6jsOMEdkgR8najCw5AuDI", "types": ["point_of_interest", "establishment"]}, "ChIJUfpeleMEdkgRAenv5Yp5zQg": {"geometry": {"location": {"lat": 51.4870916, "lng": -0.1365107}, "viewport": {"northeast": {"lat": 51.4885785302915, "lng": -0.135321919708498}, "southwest": {"lat": 51.4858805697085, "lng": -0.138019880291502}}}, "name": "Dolphin Bar and Grill", "place_id": "ChIJUfpeleMEdkgRAenv5Yp5zQg", "types": ["restaurant", "cafe", "bar", "food", "point_of_interest", "store", "establishment"], "rating": 3.5, "user_ratings_total": 56}, "ChIJu4XTCuMEdkgRGPRp1fxjxvM": {"geometry": {"location": {"lat": 51.4872872, "lng": -0.1362381}, "viewport": {"northeast": {"lat": 51.48868158029149, "lng": -0.135185619708498}, "southwest": {"lat": 51.48598361970849, "lng": -0.137883580291502}}}, "name": "Dolphin Square Dry Cleaners", "place_id": "ChIJu4XTCuMEdkgRGPRp1fxjxvM", "types": ["laundry", "point_of_interest", "establishment"], "rating": 2.9, "user_ratings_total": 9}, "ChIJKdfWveMEdkgR-JIcQ2BfQag": {"geometry": {"location": {"lat": 51.4870916, "lng": -0.1365107}, "viewport": {"northeast": {"lat": 51.4885785302915, "lng": -0.135321919708498}, "southwest": {"lat": 51.4858805697085, "lng": -0.138019880291502}}}, "name": "The Hungry Dolphin Caf\u00e9", "place_id": "ChIJKdfWveMEdkgR-JIcQ2BfQag", "types": ["cafe", "restaurant", "food", "point_of_interest", "store", "establishment"], "rating": 5, "user_ratings_total": 2}, "ChIJ32GxmuMEdkgRvSksVXAJiko": {"geometry": {"location": {"lat": 51.4870162, "lng": -0.1364477}, "viewport": {"northeast": {"lat": 51.48854318029149, "lng": -0.135290419708498}, "southwest": {"lat": 51.4858452197085, "lng": -0.137988380291502}}}, "name": "Calmer Clinics", "place_id": "ChIJ32GxmuMEdkgRvSksVXAJiko", "types": ["physiotherapist", "health", "point_of_interest", "establishment"], "rating": 4.5, "user_ratings_total": 8}, "ChIJKdfWveMEdkgRTVSzN27YKCs": {"geometry": {"location": {"lat": 51.4869919, "lng": -0.1365441}, "viewport": {"northeast": {"lat": 51.48852248029149, "lng": -0.135338619708498}, "southwest": {"lat": 51.4858245197085, "lng": -0.138036580291502}}}, "name": "Dolphin International Travel", "place_id": "ChIJKdfWveMEdkgRTVSzN27YKCs", "types": ["travel_agency", "point_of_interest", "establishment"]}, "ChIJhVwH0VoFdkgRSdx4yOoIIrw": {"geometry": {"location": {"lat": 51.4870916, "lng": -0.1365107}, "viewport": {"northeast": {"lat": 51.4885785302915, "lng": -0.135321919708498}, "southwest": {"lat": 51.4858805697085, "lng": -0.138019880291502}}}, "name": "Any London Waste", "place_id": "ChIJhVwH0VoFdkgRSdx4yOoIIrw", "types": ["point_of_interest", "establishment"]}, "ChIJOzg2heMEdkgRxV74lyoC8B8": {"geometry": {"location": {"lat": 51.4870916, "lng": -0.1365107}, "viewport": {"northeast": {"lat": 51.4885785302915, "lng": -0.135321919708498}, "southwest": {"lat": 51.4858805697085, "lng": -0.138019880291502}}}, "name": "Colour Affects", "place_id": "ChIJOzg2heMEdkgRxV74lyoC8B8", "types": ["point_of_interest", "establishment"]}, "ChIJKdfWveMEdkgRae_RBg63Xo8": {"geometry": {"location": {"lat": 51.4870916, "lng": -0.1365107}, "viewport": {"northeast": {"lat": 51.4885785302915, "lng": -0.135321919708498}, "southwest": {"lat": 51.4858805697085, "lng": -0.138019880291502}}}, "name": "Dolphin News", "place_id": "ChIJKdfWveMEdkgRae_RBg63Xo8", "types": ["point_of_interest", "establishment"]}, "ChIJH_BO404FdkgRg-V3uxWjVXE": {"geometry": {"location": {"lat": 51.48696469999999, "lng": -0.1366936}, "viewport": {"northeast": {"lat": 51.4884959302915, "lng": -0.135425619708498}, "southwest": {"lat": 51.4857979697085, "lng": -0.138123580291502}}}, "name": "Dino Chavda Online Coaching", "place_id": "ChIJH_BO404FdkgRg-V3uxWjVXE", "types": ["health", "point_of_interest", "establishment"], "rating": 5, "user_ratings_total": 8}, "ChIJyRn33Y4FdkgRWwHXkEHS3Xo": {"geometry": {"location": {"lat": 51.4871254, "lng": -0.136602}, "viewport": {"northeast": {"lat": 51.48858933029149, "lng": -0.135367569708498}, "southwest": {"lat": 51.48589136970849, "lng": -0.138065530291502}}}, "name": "Serviced Rentals - Dolphin Square", "place_id": "ChIJyRn33Y4FdkgRWwHXkEHS3Xo", "types": ["real_estate_agency", "point_of_interest", "establishment"]}, "ChIJR4_oGHwFdkgR2LQ2x_xYMMU": {"geometry": {"location": {"lat": 51.4870256, "lng": -0.136727}, "viewport": {"northeast": {"lat": 51.4885258802915, "lng": -0.135445219708498}, "southwest": {"lat": 51.4858279197085, "lng": -0.138143180291502}}}, "name": "Jgfitness360", "place_id": "ChIJR4_oGHwFdkgR2LQ2x_xYMMU", "types": ["health", "point_of_interest", "establishment"], "rating": 5, "user_ratings_total": 4}, "ChIJM2xwoogFdkgRAwFdYJwbeLg": {"geometry": {"location": {"lat": 51.48725400000001, "lng": -0.1361915}, "viewport": {"northeast": {"lat": 51.4886841302915, "lng": -0.135162319708498}, "southwest": {"lat": 51.4859861697085, "lng": -0.137860280291502}}}, "name": "Dolphin Square Caf\u00e9", "place_id": "ChIJM2xwoogFdkgRAwFdYJwbeLg", "types": ["cafe", "food", "point_of_interest", "establishment"]}, "ChIJo_TikPIFdkgRTJ_moPGy0Bo": {"geometry": {"location": {"lat": 51.4872755, "lng": -0.1366204}, "viewport": {"northeast": {"lat": 51.4886505802915, "lng": -0.135376769708498}, "southwest": {"lat": 51.4859526197085, "lng": -0.138074730291502}}}, "name": "Mieke Rainbird Chill, Acupuncturist", "place_id": "ChIJo_TikPIFdkgRTJ_moPGy0Bo", "types": ["health", "point_of_interest", "establishment"]}, "ChIJRz7hbhUFdkgR7qkGN15FY7s": {"geometry": {"location": {"lat": 51.4872804, "lng": -0.1366785}, "viewport": {"northeast": {"lat": 51.48866623029149, "lng": -0.135345869708498}, "southwest": {"lat": 51.48596826970849, "lng": -0.138043830291502}}}, "name": "You Live Life Well by Michelle Cohen", "place_id": "ChIJRz7hbhUFdkgR7qkGN15FY7s", "types": ["health", "point_of_interest", "establishment"], "rating": 5, "user_ratings_total": 7}, "ChIJKz5g7AYFdkgRmXmHMfjhwdc": {"geometry": {"location": {"lat": 51.48736, "lng": -0.13666}, "viewport": {"northeast": {"lat": 51.48874068029149, "lng": -0.135325119708498}, "southwest": {"lat": 51.4860427197085, "lng": -0.138023080291502}}}, "name": "Clapham Junction", "place_id": "ChIJKz5g7AYFdkgRmXmHMfjhwdc", "types": ["lodging", "point_of_interest", "establishment"]}, "ChIJ0y15w6kFdkgRlDMareXmPoA": {"geometry": {"location": {"lat": 51.4872944, "lng": -0.1358957}, "viewport": {"northeast": {"lat": 51.4885212802915, "lng": -0.1344251697084979}, "southwest": {"lat": 51.48582331970851, "lng": -0.137123130291502}}}, "name": "Hotel Dolphin", "place_id": "ChIJ0y15w6kFdkgRlDMareXmPoA", "types": ["lodging", "point_of_interest", "establishment"]}, "ChIJ418Z6-MEdkgRyGiQsSsFmjE": {"geometry": {"location": {"lat": 51.48744070000001, "lng": -0.1362084}, "viewport": {"northeast": {"lat": 51.4888200302915, "lng": -0.134872919708498}, "southwest": {"lat": 51.4861220697085, "lng": -0.1375708802915021}}}, "name": "SW Finance", "place_id": "ChIJ418Z6-MEdkgRyGiQsSsFmjE", "types": ["finance", "point_of_interest", "establishment"]}, "ChIJ418Z6-MEdkgRU5XIJOJbY3Y": {"geometry": {"location": {"lat": 51.48744070000001, "lng": -0.1362084}, "viewport": {"northeast": {"lat": 51.4888200302915, "lng": -0.134872919708498}, "southwest": {"lat": 51.4861220697085, "lng": -0.1375708802915021}}}, "name": "Luxury Timepiece", "place_id": "ChIJ418Z6-MEdkgRU5XIJOJbY3Y", "types": ["point_of_interest", "store", "establishment"]}, "ChIJy4i9BBAFdkgRyqjbvZbYCsk": {"geometry": {"location": {"lat": 51.48744070000001, "lng": -0.1362084}, "viewport": {"northeast": {"lat": 51.4888200302915, "lng": -0.134872919708498}, "southwest": {"lat": 51.4861220697085, "lng": -0.1375708802915021}}}, "name": "Kempo Jujitsu Self Defence (Pimlico)", "place_id": "ChIJy4i9BBAFdkgRyqjbvZbYCsk", "types": ["health", "point_of_interest", "establishment"]}, "ChIJob01vuMEdkgRUxeF_XZk4cg": {"geometry": {"location": {"lat": 51.48744070000001, "lng": -0.1362084}, "viewport": {"northeast": {"lat": 51.4888200302915, "lng": -0.134872919708498}, "southwest": {"lat": 51.4861220697085, "lng": -0.1375708802915021}}}, "name": "My French Physio", "place_id": "ChIJob01vuMEdkgRUxeF_XZk4cg", "types": ["physiotherapist", "health", "point_of_interest", "establishment"], "rating": 4.9, "user_ratings_total": 31}, "ChIJV8gP0ykFdkgRnQW6XhtmmxQ": {"geometry": {"location": {"lat": 51.4873829, "lng": -0.1359522}, "viewport": {"northeast": {"lat": 51.48861288029149, "lng": -0.134500219708498}, "southwest": {"lat": 51.4859149197085, "lng": -0.137198180291502}}}, "name": "Collum Hair Co", "place_id": "ChIJV8gP0ykFdkgRnQW6XhtmmxQ", "types": ["hair_care", "point_of_interest", "establishment"]}, "ChIJNZr_TMQFdkgRKy3kWQC1mP4": {"geometry": {"location": {"lat": 51.4867789, "lng": -0.137181}, "viewport": {"northeast": {"lat": 51.4879998802915, "lng": -0.135830969708498}, "southwest": {"lat": 51.4853019197085, "lng": -0.138528930291502}}}, "name": "Duncan House", "place_id": "ChIJNZr_TMQFdkgRKy3kWQC1mP4", "types": ["lodging", "point_of_interest", "establishment"], "rating": 3.5, "user_ratings_total": 2}, "ChIJnXGHr-MEdkgRs0t1_Js2Hzk": {"geometry": {"location": {"lat": 51.4865458, "lng": -0.1369043}, "viewport": {"northeast": {"lat": 51.4878769802915, "lng": -0.135681319708498}, "southwest": {"lat": 51.4851790197085, "lng": -0.138379280291502}}}, "name": "Beatty House", "place_id": "ChIJnXGHr-MEdkgRs0t1_Js2Hzk", "types": ["lodging", "point_of_interest", "establishment"], "rating": 4, "user_ratings_total": 5}, "ChIJSWAYcuMEdkgRoZVmSJF0nR0": {"geometry": {"location": {"lat": 51.48544711879729, "lng": -0.136078180284067}, "viewport": {"northeast": {"lat": 51.48679558029151, "lng": -0.134728969708498}, "southwest": {"lat": 51.48409761970851, "lng": -0.137426930291502}}}, "name": "132-144 Grosvenor Rd", "place_id": "ChIJSWAYcuMEdkgRoZVmSJF0nR0", "types": ["route"]}, "ChIJpSFBheMEdkgRX_p4FgoicsQ": {"geometry": {"location": {"lat": 51.4856145, "lng": -0.1360155}, "viewport": {"northeast": {"lat": 51.48699703029149, "lng": -0.135066169708498}, "southwest": {"lat": 51.4842990697085, "lng": -0.137764130291502}}}, "name": "Dolphin Square Trust Ltd", "place_id": "ChIJpSFBheMEdkgRX_p4FgoicsQ", "types": ["finance", "point_of_interest", "establishment"]}, "ChIJD3zWcOMEdkgRsrz3pVOsaNw": {"geometry": {"location": {"lat": 51.48551550000001, "lng": -0.1362362}, "viewport": {"northeast": {"lat": 51.4868199802915, "lng": -0.134868319708498}, "southwest": {"lat": 51.4841220197085, "lng": -0.1375662802915021}}}, "name": "Raleigh House", "place_id": "ChIJD3zWcOMEdkgRsrz3pVOsaNw", "types": ["point_of_interest", "establishment"], "rating": 3.3, "user_ratings_total": 4}, "ChIJcT5P1PIFdkgRvzw_RNkEr34": {"geometry": {"location": {"lat": 51.4858826, "lng": -0.1364269}, "viewport": {"northeast": {"lat": 51.4872002802915, "lng": -0.135292369708498}, "southwest": {"lat": 51.4845023197085, "lng": -0.137990330291502}}}, "name": "Hawkins house", "place_id": "ChIJcT5P1PIFdkgRvzw_RNkEr34", "types": ["point_of_interest", "establishment"]}, "ChIJMcDnC-MEdkgRqb_Ccax8yb4": {"geometry": {"location": {"lat": 51.4858157, "lng": -0.1367311}, "viewport": {"northeast": {"lat": 51.4871726302915, "lng": -0.135444069708498}, "southwest": {"lat": 51.4844746697085, "lng": -0.138142030291502}}}, "name": "Nelson House", "place_id": "ChIJMcDnC-MEdkgRqb_Ccax8yb4", "types": ["point_of_interest", "establishment"], "rating": 2.5, "user_ratings_total": 6}, "ChIJoTZ0-6QFdkgREGemtL2_1_o": {"geometry": {"location": {"lat": 51.4855325, "lng": -0.1365319}, "viewport": {"northeast": {"lat": 51.4878164, "lng": -0.134730819708498}, "southwest": {"lat": 51.4847712, "lng": -0.137428780291502}}}, "name": "Keyes House", "place_id": "ChIJoTZ0-6QFdkgREGemtL2_1_o", "types": ["lodging", "point_of_interest", "establishment"], "rating": 4.8, "user_ratings_total": 4}, "ChIJ82I3d-MEdkgRxpCuRy7rFg0": {"geometry": {"location": {"lat": 51.4857375, "lng": -0.1357846}, "viewport": {"northeast": {"lat": 51.4869742802915, "lng": -0.134382719708498}, "southwest": {"lat": 51.4842763197085, "lng": -0.137080680291502}}}, "name": "Pimlico resource centre Aylesford Street SW1V 3LR", "place_id": "ChIJ82I3d-MEdkgRxpCuRy7rFg0", "types": ["point_of_interest", "establishment"]}, "ChIJdU80sOMEdkgRJAdp6Se3RcI": {"geometry": {"location": {"lat": 51.4864956, "lng": -0.1372193}, "viewport": {"northeast": {"lat": 51.48760321928631, "lng": -0.1357570783875004}, "southwest": {"lat": 51.48490525870331, "lng": -0.1384550389705044}}}, "name": "Parking lot", "place_id": "ChIJdU80sOMEdkgRJAdp6Se3RcI", "types": ["parking", "premise", "point_of_interest", "establishment"]}, "ChIJJaNBEuMEdkgRMOboWQru46s": {"geometry": {"location": {"lat": 51.48534785003365, "lng": -0.1366615500311137}, "viewport": {"northeast": {"lat": 51.4866968302915, "lng": -0.135312569708498}, "southwest": {"lat": 51.4839988697085, "lng": -0.138010530291502}}}, "name": "Grosvenor Road", "place_id": "ChIJJaNBEuMEdkgRMOboWQru46s", "types": ["route"]}, "ChIJqdkcE-MEdkgRFoIThty1AzU": {"geometry": {"location": {"lat": 51.4851923, "lng": -0.1365438}, "viewport": {"northeast": {"lat": 51.48662283029149, "lng": -0.135232519708498}, "southwest": {"lat": 51.4839248697085, "lng": -0.137930480291502}}}, "name": "Shop'n Drive", "place_id": "ChIJqdkcE-MEdkgRFoIThty1AzU", "types": ["convenience_store", "food", "point_of_interest", "store", "establishment"], "rating": 3, "user_ratings_total": 2}, "ChIJXZAabeMEdkgRuIjhD8llvt8": {"geometry": {"location": {"lat": 51.48518129999999, "lng": -0.1362528}, "viewport": {"northeast": {"lat": 51.48663998029149, "lng": -0.134954619708498}, "southwest": {"lat": 51.48394201970849, "lng": -0.137652580291502}}}, "name": "ATM", "place_id": "ChIJXZAabeMEdkgRuIjhD8llvt8", "types": ["atm", "finance", "point_of_interest", "establishment"], "rating": 5, "user_ratings_total": 1}, "ChIJz94TfhgFdkgRpy0fG0qAYFE": {"geometry": {"location": {"lat": 51.48525369999999, "lng": -0.1363485}, "viewport": {"northeast": {"lat": 51.4866715802915, "lng": -0.135029469708498}, "southwest": {"lat": 51.4839736197085, "lng": -0.137727430291502}}}, "name": "Shell", "place_id": "ChIJz94TfhgFdkgRpy0fG0qAYFE", "types": ["gas_station", "convenience_store", "food", "point_of_interest", "store", "establishment"], "rating": 3, "user_ratings_total": 35}, "ChIJy4qbEuMEdkgRTNbXYb0JUoI": {"geometry": {"location": {"lat": 51.4852664, "lng": -0.1362442}, "viewport": {"northeast": {"lat": 51.48668668029151, "lng": -0.134925469708498}, "southwest": {"lat": 51.48398871970851, "lng": -0.137623430291502}}}, "name": "nubeginningsfrance", "place_id": "ChIJy4qbEuMEdkgRTNbXYb0JUoI", "types": ["health", "point_of_interest", "establishment"]}, "ChIJJ15ULuIEdkgR9axHF5RE74w": {"geometry": {"location": {"lat": 51.4881418500044, "lng": -0.1384255500049712}, "viewport": {"northeast": {"lat": 51.4894908302915, "lng": -0.137076569708498}, "southwest": {"lat": 51.4867928697085, "lng": -0.139774530291502}}}, "name": "48 Lupus St", "place_id": "ChIJJ15ULuIEdkgR9axHF5RE74w", "types": ["route"]}, "ChIJU6g5K-IEdkgRkc0EKkhtOvM": {"geometry": {"location": {"lat": 51.48838300000001, "lng": -0.1379631}, "viewport": {"northeast": {"lat": 51.48965938029151, "lng": -0.136579769708498}, "southwest": {"lat": 51.48696141970851, "lng": -0.1392777302915021}}}, "name": "Gray Fulton Ltd", "place_id": "ChIJU6g5K-IEdkgRkc0EKkhtOvM", "types": ["point_of_interest", "establishment"]}, "ChIJiSOqBKgEdkgRHll4v-3eFcc": {"geometry": {"location": {"lat": 51.4883299, "lng": -0.1384788}, "viewport": {"northeast": {"lat": 51.4897037302915, "lng": -0.1371967197084979}, "southwest": {"lat": 51.4870057697085, "lng": -0.139894680291502}}}, "name": "Emma Gibbons", "place_id": "ChIJiSOqBKgEdkgRHll4v-3eFcc", "types": ["health", "point_of_interest", "establishment"]}, "ChIJW5qLLeIEdkgR0IrYY1NxEtw": {"geometry": {"location": {"lat": 51.48801, "lng": -0.138154}, "viewport": {"northeast": {"lat": 51.48944273029149, "lng": -0.136569719708498}, "southwest": {"lat": 51.4867447697085, "lng": -0.139267680291502}}}, "name": "Amazon Locker - Hayden", "place_id": "ChIJW5qLLeIEdkgR0IrYY1NxEtw", "types": ["point_of_interest", "establishment"], "rating": 4, "user_ratings_total": 1}, "ChIJ0z9zLeIEdkgRMAfQpd0TMU8": {"geometry": {"location": {"lat": 51.48802449999999, "lng": -0.1380043}, "viewport": {"northeast": {"lat": 51.4894660302915, "lng": -0.136663869708498}, "southwest": {"lat": 51.4867680697085, "lng": -0.139361830291502}}}, "name": "Westminster Adult Education Service", "place_id": "ChIJ0z9zLeIEdkgRMAfQpd0TMU8", "types": ["university", "point_of_interest", "establishment"], "rating": 3.8, "user_ratings_total": 24}, "ChIJNejl1OMEdkgRbf4Hdmr57dE": {"geometry": {"location": {"lat": 51.48832119999999, "lng": -0.1381471}, "viewport": {"northeast": {"lat": 51.48961893029149, "lng": -0.136723969708498}, "southwest": {"lat": 51.4869209697085, "lng": -0.139421930291502}}}, "name": "Pimlico Health @ The Marven", "place_id": "ChIJNejl1OMEdkgRbf4Hdmr57dE", "types": ["health", "point_of_interest", "establishment"], "rating": 2.6, "user_ratings_total": 68}, "ChIJ8Xt90uMEdkgRJr_JIqDoj88": {"geometry": {"location": {"lat": 51.48802560000001, "lng": -0.1377073}, "viewport": {"northeast": {"lat": 51.4894883802915, "lng": -0.136359919708498}, "southwest": {"lat": 51.48679041970851, "lng": -0.139057880291502}}}, "name": "AlManhaj Arabic Academy", "place_id": "ChIJ8Xt90uMEdkgRJr_JIqDoj88", "types": ["school", "point_of_interest", "establishment"], "rating": 2.5, "user_ratings_total": 2}, "ChIJJ_RvimYEdkgRTHRX41Gy2b8": {"geometry": {"location": {"lat": 51.488087, "lng": -0.137595}, "viewport": {"northeast": {"lat": 51.4895302302915, "lng": -0.136287819708498}, "southwest": {"lat": 51.4868322697085, "lng": -0.138985780291502}}}, "name": "Choice Tutors", "place_id": "ChIJJ_RvimYEdkgRTHRX41Gy2b8", "types": ["point_of_interest", "establishment"], "rating": 3.7, "user_ratings_total": 3}, "ChIJZTVaK-IEdkgReCeJbcAczpY": {"geometry": {"location": {"lat": 51.4883469, "lng": -0.137951}, "viewport": {"northeast": {"lat": 51.4896458802915, "lng": -0.136549069708498}, "southwest": {"lat": 51.4869479197085, "lng": -0.139247030291502}}}, "name": "Paxall Pharmacy", "place_id": "ChIJZTVaK-IEdkgReCeJbcAczpY", "types": ["pharmacy", "health", "point_of_interest", "store", "establishment"], "rating": 3.6, "user_ratings_total": 15}, "ChIJv1SiD-IEdkgRfmZZPFR_mos": {"geometry": {"location": {"lat": 51.4877469, "lng": -0.1377993}, "viewport": {"northeast": {"lat": 51.48932973029149, "lng": -0.136466219708498}, "southwest": {"lat": 51.4866317697085, "lng": -0.139164180291502}}}, "name": "Star Bright Tuition", "place_id": "ChIJv1SiD-IEdkgRfmZZPFR_mos", "types": ["point_of_interest", "establishment"]}, "ChIJq7KnzOMEdkgRU1Ityc-Yc-A": {"geometry": {"location": {"lat": 51.487675, "lng": -0.1378363}, "viewport": {"northeast": {"lat": 51.48928778029149, "lng": -0.136498869708498}, "southwest": {"lat": 51.48658981970849, "lng": -0.139196830291502}}}, "name": "PMACA", "place_id": "ChIJq7KnzOMEdkgRU1Ityc-Yc-A", "types": ["point_of_interest", "establishment"]}, "ChIJc6YDJuIEdkgRmG7anuL7vj4": {"geometry": {"location": {"lat": 51.4882961, "lng": -0.1388212}, "viewport": {"northeast": {"lat": 51.4896987302915, "lng": -0.137406719708498}, "southwest": {"lat": 51.4870007697085, "lng": -0.140104680291502}}}, "name": "A & M Campbell", "place_id": "ChIJc6YDJuIEdkgRmG7anuL7vj4", "types": ["painter", "general_contractor", "point_of_interest", "establishment"], "rating": 5, "user_ratings_total": 1}, "ChIJNejl1OMEdkgR_-ba5K7K9OI": {"geometry": {"location": {"lat": 51.4884496, "lng": -0.1377763}, "viewport": {"northeast": {"lat": 51.48970988029149, "lng": -0.136387969708498}, "southwest": {"lat": 51.48701191970849, "lng": -0.139085930291502}}}, "name": "Dr S Neogi - Pimlico Health @ the Marven", "place_id": "ChIJNejl1OMEdkgR_-ba5K7K9OI", "types": ["doctor", "health", "point_of_interest", "establishment"]}, "ChIJ-2l5JOIEdkgRiBQZAgqhFdw": {"geometry": {"location": {"lat": 51.4881818, "lng": -0.1389763}, "viewport": {"northeast": {"lat": 51.4894759802915, "lng": -0.137608069708498}, "southwest": {"lat": 51.4867780197085, "lng": -0.140306030291502}}}, "name": "HHbeautyclinic", "place_id": "ChIJ-2l5JOIEdkgRiBQZAgqhFdw", "types": ["point_of_interest", "store", "establishment"]}, "ChIJNTmkI-IEdkgRX7BEkWFNIEw": {"geometry": {"location": {"lat": 51.488134, "lng": -0.1390176}, "viewport": {"northeast": {"lat": 51.4894472302915, "lng": -0.137657169708498}, "southwest": {"lat": 51.4867492697085, "lng": -0.140355130291502}}}, "name": "Flowers by Patricia", "place_id": "ChIJNTmkI-IEdkgRX7BEkWFNIEw", "types": ["florist", "point_of_interest", "store", "establishment"], "rating": 4.6, "user_ratings_total": 9}, "ChIJ6UiF0OMEdkgRdBo5hJIwY_U": {"geometry": {"location": {"lat": 51.4880378, "lng": -0.1375772}, "viewport": {"northeast": {"lat": 51.48950618029149, "lng": -0.1362758197084979}, "southwest": {"lat": 51.48680821970849, "lng": -0.138973780291502}}}, "name": "Pimlico Academy", "place_id": "ChIJ6UiF0OMEdkgRdBo5hJIwY_U", "types": ["school", "point_of_interest", "establishment"], "rating": 4.1, "user_ratings_total": 61}, "ChIJiUVEI-IEdkgR-sHNmNFAeE8": {"geometry": {"location": {"lat": 51.48792129999999, "lng": -0.1390124}, "viewport": {"northeast": {"lat": 51.48933773029149, "lng": -0.137686119708498}, "southwest": {"lat": 51.48663976970849, "lng": -0.140384080291502}}}, "name": "Dye-namic Carpet & Rug Colour Restoration", "place_id": "ChIJiUVEI-IEdkgR-sHNmNFAeE8", "types": ["laundry", "point_of_interest", "establishment"], "rating": 5, "user_ratings_total": 5}, "ChIJ0fpZlOYEdkgRax_Dd-gcVyw": {"geometry": {"location": {"lat": 51.4880672, "lng": -0.1379298}, "viewport": {"northeast": {"lat": 51.48947003029149, "lng": -0.136677119708498}, "southwest": {"lat": 51.48677206970849, "lng": -0.139375080291502}}}, "name": "Pimlico Library", "place_id": "ChIJ0fpZlOYEdkgRax_Dd-gcVyw", "types": ["library", "point_of_interest", "establishment"], "rating": 3.8, "user_ratings_total": 53}, "ChIJj2JfzeMEdkgR9cowcm9unps": {"geometry": {"location": {"lat": 51.487993, "lng": -0.1378155}, "viewport": {"northeast": {"lat": 51.4894612802915, "lng": -0.136420069708498}, "southwest": {"lat": 51.4867633197085, "lng": -0.139118030291502}}}, "name": "Pimlico Academy & Library", "place_id": "ChIJj2JfzeMEdkgR9cowcm9unps", "types": ["transit_station", "point_of_interest", "establishment"]}, "ChIJdyOTLuIEdkgRHL1WodPn08U": {"geometry": {"location": {"lat": 51.4882982, "lng": -0.1381455}, "viewport": {"northeast": {"lat": 51.4895982302915, "lng": -0.136773319708498}, "southwest": {"lat": 51.4869002697085, "lng": -0.139471280291502}}}, "name": "Marven Medical Practice", "place_id": "ChIJdyOTLuIEdkgRHL1WodPn08U", "types": ["doctor", "health", "point_of_interest", "establishment"], "rating": 3, "user_ratings_total": 23}, "ChIJCfvHDQEFdkgR85tyhshYdsQ": {"geometry": {"location": {"lat": 51.4880236, "lng": -0.1385846}, "viewport": {"northeast": {"lat": 51.4894175302915, "lng": -0.137251219708498}, "southwest": {"lat": 51.4867195697085, "lng": -0.139949180291502}}}, "name": "Community English Classes", "place_id": "ChIJCfvHDQEFdkgR85tyhshYdsQ", "types": ["school", "point_of_interest", "establishment"]}, "ChIJb43Zi2YEdkgRWTopWg2cjlA": {"geometry": {"location": {"lat": 51.4880516, "lng": -0.1377607}, "viewport": {"northeast": {"lat": 51.4894975302915, "lng": -0.136382069708498}, "southwest": {"lat": 51.4867995697085, "lng": -0.139080030291502}}}, "name": "Keen Learners", "place_id": "ChIJb43Zi2YEdkgRWTopWg2cjlA", "types": ["point_of_interest", "establishment"], "rating": 5, "user_ratings_total": 12}, "ChIJAU4BMOIEdkgRuFsJyJWA8g8": {"geometry": {"location": {"lat": 51.487973, "lng": -0.1386067}, "viewport": {"northeast": {"lat": 51.48932198029149, "lng": -0.137257719708498}, "southwest": {"lat": 51.4866240197085, "lng": -0.139955680291502}}}, "name": "EPE SCAFFOLDING", "place_id": "ChIJAU4BMOIEdkgRuFsJyJWA8g8", "types": ["health", "point_of_interest", "establishment"]}, "ChIJ6754K-IEdkgR_fRGJztLODg": {"geometry": {"location": {"lat": 51.488301, "lng": -0.1379846}, "viewport": {"northeast": {"lat": 51.4896133302915, "lng": -0.1366182697084979}, "southwest": {"lat": 51.48691536970851, "lng": -0.139316230291502}}}, "name": "Pimlico Academy & Library (Stop D)", "place_id": "ChIJ6754K-IEdkgR_fRGJztLODg", "types": ["transit_station", "point_of_interest", "establishment"]}, "ChIJKZAruVkFdkgR7ulGtnwbYIs": {"geometry": {"location": {"lat": 51.4880697, "lng": -0.1377272}, "viewport": {"northeast": {"lat": 51.48951038029149, "lng": -0.136360069708498}, "southwest": {"lat": 51.48681241970849, "lng": -0.139058030291502}}}, "name": "The Coffee Shop", "place_id": "ChIJKZAruVkFdkgR7ulGtnwbYIs", "types": ["food", "point_of_interest", "store", "establishment"], "rating": 3, "user_ratings_total": 1}, "ChIJ-0wOfaoFdkgRmJINXfPz97w": {"geometry": {"location": {"lat": 51.488221, "lng": -0.1386882}, "viewport": {"northeast": {"lat": 51.48951398029149, "lng": -0.137319769708498}, "southwest": {"lat": 51.48681601970849, "lng": -0.140017730291502}}}, "name": "Brewhouse Pimlico", "place_id": "ChIJ-0wOfaoFdkgRmJINXfPz97w", "types": ["cafe", "food", "point_of_interest", "store", "establishment"], "rating": 4.3, "user_ratings_total": 35}, "ChIJFzxt8R0FdkgRYQ7KS7_bTK8": {"geometry": {"location": {"lat": 51.4881138, "lng": -0.1375798}, "viewport": {"northeast": {"lat": 51.4895431802915, "lng": -0.1362676197084979}, "southwest": {"lat": 51.4868452197085, "lng": -0.138965580291502}}}, "name": "Ceroc Pimlico Victoria", "place_id": "ChIJFzxt8R0FdkgRYQ7KS7_bTK8", "types": ["point_of_interest", "establishment"], "rating": 4.8, "user_ratings_total": 12}, "ChIJEcZUMeIEdkgRopHEkOT7xVc": {"geometry": {"location": {"lat": 51.48766699999999, "lng": -0.138274}, "viewport": {"northeast": {"lat": 51.4890089302915, "lng": -0.136971019708498}, "southwest": {"lat": 51.48631096970851, "lng": -0.139668980291502}}}, "name": "Pimlico - Thames Private Apartment", "place_id": "ChIJEcZUMeIEdkgRopHEkOT7xVc", "types": ["lodging", "point_of_interest", "establishment"]}, "ChIJtdNyPFwFdkgRjUIS-rDlWvo": {"geometry": {"location": {"lat": 51.488288, "lng": -0.138721}, "viewport": {"northeast": {"lat": 51.4895468802915, "lng": -0.137340719708498}, "southwest": {"lat": 51.4868489197085, "lng": -0.140038680291502}}}, "name": "Central Health Physiotherapy @ Pimlico", "place_id": "ChIJtdNyPFwFdkgRjUIS-rDlWvo", "types": ["physiotherapist", "gym", "health", "point_of_interest", "establishment"], "rating": 5, "user_ratings_total": 1}, "ChIJx-EAI-IEdkgREl-cld7KbI4": {"geometry": {"location": {"lat": 51.4881883, "lng": -0.1388247}, "viewport": {"northeast": {"lat": 51.4894895802915, "lng": -0.137457569708498}, "southwest": {"lat": 51.48679161970851, "lng": -0.140155530291502}}}, "name": "Neate House", "place_id": "ChIJx-EAI-IEdkgREl-cld7KbI4", "types": ["point_of_interest", "establishment"], "rating": 5, "user_ratings_total": 1}, "ChIJy5vRNuIEdkgRhJE84FmiU48": {"geometry": {"location": {"lat": 51.48764, "lng": -0.138405}, "viewport": {"northeast": {"lat": 51.48899948029149, "lng": -0.136987719708498}, "southwest": {"lat": 51.4863015197085, "lng": -0.139685680291502}}}, "name": "Pimlico Academy & Library (Stop B)", "place_id": "ChIJy5vRNuIEdkgRhJE84FmiU48", "types": ["transit_station", "point_of_interest", "establishment"], "rating": 3.3, "user_ratings_total": 4}, "ChIJXTO52xEFdkgRxYnifCk3f94": {"geometry": {"location": {"lat": 51.487675, "lng": -0.1378363}, "viewport": {"northeast": {"lat": 51.48928778029149, "lng": -0.136498869708498}, "southwest": {"lat": 51.48658981970849, "lng": -0.139196830291502}}}, "name": "Powerplay Netball at Pimlico Academy", "place_id": "ChIJXTO52xEFdkgRxYnifCk3f94", "types": ["point_of_interest", "establishment"]}, "ChIJs1P3LEkFdkgRSjnF3-sckkU": {"geometry": {"location": {"lat": 51.487675, "lng": -0.1378363}, "viewport": {"northeast": {"lat": 51.48928778029149, "lng": -0.136498869708498}, "southwest": {"lat": 51.48658981970849, "lng": -0.139196830291502}}}, "name": "RCCGSGLG", "place_id": "ChIJs1P3LEkFdkgRSjnF3-sckkU", "types": ["place_of_worship", "point_of_interest", "establishment"]}, "ChIJq7KnzOMEdkgRDyIOCUHTXkc": {"geometry": {"location": {"lat": 51.487675, "lng": -0.1378363}, "viewport": {"northeast": {"lat": 51.48928778029149, "lng": -0.136498869708498}, "southwest": {"lat": 51.48658981970849, "lng": -0.139196830291502}}}, "name": "Pimlico-London SCITT", "place_id": "ChIJq7KnzOMEdkgRDyIOCUHTXkc", "types": ["university", "point_of_interest", "establishment"]}, "ChIJfcL_MOIEdkgRGzsFCV5ieVg": {"geometry": {"location": {"lat": 51.48761289999999, "lng": -0.1381367}, "viewport": {"northeast": {"lat": 51.48895528029149, "lng": -0.136843669708498}, "southwest": {"lat": 51.48625731970849, "lng": -0.139541630291502}}}, "name": "ubitricity Charging Station", "place_id": "ChIJfcL_MOIEdkgRGzsFCV5ieVg", "types": ["point_of_interest", "establishment"]}, "ChIJrV6L1OMEdkgR6mGQZsqdghY": {"geometry": {"location": {"lat": 51.4883999, "lng": -0.1377324}, "viewport": {"northeast": {"lat": 51.4896867802915, "lng": -0.136355869708498}, "southwest": {"lat": 51.4869888197085, "lng": -0.139053830291502}}}, "name": "Poppy Design ltd", "place_id": "ChIJrV6L1OMEdkgR6mGQZsqdghY", "types": ["point_of_interest", "establishment"]}, "ChIJ-2l5JOIEdkgR6sgypqRJbnc": {"geometry": {"location": {"lat": 51.48819899999999, "lng": -0.1388923}, "viewport": {"northeast": {"lat": 51.48949043029149, "lng": -0.137523119708498}, "southwest": {"lat": 51.48679246970849, "lng": -0.140221080291502}}}, "name": "Darren Rose Fertility Acupuncture", "place_id": "ChIJ-2l5JOIEdkgR6sgypqRJbnc", "types": ["health", "point_of_interest", "establishment"]}, "ChIJm6SYKeIEdkgRKktR_IXzuGc": {"geometry": {"location": {"lat": 51.48850940000001, "lng": -0.1383516}, "viewport": {"northeast": {"lat": 51.4898635302915, "lng": -0.137092119708498}, "southwest": {"lat": 51.4871655697085, "lng": -0.1397900802915021}}}, "name": "Resource Guru", "place_id": "ChIJm6SYKeIEdkgRKktR_IXzuGc", "types": ["point_of_interest", "establishment"]}, "ChIJ_Q8ZLOIEdkgRGCCriENGXj4": {"geometry": {"location": {"lat": 51.4884496, "lng": -0.1377763}, "viewport": {"northeast": {"lat": 51.48970988029149, "lng": -0.136387969708498}, "southwest": {"lat": 51.48701191970849, "lng": -0.139085930291502}}}, "name": "Jerjian Dr J C", "place_id": "ChIJ_Q8ZLOIEdkgRGCCriENGXj4", "types": ["doctor", "health", "point_of_interest", "establishment"]}, "ChIJpVP80uMEdkgRDmii5ArNOME": {"geometry": {"location": {"lat": 51.4881514, "lng": -0.1389464}, "viewport": {"northeast": {"lat": 51.48946078029149, "lng": -0.137584219708498}, "southwest": {"lat": 51.4867628197085, "lng": -0.140282180291502}}}, "name": "Phone Box", "place_id": "ChIJpVP80uMEdkgRDmii5ArNOME", "types": ["point_of_interest", "establishment"]}, "ChIJxYXONeIEdkgRgDanfW_R9wA": {"geometry": {"location": {"lat": 51.4872937500008, "lng": -0.1381219999900396}, "viewport": {"northeast": {"lat": 51.4886427302915, "lng": -0.136773019708498}, "southwest": {"lat": 51.4859447697085, "lng": -0.139470980291502}}}, "name": "21 Claverton St", "place_id": "ChIJxYXONeIEdkgRgDanfW_R9wA", "types": ["route"]}, "ChIJ-wRGVeIEdkgRSIgFbn__LYk": {"geometry": {"location": {"lat": 51.4866297, "lng": -0.1381048}, "viewport": {"northeast": {"lat": 51.4879969302915, "lng": -0.136639019708498}, "southwest": {"lat": 51.4852989697085, "lng": -0.139336980291502}}}, "name": "Super Mega Action Plus Limited", "place_id": "ChIJ-wRGVeIEdkgRSIgFbn__LYk", "types": ["point_of_interest", "establishment"]}, "ChIJJdNab-IEdkgRhavMu665IrE": {"geometry": {"location": {"lat": 51.4870506, "lng": -0.1388449}, "viewport": {"northeast": {"lat": 51.4884430802915, "lng": -0.137513719708498}, "southwest": {"lat": 51.4857451197085, "lng": -0.140211680291502}}}, "name": "McCarrick Carpentry and Construction ltd", "place_id": "ChIJJdNab-IEdkgRhavMu665IrE", "types": ["general_contractor", "point_of_interest", "establishment"]}, "ChIJ___b31wOdkgRQZYmmUNL0QU": {"geometry": {"location": {"lat": 51.4870894, "lng": -0.1374492}, "viewport": {"northeast": {"lat": 51.4885052302915, "lng": -0.135832469708498}, "southwest": {"lat": 51.4858072697085, "lng": -0.138530430291502}}}, "name": "Corporate Living - Dolphin Square", "place_id": "ChIJ___b31wOdkgRQZYmmUNL0QU", "types": ["lodging", "point_of_interest", "establishment"], "rating": 5, "user_ratings_total": 6}, "ChIJHQcPsuMEdkgRhyldFotC0UI": {"geometry": {"location": {"lat": 51.48664900000001, "lng": -0.1376218}, "viewport": {"northeast": {"lat": 51.4879801802915, "lng": -0.1363868697084979}, "southwest": {"lat": 51.4852822197085, "lng": -0.139084830291502}}}, "name": "Page Property Services", "place_id": "ChIJHQcPsuMEdkgRhyldFotC0UI", "types": ["finance", "point_of_interest", "establishment"]}, "ChIJhy6ksuMEdkgRBgj67IhROEk": {"geometry": {"location": {"lat": 51.4870082, "lng": -0.1381167}, "viewport": {"northeast": {"lat": 51.48836068029149, "lng": -0.136715619708498}, "southwest": {"lat": 51.48566271970849, "lng": -0.139413580291502}}}, "name": "ubitricity Charging Station", "place_id": "ChIJhy6ksuMEdkgRBgj67IhROEk", "types": ["point_of_interest", "establishment"]}, "ChIJL41EVIoFdkgRRlIweK5ouEw": {"geometry": {"location": {"lat": 51.4870264, "lng": -0.138307}, "viewport": {"northeast": {"lat": 51.4884703302915, "lng": -0.137004119708498}, "southwest": {"lat": 51.4857723697085, "lng": -0.139702080291502}}}, "name": "Private Investigator Churchill Gardens", "place_id": "ChIJL41EVIoFdkgRRlIweK5ouEw", "types": ["point_of_interest", "establishment"], "rating": 5, "user_ratings_total": 1}, "ChIJkybRTeIEdkgR8B_OmjdyBrA": {"geometry": {"location": {"lat": 51.4868135, "lng": -0.138227}, "viewport": {"northeast": {"lat": 51.4883633302915, "lng": -0.136964119708498}, "southwest": {"lat": 51.4856653697085, "lng": -0.139662080291502}}}, "name": "AGM Strategic Solutions", "place_id": "ChIJkybRTeIEdkgR8B_OmjdyBrA", "types": ["point_of_interest", "establishment"]}, "ChIJEWhiUuIEdkgR3rDrrqB2OX0": {"geometry": {"location": {"lat": 51.4866252, "lng": -0.1380747}, "viewport": {"northeast": {"lat": 51.4882660802915, "lng": -0.136903669708498}, "southwest": {"lat": 51.4855681197085, "lng": -0.139601630291502}}}, "name": "Lenthall House", "place_id": "ChIJEWhiUuIEdkgR3rDrrqB2OX0", "types": ["point_of_interest", "establishment"], "rating": 5, "user_ratings_total": 2}, "ChIJl_Zqp-MEdkgR_cw0CdhuMX0": {"geometry": {"location": {"lat": 51.48672879999999, "lng": -0.1376861}, "viewport": {"northeast": {"lat": 51.48806233029149, "lng": -0.136436069708498}, "southwest": {"lat": 51.4853643697085, "lng": -0.139134030291502}}}, "name": "Howard House", "place_id": "ChIJl_Zqp-MEdkgR_cw0CdhuMX0", "types": ["lodging", "point_of_interest", "establishment"]}, "ChIJHz3gJOsFdkgRhMhhJ4ISVXA": {"geometry": {"location": {"lat": 51.486495, "lng": -0.1382301}, "viewport": {"northeast": {"lat": 51.4878753802915, "lng": -0.136679869708498}, "southwest": {"lat": 51.4851774197085, "lng": -0.139377830291502}}}, "name": "Lowther House", "place_id": "ChIJHz3gJOsFdkgRhMhhJ4ISVXA", "types": ["point_of_interest", "establishment"]}, "ChIJ-39tVOIEdkgRzxjpBbc6KB0": {"geometry": {"location": {"lat": 51.48631545013481, "lng": -0.1380969893166394}, "viewport": {"northeast": {"lat": 51.4876663302915, "lng": -0.136748869708498}, "southwest": {"lat": 51.4849683697085, "lng": -0.139446830291502}}}, "name": "Churchill Gardens Road", "place_id": "ChIJ-39tVOIEdkgRzxjpBbc6KB0", "types": ["route"]}, "ChIJq-iru1AFdkgRTZcSNN7I2lI": {"geometry": {"location": {"lat": 51.4861246, "lng": -0.1380536}, "viewport": {"northeast": {"lat": 51.4875667302915, "lng": -0.136741619708498}, "southwest": {"lat": 51.4848687697085, "lng": -0.139439580291502}}}, "name": "Alexandra Tosto Design", "place_id": "ChIJq-iru1AFdkgRTZcSNN7I2lI", "types": ["jewelry_store", "point_of_interest", "store", "establishment"]}, "ChIJ-wRGVeIEdkgRgw7oEIr44q4": {"geometry": {"location": {"lat": 51.4861246, "lng": -0.1380536}, "viewport": {"northeast": {"lat": 51.4875667302915, "lng": -0.136741619708498}, "southwest": {"lat": 51.4848687697085, "lng": -0.139439580291502}}}, "name": "Stead's Clearances", "place_id": "ChIJ-wRGVeIEdkgRgw7oEIr44q4", "types": ["point_of_interest", "establishment"]}, "ChIJAQCCquMEdkgREKp7cR06wkQ": {"geometry": {"location": {"lat": 51.48602299999999, "lng": -0.137722}, "viewport": {"northeast": {"lat": 51.48738003029149, "lng": -0.136321869708498}, "southwest": {"lat": 51.48468206970849, "lng": -0.139019830291502}}}, "name": "Claverton St Churchill Gdns (Stop A)", "place_id": "ChIJAQCCquMEdkgREKp7cR06wkQ", "types": ["transit_station", "point_of_interest", "establishment"], "rating": 5, "user_ratings_total": 1}, "ChIJVz-YqdAFdkgRm5ng1uBnEkg": {"geometry": {"location": {"lat": 51.4858074, "lng": -0.1387174}, "viewport": {"northeast": {"lat": 51.4871525302915, "lng": -0.137393319708498}, "southwest": {"lat": 51.4844545697085, "lng": -0.140091280291502}}}, "name": "loud and clear speech", "place_id": "ChIJVz-YqdAFdkgRm5ng1uBnEkg", "types": ["school", "point_of_interest", "establishment"]}, "ChIJo8JpAeMEdkgRevRQqMYIRvs": {"geometry": {"location": {"lat": 51.48575100000001, "lng": -0.137609}, "viewport": {"northeast": {"lat": 51.48710783029151, "lng": -0.136210119708498}, "southwest": {"lat": 51.48440986970851, "lng": -0.138908080291502}}}, "name": "ubitricity Charging Station", "place_id": "ChIJo8JpAeMEdkgRevRQqMYIRvs", "types": ["point_of_interest", "establishment"]}, "ChIJi-YpVeIEdkgReBVoluSFOuw": {"geometry": {"location": {"lat": 51.4862069, "lng": -0.1377964}, "viewport": {"northeast": {"lat": 51.48756583029149, "lng": -0.136396619708498}, "southwest": {"lat": 51.48486786970849, "lng": -0.139094580291502}}}, "name": "ubitricity Charging Station", "place_id": "ChIJi-YpVeIEdkgReBVoluSFOuw", "types": ["point_of_interest", "establishment"]}, "ChIJu1eZQuIEdkgRe17z7OIG0yc": {"geometry": {"location": {"lat": 51.48628369999999, "lng": -0.1385842}, "viewport": {"northeast": {"lat": 51.4876169802915, "lng": -0.137229469708498}, "southwest": {"lat": 51.4849190197085, "lng": -0.139927430291502}}}, "name": "Bright 3 Bed in Central London", "place_id": "ChIJu1eZQuIEdkgRe17z7OIG0yc", "types": ["lodging", "point_of_interest", "establishment"], "rating": 3.6, "user_ratings_total": 5}, "ChIJ4wDsBuMEdkgRx0TC8o79gr0": {"geometry": {"location": {"lat": 51.48579669999999, "lng": -0.1373988}, "viewport": {"northeast": {"lat": 51.48713663029149, "lng": -0.136107469708498}, "southwest": {"lat": 51.48443866970849, "lng": -0.138805430291502}}}, "name": "Yellow Door Impact Ltd", "place_id": "ChIJ4wDsBuMEdkgRx0TC8o79gr0", "types": ["point_of_interest", "establishment"]}, "ChIJjVE_suoFdkgRd9_6_NWsW_Y": {"geometry": {"location": {"lat": 51.4859464, "lng": -0.1389706}, "viewport": {"northeast": {"lat": 51.4873115802915, "lng": -0.137516119708498}, "southwest": {"lat": 51.4846136197085, "lng": -0.140214080291502}}}, "name": "Pimlico. Temp", "place_id": "ChIJjVE_suoFdkgRd9_6_NWsW_Y", "types": ["lodging", "point_of_interest", "establishment"]}, "ChIJ2TNLlBkFdkgRq4WjwHdhMV4": {"geometry": {"location": {"lat": 51.4859412, "lng": -0.1389883}, "viewport": {"northeast": {"lat": 51.4873078302915, "lng": -0.1375245197084979}, "southwest": {"lat": 51.4846098697085, "lng": -0.140222480291502}}}, "name": "Pest control London", "place_id": "ChIJ2TNLlBkFdkgRq4WjwHdhMV4", "types": ["home_goods_store", "point_of_interest", "store", "establishment"]}, "ChIJKwzg9eIEdkgRmYTc6AjHu1U": {"geometry": {"location": {"lat": 51.4859412, "lng": -0.1389883}, "viewport": {"northeast": {"lat": 51.4873078302915, "lng": -0.1375245197084979}, "southwest": {"lat": 51.4846098697085, "lng": -0.140222480291502}}}, "name": "Kulta Helmi", "place_id": "ChIJKwzg9eIEdkgRmYTc6AjHu1U", "types": ["point_of_interest", "establishment"]}, "ChIJKwzg9eIEdkgROz-Xx3uHCjM": {"geometry": {"location": {"lat": 51.4859412, "lng": -0.1389883}, "viewport": {"northeast": {"lat": 51.4873078302915, "lng": -0.1375245197084979}, "southwest": {"lat": 51.4846098697085, "lng": -0.140222480291502}}}, "name": "Ness Dieudonnee", "place_id": "ChIJKwzg9eIEdkgROz-Xx3uHCjM", "types": ["physiotherapist", "health", "point_of_interest", "establishment"]}, "ChIJKwzg9eIEdkgRJlC42PaMCwU": {"geometry": {"location": {"lat": 51.4859412, "lng": -0.1389883}, "viewport": {"northeast": {"lat": 51.4873078302915, "lng": -0.1375245197084979}, "southwest": {"lat": 51.4846098697085, "lng": -0.140222480291502}}}, "name": "U K Damp-Proofing & Timber", "place_id": "ChIJKwzg9eIEdkgRJlC42PaMCwU", "types": ["general_contractor", "point_of_interest", "establishment"]}, "ChIJAfjbZe0FdkgRrSuSm7F9cnw": {"geometry": {"location": {"lat": 51.4860263, "lng": -0.1373949}, "viewport": {"northeast": {"lat": 51.4873590802915, "lng": -0.136149119708498}, "southwest": {"lat": 51.4846611197085, "lng": -0.138847080291502}}}, "name": "Happy removal Chelsea", "place_id": "ChIJAfjbZe0FdkgRrSuSm7F9cnw", "types": ["moving_company", "point_of_interest", "establishment"], "rating": 5, "user_ratings_total": 4}, "ChIJo6plYAYFdkgRvlHAM4KR6mU": {"geometry": {"location": {"lat": 51.4860263, "lng": -0.1373949}, "viewport": {"northeast": {"lat": 51.4873590802915, "lng": -0.136149119708498}, "southwest": {"lat": 51.4846611197085, "lng": -0.138847080291502}}}, "name": "Brilliant cleaner Chelsea", "place_id": "ChIJo6plYAYFdkgRvlHAM4KR6mU", "types": ["point_of_interest", "establishment"], "rating": 5, "user_ratings_total": 13}, "ChIJny3UqeMEdkgRnpWtxupT1_I": {"geometry": {"location": {"lat": 51.4860343, "lng": -0.1373522}, "viewport": {"northeast": {"lat": 51.48736368029149, "lng": -0.136128019708498}, "southwest": {"lat": 51.4846657197085, "lng": -0.138825980291502}}}, "name": "Digital Direct", "place_id": "ChIJny3UqeMEdkgRnpWtxupT1_I", "types": ["point_of_interest", "establishment"], "rating": 4, "user_ratings_total": 4}, "ChIJXTFi4eIEdkgRRtLMTTkYlF4": {"geometry": {"location": {"lat": 51.48508843964346, "lng": -0.1381150030686375}, "viewport": {"northeast": {"lat": 51.4864371802915, "lng": -0.136765919708498}, "southwest": {"lat": 51.4837392197085, "lng": -0.139463880291502}}}, "name": "Grosvenor Road", "place_id": "ChIJXTFi4eIEdkgRRtLMTTkYlF4", "types": ["route"]}, "ChIJZ-486eIEdkgRhkjHLwsMNFw": {"geometry": {"location": {"lat": 51.4849682, "lng": -0.1388494}, "viewport": {"northeast": {"lat": 51.4863476802915, "lng": -0.137512319708498}, "southwest": {"lat": 51.4836497197085, "lng": -0.140210280291502}}}, "name": "City Risk Consulting Limited", "place_id": "ChIJZ-486eIEdkgRhkjHLwsMNFw", "types": ["point_of_interest", "establishment"]}, "ChIJnTj64OIEdkgRJTlwLz0OfNY": {"geometry": {"location": {"lat": 51.484839, "lng": -0.138089}, "viewport": {"northeast": {"lat": 51.4863062802915, "lng": -0.1367912197084979}, "southwest": {"lat": 51.4836083197085, "lng": -0.139489180291502}}}, "name": "Santander Cycles", "place_id": "ChIJnTj64OIEdkgRJTlwLz0OfNY", "types": ["point_of_interest", "establishment"], "rating": 5, "user_ratings_total": 1}, "ChIJHZmII-IEdkgR8XP7Az0Hvb0": {"geometry": {"location": {"lat": 51.48816089999999, "lng": -0.1392964}, "viewport": {"northeast": {"lat": 51.48944838029149, "lng": -0.137895769708498}, "southwest": {"lat": 51.48675041970849, "lng": -0.140593730291502}}}, "name": "Carpet Express", "place_id": "ChIJHZmII-IEdkgR8XP7Az0Hvb0", "types": ["furniture_store", "home_goods_store", "general_contractor", "point_of_interest", "store", "establishment"], "rating": 3.9, "user_ratings_total": 56}, "ChIJdZMpI-IEdkgRXCR7iSql5n0": {"geometry": {"location": {"lat": 51.48816089999999, "lng": -0.1392964}, "viewport": {"northeast": {"lat": 51.4894448302915, "lng": -0.137925519708498}, "southwest": {"lat": 51.4867468697085, "lng": -0.140623480291502}}}, "name": "CXP Contracts", "place_id": "ChIJdZMpI-IEdkgRXCR7iSql5n0", "types": ["general_contractor", "point_of_interest", "establishment"]}, "ChIJ7eXCJOIEdkgRrVC04XBx_t0": {"geometry": {"location": {"lat": 51.48817639999999, "lng": -0.1391098}, "viewport": {"northeast": {"lat": 51.4894645802915, "lng": -0.137740369708498}, "southwest": {"lat": 51.4867666197085, "lng": -0.140438330291502}}}, "name": "Sound Insulation London", "place_id": "ChIJ7eXCJOIEdkgRrVC04XBx_t0", "types": ["point_of_interest", "establishment"]}, "ChIJk1dxOeIEdkgRUkp_KhFpH2A": {"geometry": {"location": {"lat": 51.4879301, "lng": -0.1391086}, "viewport": {"northeast": {"lat": 51.48926838029151, "lng": -0.137826769708498}, "southwest": {"lat": 51.48657041970851, "lng": -0.140524730291502}}}, "name": "Ranelagh International Ltd", "place_id": "ChIJk1dxOeIEdkgRUkp_KhFpH2A", "types": ["point_of_interest", "establishment"]}, "ChIJs-jAPOIEdkgR9VWTttjbDGo": {"geometry": {"location": {"lat": 51.4879237, "lng": -0.139094}, "viewport": {"northeast": {"lat": 51.48927268029149, "lng": -0.137745019708498}, "southwest": {"lat": 51.48657471970849, "lng": -0.140442980291502}}}, "name": "Andrew Reeves Estate Agents Pimlico", "place_id": "ChIJs-jAPOIEdkgR9VWTttjbDGo", "types": ["real_estate_agency", "point_of_interest", "establishment"], "rating": 4.5, "user_ratings_total": 10}, "ChIJ4-apI-IEdkgRWt6xVX5LuzU": {"geometry": {"location": {"lat": 51.48815749999999, "lng": -0.1391507}, "viewport": {"northeast": {"lat": 51.4894515302915, "lng": -0.137784119708498}, "southwest": {"lat": 51.4867535697085, "lng": -0.1404820802915021}}}, "name": "Ace Carpet Cleaners Ltd", "place_id": "ChIJ4-apI-IEdkgRWt6xVX5LuzU", "types": ["laundry", "point_of_interest", "establishment"]}, "ChIJVX7HJuAEdkgR5v5DsN1OO2o": {"geometry": {"location": {"lat": 51.48818060000001, "lng": -0.1391171}, "viewport": {"northeast": {"lat": 51.4894655302915, "lng": -0.137747619708498}, "southwest": {"lat": 51.4867675697085, "lng": -0.140445580291502}}}, "name": "Delicias Pimlico", "place_id": "ChIJVX7HJuAEdkgR5v5DsN1OO2o", "types": ["food", "point_of_interest", "store", "establishment"], "rating": 4.7, "user_ratings_total": 112}, "ChIJK-KJWD0FdkgRwePH9OFQy78": {"geometry": {"location": {"lat": 51.48818060000001, "lng": -0.1391171}, "viewport": {"northeast": {"lat": 51.4894655302915, "lng": -0.137747619708498}, "southwest": {"lat": 51.4867675697085, "lng": -0.140445580291502}}}, "name": "Delicias Pimlico", "place_id": "ChIJK-KJWD0FdkgRwePH9OFQy78", "types": ["grocery_or_supermarket", "food", "point_of_interest", "store", "establishment"], "rating": 5, "user_ratings_total": 3}, "ChIJQxRVlMEFdkgRuyHmxcSkdeQ": {"geometry": {"location": {"lat": 51.48817639999999, "lng": -0.1391098}, "viewport": {"northeast": {"lat": 51.4894645802915, "lng": -0.137740369708498}, "southwest": {"lat": 51.4867666197085, "lng": -0.140438330291502}}}, "name": "Stevie Purcell Yoga", "place_id": "ChIJQxRVlMEFdkgRuyHmxcSkdeQ", "types": ["gym", "health", "point_of_interest", "establishment"], "rating": 5, "user_ratings_total": 1}, "ChIJyXj8X-IEdkgRK7Y2NwMaJX8": {"geometry": {"location": {"lat": 51.4860327, "lng": -0.1393261}, "viewport": {"northeast": {"lat": 51.4874255802915, "lng": -0.137986869708498}, "southwest": {"lat": 51.4847276197085, "lng": -0.140684830291502}}}, "name": "Churchill Gardens Youth Club", "place_id": "ChIJyXj8X-IEdkgRK7Y2NwMaJX8", "types": ["point_of_interest", "establishment"], "rating": 4.5, "user_ratings_total": 2}, "ChIJSXt5i-IEdkgRkzTODN4kzjs": {"geometry": {"location": {"lat": 51.485754, "lng": -0.1395109}, "viewport": {"northeast": {"lat": 51.48706759818107, "lng": -0.1381629069736988}, "southwest": {"lat": 51.48436963759807, "lng": -0.1408608675567028}}}, "name": "Parking lot", "place_id": "ChIJSXt5i-IEdkgRkzTODN4kzjs", "types": ["parking", "premise", "point_of_interest", "establishment"]}, "ChIJGVAqbeQEdkgRi2_nAHS0u1Q": {"geometry": {"location": {"lat": 51.4874412, "lng": -0.1341605}, "viewport": {"northeast": {"lat": 51.48877683029149, "lng": -0.132887219708498}, "southwest": {"lat": 51.4860788697085, "lng": -0.135585180291502}}}, "name": "Woolf Therapy", "place_id": "ChIJGVAqbeQEdkgRi2_nAHS0u1Q", "types": ["health", "point_of_interest", "establishment"], "rating": 5, "user_ratings_total": 3}, "ChIJBXkjieQEdkgRqrbWrWtiAVE": {"geometry": {"location": {"lat": 51.48582070014694, "lng": -0.1340019001369841}, "viewport": {"northeast": {"lat": 51.48716968029149, "lng": -0.132652919708498}, "southwest": {"lat": 51.48447171970849, "lng": -0.135350880291502}}}, "name": "Grosvenor Road", "place_id": "ChIJBXkjieQEdkgRqrbWrWtiAVE", "types": ["route"]}, "ChIJc-_jjuQEdkgRhk1bnqFjkr4": {"geometry": {"location": {"lat": 51.4855934, "lng": -0.1340055}, "viewport": {"northeast": {"lat": 51.4869423802915, "lng": -0.132656519708498}, "southwest": {"lat": 51.4842444197085, "lng": -0.135354480291502}}}, "name": "Pimlico Gardens", "place_id": "ChIJc-_jjuQEdkgRhk1bnqFjkr4", "types": ["tourist_attraction", "park", "point_of_interest", "establishment"], "rating": 4.4, "user_ratings_total": 54}, "ChIJlV1PFD8FdkgRlajd4C7TK6Q": {"geometry": {"location": {"lat": 51.48848779999999, "lng": -0.135236}, "viewport": {"northeast": {"lat": 51.4898367802915, "lng": -0.133887019708498}, "southwest": {"lat": 51.4871388197085, "lng": -0.136584980291502}}}, "name": "St Saviour's, Pimlico", "place_id": "ChIJlV1PFD8FdkgRlajd4C7TK6Q", "types": ["tourist_attraction", "church", "place_of_worship", "point_of_interest", "establishment"], "rating": 4.6, "user_ratings_total": 54}, "ChIJ6yK6_OMEdkgRks8ob7yV6LU": {"geometry": {"location": {"lat": 51.4883835, "lng": -0.1356387}, "viewport": {"northeast": {"lat": 51.48974188029149, "lng": -0.134235869708498}, "southwest": {"lat": 51.4870439197085, "lng": -0.136933830291502}}}, "name": "CustomerClix Ltd", "place_id": "ChIJ6yK6_OMEdkgRks8ob7yV6LU", "types": ["point_of_interest", "establishment"]}, "ChIJ5V_kieMEdkgRg8b3tJHn8A8": {"geometry": {"location": {"lat": 51.48740521027101, "lng": -0.1351803755332673}, "viewport": {"northeast": {"lat": 51.4887540302915, "lng": -0.133832269708498}, "southwest": {"lat": 51.4860560697085, "lng": -0.136530230291502}}}, "name": "66-74 St.George's Square", "place_id": "ChIJ5V_kieMEdkgRg8b3tJHn8A8", "types": ["route"]}, "ChIJq5OLbfMEdkgRiP9iwSjoKu0": {"geometry": {"location": {"lat": 51.4874417, "lng": -0.1355256}, "viewport": {"northeast": {"lat": 51.4888188802915, "lng": -0.134025569708498}, "southwest": {"lat": 51.4861209197085, "lng": -0.136723530291502}}}, "name": "London Mobile Disco", "place_id": "ChIJq5OLbfMEdkgRiP9iwSjoKu0", "types": ["point_of_interest", "establishment"], "rating": 4, "user_ratings_total": 1}, "ChIJp9Nm8-MEdkgRPr-L64QCvlM": {"geometry": {"location": {"lat": 51.48745180000001, "lng": -0.1354882000000001}, "viewport": {"northeast": {"lat": 51.4888253302915, "lng": -0.134007569708498}, "southwest": {"lat": 51.48612736970851, "lng": -0.136705530291502}}}, "name": "Fides Fortis Limited", "place_id": "ChIJp9Nm8-MEdkgRPr-L64QCvlM", "types": ["point_of_interest", "establishment"]}, "ChIJPZfQg7UFdkgRvb_bbJLsyQw": {"geometry": {"location": {"lat": 51.4874417, "lng": -0.1355255}, "viewport": {"northeast": {"lat": 51.4888188802915, "lng": -0.134025519708498}, "southwest": {"lat": 51.4861209197085, "lng": -0.136723480291502}}}, "name": "Green Plaque: Francis Crick", "place_id": "ChIJPZfQg7UFdkgRvb_bbJLsyQw", "types": ["point_of_interest", "establishment"]}, "ChIJYYtLi-MEdkgR5mOZLhp7Fck": {"geometry": {"location": {"lat": 51.4873349, "lng": -0.1354239}, "viewport": {"northeast": {"lat": 51.4887068302915, "lng": -0.1339474697084979}, "southwest": {"lat": 51.4860088697085, "lng": -0.136645430291502}}}, "name": "Legal Proposals", "place_id": "ChIJYYtLi-MEdkgR5mOZLhp7Fck", "types": ["point_of_interest", "establishment"]}, "ChIJYTz19OMEdkgRV_sF2HtddRE": {"geometry": {"location": {"lat": 51.4874966, "lng": -0.1352228}, "viewport": {"northeast": {"lat": 51.4888368302915, "lng": -0.133922419708498}, "southwest": {"lat": 51.4861388697085, "lng": -0.136620380291502}}}, "name": "Pimlico Chess Club", "place_id": "ChIJYTz19OMEdkgRV_sF2HtddRE", "types": ["point_of_interest", "establishment"], "rating": 5, "user_ratings_total": 1}, "ChIJ0RacwOMEdkgRFLownbCR6BI": {"geometry": {"location": {"lat": 51.48660529999999, "lng": -0.1355797}, "viewport": {"northeast": {"lat": 51.4880420302915, "lng": -0.134165019708498}, "southwest": {"lat": 51.4853440697085, "lng": -0.136862980291502}}}, "name": "Designers Forum Ltd", "place_id": "ChIJ0RacwOMEdkgRFLownbCR6BI", "types": ["point_of_interest", "establishment"], "rating": 3, "user_ratings_total": 2}, "ChIJf5c2heMEdkgRjycwv5WXsEo": {"geometry": {"location": {"lat": 51.4865853, "lng": -0.1356561}, "viewport": {"northeast": {"lat": 51.4880320302915, "lng": -0.134200569708498}, "southwest": {"lat": 51.48533406970851, "lng": -0.136898530291502}}}, "name": "Personal Time Saver Ltd", "place_id": "ChIJf5c2heMEdkgRjycwv5WXsEo", "types": ["point_of_interest", "establishment"]}, "ChIJ05Q_heMEdkgReBfOg1CFM38": {"geometry": {"location": {"lat": 51.4865957, "lng": -0.135596}, "viewport": {"northeast": {"lat": 51.4880372302915, "lng": -0.134170519708498}, "southwest": {"lat": 51.4853392697085, "lng": -0.136868480291502}}}, "name": "South East Diagnostic", "place_id": "ChIJ05Q_heMEdkgReBfOg1CFM38", "types": ["health", "point_of_interest", "establishment"]}, "ChIJvf1HheMEdkgRzfvNtAejoSY": {"geometry": {"location": {"lat": 51.4866018, "lng": -0.1356358}, "viewport": {"northeast": {"lat": 51.4880402802915, "lng": -0.134193119708498}, "southwest": {"lat": 51.4853423197085, "lng": -0.136891080291502}}}, "name": "USA/UK Financial Concierge Ltd.", "place_id": "ChIJvf1HheMEdkgRzfvNtAejoSY", "types": ["finance", "point_of_interest", "establishment"]}, "ChIJAdaLxfYFdkgRYrBC6KmNN7k": {"geometry": {"location": {"lat": 51.4866018, "lng": -0.1356358}, "viewport": {"northeast": {"lat": 51.4880402802915, "lng": -0.134193119708498}, "southwest": {"lat": 51.4853423197085, "lng": -0.136891080291502}}}, "name": "Arkerton", "place_id": "ChIJAdaLxfYFdkgRYrBC6KmNN7k", "types": ["point_of_interest", "establishment"], "rating": 5, "user_ratings_total": 3}, "ChIJZwSkBLUFdkgRudqy2qMPkdc": {"geometry": {"location": {"lat": 51.4863203, "lng": -0.1354412}, "viewport": {"northeast": {"lat": 51.48789953029149, "lng": -0.1341010697084979}, "southwest": {"lat": 51.48520156970849, "lng": -0.136799030291502}}}, "name": "Haynes\u2019 London Stay", "place_id": "ChIJZwSkBLUFdkgRudqy2qMPkdc", "types": ["night_club", "point_of_interest", "establishment"]}, "ChIJ1ZEKhOMEdkgRibXusCoITNU": {"geometry": {"location": {"lat": 51.4862733, "lng": -0.1355277}, "viewport": {"northeast": {"lat": 51.4878815302915, "lng": -0.134218569708498}, "southwest": {"lat": 51.4851835697085, "lng": -0.136916530291502}}}, "name": "Collingwood House", "place_id": "ChIJ1ZEKhOMEdkgRibXusCoITNU", "types": ["point_of_interest", "establishment"], "rating": 3, "user_ratings_total": 2}, "ChIJiw7gmOMEdkgR9sMV-YBbZiI": {"geometry": {"location": {"lat": 51.486437, "lng": -0.1362361}, "viewport": {"northeast": {"lat": 51.4877159802915, "lng": -0.135300669708498}, "southwest": {"lat": 51.4850180197085, "lng": -0.137998630291502}}}, "name": "Dolphin Fountain", "place_id": "ChIJiw7gmOMEdkgR9sMV-YBbZiI", "types": ["point_of_interest", "store", "establishment"], "rating": 1, "user_ratings_total": 2}, "ChIJKX2RDwMFdkgRYK80zRUtusw": {"geometry": {"location": {"lat": 51.48642550000001, "lng": -0.1363367}, "viewport": {"northeast": {"lat": 51.4877127802915, "lng": -0.135352069708498}, "southwest": {"lat": 51.4850148197085, "lng": -0.138050030291502}}}, "name": "Ryan McMahon Fitness", "place_id": "ChIJKX2RDwMFdkgRYK80zRUtusw", "types": ["health", "point_of_interest", "establishment"], "rating": 5, "user_ratings_total": 22}, "ChIJPWfAKagFdkgRLYkWph1HzaI": {"geometry": {"location": {"lat": 51.4852599, "lng": -0.1357258}, "viewport": {"northeast": {"lat": 51.4867239302915, "lng": -0.134427369708498}, "southwest": {"lat": 51.4840259697085, "lng": -0.137125330291502}}}, "name": "Grosvenor Road - Riverside Tennis Court", "place_id": "ChIJPWfAKagFdkgRLYkWph1HzaI", "types": ["point_of_interest", "establishment"]}, "ChIJF-f9tdgFdkgRUq4FRomCGvs": {"geometry": {"location": {"lat": 51.4852672, "lng": -0.1357768}, "viewport": {"northeast": {"lat": 51.4867227802915, "lng": -0.134471919708498}, "southwest": {"lat": 51.48402481970851, "lng": -0.137169880291502}}}, "name": "Tennis Court", "place_id": "ChIJF-f9tdgFdkgRUq4FRomCGvs", "types": ["point_of_interest", "establishment"], "rating": 5, "user_ratings_total": 2}, "ChIJH-bl1OMEdkgRbt5353omVss": {"geometry": {"location": {"lat": 51.4884222, "lng": -0.1374917}, "viewport": {"northeast": {"lat": 51.4897183302915, "lng": -0.136116819708498}, "southwest": {"lat": 51.4870203697085, "lng": -0.138814780291502}}}, "name": "Goya", "place_id": "ChIJH-bl1OMEdkgRbt5353omVss", "types": ["restaurant", "food", "point_of_interest", "establishment"], "rating": 4.2, "user_ratings_total": 449}, "ChIJxyzR2eMEdkgRbSZyNpOd9JQ": {"geometry": {"location": {"lat": 51.4885226, "lng": -0.13709}, "viewport": {"northeast": {"lat": 51.4898056302915, "lng": -0.135709769708498}, "southwest": {"lat": 51.4871076697085, "lng": -0.138407730291502}}}, "name": "Ringrose Kindergarten", "place_id": "ChIJxyzR2eMEdkgRbSZyNpOd9JQ", "types": ["school", "point_of_interest", "establishment"]}, "ChIJ36T2ncAFdkgRIFI_UKHf854": {"geometry": {"location": {"lat": 51.4885026, "lng": -0.1371347}, "viewport": {"northeast": {"lat": 51.48979103029149, "lng": -0.135757069708498}, "southwest": {"lat": 51.48709306970849, "lng": -0.138455030291502}}}, "name": "Eaton Square School Nursery (Pimlico)", "place_id": "ChIJ36T2ncAFdkgRIFI_UKHf854", "types": ["school", "point_of_interest", "establishment"]}, "ChIJp1B04i8FdkgR-S3OnrzZb8M": {"geometry": {"location": {"lat": 51.4884413, "lng": -0.1375319}, "viewport": {"northeast": {"lat": 51.48979028029149, "lng": -0.136182919708498}, "southwest": {"lat": 51.48709231970849, "lng": -0.138880880291502}}}, "name": "\u0416\u04b1\u043b\u0434\u044b\u0437-\u0410\u0439", "place_id": "ChIJp1B04i8FdkgR-S3OnrzZb8M", "types": ["point_of_interest", "establishment"]}, "ChIJj1ErnB0FdkgRyqd3CJaEkI0": {"geometry": {"location": {"lat": 51.4884413, "lng": -0.1375319}, "viewport": {"northeast": {"lat": 51.48979028029149, "lng": -0.136182919708498}, "southwest": {"lat": 51.48709231970849, "lng": -0.138880880291502}}}, "name": "Juldyz-Ay, kazakh language lessons", "place_id": "ChIJj1ErnB0FdkgRyqd3CJaEkI0", "types": ["point_of_interest", "establishment"]}, "ChIJw5HZ0-MEdkgR3h_dTWGqkF8": {"geometry": {"location": {"lat": 51.4884267, "lng": -0.1375633}, "viewport": {"northeast": {"lat": 51.4897146302915, "lng": -0.136187269708498}, "southwest": {"lat": 51.4870166697085, "lng": -0.138885230291502}}}, "name": "Mercadillo", "place_id": "ChIJw5HZ0-MEdkgR3h_dTWGqkF8", "types": ["clothing_store", "point_of_interest", "store", "establishment"]}, "ChIJLdCw0OMEdkgRONKzMXKaVYw": {"geometry": {"location": {"lat": 51.48826520000001, "lng": -0.1373765}, "viewport": {"northeast": {"lat": 51.4896422802915, "lng": -0.1360449697084979}, "southwest": {"lat": 51.4869443197085, "lng": -0.138742930291502}}}, "name": "Pimlico Academy & Library (Stop L)", "place_id": "ChIJLdCw0OMEdkgRONKzMXKaVYw", "types": ["bus_station", "transit_station", "point_of_interest", "establishment"]}, "ChIJrc_-gsQFdkgRbUHPpNuK5dg": {"geometry": {"location": {"lat": 51.48826039999999, "lng": -0.1373716}, "viewport": {"northeast": {"lat": 51.4896409302915, "lng": -0.136036519708498}, "southwest": {"lat": 51.4869429697085, "lng": -0.138734480291502}}}, "name": "Future Academies", "place_id": "ChIJrc_-gsQFdkgRbUHPpNuK5dg", "types": ["point_of_interest", "establishment"]}, "ChIJ51gyNOIEdkgRSNoepD4K_vM": {"geometry": {"location": {"lat": 51.48743500000783, "lng": -0.138178599898291}, "viewport": {"northeast": {"lat": 51.4887839802915, "lng": -0.136829619708498}, "southwest": {"lat": 51.4860860197085, "lng": -0.139527580291502}}}, "name": "4 Claverton St", "place_id": "ChIJ51gyNOIEdkgRSNoepD4K_vM", "types": ["route"]}, "ChIJ1UrZuskFdkgRa_xFmSGC7QY": {"geometry": {"location": {"lat": 51.48617400000001, "lng": -0.1373937}, "viewport": {"northeast": {"lat": 51.4875025302915, "lng": -0.136176519708498}, "southwest": {"lat": 51.4848045697085, "lng": -0.138874480291502}}}, "name": "Cleaners R Us Purley", "place_id": "ChIJ1UrZuskFdkgRa_xFmSGC7QY", "types": ["point_of_interest", "establishment"]}, "ChIJV3U9EOMEdkgRxgJyHxeAp7E": {"geometry": {"location": {"lat": 51.48528595031112, "lng": -0.1370210002725813}, "viewport": {"northeast": {"lat": 51.4866349302915, "lng": -0.135672019708498}, "southwest": {"lat": 51.4839369697085, "lng": -0.138369980291502}}}, "name": "94-92 Grosvenor Rd", "place_id": "ChIJV3U9EOMEdkgRxgJyHxeAp7E", "types": ["route"]}, "ChIJydrmfOMEdkgRtoN9Qb3ke28": {"geometry": {"location": {"lat": 51.4851831, "lng": -0.1372874}, "viewport": {"northeast": {"lat": 51.4865550802915, "lng": -0.135949819708498}, "southwest": {"lat": 51.4838571197085, "lng": -0.138647780291502}}}, "name": "Logic ICT Ltd", "place_id": "ChIJydrmfOMEdkgRtoN9Qb3ke28", "types": ["point_of_interest", "establishment"]}, "ChIJ1WtvBeMEdkgRjON0T8xcHVM": {"geometry": {"location": {"lat": 51.4854699, "lng": -0.1371429}, "viewport": {"northeast": {"lat": 51.4867236802915, "lng": -0.135752369708498}, "southwest": {"lat": 51.4840257197085, "lng": -0.138450330291502}}}, "name": "Holistic Health Consultancy & College", "place_id": "ChIJ1WtvBeMEdkgRjON0T8xcHVM", "types": ["health", "point_of_interest", "establishment"]}, "ChIJO_iJD-MEdkgRJhdRgqFpJzE": {"geometry": {"location": {"lat": 51.4854699, "lng": -0.1371428}, "viewport": {"northeast": {"lat": 51.4867236802915, "lng": -0.135752269708498}, "southwest": {"lat": 51.4840257197085, "lng": -0.1384502302915021}}}, "name": "Decibel Designs", "place_id": "ChIJO_iJD-MEdkgRJhdRgqFpJzE", "types": ["general_contractor", "point_of_interest", "establishment"]}, "ChIJQyIw9UwFdkgRyRkJfxQtFIw": {"geometry": {"location": {"lat": 51.4854969, "lng": -0.1373999}, "viewport": {"northeast": {"lat": 51.4868390802915, "lng": -0.1361001697084979}, "southwest": {"lat": 51.4841411197085, "lng": -0.138798130291502}}}, "name": "SW1V 3BQ", "place_id": "ChIJQyIw9UwFdkgRyRkJfxQtFIw", "types": ["point_of_interest", "establishment"], "rating": 5, "user_ratings_total": 1}, "ChIJIVVBA-MEdkgRu3MagEjF3yk": {"geometry": {"location": {"lat": 51.4854521, "lng": -0.1376121}, "viewport": {"northeast": {"lat": 51.48680108029149, "lng": -0.136263119708498}, "southwest": {"lat": 51.48410311970849, "lng": -0.138961080291502}}}, "name": "Hungerford House", "place_id": "ChIJIVVBA-MEdkgRu3MagEjF3yk", "types": ["point_of_interest", "establishment"], "rating": 4.5, "user_ratings_total": 15}, "ChIJjaSE9eEEdkgR-b2VthQEfJE": {"geometry": {"location": {"lat": 51.4885476, "lng": -0.1393448}, "viewport": {"northeast": {"lat": 51.48994883029149, "lng": -0.137933319708498}, "southwest": {"lat": 51.4872508697085, "lng": -0.140631280291502}}}, "name": "OYO St George Hotel", "place_id": "ChIJjaSE9eEEdkgR-b2VthQEfJE", "types": ["lodging", "point_of_interest", "establishment"], "rating": 3.5, "user_ratings_total": 361}, "ChIJIfgDVzMDdkgRi1qfqEjeZL0": {"geometry": {"location": {"lat": 51.4884249, "lng": -0.139171}, "viewport": {"northeast": {"lat": 51.4898391302915, "lng": -0.137743119708498}, "southwest": {"lat": 51.4871411697085, "lng": -0.140441080291502}}}, "name": "We Trade Forex", "place_id": "ChIJIfgDVzMDdkgRi1qfqEjeZL0", "types": ["finance", "point_of_interest", "establishment"]}, "ChIJQeiaKOIEdkgRFmtlXE6mRTQ": {"geometry": {"location": {"lat": 51.4885586, "lng": -0.1386866}, "viewport": {"northeast": {"lat": 51.4899123802915, "lng": -0.137263419708498}, "southwest": {"lat": 51.4872144197085, "lng": -0.139961380291502}}}, "name": "Thomas Cubitt Statue", "place_id": "ChIJQeiaKOIEdkgRFmtlXE6mRTQ", "types": ["point_of_interest", "establishment"], "rating": 4.1, "user_ratings_total": 7}, "ChIJ-2l5JOIEdkgRGUX-cInf6PA": {"geometry": {"location": {"lat": 51.48833800000001, "lng": -0.1389815}, "viewport": {"northeast": {"lat": 51.4897513802915, "lng": -0.137553919708498}, "southwest": {"lat": 51.48705341970851, "lng": -0.140251880291502}}}, "name": "Mayfair Aesthetics Laser & Skin Clinic - Pimlico", "place_id": "ChIJ-2l5JOIEdkgRGUX-cInf6PA", "types": ["beauty_salon", "hair_care", "health", "point_of_interest", "establishment"], "rating": 4.8, "user_ratings_total": 25}, "ChIJv9K5tq8cdkgRHCnGH5OPWT8": {"geometry": {"location": {"lat": 51.48819, "lng": -0.139059}, "viewport": {"northeast": {"lat": 51.48947483029149, "lng": -0.137688419708498}, "southwest": {"lat": 51.48677686970849, "lng": -0.140386380291502}}}, "name": "Pain & Performance NOI Clinic", "place_id": "ChIJv9K5tq8cdkgRHCnGH5OPWT8", "types": ["health", "point_of_interest", "establishment"], "rating": 5, "user_ratings_total": 1}, "ChIJaZOulU4FdkgRxPxfpud8TzA": {"geometry": {"location": {"lat": 51.4881879, "lng": -0.1390784}, "viewport": {"northeast": {"lat": 51.48947253029151, "lng": -0.137707769708498}, "southwest": {"lat": 51.48677456970851, "lng": -0.140405730291502}}}, "name": "Sky Bespoke Glass", "place_id": "ChIJaZOulU4FdkgRxPxfpud8TzA", "types": ["point_of_interest", "establishment"]}, "ChIJOcNcI-IEdkgRshW23Dh2D-Q": {"geometry": {"location": {"lat": 51.4881879, "lng": -0.1390784}, "viewport": {"northeast": {"lat": 51.48947253029151, "lng": -0.137707769708498}, "southwest": {"lat": 51.48677456970851, "lng": -0.140405730291502}}}, "name": "Glass Express", "place_id": "ChIJOcNcI-IEdkgRshW23Dh2D-Q", "types": ["transit_station", "point_of_interest", "establishment"]}, "ChIJFfPqJOIEdkgRq1mcsxUFMyU": {"geometry": {"location": {"lat": 51.48807819933889, "lng": -0.1388736386796531}, "viewport": {"northeast": {"lat": 51.4894292802915, "lng": -0.137525369708498}, "southwest": {"lat": 51.4867313197085, "lng": -0.140223330291502}}}, "name": "51-63 Lupus St", "place_id": "ChIJFfPqJOIEdkgRq1mcsxUFMyU", "types": ["route"]}, "ChIJ4WYlOeIEdkgRZ9VMutRsjkg": {"geometry": {"location": {"lat": 51.4875345, "lng": -0.1389441}, "viewport": {"northeast": {"lat": 51.4888726302915, "lng": -0.137663119708498}, "southwest": {"lat": 51.4861746697085, "lng": -0.140361080291502}}}, "name": "Hinton and Seymour Limited", "place_id": "ChIJ4WYlOeIEdkgRZ9VMutRsjkg", "types": ["point_of_interest", "establishment"]}, "ChIJYeI1OeIEdkgRlSYvixPZLkY": {"geometry": {"location": {"lat": 51.4875781, "lng": -0.1389694}, "viewport": {"northeast": {"lat": 51.4889167802915, "lng": -0.137684969708498}, "southwest": {"lat": 51.4862188197085, "lng": -0.140382930291502}}}, "name": "Lyndsey Roome - Permanent Make Up", "place_id": "ChIJYeI1OeIEdkgRlSYvixPZLkY", "types": ["point_of_interest", "establishment"], "rating": 5, "user_ratings_total": 4}, "ChIJEWckIJEFdkgRhwszlvWDNqE": {"geometry": {"location": {"lat": 51.487499, "lng": -0.1392434}, "viewport": {"northeast": {"lat": 51.48886043029149, "lng": -0.137815019708498}, "southwest": {"lat": 51.4861624697085, "lng": -0.140512980291502}}}, "name": "Prime Tutors", "place_id": "ChIJEWckIJEFdkgRhwszlvWDNqE", "types": ["point_of_interest", "establishment"]}, "ChIJnR77V8oFdkgRh4X5Mo5KIoA": {"geometry": {"location": {"lat": 51.4874513, "lng": -0.1388149}, "viewport": {"northeast": {"lat": 51.48878098029151, "lng": -0.137577919708498}, "southwest": {"lat": 51.48608301970851, "lng": -0.140275880291502}}}, "name": "Douglas Macmillan (1884-1969) Blue Plaque", "place_id": "ChIJnR77V8oFdkgRh4X5Mo5KIoA", "types": ["point_of_interest", "establishment"], "rating": 5, "user_ratings_total": 1}, "ChIJ-39tVOIEdkgR_Eb4CchnNAY": {"geometry": {"location": {"lat": 51.48624911290372, "lng": -0.1385036301615909}, "viewport": {"northeast": {"lat": 51.48759803029149, "lng": -0.137154619708498}, "southwest": {"lat": 51.4849000697085, "lng": -0.139852580291502}}}, "name": "Churchill Gardens Road", "place_id": "ChIJ-39tVOIEdkgR_Eb4CchnNAY", "types": ["route"]}, "ChIJ__8bXOIEdkgRDTEUn01R10Y": {"geometry": {"location": {"lat": 51.4863703, "lng": -0.1390549}, "viewport": {"northeast": {"lat": 51.4876964802915, "lng": -0.137849019708498}, "southwest": {"lat": 51.4849985197085, "lng": -0.140546980291502}}}, "name": "Westminster Apartment", "place_id": "ChIJ__8bXOIEdkgRDTEUn01R10Y", "types": ["lodging", "point_of_interest", "establishment"]}, "ChIJhSkaWeIEdkgRVrKB-gO1948": {"geometry": {"location": {"lat": 51.486218, "lng": -0.13887}, "viewport": {"northeast": {"lat": 51.4875676302915, "lng": -0.137521369708498}, "southwest": {"lat": 51.4848696697085, "lng": -0.140219330291502}}}, "name": "ubitricity Charging Station", "place_id": "ChIJhSkaWeIEdkgRVrKB-gO1948", "types": ["point_of_interest", "establishment"]}, "ChIJiyj7CpcFdkgR7ObRBmUGj2I": {"geometry": {"location": {"lat": 51.4864262, "lng": -0.1385412}, "viewport": {"northeast": {"lat": 51.48769063029149, "lng": -0.137151919708498}, "southwest": {"lat": 51.4849926697085, "lng": -0.139849880291502}}}, "name": "Moyle House", "place_id": "ChIJiyj7CpcFdkgR7ObRBmUGj2I", "types": ["point_of_interest", "establishment"]}, "ChIJYyvv6OIEdkgRJ3knutsK1VQ": {"geometry": {"location": {"lat": 51.48497773032206, "lng": -0.1387857381681008}, "viewport": {"northeast": {"lat": 51.4863348302915, "lng": -0.137439719708498}, "southwest": {"lat": 51.4836368697085, "lng": -0.140137680291502}}}, "name": "Grosvenor Road", "place_id": "ChIJYyvv6OIEdkgRJ3knutsK1VQ", "types": ["route"]}, "ChIJxVw0SJ4FdkgRw4UsN4c1AcE": {"geometry": {"location": {"lat": 51.4854107, "lng": -0.1387319}, "viewport": {"northeast": {"lat": 51.48675968029149, "lng": -0.137382919708498}, "southwest": {"lat": 51.48406171970849, "lng": -0.140080880291502}}}, "name": "J N R Roofing and Decorating Ltd", "place_id": "ChIJxVw0SJ4FdkgRw4UsN4c1AcE", "types": ["roofing_contractor", "painter", "point_of_interest", "establishment"], "rating": 5, "user_ratings_total": 2}}}