{"E00175239": {"ChIJbVxkQN4EdkgRQG1M8bUUhe0": {"geometry": {"location": {"lat": 51.49522969097488, "lng": -0.1366101111649841}, "viewport": {"northeast": {"lat": 51.4965796302915, "lng": -0.135265519708498}, "southwest": {"lat": 51.4938816697085, "lng": -0.137963480291502}}}, "name": "18-16 Greencoat Pl", "place_id": "ChIJbVxkQN4EdkgRQG1M8bUUhe0", "types": ["route"]}, "ChIJ9fyEPd4EdkgRYCS207IIrd4": {"geometry": {"location": {"lat": 51.4947384, "lng": -0.136501}, "viewport": {"northeast": {"lat": 51.49608738029149, "lng": -0.135152019708498}, "southwest": {"lat": 51.4933894197085, "lng": -0.137849980291502}}}, "name": "2 Amici", "place_id": "ChIJ9fyEPd4EdkgRYCS207IIrd4", "types": ["restaurant", "food", "point_of_interest", "establishment"], "rating": 4, "user_ratings_total": 131}, "ChIJawQY6xkqdkgRvORHLNlFREI": {"geometry": {"location": {"lat": 51.49470160000001, "lng": -0.1373005}, "viewport": {"northeast": {"lat": 51.4960166302915, "lng": -0.135847919708498}, "southwest": {"lat": 51.4933186697085, "lng": -0.138545880291502}}}, "name": "The Society Of Environmental Engineers", "place_id": "ChIJawQY6xkqdkgRvORHLNlFREI", "types": ["point_of_interest", "establishment"]}, "ChIJmYgpLN4EdkgRVj1Ix9DQetg": {"geometry": {"location": {"lat": 51.4944791, "lng": -0.1374083}, "viewport": {"northeast": {"lat": 51.4958280802915, "lng": -0.1360593197084979}, "southwest": {"lat": 51.4931301197085, "lng": -0.138757280291502}}}, "name": "Initiatives of Change", "place_id": "ChIJmYgpLN4EdkgRVj1Ix9DQetg", "types": ["point_of_interest", "establishment"], "rating": 4.3, "user_ratings_total": 10}, "ChIJY6kGMN4EdkgRIY5M0DxsWL8": {"geometry": {"location": {"lat": 51.49470160000001, "lng": -0.1373005}, "viewport": {"northeast": {"lat": 51.4960166302915, "lng": -0.135847919708498}, "southwest": {"lat": 51.4933186697085, "lng": -0.138545880291502}}}, "name": "The Society Of Operations Engineers", "place_id": "ChIJY6kGMN4EdkgRIY5M0DxsWL8", "types": ["point_of_interest", "establishment"], "rating": 5, "user_ratings_total": 4}, "ChIJX7yptc4EdkgRQd4AkN0CrOA": {"geometry": {"location": {"lat": 51.4944387, "lng": -0.1374191}, "viewport": {"northeast": {"lat": 51.4957665802915, "lng": -0.136009369708498}, "southwest": {"lat": 51.4930686197085, "lng": -0.138707330291502}}}, "name": "Campaign For Learning", "place_id": "ChIJX7yptc4EdkgRQd4AkN0CrOA", "types": ["point_of_interest", "establishment"]}, "ChIJI936O94EdkgRN9a0BWdSkWI": {"geometry": {"location": {"lat": 51.4948429, "lng": -0.1368525}, "viewport": {"northeast": {"lat": 51.4961943802915, "lng": -0.135517819708498}, "southwest": {"lat": 51.4934964197085, "lng": -0.138215780291502}}}, "name": "Redwood Consulting Ltd", "place_id": "ChIJI936O94EdkgRN9a0BWdSkWI", "types": ["point_of_interest", "establishment"], "rating": 5, "user_ratings_total": 1}, "ChIJLf8iJd4EdkgRSff0Gvoxr7U": {"geometry": {"location": {"lat": 51.4945007, "lng": -0.137075}, "viewport": {"northeast": {"lat": 51.4958664802915, "lng": -0.135777219708498}, "southwest": {"lat": 51.4931685197085, "lng": -0.138475180291502}}}, "name": "Interior Designers in London - Nicholas Sunderland Interiors", "place_id": "ChIJLf8iJd4EdkgRSff0Gvoxr7U", "types": ["general_contractor", "point_of_interest", "establishment"]}, "ChIJWcBnLt4EdkgR44VK9j-T-I4": {"geometry": {"location": {"lat": 51.4944339, "lng": -0.1374714}, "viewport": {"northeast": {"lat": 51.4957557302915, "lng": -0.136042969708498}, "southwest": {"lat": 51.4930577697085, "lng": -0.138740930291502}}}, "name": "FLTfilms", "place_id": "ChIJWcBnLt4EdkgR44VK9j-T-I4", "types": ["point_of_interest", "establishment"]}, "ChIJWcBnLt4EdkgRrK0AXKyGxlw": {"geometry": {"location": {"lat": 51.4944339, "lng": -0.1374714}, "viewport": {"northeast": {"lat": 51.4957557302915, "lng": -0.136042969708498}, "southwest": {"lat": 51.4930577697085, "lng": -0.138740930291502}}}, "name": "International Communications Forum", "place_id": "ChIJWcBnLt4EdkgRrK0AXKyGxlw", "types": ["point_of_interest", "establishment"]}, "ChIJOYUVMZ4EdkgR3q-qtTTnFwE": {"geometry": {"location": {"lat": 51.495105, "lng": -0.1372216}, "viewport": {"northeast": {"lat": 51.49648003029149, "lng": -0.135827019708498}, "southwest": {"lat": 51.4937820697085, "lng": -0.1385249802915021}}}, "name": "RAINMAKRR | Blockchain Recruitment Agencies Network | B2B Marketing Agency | IT Recruitment Agencies Network | Crypto Recruitment Agency | B2B Marketing Agencies Network | Tech Executive Search Firms London Headhunters London", "place_id": "ChIJOYUVMZ4EdkgR3q-qtTTnFwE", "types": ["point_of_interest", "establishment"], "rating": 5, "user_ratings_total": 2}, "ChIJm64oI94EdkgRxyKukSZ3QKY": {"geometry": {"location": {"lat": 51.4943646, "lng": -0.137667}, "viewport": {"northeast": {"lat": 51.4956687802915, "lng": -0.136186869708498}, "southwest": {"lat": 51.4929708197085, "lng": -0.138884830291502}}}, "name": "Indian Ocean Disaster Relief", "place_id": "ChIJm64oI94EdkgRxyKukSZ3QKY", "types": ["point_of_interest", "establishment"]}, "ChIJBYI7O94EdkgRnCiWMbzSfJk": {"geometry": {"location": {"lat": 51.494276, "lng": -0.1373671}, "viewport": {"northeast": {"lat": 51.4956201302915, "lng": -0.136001469708498}, "southwest": {"lat": 51.4929221697085, "lng": -0.138699430291502}}}, "name": "Party Bookings.Com", "place_id": "ChIJBYI7O94EdkgRnCiWMbzSfJk", "types": ["point_of_interest", "establishment"], "rating": 1, "user_ratings_total": 2}, "ChIJlZ0ubd0EdkgR83WiU1oyl-c": {"geometry": {"location": {"lat": 51.494276, "lng": -0.137367}, "viewport": {"northeast": {"lat": 51.4956195302915, "lng": -0.136001969708498}, "southwest": {"lat": 51.4929215697085, "lng": -0.138699930291502}}}, "name": "Londonhotels4u", "place_id": "ChIJlZ0ubd0EdkgR83WiU1oyl-c", "types": ["travel_agency", "point_of_interest", "establishment"], "rating": 4.8, "user_ratings_total": 6}, "ChIJmdTfT9AEdkgRwvhCC3xD_iI": {"geometry": {"location": {"lat": 51.49470160000001, "lng": -0.1373005}, "viewport": {"northeast": {"lat": 51.4960166302915, "lng": -0.135847919708498}, "southwest": {"lat": 51.4933186697085, "lng": -0.138545880291502}}}, "name": "Foundation For Science & Technology", "place_id": "ChIJmdTfT9AEdkgRwvhCC3xD_iI", "types": ["point_of_interest", "establishment"], "rating": 4, "user_ratings_total": 1}, "ChIJeaXZLt4EdkgRrz2aLL33CLc": {"geometry": {"location": {"lat": 51.494276, "lng": -0.137367}, "viewport": {"northeast": {"lat": 51.4956195302915, "lng": -0.136001969708498}, "southwest": {"lat": 51.4929215697085, "lng": -0.138699930291502}}}, "name": "London Hotels For You", "place_id": "ChIJeaXZLt4EdkgRrz2aLL33CLc", "types": ["lodging", "point_of_interest", "establishment"]}, "ChIJY0ZVLt4EdkgRNFVtqAIfMak": {"geometry": {"location": {"lat": 51.49443379999999, "lng": -0.1374715}, "viewport": {"northeast": {"lat": 51.4957556302915, "lng": -0.136043069708498}, "southwest": {"lat": 51.4930576697085, "lng": -0.138741030291502}}}, "name": "Institute of Business Ethics", "place_id": "ChIJY0ZVLt4EdkgRNFVtqAIfMak", "types": ["point_of_interest", "establishment"], "rating": 5, "user_ratings_total": 1}, "ChIJvYsQJN4EdkgR9WBaD-g8UVc": {"geometry": {"location": {"lat": 51.4943029, "lng": -0.136855}, "viewport": {"northeast": {"lat": 51.49561698029149, "lng": -0.135475569708498}, "southwest": {"lat": 51.49291901970849, "lng": -0.138173530291502}}}, "name": "Colourstat Print Shop", "place_id": "ChIJvYsQJN4EdkgR9WBaD-g8UVc", "types": ["point_of_interest", "store", "establishment"], "rating": 4.5, "user_ratings_total": 24}, "ChIJ0_giJd4EdkgR9cVdL6z_gPM": {"geometry": {"location": {"lat": 51.4945916, "lng": -0.1366085}, "viewport": {"northeast": {"lat": 51.4959405802915, "lng": -0.135259519708498}, "southwest": {"lat": 51.4932426197085, "lng": -0.137957480291502}}}, "name": "The Indian Diner", "place_id": "ChIJ0_giJd4EdkgR9cVdL6z_gPM", "types": ["meal_takeaway", "restaurant", "food", "point_of_interest", "establishment"], "rating": 3.4, "user_ratings_total": 234}, "ChIJn0yVO94EdkgR3RGGNkyYWQc": {"geometry": {"location": {"lat": 51.4947969, "lng": -0.1369129}, "viewport": {"northeast": {"lat": 51.4961438802915, "lng": -0.135557319708498}, "southwest": {"lat": 51.49344591970851, "lng": -0.138255280291502}}}, "name": "Japan Animal Welfare Society", "place_id": "ChIJn0yVO94EdkgR3RGGNkyYWQc", "types": ["point_of_interest", "establishment"], "rating": 3.6, "user_ratings_total": 7}, "ChIJzeYbdUsbdkgR3mxPpZEwsp8": {"geometry": {"location": {"lat": 51.49470160000001, "lng": -0.1373005}, "viewport": {"northeast": {"lat": 51.4960505802915, "lng": -0.135951519708498}, "southwest": {"lat": 51.4933526197085, "lng": -0.138649480291502}}}, "name": "Confederation of Passenger Transport UK", "place_id": "ChIJzeYbdUsbdkgR3mxPpZEwsp8", "types": ["point_of_interest", "establishment"], "rating": 5, "user_ratings_total": 4}, "ChIJ-XQvTQ8FdkgR0XV1g1WD5W4": {"geometry": {"location": {"lat": 51.49478389999999, "lng": -0.1374757}, "viewport": {"northeast": {"lat": 51.49607088029149, "lng": -0.136200269708498}, "southwest": {"lat": 51.49337291970849, "lng": -0.138898230291502}}}, "name": "Foix Health", "place_id": "ChIJ-XQvTQ8FdkgR0XV1g1WD5W4", "types": ["point_of_interest", "establishment"]}, "ChIJLf8iJd4EdkgRNGzK9-wIgfM": {"geometry": {"location": {"lat": 51.4944892, "lng": -0.1370411}, "viewport": {"northeast": {"lat": 51.4958605802915, "lng": -0.135760419708498}, "southwest": {"lat": 51.4931626197085, "lng": -0.138458380291502}}}, "name": "London Air Cadets", "place_id": "ChIJLf8iJd4EdkgRNGzK9-wIgfM", "types": ["point_of_interest", "establishment"]}, "ChIJi8BnLt4EdkgRwomMXHGkwyU": {"geometry": {"location": {"lat": 51.49443379999999, "lng": -0.1374715}, "viewport": {"northeast": {"lat": 51.4957556302915, "lng": -0.136043069708498}, "southwest": {"lat": 51.4930576697085, "lng": -0.138741030291502}}}, "name": "Positive News Publishing", "place_id": "ChIJi8BnLt4EdkgRwomMXHGkwyU", "types": ["point_of_interest", "establishment"]}, "ChIJi8BnLt4EdkgRI_fyK64yxKM": {"geometry": {"location": {"lat": 51.49443379999999, "lng": -0.1374715}, "viewport": {"northeast": {"lat": 51.49578278029148, "lng": -0.136122519708498}, "southwest": {"lat": 51.49308481970849, "lng": -0.138820480291502}}}, "name": "Greencoat Place", "place_id": "ChIJi8BnLt4EdkgRI_fyK64yxKM", "types": ["point_of_interest", "establishment"], "rating": 3.9, "user_ratings_total": 7}, "ChIJ3cwkNDoFdkgRu7dDB5GFopk": {"geometry": {"location": {"lat": 51.4950784, "lng": -0.1370146}, "viewport": {"northeast": {"lat": 51.49640608029149, "lng": -0.135702919708498}, "southwest": {"lat": 51.4937081197085, "lng": -0.138400880291502}}}, "name": "JL Sports Investment LTD", "place_id": "ChIJ3cwkNDoFdkgRu7dDB5GFopk", "types": ["point_of_interest", "establishment"]}, "ChIJabs_Pd4EdkgRsJvXHFokoac": {"geometry": {"location": {"lat": 51.4946738, "lng": -0.1365433}, "viewport": {"northeast": {"lat": 51.4960227802915, "lng": -0.135194319708498}, "southwest": {"lat": 51.4933248197085, "lng": -0.1378922802915021}}}, "name": "Hunter Estates", "place_id": "ChIJabs_Pd4EdkgRsJvXHFokoac", "types": ["real_estate_agency", "point_of_interest", "establishment"], "rating": 4.4, "user_ratings_total": 7}, "ChIJ__82I94EdkgRGfZ_Mogw0js": {"geometry": {"location": {"lat": 51.4945319, "lng": -0.1367193}, "viewport": {"northeast": {"lat": 51.4958563302915, "lng": -0.135294719708498}, "southwest": {"lat": 51.4931583697085, "lng": -0.137992680291502}}}, "name": "Richmond & Hampshire Limited", "place_id": "ChIJ__82I94EdkgRGfZ_Mogw0js", "types": ["point_of_interest", "establishment"]}, "ChIJH3LCIt4EdkgR4Wln7kepnio": {"geometry": {"location": {"lat": 51.49461400000001, "lng": -0.1366508}, "viewport": {"northeast": {"lat": 51.4959629802915, "lng": -0.1353018197084979}, "southwest": {"lat": 51.4932650197085, "lng": -0.137999780291502}}}, "name": "Rochester Indian Cuisine", "place_id": "ChIJH3LCIt4EdkgR4Wln7kepnio", "types": ["meal_takeaway", "restaurant", "food", "point_of_interest", "establishment"]}, "ChIJz6XHNN4EdkgRFMzK0GKTUVw": {"geometry": {"location": {"lat": 51.4950437, "lng": -0.1378656}, "viewport": {"northeast": {"lat": 51.4962818302915, "lng": -0.136571419708498}, "southwest": {"lat": 51.4935838697085, "lng": -0.139269380291502}}}, "name": "SW1 Home & Garden", "place_id": "ChIJz6XHNN4EdkgRFMzK0GKTUVw", "types": ["point_of_interest", "establishment"], "rating": 5, "user_ratings_total": 4}, "ChIJXyEtWY8FdkgR16yb2oiPDSk": {"geometry": {"location": {"lat": 51.4945916, "lng": -0.1366085}, "viewport": {"northeast": {"lat": 51.4959237802915, "lng": -0.135207819708498}, "southwest": {"lat": 51.4932258197085, "lng": -0.1379057802915021}}}, "name": "AppoloFX Investment Company", "place_id": "ChIJXyEtWY8FdkgR16yb2oiPDSk", "types": ["finance", "point_of_interest", "establishment"], "rating": 5, "user_ratings_total": 2}, "ChIJY0HTF94EdkgRGXQbZx5Z0pc": {"geometry": {"location": {"lat": 51.4947811, "lng": -0.1365256}, "viewport": {"northeast": {"lat": 51.4961300802915, "lng": -0.135176619708498}, "southwest": {"lat": 51.4934321197085, "lng": -0.137874580291502}}}, "name": "Capital Interiors Ltd", "place_id": "ChIJY0HTF94EdkgRGXQbZx5Z0pc", "types": ["general_contractor", "point_of_interest", "establishment"], "rating": 5, "user_ratings_total": 3}, "ChIJ3XvCPd4EdkgRQtSGnqyAiq0": {"geometry": {"location": {"lat": 51.4948383, "lng": -0.1365502}, "viewport": {"northeast": {"lat": 51.4961858802915, "lng": -0.135202419708498}, "southwest": {"lat": 51.49348791970851, "lng": -0.137900380291502}}}, "name": "Zipcar", "place_id": "ChIJ3XvCPd4EdkgRQtSGnqyAiq0", "types": ["car_rental", "point_of_interest", "establishment"]}, "ChIJ-4JzPd4EdkgRN65Jz-T2Rv4": {"geometry": {"location": {"lat": 51.4947045, "lng": -0.1365359}, "viewport": {"northeast": {"lat": 51.4960338802915, "lng": -0.135126519708498}, "southwest": {"lat": 51.4933359197085, "lng": -0.137824480291502}}}, "name": "LangeLand Capital", "place_id": "ChIJ-4JzPd4EdkgRN65Jz-T2Rv4", "types": ["finance", "point_of_interest", "establishment"]}, "ChIJG0AWmeAEdkgRgkun5ug6gdU": {"geometry": {"location": {"lat": 51.49348980154202, "lng": -0.1366964344048315}, "viewport": {"northeast": {"lat": 51.49483893029149, "lng": -0.135347869708498}, "southwest": {"lat": 51.49214096970849, "lng": -0.138045830291502}}}, "name": "64-68 Vincent Square", "place_id": "ChIJG0AWmeAEdkgRgkun5ug6gdU", "types": ["route"]}, "ChIJIVnQneAEdkgRTkHIOVEOOyE": {"geometry": {"location": {"lat": 51.4933944, "lng": -0.1369158}, "viewport": {"northeast": {"lat": 51.4947433802915, "lng": -0.135566819708498}, "southwest": {"lat": 51.4920454197085, "lng": -0.138264780291502}}}, "name": "Fleetcor Europe Ltd", "place_id": "ChIJIVnQneAEdkgRTkHIOVEOOyE", "types": ["point_of_interest", "establishment"], "rating": 3.4, "user_ratings_total": 5}, "ChIJk_aGI94EdkgRgQreSDi3WlE": {"geometry": {"location": {"lat": 51.4939737, "lng": -0.1371288}, "viewport": {"northeast": {"lat": 51.4953057802915, "lng": -0.135728369708498}, "southwest": {"lat": 51.4926078197085, "lng": -0.138426330291502}}}, "name": "Shepherds Bookbinders - Bindery", "place_id": "ChIJk_aGI94EdkgRgQreSDi3WlE", "types": ["point_of_interest", "establishment"], "rating": 4.6, "user_ratings_total": 7}, "ChIJnRVJmuAEdkgRireq1H3zxG0": {"geometry": {"location": {"lat": 51.4933717, "lng": -0.1370465}, "viewport": {"northeast": {"lat": 51.49468853029149, "lng": -0.135600219708498}, "southwest": {"lat": 51.4919905697085, "lng": -0.138298180291502}}}, "name": "G C M Global Energy", "place_id": "ChIJnRVJmuAEdkgRireq1H3zxG0", "types": ["point_of_interest", "establishment"], "rating": 5, "user_ratings_total": 1}, "ChIJT5JOhuAEdkgRW5OLjnRp8Bo": {"geometry": {"location": {"lat": 51.4932846, "lng": -0.1376837}, "viewport": {"northeast": {"lat": 51.4946213302915, "lng": -0.136295369708498}, "southwest": {"lat": 51.4919233697085, "lng": -0.138993330291502}}}, "name": "Abbey Box Office", "place_id": "ChIJT5JOhuAEdkgRW5OLjnRp8Bo", "types": ["point_of_interest", "store", "establishment"]}, "ChIJlen1nuAEdkgROz2NftbEUag": {"geometry": {"location": {"lat": 51.4937368, "lng": -0.1367079}, "viewport": {"northeast": {"lat": 51.4950598302915, "lng": -0.135268319708498}, "southwest": {"lat": 51.4923618697085, "lng": -0.137966280291502}}}, "name": "Pro Rubbish Removals", "place_id": "ChIJlen1nuAEdkgROz2NftbEUag", "types": ["point_of_interest", "establishment"]}, "ChIJNVztmuAEdkgR7ZdgGAh8ZhA": {"geometry": {"location": {"lat": 51.4933351, "lng": -0.1370481}, "viewport": {"northeast": {"lat": 51.49465573029149, "lng": -0.135613369708498}, "southwest": {"lat": 51.49195776970849, "lng": -0.1383113302915021}}}, "name": "GoCruise and Stay", "place_id": "ChIJNVztmuAEdkgR7ZdgGAh8ZhA", "types": ["point_of_interest", "establishment"]}, "ChIJhdJXfuAEdkgR8Cy28-hWSwc": {"geometry": {"location": {"lat": 51.4933351, "lng": -0.1370481}, "viewport": {"northeast": {"lat": 51.49465573029149, "lng": -0.135613369708498}, "southwest": {"lat": 51.49195776970849, "lng": -0.1383113302915021}}}, "name": "Luxury Cruise Holiday", "place_id": "ChIJhdJXfuAEdkgR8Cy28-hWSwc", "types": ["travel_agency", "point_of_interest", "establishment"]}, "ChIJOaO4juAEdkgR2IvC9GP8Fq4": {"geometry": {"location": {"lat": 51.49325, "lng": -0.137456}, "viewport": {"northeast": {"lat": 51.49461763029149, "lng": -0.136166969708498}, "southwest": {"lat": 51.4919196697085, "lng": -0.138864930291502}}}, "name": "Andrew Reeves Estate Agents Westminster", "place_id": "ChIJOaO4juAEdkgR2IvC9GP8Fq4", "types": ["real_estate_agency", "point_of_interest", "establishment"], "rating": 4.9, "user_ratings_total": 10}, "ChIJu-DgLd4EdkgR_JwLE0vtKM0": {"geometry": {"location": {"lat": 51.4940897, "lng": -0.1376314}, "viewport": {"northeast": {"lat": 51.4954374302915, "lng": -0.136278869708498}, "southwest": {"lat": 51.4927394697085, "lng": -0.138976830291502}}}, "name": "Queen Mary Hostel", "place_id": "ChIJu-DgLd4EdkgR_JwLE0vtKM0", "types": ["lodging", "point_of_interest", "establishment"], "rating": 3.6, "user_ratings_total": 21}, "ChIJLf8iJd4EdkgR9s_Om3UJIMA": {"geometry": {"location": {"lat": 51.49395370000001, "lng": -0.1373762}, "viewport": {"northeast": {"lat": 51.49526718029151, "lng": -0.135876869708498}, "southwest": {"lat": 51.49256921970851, "lng": -0.138574830291502}}}, "name": "Army Careers Information Office", "place_id": "ChIJLf8iJd4EdkgR9s_Om3UJIMA", "types": ["point_of_interest", "establishment"], "rating": 4.2, "user_ratings_total": 5}, "ChIJN2qBhuAEdkgRManun2vNR64": {"geometry": {"location": {"lat": 51.49342859999999, "lng": -0.1375685}, "viewport": {"northeast": {"lat": 51.4947665802915, "lng": -0.136181219708498}, "southwest": {"lat": 51.4920686197085, "lng": -0.138879180291502}}}, "name": "Girls Public Day School Trust", "place_id": "ChIJN2qBhuAEdkgRManun2vNR64", "types": ["point_of_interest", "establishment"]}, "ChIJN2qBhuAEdkgRcaqe5IievKA": {"geometry": {"location": {"lat": 51.49342859999999, "lng": -0.1375685}, "viewport": {"northeast": {"lat": 51.4947665802915, "lng": -0.136181219708498}, "southwest": {"lat": 51.4920686197085, "lng": -0.138879180291502}}}, "name": "GDST Inspire", "place_id": "ChIJN2qBhuAEdkgRcaqe5IievKA", "types": ["point_of_interest", "establishment"]}, "ChIJZWvqs-4FdkgRlUNVbclDSuM": {"geometry": {"location": {"lat": 51.49398110000001, "lng": -0.1372235}, "viewport": {"northeast": {"lat": 51.49530018029151, "lng": -0.135783619708498}, "southwest": {"lat": 51.49260221970851, "lng": -0.138481580291502}}}, "name": "A (London Scottish) Company, London Regiment", "place_id": "ChIJZWvqs-4FdkgRlUNVbclDSuM", "types": ["point_of_interest", "establishment"]}, "ChIJBdjrm-AEdkgRdPmHY2B9-kQ": {"geometry": {"location": {"lat": 51.49350800000001, "lng": -0.1368866}, "viewport": {"northeast": {"lat": 51.4948304802915, "lng": -0.135457369708498}, "southwest": {"lat": 51.49213251970851, "lng": -0.138155330291502}}}, "name": "Westminster Property Ventures Limited", "place_id": "ChIJBdjrm-AEdkgRdPmHY2B9-kQ", "types": ["point_of_interest", "establishment"]}, "ChIJlen1nuAEdkgR8IZPTnU2Dkk": {"geometry": {"location": {"lat": 51.4937368, "lng": -0.1367079}, "viewport": {"northeast": {"lat": 51.4950562302915, "lng": -0.135271519708498}, "southwest": {"lat": 51.4923582697085, "lng": -0.137969480291502}}}, "name": "ArteLia", "place_id": "ChIJlen1nuAEdkgR8IZPTnU2Dkk", "types": ["point_of_interest", "establishment"]}, "ChIJy13tmuAEdkgRMMvv9CekeQY": {"geometry": {"location": {"lat": 51.4933352, "lng": -0.1370481}, "viewport": {"northeast": {"lat": 51.4946558302915, "lng": -0.135613369708498}, "southwest": {"lat": 51.4919578697085, "lng": -0.138311330291502}}}, "name": "Cruise Deals Ltd", "place_id": "ChIJy13tmuAEdkgRMMvv9CekeQY", "types": ["point_of_interest", "establishment"]}, "ChIJy13tmuAEdkgRUXB1Kp8kAd8": {"geometry": {"location": {"lat": 51.4933352, "lng": -0.1370481}, "viewport": {"northeast": {"lat": 51.4946558302915, "lng": -0.135613369708498}, "southwest": {"lat": 51.4919578697085, "lng": -0.138311330291502}}}, "name": "NowCruise.co.uk", "place_id": "ChIJy13tmuAEdkgRUXB1Kp8kAd8", "types": ["point_of_interest", "establishment"]}, "ChIJNVztmuAEdkgR5oNSL4UCw2A": {"geometry": {"location": {"lat": 51.4933351, "lng": -0.1370481}, "viewport": {"northeast": {"lat": 51.49465573029149, "lng": -0.135613369708498}, "southwest": {"lat": 51.49195776970849, "lng": -0.1383113302915021}}}, "name": "Allstar Business Solutions Limited", "place_id": "ChIJNVztmuAEdkgR5oNSL4UCw2A", "types": ["point_of_interest", "establishment"]}, "ChIJNVztmuAEdkgR_TjzUrsVW7g": {"geometry": {"location": {"lat": 51.4933351, "lng": -0.1370481}, "viewport": {"northeast": {"lat": 51.49465573029149, "lng": -0.135613369708498}, "southwest": {"lat": 51.49195776970849, "lng": -0.1383113302915021}}}, "name": "CAPITAL.COM UK LIMITED - CFD Trading App", "place_id": "ChIJNVztmuAEdkgR_TjzUrsVW7g", "types": ["finance", "point_of_interest", "establishment"], "rating": 4.5, "user_ratings_total": 74}, "ChIJ3TlrJ94EdkgRE4QSYHVxCVU": {"geometry": {"location": {"lat": 51.493985, "lng": -0.136928}, "viewport": {"northeast": {"lat": 51.49533458029151, "lng": -0.135580869708498}, "southwest": {"lat": 51.49263661970851, "lng": -0.138278830291502}}}, "name": "Santander Cycles", "place_id": "ChIJ3TlrJ94EdkgRE4QSYHVxCVU", "types": ["point_of_interest", "establishment"]}, "ChIJbfzth1UFdkgRCUfoXwsjlEA": {"geometry": {"location": {"lat": 51.4933564, "lng": -0.137634}, "viewport": {"northeast": {"lat": 51.4946924302915, "lng": -0.136240469708498}, "southwest": {"lat": 51.4919944697085, "lng": -0.138938430291502}}}, "name": "Rochester Row", "place_id": "ChIJbfzth1UFdkgRCUfoXwsjlEA", "types": ["point_of_interest", "establishment"]}, "ChIJjRh3gOAEdkgR_TiqBJ2kOQQ": {"geometry": {"location": {"lat": 51.49378979999999, "lng": -0.1379041}, "viewport": {"northeast": {"lat": 51.4951636802915, "lng": -0.136596269708498}, "southwest": {"lat": 51.49246571970851, "lng": -0.139294230291502}}}, "name": "Peabody Trust, Buckingham Chambers", "place_id": "ChIJjRh3gOAEdkgR_TiqBJ2kOQQ", "types": ["point_of_interest", "establishment"], "rating": 4.8, "user_ratings_total": 4}, "ChIJy7XxfeAEdkgR38UkFw_jsys": {"geometry": {"location": {"lat": 51.49352359999999, "lng": -0.1379592}, "viewport": {"northeast": {"lat": 51.49487028029151, "lng": -0.136790419708498}, "southwest": {"lat": 51.49217231970851, "lng": -0.139488380291502}}}, "name": "Admiral House", "place_id": "ChIJy7XxfeAEdkgR38UkFw_jsys", "types": ["point_of_interest", "establishment"], "rating": 5, "user_ratings_total": 1}, "ChIJ6xcAfYkFdkgRGztQqMMc-9U": {"geometry": {"location": {"lat": 51.493216, "lng": -0.137281}, "viewport": {"northeast": {"lat": 51.4945592302915, "lng": -0.135939519708498}, "southwest": {"lat": 51.4918612697085, "lng": -0.138637480291502}}}, "name": "El Patio de Zorras", "place_id": "ChIJ6xcAfYkFdkgRGztQqMMc-9U", "types": ["museum", "point_of_interest", "establishment"], "rating": 5, "user_ratings_total": 28}, "ChIJU-jij-AEdkgRbmS7tVzCmA4": {"geometry": {"location": {"lat": 51.49320169999999, "lng": -0.1371914}, "viewport": {"northeast": {"lat": 51.49455068029149, "lng": -0.135842419708498}, "southwest": {"lat": 51.4918527197085, "lng": -0.138540380291502}}}, "name": "Green Coffee", "place_id": "ChIJU-jij-AEdkgRbmS7tVzCmA4", "types": ["food", "point_of_interest", "establishment"]}, "ChIJ5dGUj-AEdkgRPfyCq2wCjLg": {"geometry": {"location": {"lat": 51.4931789, "lng": -0.1372768}, "viewport": {"northeast": {"lat": 51.49457213029149, "lng": -0.136082269708498}, "southwest": {"lat": 51.49187416970849, "lng": -0.138780230291502}}}, "name": "Vincent Square Mansion'", "place_id": "ChIJ5dGUj-AEdkgRPfyCq2wCjLg", "types": ["real_estate_agency", "point_of_interest", "establishment"], "rating": 3.7, "user_ratings_total": 3}, "ChIJEzsQJwoFdkgRPuZImGEe4xQ": {"geometry": {"location": {"lat": 51.49317060000001, "lng": -0.1374741}, "viewport": {"northeast": {"lat": 51.49454388029149, "lng": -0.136203269708498}, "southwest": {"lat": 51.4918459197085, "lng": -0.138901230291502}}}, "name": "SW11 Property (Battersea)", "place_id": "ChIJEzsQJwoFdkgRPuZImGEe4xQ", "types": ["point_of_interest", "establishment"]}, "ChIJtWMb-fgFdkgRIpRCZqxUk5k": {"geometry": {"location": {"lat": 51.49317060000001, "lng": -0.1374741}, "viewport": {"northeast": {"lat": 51.49454388029149, "lng": -0.136203269708498}, "southwest": {"lat": 51.4918459197085, "lng": -0.138901230291502}}}, "name": "SW8 Property", "place_id": "ChIJtWMb-fgFdkgRIpRCZqxUk5k", "types": ["real_estate_agency", "point_of_interest", "establishment"]}, "ChIJCSlPns0FdkgRQ7bNKf2vWSQ": {"geometry": {"location": {"lat": 51.49317060000001, "lng": -0.1374741}, "viewport": {"northeast": {"lat": 51.49454388029149, "lng": -0.136203269708498}, "southwest": {"lat": 51.4918459197085, "lng": -0.138901230291502}}}, "name": "SW Property (Belgravia, Knightsbridge, Battersea, Nine Elms)", "place_id": "ChIJCSlPns0FdkgRQ7bNKf2vWSQ", "types": ["real_estate_agency", "point_of_interest", "establishment"]}, "ChIJI6netKMFdkgR168ULLlbFys": {"geometry": {"location": {"lat": 51.49317060000001, "lng": -0.1374741}, "viewport": {"northeast": {"lat": 51.49454388029149, "lng": -0.136203269708498}, "southwest": {"lat": 51.4918459197085, "lng": -0.138901230291502}}}, "name": "Langtons Property Plus", "place_id": "ChIJI6netKMFdkgR168ULLlbFys", "types": ["real_estate_agency", "point_of_interest", "establishment"]}, "ChIJkxXX_gIFdkgRdLYxXjpbqsw": {"geometry": {"location": {"lat": 51.4939988, "lng": -0.1366276}, "viewport": {"northeast": {"lat": 51.49540743029149, "lng": -0.135227769708498}, "southwest": {"lat": 51.49270946970849, "lng": -0.137925730291502}}}, "name": "London Student Hotel", "place_id": "ChIJkxXX_gIFdkgRdLYxXjpbqsw", "types": ["point_of_interest", "establishment"], "rating": 4.5, "user_ratings_total": 4}, "ChIJV8PsJt4EdkgRMukCEKiutRk": {"geometry": {"location": {"lat": 51.4941506, "lng": -0.1369218}, "viewport": {"northeast": {"lat": 51.49549078029149, "lng": -0.1355429697084979}, "southwest": {"lat": 51.49279281970849, "lng": -0.138240930291502}}}, "name": "Rochester Row Vane Street (Stop X)", "place_id": "ChIJV8PsJt4EdkgRMukCEKiutRk", "types": ["transit_station", "point_of_interest", "establishment"], "rating": 2, "user_ratings_total": 1}, "ChIJ-QtXw5EFdkgR-vU8Zl0YNZY": {"geometry": {"location": {"lat": 51.49314769999999, "lng": -0.1373258}, "viewport": {"northeast": {"lat": 51.4945417302915, "lng": -0.136121669708498}, "southwest": {"lat": 51.4918437697085, "lng": -0.138819630291502}}}, "name": "Fine & Country - Belgravia", "place_id": "ChIJ-QtXw5EFdkgR-vU8Zl0YNZY", "types": ["point_of_interest", "establishment"]}, "ChIJ5URm8uAEdkgR7W_YRSwTAGU": {"geometry": {"location": {"lat": 51.49239640014154, "lng": -0.1372295496506088}, "viewport": {"northeast": {"lat": 51.4937453802915, "lng": -0.135880569708498}, "southwest": {"lat": 51.4910474197085, "lng": -0.1385785302915021}}}, "name": "158-150 A202", "place_id": "ChIJ5URm8uAEdkgR7W_YRSwTAGU", "types": ["route"]}, "ChIJQxdKYOAEdkgRvIc_jlVJrcc": {"geometry": {"location": {"lat": 51.4924888, "lng": -0.1377492}, "viewport": {"northeast": {"lat": 51.4938890802915, "lng": -0.136347569708498}, "southwest": {"lat": 51.4911911197085, "lng": -0.139045530291502}}}, "name": "Post Office", "place_id": "ChIJQxdKYOAEdkgRvIc_jlVJrcc", "types": ["post_office", "finance", "point_of_interest", "establishment"], "rating": 2.6, "user_ratings_total": 64}, "ChIJWZbcmqkFdkgRqSCijDuQZlw": {"geometry": {"location": {"lat": 51.4924022, "lng": -0.1373936}, "viewport": {"northeast": {"lat": 51.49377193029149, "lng": -0.136019019708498}, "southwest": {"lat": 51.4910739697085, "lng": -0.138716980291502}}}, "name": "Ginkgo Gardens", "place_id": "ChIJWZbcmqkFdkgRqSCijDuQZlw", "types": ["general_contractor", "point_of_interest", "establishment"], "rating": 2.7, "user_ratings_total": 21}, "ChIJT8P66-AEdkgRtNgY5UyVJ2Y": {"geometry": {"location": {"lat": 51.4925377, "lng": -0.1375605}, "viewport": {"northeast": {"lat": 51.4938714302915, "lng": -0.136229619708498}, "southwest": {"lat": 51.4911734697085, "lng": -0.138927580291502}}}, "name": "London External Rendering Services - Specialist Rendering Company", "place_id": "ChIJT8P66-AEdkgRtNgY5UyVJ2Y", "types": ["point_of_interest", "establishment"]}, "ChIJsSLWjeAEdkgRo5g6144_7TA": {"geometry": {"location": {"lat": 51.49290750000001, "lng": -0.1373704}, "viewport": {"northeast": {"lat": 51.4942347802915, "lng": -0.135957819708498}, "southwest": {"lat": 51.4915368197085, "lng": -0.138655780291502}}}, "name": "The Seafarers\u2019 Charity", "place_id": "ChIJsSLWjeAEdkgRo5g6144_7TA", "types": ["point_of_interest", "establishment"], "rating": 4.5, "user_ratings_total": 4}, "ChIJk__iiOAEdkgRCwuTqF8BEx4": {"geometry": {"location": {"lat": 51.4930327, "lng": -0.1375942}, "viewport": {"northeast": {"lat": 51.49440363029149, "lng": -0.136320019708498}, "southwest": {"lat": 51.4917056697085, "lng": -0.139017980291502}}}, "name": "Chelsea Funeral Directors", "place_id": "ChIJk__iiOAEdkgRCwuTqF8BEx4", "types": ["point_of_interest", "establishment"], "rating": 4, "user_ratings_total": 1}, "ChIJg_jmYeAEdkgRcCGwcK3ADTM": {"geometry": {"location": {"lat": 51.49289330000001, "lng": -0.1377689}, "viewport": {"northeast": {"lat": 51.49426633029151, "lng": -0.136473319708498}, "southwest": {"lat": 51.49156836970851, "lng": -0.139171280291502}}}, "name": "The Young Actors Studio", "place_id": "ChIJg_jmYeAEdkgRcCGwcK3ADTM", "types": ["point_of_interest", "establishment"]}, "ChIJ6c7niOAEdkgRCWSCqQv77zE": {"geometry": {"location": {"lat": 51.493053, "lng": -0.1375385}, "viewport": {"northeast": {"lat": 51.4944299802915, "lng": -0.136279669708498}, "southwest": {"lat": 51.49173201970851, "lng": -0.138977630291502}}}, "name": "Elliott Rowland Visiting Tailor's", "place_id": "ChIJ6c7niOAEdkgRCWSCqQv77zE", "types": ["point_of_interest", "establishment"], "rating": 5, "user_ratings_total": 1}, "ChIJS2TF29wEdkgR4BBUuPhdWcc": {"geometry": {"location": {"lat": 51.492932, "lng": -0.1377399}, "viewport": {"northeast": {"lat": 51.49430268029151, "lng": -0.136439119708498}, "southwest": {"lat": 51.49160471970851, "lng": -0.139137080291502}}}, "name": "The Salvation Army", "place_id": "ChIJS2TF29wEdkgR4BBUuPhdWcc", "types": ["point_of_interest", "establishment"], "rating": 3, "user_ratings_total": 3}, "ChIJu1f-HiAFdkgRgbNeLmUs9nY": {"geometry": {"location": {"lat": 51.4927019, "lng": -0.1375588}, "viewport": {"northeast": {"lat": 51.4940024302915, "lng": -0.1362671197084979}, "southwest": {"lat": 51.4913044697085, "lng": -0.138965080291502}}}, "name": "Firstpointprint Victoria", "place_id": "ChIJu1f-HiAFdkgRgbNeLmUs9nY", "types": ["point_of_interest", "store", "establishment"], "rating": 4.6, "user_ratings_total": 60}, "ChIJW0RujeAEdkgRiPgm4qcbD_4": {"geometry": {"location": {"lat": 51.4925451, "lng": -0.1371082}, "viewport": {"northeast": {"lat": 51.4938290802915, "lng": -0.135839469708498}, "southwest": {"lat": 51.4911311197085, "lng": -0.138537430291502}}}, "name": "bp", "place_id": "ChIJW0RujeAEdkgRiPgm4qcbD_4", "types": ["gas_station", "atm", "convenience_store", "finance", "food", "point_of_interest", "store", "establishment"], "rating": 3.7, "user_ratings_total": 44}, "ChIJEc0XiuAEdkgRNkbDqsp6SQA": {"geometry": {"location": {"lat": 51.49281200000001, "lng": -0.137843}, "viewport": {"northeast": {"lat": 51.49419443029151, "lng": -0.136540669708498}, "southwest": {"lat": 51.49149646970851, "lng": -0.139238630291502}}}, "name": "Foxtons Pimlico & Westminster Estate Agents", "place_id": "ChIJEc0XiuAEdkgRNkbDqsp6SQA", "types": ["finance", "real_estate_agency", "point_of_interest", "establishment"], "rating": 4.4, "user_ratings_total": 138}, "ChIJnaKPZNQFdkgRq8dwHRn4ye8": {"geometry": {"location": {"lat": 51.4924837, "lng": -0.1374013}, "viewport": {"northeast": {"lat": 51.4938061302915, "lng": -0.136085119708498}, "southwest": {"lat": 51.4911081697085, "lng": -0.138783080291502}}}, "name": "Oakwood St. George Wharf", "place_id": "ChIJnaKPZNQFdkgRq8dwHRn4ye8", "types": ["lodging", "point_of_interest", "establishment"]}, "ChIJR59p7OAEdkgR0ZocAVTmu8E": {"geometry": {"location": {"lat": 51.492568, "lng": -0.1371165}, "viewport": {"northeast": {"lat": 51.49384603029149, "lng": -0.135855069708498}, "southwest": {"lat": 51.49114806970849, "lng": -0.138553030291502}}}, "name": "MRH Vauxhall Bridge", "place_id": "ChIJR59p7OAEdkgR0ZocAVTmu8E", "types": ["gas_station", "point_of_interest", "establishment"]}, "ChIJGY91FegFdkgRT8UFjJMIx_4": {"geometry": {"location": {"lat": 51.49248370000002, "lng": -0.137412}, "viewport": {"northeast": {"lat": 51.49383268029152, "lng": -0.136063019708498}, "southwest": {"lat": 51.49113471970852, "lng": -0.1387609802915021}}}, "name": "Indover Streaming", "place_id": "ChIJGY91FegFdkgRT8UFjJMIx_4", "types": ["point_of_interest", "establishment"]}, "ChIJ5QG0kuAEdkgROFJ9crd6iho": {"geometry": {"location": {"lat": 51.492612, "lng": -0.1371105}, "viewport": {"northeast": {"lat": 51.4940075302915, "lng": -0.135897869708498}, "southwest": {"lat": 51.4913095697085, "lng": -0.138595830291502}}}, "name": "Londis", "place_id": "ChIJ5QG0kuAEdkgROFJ9crd6iho", "types": ["point_of_interest", "establishment"]}, "ChIJo31I8uAEdkgRRP-ly69PKGs": {"geometry": {"location": {"lat": 51.4924066, "lng": -0.137406}, "viewport": {"northeast": {"lat": 51.49377733029149, "lng": -0.136024969708498}, "southwest": {"lat": 51.4910793697085, "lng": -0.138722930291502}}}, "name": "Rochester Row (Stop W)", "place_id": "ChIJo31I8uAEdkgRRP-ly69PKGs", "types": ["transit_station", "point_of_interest", "establishment"]}, "ChIJHxxv8uAEdkgRnBtPKJVgxlM": {"geometry": {"location": {"lat": 51.492377, "lng": -0.137241}, "viewport": {"northeast": {"lat": 51.49371663029149, "lng": -0.135903519708498}, "southwest": {"lat": 51.4910186697085, "lng": -0.138601480291502}}}, "name": "HIS DOMINION LIMITED", "place_id": "ChIJHxxv8uAEdkgRnBtPKJVgxlM", "types": ["point_of_interest", "establishment"]}, "ChIJzxK6x-AEdkgRuCNbBIFlwn8": {"geometry": {"location": {"lat": 51.492441, "lng": -0.1369983}, "viewport": {"northeast": {"lat": 51.49377853029149, "lng": -0.1356251197084979}, "southwest": {"lat": 51.4910805697085, "lng": -0.138323080291502}}}, "name": "Green and Gold", "place_id": "ChIJzxK6x-AEdkgRuCNbBIFlwn8", "types": ["point_of_interest", "establishment"]}, "ChIJX8qprHEFdkgRM6MtSjgK_ZU": {"geometry": {"location": {"lat": 51.4927215, "lng": -0.1376533}, "viewport": {"northeast": {"lat": 51.4941059302915, "lng": -0.136409419708498}, "southwest": {"lat": 51.4914079697085, "lng": -0.139107380291502}}}, "name": "Iv Therapy Near Vauxhall Bridge", "place_id": "ChIJX8qprHEFdkgRM6MtSjgK_ZU", "types": ["spa", "health", "point_of_interest", "establishment"]}, "ChIJ5fjP7eAEdkgRvWGR4jvVfdo": {"geometry": {"location": {"lat": 51.4923061, "lng": -0.1370407}, "viewport": {"northeast": {"lat": 51.49362998029149, "lng": -0.135722219708498}, "southwest": {"lat": 51.4909320197085, "lng": -0.138420180291502}}}, "name": "Cleanline Shipping Company Limited", "place_id": "ChIJ5fjP7eAEdkgRvWGR4jvVfdo", "types": ["point_of_interest", "establishment"]}, "ChIJD1DVsoQFdkgRKp-cF-M14vQ": {"geometry": {"location": {"lat": 51.4925449, "lng": -0.137796}, "viewport": {"northeast": {"lat": 51.4939315802915, "lng": -0.136402419708498}, "southwest": {"lat": 51.4912336197085, "lng": -0.139100380291502}}}, "name": "Post Office Travel Money", "place_id": "ChIJD1DVsoQFdkgRKp-cF-M14vQ", "types": ["finance", "point_of_interest", "establishment"]}, "ChIJXaSs0mgFdkgR8H9ozSJWOgU": {"geometry": {"location": {"lat": 51.4927645, "lng": -0.1377144}, "viewport": {"northeast": {"lat": 51.4940678802915, "lng": -0.136419369708498}, "southwest": {"lat": 51.4913699197085, "lng": -0.139117330291502}}}, "name": "Victoria by Q Apartments", "place_id": "ChIJXaSs0mgFdkgR8H9ozSJWOgU", "types": ["lodging", "point_of_interest", "establishment"], "rating": 4, "user_ratings_total": 2}, "ChIJm78OHeEEdkgROdFQAYHT5mw": {"geometry": {"location": {"lat": 51.49229039999999, "lng": -0.1376762}, "viewport": {"northeast": {"lat": 51.4937404302915, "lng": -0.136204469708498}, "southwest": {"lat": 51.4910424697085, "lng": -0.138902430291502}}}, "name": "Discount London Tours", "place_id": "ChIJm78OHeEEdkgROdFQAYHT5mw", "types": ["travel_agency", "point_of_interest", "establishment"], "rating": 5, "user_ratings_total": 1}, "ChIJ1f97juAEdkgRr0KzqX3Xj8Y": {"geometry": {"location": {"lat": 51.49294039999999, "lng": -0.1373422}, "viewport": {"northeast": {"lat": 51.49426758029149, "lng": -0.1359293197084979}, "southwest": {"lat": 51.4915696197085, "lng": -0.138627280291502}}}, "name": "Armed Forces Covenant Fund", "place_id": "ChIJ1f97juAEdkgRr0KzqX3Xj8Y", "types": ["point_of_interest", "establishment"]}, "ChIJ70g0iuAEdkgRFK938a8M0u4": {"geometry": {"location": {"lat": 51.4928496, "lng": -0.137749}, "viewport": {"northeast": {"lat": 51.4942183302915, "lng": -0.1364772697084979}, "southwest": {"lat": 51.4915203697085, "lng": -0.139175230291502}}}, "name": "Foxtons", "place_id": "ChIJ70g0iuAEdkgRFK938a8M0u4", "types": ["point_of_interest", "establishment"]}, "ChIJq6ra6uAEdkgRvEFes4ivSP4": {"geometry": {"location": {"lat": 51.4925512, "lng": -0.1365834}, "viewport": {"northeast": {"lat": 51.49392713029151, "lng": -0.135291769708498}, "southwest": {"lat": 51.49122916970851, "lng": -0.137989730291502}}}, "name": "Bitcoinbase Limited", "place_id": "ChIJq6ra6uAEdkgRvEFes4ivSP4", "types": ["point_of_interest", "establishment"], "rating": 5, "user_ratings_total": 1}, "ChIJ-8TEjuAEdkgRp6DQFohkv_g": {"geometry": {"location": {"lat": 51.49299509999999, "lng": -0.1376284}, "viewport": {"northeast": {"lat": 51.49436533029149, "lng": -0.136351869708498}, "southwest": {"lat": 51.49166736970849, "lng": -0.139049830291502}}}, "name": "Tapas Bar O Tejo", "place_id": "ChIJ-8TEjuAEdkgRp6DQFohkv_g", "types": ["restaurant", "cafe", "food", "point_of_interest", "establishment"], "rating": 4.5, "user_ratings_total": 8}, "ChIJPe4H2gYFdkgRnB0ayI_tLXc": {"geometry": {"location": {"lat": 51.4925829, "lng": -0.1380535}, "viewport": {"northeast": {"lat": 51.49400968029151, "lng": -0.136930869708498}, "southwest": {"lat": 51.49131171970851, "lng": -0.139628830291502}}}, "name": "George Eliot House", "place_id": "ChIJPe4H2gYFdkgRnB0ayI_tLXc", "types": ["lodging", "point_of_interest", "establishment"]}, "ChIJgztyieAEdkgR6SFEH59SBsk": {"geometry": {"location": {"lat": 51.49298280000001, "lng": -0.1376936}, "viewport": {"northeast": {"lat": 51.4943452802915, "lng": -0.136394919708498}, "southwest": {"lat": 51.4916473197085, "lng": -0.139092880291502}}}, "name": "Yoella Salon", "place_id": "ChIJgztyieAEdkgR6SFEH59SBsk", "types": ["hair_care", "point_of_interest", "establishment"], "rating": 4.9, "user_ratings_total": 7}, "ChIJ6c7niOAEdkgRQ2MB1ltWR24": {"geometry": {"location": {"lat": 51.4930548, "lng": -0.1375357}, "viewport": {"northeast": {"lat": 51.4944391302915, "lng": -0.136271669708498}, "southwest": {"lat": 51.4917411697085, "lng": -0.138969630291502}}}, "name": "Redwood & Feller Ltd", "place_id": "ChIJ6c7niOAEdkgRQ2MB1ltWR24", "types": ["point_of_interest", "establishment"], "rating": 4.7, "user_ratings_total": 28}, "ChIJ-8TEjuAEdkgR7xtx4GNHvBw": {"geometry": {"location": {"lat": 51.49301440000001, "lng": -0.1376654}, "viewport": {"northeast": {"lat": 51.4943786302915, "lng": -0.136367619708498}, "southwest": {"lat": 51.4916806697085, "lng": -0.139065580291502}}}, "name": "Caf\u00e9 Tejo", "place_id": "ChIJ-8TEjuAEdkgR7xtx4GNHvBw", "types": ["cafe", "food", "point_of_interest", "establishment"], "rating": 4.6, "user_ratings_total": 103}, "ChIJMWxCX-AEdkgRKyE388rCCkk": {"geometry": {"location": {"lat": 51.4923033, "lng": -0.1379596}, "viewport": {"northeast": {"lat": 51.49368497825115, "lng": -0.1366265113727792}, "southwest": {"lat": 51.49098701766815, "lng": -0.1393244719557833}}}, "name": "Longmoore Gardens Playground", "place_id": "ChIJMWxCX-AEdkgRKyE388rCCkk", "types": ["premise", "point_of_interest", "establishment"]}, "ChIJ20Y74-AEdkgRx7PewgAvEfM": {"geometry": {"location": {"lat": 51.49148122777805, "lng": -0.1371302689151041}, "viewport": {"northeast": {"lat": 51.4928265802915, "lng": -0.135772869708498}, "southwest": {"lat": 51.4901286197085, "lng": -0.138470830291502}}}, "name": "17-3 Charlwood St", "place_id": "ChIJ20Y74-AEdkgRx7PewgAvEfM", "types": ["route"]}, "ChIJF0lXi-AEdkgRt1P4tHCkY5o": {"geometry": {"location": {"lat": 51.4917155, "lng": -0.1373558}, "viewport": {"northeast": {"lat": 51.4932994802915, "lng": -0.135721269708498}, "southwest": {"lat": 51.4906015197085, "lng": -0.138419230291502}}}, "name": "Ace Discos Ltd", "place_id": "ChIJF0lXi-AEdkgRt1P4tHCkY5o", "types": ["point_of_interest", "establishment"], "rating": 3.8, "user_ratings_total": 14}, "ChIJA69D5OAEdkgRzHHF8i4Vu9Y": {"geometry": {"location": {"lat": 51.4916893, "lng": -0.1369857}, "viewport": {"northeast": {"lat": 51.49302563029149, "lng": -0.135606019708498}, "southwest": {"lat": 51.49032766970849, "lng": -0.138303980291502}}}, "name": "ubitricity Charging Station", "place_id": "ChIJA69D5OAEdkgRzHHF8i4Vu9Y", "types": ["point_of_interest", "establishment"]}, "ChIJucD-xN8EdkgRC-ozrMabb_A": {"geometry": {"location": {"lat": 51.49472490038585, "lng": -0.1388265512549953}, "viewport": {"northeast": {"lat": 51.4960738802915, "lng": -0.137477569708498}, "southwest": {"lat": 51.49337591970851, "lng": -0.140175530291502}}}, "name": "Francis Street", "place_id": "ChIJucD-xN8EdkgRC-ozrMabb_A", "types": ["route"]}, "ChIJNyBqtN8EdkgRCn-8sajeqxE": {"geometry": {"location": {"lat": 51.4950937, "lng": -0.1389836}, "viewport": {"northeast": {"lat": 51.4965590802915, "lng": -0.137342019708498}, "southwest": {"lat": 51.4938611197085, "lng": -0.140039980291502}}}, "name": "Westminster Cathedral Choir School", "place_id": "ChIJNyBqtN8EdkgRCn-8sajeqxE", "types": ["school", "point_of_interest", "establishment"], "rating": 4.3, "user_ratings_total": 3}, "ChIJPbARw98EdkgRGHSo_2fxUDw": {"geometry": {"location": {"lat": 51.49471140000001, "lng": -0.1391785}, "viewport": {"northeast": {"lat": 51.4960089302915, "lng": -0.1377458697084979}, "southwest": {"lat": 51.4933109697085, "lng": -0.140443830291502}}}, "name": "The Diocese of Westminster", "place_id": "ChIJPbARw98EdkgRGHSo_2fxUDw", "types": ["church", "place_of_worship", "point_of_interest", "establishment"], "rating": 4.7, "user_ratings_total": 18}, "ChIJ19gGw98EdkgR-RQftr_8Uc8": {"geometry": {"location": {"lat": 51.4947131, "lng": -0.1391842}, "viewport": {"northeast": {"lat": 51.49600933029149, "lng": -0.137749419708498}, "southwest": {"lat": 51.49331136970849, "lng": -0.140447380291502}}}, "name": "John Paul 2 Foundation 4 Sport", "place_id": "ChIJ19gGw98EdkgR-RQftr_8Uc8", "types": ["point_of_interest", "establishment"]}, "ChIJBwCax98EdkgRNJ3SAPO90cI": {"geometry": {"location": {"lat": 51.4950937, "lng": -0.1389836}, "viewport": {"northeast": {"lat": 51.4965590802915, "lng": -0.137342019708498}, "southwest": {"lat": 51.4938611197085, "lng": -0.140039980291502}}}, "name": "Roman Catholic Archdiocese", "place_id": "ChIJBwCax98EdkgRNJ3SAPO90cI", "types": ["church", "place_of_worship", "point_of_interest", "establishment"]}, "ChIJkUTV598EdkgRnuwT92xmw-8": {"geometry": {"location": {"lat": 51.4945575, "lng": -0.139549}, "viewport": {"northeast": {"lat": 51.4959427302915, "lng": -0.138113319708498}, "southwest": {"lat": 51.4932447697085, "lng": -0.140811280291502}}}, "name": "Maslinski & Co", "place_id": "ChIJkUTV598EdkgRnuwT92xmw-8", "types": ["point_of_interest", "establishment"]}, "ChIJnfbzy98EdkgRYUkK0NpJzJk": {"geometry": {"location": {"lat": 51.49491070000001, "lng": -0.1382207}, "viewport": {"northeast": {"lat": 51.4963076302915, "lng": -0.136958919708498}, "southwest": {"lat": 51.4936096697085, "lng": -0.1396568802915021}}}, "name": "Homeless Health Co-ordination Project", "place_id": "ChIJnfbzy98EdkgRYUkK0NpJzJk", "types": ["point_of_interest", "establishment"], "rating": 4, "user_ratings_total": 1}, "ChIJ4xBDtocFdkgRRf0-ZuTeOl8": {"geometry": {"location": {"lat": 51.4946861, "lng": -0.1390353}, "viewport": {"northeast": {"lat": 51.4959762302915, "lng": -0.137742069708498}, "southwest": {"lat": 51.4932782697085, "lng": -0.140440030291502}}}, "name": "Vaughan House", "place_id": "ChIJ4xBDtocFdkgRRf0-ZuTeOl8", "types": ["point_of_interest", "establishment"], "rating": 5, "user_ratings_total": 1}, "ChIJ___vwt8EdkgRFnnCkF88sXw": {"geometry": {"location": {"lat": 51.49471140000001, "lng": -0.1391785}, "viewport": {"northeast": {"lat": 51.4960089302915, "lng": -0.1377458697084979}, "southwest": {"lat": 51.4933109697085, "lng": -0.140443830291502}}}, "name": "Churchmarketplace", "place_id": "ChIJ___vwt8EdkgRFnnCkF88sXw", "types": ["point_of_interest", "establishment"]}, "ChIJ19gGw98EdkgRuCx459_SCr0": {"geometry": {"location": {"lat": 51.4947131, "lng": -0.1391842}, "viewport": {"northeast": {"lat": 51.49600933029149, "lng": -0.137749419708498}, "southwest": {"lat": 51.49331136970849, "lng": -0.140447380291502}}}, "name": "Loving 4 Life", "place_id": "ChIJ19gGw98EdkgRuCx459_SCr0", "types": ["local_government_office", "point_of_interest", "establishment"]}, "ChIJ23uyzg0FdkgR1LXkMthRzss": {"geometry": {"location": {"lat": 51.49492069999999, "lng": -0.1387582}, "viewport": {"northeast": {"lat": 51.49623198029149, "lng": -0.137347919708498}, "southwest": {"lat": 51.49353401970849, "lng": -0.140045880291502}}}, "name": "Clergy House", "place_id": "ChIJ23uyzg0FdkgR1LXkMthRzss", "types": ["point_of_interest", "establishment"], "rating": 4, "user_ratings_total": 1}, "ChIJc4h6z98EdkgR-iPVY-Oc2aM": {"geometry": {"location": {"lat": 51.4947558, "lng": -0.1386176}, "viewport": {"northeast": {"lat": 51.4961327802915, "lng": -0.137190619708498}, "southwest": {"lat": 51.4934348197085, "lng": -0.139888580291502}}}, "name": "Queen Mary Buildings", "place_id": "ChIJc4h6z98EdkgR-iPVY-Oc2aM", "types": ["point_of_interest", "establishment"], "rating": 4.1, "user_ratings_total": 9}, "ChIJYyY5HkUFdkgRVJe3srb2ZTI": {"geometry": {"location": {"lat": 51.4948461, "lng": -0.1384524}, "viewport": {"northeast": {"lat": 51.4961997302915, "lng": -0.137078419708498}, "southwest": {"lat": 51.49350176970851, "lng": -0.139776380291502}}}, "name": "Julie's Massage", "place_id": "ChIJYyY5HkUFdkgRVJe3srb2ZTI", "types": ["spa", "point_of_interest", "establishment"], "rating": 5, "user_ratings_total": 1}, "ChIJ__wG0d8EdkgRSxAFFZZ1cTU": {"geometry": {"location": {"lat": 51.4949097, "lng": -0.1383168}, "viewport": {"northeast": {"lat": 51.4962393802915, "lng": -0.137055169708498}, "southwest": {"lat": 51.4935414197085, "lng": -0.139753130291502}}}, "name": "Darner's Tuk Shop", "place_id": "ChIJ__wG0d8EdkgRSxAFFZZ1cTU", "types": ["cafe", "food", "point_of_interest", "establishment"]}, "ChIJA2Kut98EdkgR19c3jwNGg7g": {"geometry": {"location": {"lat": 51.4951898, "lng": -0.1386243}, "viewport": {"northeast": {"lat": 51.4965904802915, "lng": -0.137145319708498}, "southwest": {"lat": 51.4938925197085, "lng": -0.139843280291502}}}, "name": "Archbishop's House", "place_id": "ChIJA2Kut98EdkgR19c3jwNGg7g", "types": ["place_of_worship", "point_of_interest", "establishment"], "rating": 3.7, "user_ratings_total": 3}, "ChIJaRpxzN8EdkgR3ITEqz8wems": {"geometry": {"location": {"lat": 51.494862, "lng": -0.1381699}, "viewport": {"northeast": {"lat": 51.49627743029149, "lng": -0.136941819708498}, "southwest": {"lat": 51.49357946970849, "lng": -0.139639780291502}}}, "name": "Chargemaster Charging Station", "place_id": "ChIJaRpxzN8EdkgR3ITEqz8wems", "types": ["point_of_interest", "establishment"]}, "ChIJT2a12N8EdkgROCzQKIZ5dI8": {"geometry": {"location": {"lat": 51.4939647, "lng": -0.1390468}, "viewport": {"northeast": {"lat": 51.49533201792229, "lng": -0.1376683866104705}, "southwest": {"lat": 51.4926340573393, "lng": -0.1403663471934745}}}, "name": "Parking lot", "place_id": "ChIJT2a12N8EdkgROCzQKIZ5dI8", "types": ["parking", "premise", "point_of_interest", "establishment"]}, "ChIJVwTpcuAEdkgRu5Hk52ybuxE": {"geometry": {"location": {"lat": 51.49335660044564, "lng": -0.1392639488814403}, "viewport": {"northeast": {"lat": 51.4947055802915, "lng": -0.137914969708498}, "southwest": {"lat": 51.4920076197085, "lng": -0.140612930291502}}}, "name": "193-209 A202", "place_id": "ChIJVwTpcuAEdkgRu5Hk52ybuxE", "types": ["route"]}, "ChIJk5EjcuAEdkgRgScWQlMdeuA": {"geometry": {"location": {"lat": 51.4933906, "lng": -0.1390614}, "viewport": {"northeast": {"lat": 51.49473958029149, "lng": -0.137712419708498}, "southwest": {"lat": 51.4920416197085, "lng": -0.140410380291502}}}, "name": "Weightmedics", "place_id": "ChIJk5EjcuAEdkgRgScWQlMdeuA", "types": ["health", "point_of_interest", "establishment"], "rating": 5, "user_ratings_total": 6}, "ChIJMT4ucOAEdkgRYFNgOYP5gMc": {"geometry": {"location": {"lat": 51.4934069, "lng": -0.1389797}, "viewport": {"northeast": {"lat": 51.49469733029149, "lng": -0.137704219708498}, "southwest": {"lat": 51.49199936970849, "lng": -0.140402180291502}}}, "name": "Property Partners", "place_id": "ChIJMT4ucOAEdkgRYFNgOYP5gMc", "types": ["point_of_interest", "establishment"]}, "ChIJ37_Cb-AEdkgRxSGES1hbY4k": {"geometry": {"location": {"lat": 51.4933122, "lng": -0.1387179}, "viewport": {"northeast": {"lat": 51.4945919302915, "lng": -0.137453169708498}, "southwest": {"lat": 51.4918939697085, "lng": -0.140151130291502}}}, "name": "Assessment & Brief Treatment Team", "place_id": "ChIJ37_Cb-AEdkgRxSGES1hbY4k", "types": ["health", "point_of_interest", "establishment"], "rating": 3.9, "user_ratings_total": 19}, "ChIJMZd2e-AEdkgRxXotrfO7pgs": {"geometry": {"location": {"lat": 51.4934119, "lng": -0.1383967}, "viewport": {"northeast": {"lat": 51.49476088029149, "lng": -0.137047719708498}, "southwest": {"lat": 51.4920629197085, "lng": -0.139745680291502}}}, "name": "The Sick Children'sTrust", "place_id": "ChIJMZd2e-AEdkgRxXotrfO7pgs", "types": ["point_of_interest", "establishment"]}, "ChIJX1sG4t8EdkgRSt1awOfMsdw": {"geometry": {"location": {"lat": 51.4939162, "lng": -0.1397953}, "viewport": {"northeast": {"lat": 51.49526528029151, "lng": -0.138531269708498}, "southwest": {"lat": 51.49256731970851, "lng": -0.141229230291502}}}, "name": "Small Works Victoria", "place_id": "ChIJX1sG4t8EdkgRSt1awOfMsdw", "types": ["point_of_interest", "establishment"], "rating": 1, "user_ratings_total": 1}, "ChIJBQN9eeAEdkgR2H3UXjw7xhA": {"geometry": {"location": {"lat": 51.49370829999999, "lng": -0.1386694}, "viewport": {"northeast": {"lat": 51.4950572802915, "lng": -0.137320419708498}, "southwest": {"lat": 51.4923593197085, "lng": -0.140018380291502}}}, "name": "Gustoso Ristorante Enoteca", "place_id": "ChIJBQN9eeAEdkgR2H3UXjw7xhA", "types": ["restaurant", "food", "point_of_interest", "establishment"], "rating": 4.3, "user_ratings_total": 223}, "ChIJS7kCaeAEdkgRDXzHYmjXq_8": {"geometry": {"location": {"lat": 51.49327650000001, "lng": -0.1394452}, "viewport": {"northeast": {"lat": 51.4946777302915, "lng": -0.138030669708498}, "southwest": {"lat": 51.4919797697085, "lng": -0.140728630291502}}}, "name": "Hermes London Dental Clinic", "place_id": "ChIJS7kCaeAEdkgRDXzHYmjXq_8", "types": ["dentist", "health", "point_of_interest", "establishment"], "rating": 4.9, "user_ratings_total": 149}, "ChIJSehqdd0cdkgRmCKEdT7L_Hk": {"geometry": {"location": {"lat": 51.4940604, "lng": -0.1396436}, "viewport": {"northeast": {"lat": 51.4954407802915, "lng": -0.138354619708498}, "southwest": {"lat": 51.4927428197085, "lng": -0.141052580291502}}}, "name": "Clear Village Charitable Trust", "place_id": "ChIJSehqdd0cdkgRmCKEdT7L_Hk", "types": ["point_of_interest", "establishment"], "rating": 4.5, "user_ratings_total": 2}, "ChIJk5EjcuAEdkgRaqgW21kx-60": {"geometry": {"location": {"lat": 51.4934069, "lng": -0.1389796}, "viewport": {"northeast": {"lat": 51.49469733029149, "lng": -0.1377041197084979}, "southwest": {"lat": 51.49199936970849, "lng": -0.140402080291502}}}, "name": "DDA", "place_id": "ChIJk5EjcuAEdkgRaqgW21kx-60", "types": ["point_of_interest", "establishment"], "rating": 5, "user_ratings_total": 1}, "ChIJlwRmd-AEdkgRlHO2JwJ5HLM": {"geometry": {"location": {"lat": 51.49367549999999, "lng": -0.1386994}, "viewport": {"northeast": {"lat": 51.4950551802915, "lng": -0.137260119708498}, "southwest": {"lat": 51.4923572197085, "lng": -0.139958080291502}}}, "name": "London Flat Roofing", "place_id": "ChIJlwRmd-AEdkgRlHO2JwJ5HLM", "types": ["roofing_contractor", "point_of_interest", "establishment"], "rating": 4.9, "user_ratings_total": 27}, "ChIJsbRW2IQFdkgRRLy4vNTgd7Q": {"geometry": {"location": {"lat": 51.49356299999999, "lng": -0.138705}, "viewport": {"northeast": {"lat": 51.4947634802915, "lng": -0.137542369708498}, "southwest": {"lat": 51.4920655197085, "lng": -0.140240330291502}}}, "name": "JustPark | London, Vauxhall Bridge road", "place_id": "ChIJsbRW2IQFdkgRRLy4vNTgd7Q", "types": ["parking", "point_of_interest", "establishment"]}, "ChIJEbyCceAEdkgRD7cdp5W2xXE": {"geometry": {"location": {"lat": 51.4934069, "lng": -0.1389797}, "viewport": {"northeast": {"lat": 51.49469733029149, "lng": -0.137704219708498}, "southwest": {"lat": 51.49199936970849, "lng": -0.140402180291502}}}, "name": "DDAPR Creators", "place_id": "ChIJEbyCceAEdkgRD7cdp5W2xXE", "types": ["point_of_interest", "establishment"]}, "ChIJEbyCceAEdkgRIMCY-32qdgA": {"geometry": {"location": {"lat": 51.4934069, "lng": -0.1389797}, "viewport": {"northeast": {"lat": 51.49469733029149, "lng": -0.137704219708498}, "southwest": {"lat": 51.49199936970849, "lng": -0.140402180291502}}}, "name": "DDA Group", "place_id": "ChIJEbyCceAEdkgRIMCY-32qdgA", "types": ["point_of_interest", "establishment"]}, "ChIJEbyCceAEdkgR4cHDVd0PEoU": {"geometry": {"location": {"lat": 51.4934069, "lng": -0.1389797}, "viewport": {"northeast": {"lat": 51.49469733029149, "lng": -0.137704219708498}, "southwest": {"lat": 51.49199936970849, "lng": -0.140402180291502}}}, "name": "Enslocourt Limited", "place_id": "ChIJEbyCceAEdkgR4cHDVd0PEoU", "types": ["point_of_interest", "establishment"]}, "ChIJEbyCceAEdkgRSaF7uUr1oak": {"geometry": {"location": {"lat": 51.4934069, "lng": -0.1389797}, "viewport": {"northeast": {"lat": 51.49469733029149, "lng": -0.137704219708498}, "southwest": {"lat": 51.49199936970849, "lng": -0.140402180291502}}}, "name": "DDA Group", "place_id": "ChIJEbyCceAEdkgRSaF7uUr1oak", "types": ["point_of_interest", "establishment"]}, "ChIJD7yCceAEdkgRkoUNMRPb9GM": {"geometry": {"location": {"lat": 51.4934069, "lng": -0.1389796}, "viewport": {"northeast": {"lat": 51.49469733029149, "lng": -0.1377041197084979}, "southwest": {"lat": 51.49199936970849, "lng": -0.140402080291502}}}, "name": "Eleven", "place_id": "ChIJD7yCceAEdkgRkoUNMRPb9GM", "types": ["point_of_interest", "establishment"]}, "ChIJD7yCceAEdkgRYRzP4Ew_22o": {"geometry": {"location": {"lat": 51.4934069, "lng": -0.1389796}, "viewport": {"northeast": {"lat": 51.49469733029149, "lng": -0.1377041197084979}, "southwest": {"lat": 51.49199936970849, "lng": -0.140402080291502}}}, "name": "EOS 2018", "place_id": "ChIJD7yCceAEdkgRYRzP4Ew_22o", "types": ["point_of_interest", "establishment"]}, "ChIJGUc8cOAEdkgRq2eggKdIzyc": {"geometry": {"location": {"lat": 51.4934103, "lng": -0.1389246}, "viewport": {"northeast": {"lat": 51.4946913802915, "lng": -0.1376608697084979}, "southwest": {"lat": 51.4919934197085, "lng": -0.140358830291502}}}, "name": "Meeting Point Conferences (Europe)", "place_id": "ChIJGUc8cOAEdkgRq2eggKdIzyc", "types": ["point_of_interest", "establishment"], "rating": 5, "user_ratings_total": 1}, "ChIJEbyCceAEdkgRcDuqKYmXR4c": {"geometry": {"location": {"lat": 51.493398, "lng": -0.138957}, "viewport": {"northeast": {"lat": 51.4946877802915, "lng": -0.137682319708498}, "southwest": {"lat": 51.4919898197085, "lng": -0.140380280291502}}}, "name": "Stayforlong", "place_id": "ChIJEbyCceAEdkgRcDuqKYmXR4c", "types": ["point_of_interest", "establishment"]}, "ChIJczwO4gYFdkgR94U5xF_X2U4": {"geometry": {"location": {"lat": 51.493398, "lng": -0.138957}, "viewport": {"northeast": {"lat": 51.4946877802915, "lng": -0.137682319708498}, "southwest": {"lat": 51.4919898197085, "lng": -0.140380280291502}}}, "name": "Coolsculpt Centre", "place_id": "ChIJczwO4gYFdkgR94U5xF_X2U4", "types": ["health", "point_of_interest", "establishment"]}, "ChIJ71D9fkkFdkgRe1wPwWN5HXE": {"geometry": {"location": {"lat": 51.4939723, "lng": -0.1392427}, "viewport": {"northeast": {"lat": 51.4953379802915, "lng": -0.137840369708498}, "southwest": {"lat": 51.4926400197085, "lng": -0.140538330291502}}}, "name": "Block F, Peabody Estate, Vauxhall Bridge Road", "place_id": "ChIJ71D9fkkFdkgRe1wPwWN5HXE", "types": ["point_of_interest", "establishment"]}, "ChIJGUc8cOAEdkgRujhH6BRo1hk": {"geometry": {"location": {"lat": 51.4933219, "lng": -0.138993}, "viewport": {"northeast": {"lat": 51.49464073029149, "lng": -0.137681869708498}, "southwest": {"lat": 51.4919427697085, "lng": -0.140379830291502}}}, "name": "D&G Block Management Limited", "place_id": "ChIJGUc8cOAEdkgRujhH6BRo1hk", "types": ["point_of_interest", "establishment"], "rating": 1.7, "user_ratings_total": 27}, "ChIJ-U4_cuAEdkgRg893xhXaZnA": {"geometry": {"location": {"lat": 51.4933193, "lng": -0.1389944}, "viewport": {"northeast": {"lat": 51.4946362302915, "lng": -0.137675919708498}, "southwest": {"lat": 51.4919382697085, "lng": -0.140373880291502}}}, "name": "Rochester Row", "place_id": "ChIJ-U4_cuAEdkgRg893xhXaZnA", "types": ["transit_station", "point_of_interest", "establishment"], "rating": 5, "user_ratings_total": 1}, "ChIJvzARcOAEdkgR-6gFhQqdQXM": {"geometry": {"location": {"lat": 51.4933015, "lng": -0.1387196}, "viewport": {"northeast": {"lat": 51.4945848802915, "lng": -0.1374504197084979}, "southwest": {"lat": 51.49188691970851, "lng": -0.140148380291502}}}, "name": "Westminster Talking Therapies (Iapt)", "place_id": "ChIJvzARcOAEdkgR-6gFhQqdQXM", "types": ["point_of_interest", "establishment"]}, "ChIJvzARcOAEdkgRCqWkbJ1on80": {"geometry": {"location": {"lat": 51.4933015, "lng": -0.1387196}, "viewport": {"northeast": {"lat": 51.4945848802915, "lng": -0.1374504197084979}, "southwest": {"lat": 51.49188691970851, "lng": -0.140148380291502}}}, "name": "Joint Homelessness Team", "place_id": "ChIJvzARcOAEdkgRCqWkbJ1on80", "types": ["point_of_interest", "establishment"]}, "ChIJiTDeb-AEdkgRkTHghE3LwCQ": {"geometry": {"location": {"lat": 51.4932374, "lng": -0.1387273}, "viewport": {"northeast": {"lat": 51.4945437302915, "lng": -0.137434969708498}, "southwest": {"lat": 51.4918457697085, "lng": -0.140132930291502}}}, "name": "Tradewinds", "place_id": "ChIJiTDeb-AEdkgRkTHghE3LwCQ", "types": ["point_of_interest", "establishment"]}, "ChIJRecmeOAEdkgRww9WjSXNkkY": {"geometry": {"location": {"lat": 51.4937988, "lng": -0.1382174}, "viewport": {"northeast": {"lat": 51.4951477802915, "lng": -0.1368684197084979}, "southwest": {"lat": 51.4924498197085, "lng": -0.139566380291502}}}, "name": "Victoria Telephone Exchange", "place_id": "ChIJRecmeOAEdkgRww9WjSXNkkY", "types": ["point_of_interest", "establishment"]}, "ChIJowRkb-AEdkgRgO3ysOb4cpQ": {"geometry": {"location": {"lat": 51.49304585004437, "lng": -0.1386122498952427}, "viewport": {"northeast": {"lat": 51.4943948302915, "lng": -0.1372632697084979}, "southwest": {"lat": 51.4916968697085, "lng": -0.139961230291502}}}, "name": "181-183 A202", "place_id": "ChIJowRkb-AEdkgRgO3ysOb4cpQ", "types": ["route"]}, "ChIJxdvnP-AEdkgREmrOTCZGprU": {"geometry": {"location": {"lat": 51.4923994, "lng": -0.1397215}, "viewport": {"northeast": {"lat": 51.4937078302915, "lng": -0.138330269708498}, "southwest": {"lat": 51.49100986970851, "lng": -0.141028230291502}}}, "name": "The Warwick Pimlico GastroPub and Dining Room", "place_id": "ChIJxdvnP-AEdkgREmrOTCZGprU", "types": ["bar", "restaurant", "food", "point_of_interest", "establishment"], "rating": 4.2, "user_ratings_total": 624}, "ChIJxdvnP-AEdkgRv5JtRBaAQ74": {"geometry": {"location": {"lat": 51.49260890000001, "lng": -0.1391692}, "viewport": {"northeast": {"lat": 51.4939463302915, "lng": -0.137743669708498}, "southwest": {"lat": 51.49124836970851, "lng": -0.1404416302915021}}}, "name": "Queens Arms", "place_id": "ChIJxdvnP-AEdkgRv5JtRBaAQ74", "types": ["bar", "restaurant", "food", "point_of_interest", "establishment"], "rating": 4.3, "user_ratings_total": 918}, "ChIJS7kCaeAEdkgRoIvwvzG4gNA": {"geometry": {"location": {"lat": 51.49270610000001, "lng": -0.1389013}, "viewport": {"northeast": {"lat": 51.49405508029151, "lng": -0.137552319708498}, "southwest": {"lat": 51.49135711970851, "lng": -0.1402502802915021}}}, "name": "Victoria Medical Centre", "place_id": "ChIJS7kCaeAEdkgRoIvwvzG4gNA", "types": ["health", "point_of_interest", "establishment"], "rating": 2.4, "user_ratings_total": 161}, "ChIJG4cmPuAEdkgRCwaEFDNDA9I": {"geometry": {"location": {"lat": 51.4927576, "lng": -0.139642}, "viewport": {"northeast": {"lat": 51.49415928029151, "lng": -0.138347569708498}, "southwest": {"lat": 51.49146131970851, "lng": -0.141045530291502}}}, "name": "Passage House", "place_id": "ChIJG4cmPuAEdkgRCwaEFDNDA9I", "types": ["point_of_interest", "establishment"], "rating": 3.6, "user_ratings_total": 16}, "ChIJLzQ7FeAEdkgRHaShMlGFwOs": {"geometry": {"location": {"lat": 51.4926732, "lng": -0.1392611}, "viewport": {"northeast": {"lat": 51.4940221802915, "lng": -0.137912119708498}, "southwest": {"lat": 51.4913242197085, "lng": -0.140610080291502}}}, "name": "Aviss Electrical Services", "place_id": "ChIJLzQ7FeAEdkgRHaShMlGFwOs", "types": ["electrician", "point_of_interest", "establishment"], "rating": 5, "user_ratings_total": 1}, "ChIJUeiGnCEFdkgRQn8M4wRRW_s": {"geometry": {"location": {"lat": 51.492758, "lng": -0.139835}, "viewport": {"northeast": {"lat": 51.4940715302915, "lng": -0.138597569708498}, "southwest": {"lat": 51.4913735697085, "lng": -0.141295530291502}}}, "name": "The Belgravia Centre Central London", "place_id": "ChIJUeiGnCEFdkgRQn8M4wRRW_s", "types": ["hair_care", "pharmacy", "health", "point_of_interest", "store", "establishment"], "rating": 4.5, "user_ratings_total": 381}, "ChIJpUVBR-AEdkgRhzbP6gMDNj0": {"geometry": {"location": {"lat": 51.4923519, "lng": -0.1391236}, "viewport": {"northeast": {"lat": 51.49375188029151, "lng": -0.137816019708498}, "southwest": {"lat": 51.49105391970851, "lng": -0.140513980291502}}}, "name": "Party Tec", "place_id": "ChIJpUVBR-AEdkgRhzbP6gMDNj0", "types": ["home_goods_store", "point_of_interest", "clothing_store", "store", "establishment"], "rating": 4.2, "user_ratings_total": 35}, "ChIJ-dUaLOAEdkgRqLxbb9J3wKw": {"geometry": {"location": {"lat": 51.4924709, "lng": -0.1394967}, "viewport": {"northeast": {"lat": 51.49377673029149, "lng": -0.138112669708498}, "southwest": {"lat": 51.4910787697085, "lng": -0.140810630291502}}}, "name": "Timed Fitness", "place_id": "ChIJ-dUaLOAEdkgRqLxbb9J3wKw", "types": ["gym", "health", "point_of_interest", "establishment"]}, "ChIJH8luXeAEdkgR48oTZMTK8H4": {"geometry": {"location": {"lat": 51.4925833, "lng": -0.1384136}, "viewport": {"northeast": {"lat": 51.49396138029149, "lng": -0.137110919708498}, "southwest": {"lat": 51.4912634197085, "lng": -0.139808880291502}}}, "name": "The Optical Studio Pimlico", "place_id": "ChIJH8luXeAEdkgR48oTZMTK8H4", "types": ["health", "point_of_interest", "store", "establishment"], "rating": 4.9, "user_ratings_total": 18}, "ChIJS7kCaeAEdkgRlzTUirScoaI": {"geometry": {"location": {"lat": 51.4927139, "lng": -0.1388768}, "viewport": {"northeast": {"lat": 51.4940628802915, "lng": -0.137527819708498}, "southwest": {"lat": 51.4913649197085, "lng": -0.140225780291502}}}, "name": "CliniChem Pharmacy", "place_id": "ChIJS7kCaeAEdkgRlzTUirScoaI", "types": ["pharmacy", "health", "point_of_interest", "store", "establishment"], "rating": 4.6, "user_ratings_total": 9}, "ChIJV60ObOAEdkgRt727VyXvhFw": {"geometry": {"location": {"lat": 51.4927322, "lng": -0.1388946}, "viewport": {"northeast": {"lat": 51.4940558802915, "lng": -0.137612119708498}, "southwest": {"lat": 51.49135791970851, "lng": -0.140310080291502}}}, "name": "Dr S E Rankine - Victoria Medical Centre", "place_id": "ChIJV60ObOAEdkgRt727VyXvhFw", "types": ["doctor", "health", "point_of_interest", "establishment"]}, "ChIJeVXaauAEdkgRUyX0uI5XS70": {"geometry": {"location": {"lat": 51.4927133, "lng": -0.139302}, "viewport": {"northeast": {"lat": 51.4940959802915, "lng": -0.137864519708498}, "southwest": {"lat": 51.49139801970851, "lng": -0.140562480291502}}}, "name": "London Residence", "place_id": "ChIJeVXaauAEdkgRUyX0uI5XS70", "types": ["lodging", "point_of_interest", "establishment"], "rating": 3.4, "user_ratings_total": 68}, "ChIJG4cmPuAEdkgRpQrJbz5rWnk": {"geometry": {"location": {"lat": 51.492338, "lng": -0.1389499}, "viewport": {"northeast": {"lat": 51.49349448029151, "lng": -0.137350169708498}, "southwest": {"lat": 51.49079651970851, "lng": -0.1400481302915021}}}, "name": "Cutting Crew Hair and beauty", "place_id": "ChIJG4cmPuAEdkgRpQrJbz5rWnk", "types": ["hair_care", "point_of_interest", "establishment"], "rating": 4.4, "user_ratings_total": 218}, "ChIJjan4EdYcdkgR1rMKsG3zIhg": {"geometry": {"location": {"lat": 51.4922789, "lng": -0.1392085}, "viewport": {"northeast": {"lat": 51.49369728029149, "lng": -0.137915919708498}, "southwest": {"lat": 51.49099931970849, "lng": -0.140613880291502}}}, "name": "RedLine DJs & Entertainment", "place_id": "ChIJjan4EdYcdkgR1rMKsG3zIhg", "types": ["point_of_interest", "establishment"], "rating": 5, "user_ratings_total": 51}, "ChIJKUGlOOAEdkgR0fy8L1Ezyvg": {"geometry": {"location": {"lat": 51.4922725, "lng": -0.1392539}, "viewport": {"northeast": {"lat": 51.4936957302915, "lng": -0.137933369708498}, "southwest": {"lat": 51.4909977697085, "lng": -0.140631330291502}}}, "name": "Tesco Express", "place_id": "ChIJKUGlOOAEdkgR0fy8L1Ezyvg", "types": ["supermarket", "convenience_store", "grocery_or_supermarket", "food", "point_of_interest", "store", "establishment"], "rating": 2.9, "user_ratings_total": 66}, "ChIJZcvwa-AEdkgRgLvK7_Bu7i4": {"geometry": {"location": {"lat": 51.4928968, "lng": -0.1390715}, "viewport": {"northeast": {"lat": 51.49422258029149, "lng": -0.1377834697084979}, "southwest": {"lat": 51.4915246197085, "lng": -0.140481430291502}}}, "name": "Dr A Akinmade - Victoria Medical Centre", "place_id": "ChIJZcvwa-AEdkgRgLvK7_Bu7i4", "types": ["doctor", "health", "point_of_interest", "establishment"]}, "ChIJZcvwa-AEdkgR0XlsuJrG1m8": {"geometry": {"location": {"lat": 51.4928968, "lng": -0.1390715}, "viewport": {"northeast": {"lat": 51.49422258029149, "lng": -0.1377834697084979}, "southwest": {"lat": 51.4915246197085, "lng": -0.140481430291502}}}, "name": "Dr S Dhar - Victoria Medical Centre", "place_id": "ChIJZcvwa-AEdkgR0XlsuJrG1m8", "types": ["doctor", "health", "point_of_interest", "establishment"]}, "ChIJZcvwa-AEdkgRaLxhQOswnDI": {"geometry": {"location": {"lat": 51.4928968, "lng": -0.1390715}, "viewport": {"northeast": {"lat": 51.49422258029149, "lng": -0.1377834697084979}, "southwest": {"lat": 51.4915246197085, "lng": -0.140481430291502}}}, "name": "Dr G Okoli - Victoria Medical Centre", "place_id": "ChIJZcvwa-AEdkgRaLxhQOswnDI", "types": ["doctor", "health", "point_of_interest", "establishment"]}, "ChIJZcvwa-AEdkgRfPAFpgzio0E": {"geometry": {"location": {"lat": 51.4928968, "lng": -0.1390715}, "viewport": {"northeast": {"lat": 51.49422258029149, "lng": -0.1377834697084979}, "southwest": {"lat": 51.4915246197085, "lng": -0.140481430291502}}}, "name": "Dr K Brown - Victoria Medical Centre", "place_id": "ChIJZcvwa-AEdkgRfPAFpgzio0E", "types": ["doctor", "health", "point_of_interest", "establishment"]}, "ChIJk7UQXeAEdkgRMnLMzGr1ylo": {"geometry": {"location": {"lat": 51.4924718, "lng": -0.1385333}, "viewport": {"northeast": {"lat": 51.4938955802915, "lng": -0.137228619708498}, "southwest": {"lat": 51.4911976197085, "lng": -0.139926580291502}}}, "name": "Baker Tilly", "place_id": "ChIJk7UQXeAEdkgRMnLMzGr1ylo", "types": ["accounting", "finance", "point_of_interest", "establishment"]}, "ChIJlQMlaeAEdkgRiurn6Y_pgS4": {"geometry": {"location": {"lat": 51.4929383, "lng": -0.1390876}, "viewport": {"northeast": {"lat": 51.49426063029151, "lng": -0.137808569708498}, "southwest": {"lat": 51.49156266970851, "lng": -0.140506530291502}}}, "name": "Dr C T Nguyen - Victoria Medical Centre", "place_id": "ChIJlQMlaeAEdkgRiurn6Y_pgS4", "types": ["doctor", "health", "point_of_interest", "establishment"]}, "ChIJlQMlaeAEdkgRTgr8Prc3O4M": {"geometry": {"location": {"lat": 51.4929383, "lng": -0.1390876}, "viewport": {"northeast": {"lat": 51.49426063029151, "lng": -0.137808569708498}, "southwest": {"lat": 51.49156266970851, "lng": -0.140506530291502}}}, "name": "Dr C Tang - Victoria Medical Centre", "place_id": "ChIJlQMlaeAEdkgRTgr8Prc3O4M", "types": ["doctor", "health", "point_of_interest", "establishment"]}, "ChIJlQMlaeAEdkgRc_AGrsFMFds": {"geometry": {"location": {"lat": 51.4929383, "lng": -0.1390876}, "viewport": {"northeast": {"lat": 51.49426063029151, "lng": -0.137808569708498}, "southwest": {"lat": 51.49156266970851, "lng": -0.140506530291502}}}, "name": "Dr S Rahman - Victoria Medical Centre", "place_id": "ChIJlQMlaeAEdkgRc_AGrsFMFds", "types": ["doctor", "health", "point_of_interest", "establishment"]}, "ChIJlQMlaeAEdkgRfrXmlqaTq0Q": {"geometry": {"location": {"lat": 51.4929383, "lng": -0.1390876}, "viewport": {"northeast": {"lat": 51.49426063029151, "lng": -0.137808569708498}, "southwest": {"lat": 51.49156266970851, "lng": -0.140506530291502}}}, "name": "Dr A Thakore - Victoria Medical Centre", "place_id": "ChIJlQMlaeAEdkgRfrXmlqaTq0Q", "types": ["doctor", "health", "point_of_interest", "establishment"]}, "ChIJlQMlaeAEdkgRImNA-8NOZWM": {"geometry": {"location": {"lat": 51.4929383, "lng": -0.1390876}, "viewport": {"northeast": {"lat": 51.49426063029151, "lng": -0.137808569708498}, "southwest": {"lat": 51.49156266970851, "lng": -0.140506530291502}}}, "name": "Dr F M Alexander - Victoria Medical Centre", "place_id": "ChIJlQMlaeAEdkgRImNA-8NOZWM", "types": ["doctor", "health", "point_of_interest", "establishment"]}, "ChIJH8luXeAEdkgR2P06MGy81j4": {"geometry": {"location": {"lat": 51.492467, "lng": -0.1384195}, "viewport": {"northeast": {"lat": 51.4939047802915, "lng": -0.137149469708498}, "southwest": {"lat": 51.4912068197085, "lng": -0.139847430291502}}}, "name": "Special Eye Effects", "place_id": "ChIJH8luXeAEdkgR2P06MGy81j4", "types": ["health", "point_of_interest", "store", "establishment"]}, "ChIJC0nCXuAEdkgRZIkjaeJln8E": {"geometry": {"location": {"lat": 51.4922411, "lng": -0.1384873}, "viewport": {"northeast": {"lat": 51.4934460302915, "lng": -0.137118869708498}, "southwest": {"lat": 51.4907480697085, "lng": -0.139816830291502}}}, "name": "Tachbrook Street Toilets", "place_id": "ChIJC0nCXuAEdkgRZIkjaeJln8E", "types": ["point_of_interest", "establishment"], "rating": 1.7, "user_ratings_total": 3}, "ChIJa4FkZ-AEdkgRmInascRwiHM": {"geometry": {"location": {"lat": 51.49258510000001, "lng": -0.1383246}, "viewport": {"northeast": {"lat": 51.49361798029151, "lng": -0.136952719708498}, "southwest": {"lat": 51.49092001970851, "lng": -0.139650680291502}}}, "name": "Clive Kay Ltd", "place_id": "ChIJa4FkZ-AEdkgRmInascRwiHM", "types": ["health", "point_of_interest", "store", "establishment"], "rating": 5, "user_ratings_total": 4}, "ChIJRRjAD7ocdkgRqGEzUBhP6AY": {"geometry": {"location": {"lat": 51.4928865, "lng": -0.1394892}, "viewport": {"northeast": {"lat": 51.4942706302915, "lng": -0.138044569708498}, "southwest": {"lat": 51.4915726697085, "lng": -0.140742530291502}}}, "name": "Kookie of London", "place_id": "ChIJRRjAD7ocdkgRqGEzUBhP6AY", "types": ["clothing_store", "point_of_interest", "store", "establishment"], "rating": 4.3, "user_ratings_total": 3}, "ChIJC80HYeAEdkgRqZtIZUlzpSM": {"geometry": {"location": {"lat": 51.49246779999999, "lng": -0.138738}, "viewport": {"northeast": {"lat": 51.4938699802915, "lng": -0.137310469708498}, "southwest": {"lat": 51.4911720197085, "lng": -0.140008430291502}}}, "name": "Holland & Barrett", "place_id": "ChIJC80HYeAEdkgRqZtIZUlzpSM", "types": ["food", "health", "point_of_interest", "store", "establishment"], "rating": 4.7, "user_ratings_total": 15}, "ChIJ8xNLa-AEdkgRaJZAwN_JMDk": {"geometry": {"location": {"lat": 51.49284869999999, "lng": -0.1394515}, "viewport": {"northeast": {"lat": 51.49419768029149, "lng": -0.138102519708498}, "southwest": {"lat": 51.49149971970849, "lng": -0.140800480291502}}}, "name": "Rippon Cheese Stores", "place_id": "ChIJ8xNLa-AEdkgRaJZAwN_JMDk", "types": ["food", "point_of_interest", "store", "establishment"], "rating": 4.8, "user_ratings_total": 90}, "ChIJH8luXeAEdkgR0aR87hf7s-8": {"geometry": {"location": {"lat": 51.492538, "lng": -0.138454}, "viewport": {"northeast": {"lat": 51.4939387302915, "lng": -0.137171169708498}, "southwest": {"lat": 51.4912407697085, "lng": -0.139869130291502}}}, "name": "Leyland SDM Victoria | Decorating & DIY", "place_id": "ChIJH8luXeAEdkgR0aR87hf7s-8", "types": ["hardware_store", "home_goods_store", "point_of_interest", "store", "establishment"], "rating": 4.2, "user_ratings_total": 232}, "ChIJK5vTQOAEdkgR33EY-7Mum5o": {"geometry": {"location": {"lat": 51.49218260000001, "lng": -0.1395998}, "viewport": {"northeast": {"lat": 51.49359028029149, "lng": -0.138298519708498}, "southwest": {"lat": 51.4908923197085, "lng": -0.140996480291502}}}, "name": "Tesco Express", "place_id": "ChIJK5vTQOAEdkgR33EY-7Mum5o", "types": ["convenience_store", "food", "point_of_interest", "store", "establishment"], "rating": 3.8, "user_ratings_total": 41}, "ChIJXeI2ROAEdkgRNplh80daPpw": {"geometry": {"location": {"lat": 51.49215869999999, "lng": -0.1388654}, "viewport": {"northeast": {"lat": 51.49350768029149, "lng": -0.137516419708498}, "southwest": {"lat": 51.49080971970849, "lng": -0.140214380291502}}}, "name": "Fara Kids Charity Shop", "place_id": "ChIJXeI2ROAEdkgRNplh80daPpw", "types": ["point_of_interest", "establishment"], "rating": 4.4, "user_ratings_total": 11}, "ChIJvwJfbuAEdkgRUvkBoLqVSic": {"geometry": {"location": {"lat": 51.49309219999999, "lng": -0.1389137}, "viewport": {"northeast": {"lat": 51.4944711802915, "lng": -0.137528219708498}, "southwest": {"lat": 51.4917732197085, "lng": -0.140226180291502}}}, "name": "Southern California University School of Oriental Medicine and Acupuncture", "place_id": "ChIJvwJfbuAEdkgRUvkBoLqVSic", "types": ["point_of_interest", "establishment"], "rating": 4, "user_ratings_total": 1}, "ChIJQ8x0QeAEdkgRzWIol0pNgI8": {"geometry": {"location": {"lat": 51.4923748, "lng": -0.1390539}, "viewport": {"northeast": {"lat": 51.4937237802915, "lng": -0.137704919708498}, "southwest": {"lat": 51.4910258197085, "lng": -0.140402880291502}}}, "name": "Snappy Snaps Pimlico", "place_id": "ChIJQ8x0QeAEdkgRzWIol0pNgI8", "types": ["point_of_interest", "store", "establishment"], "rating": 3.8, "user_ratings_total": 187}, "ChIJxdvnP-AEdkgRZ_n8rRE6pNs": {"geometry": {"location": {"lat": 51.4925507, "lng": -0.1392718}, "viewport": {"northeast": {"lat": 51.4938566302915, "lng": -0.137873119708498}, "southwest": {"lat": 51.4911586697085, "lng": -0.140571080291502}}}, "name": "Fara Charity Shop - Pimlico", "place_id": "ChIJxdvnP-AEdkgRZ_n8rRE6pNs", "types": ["point_of_interest", "establishment"], "rating": 4.5, "user_ratings_total": 23}, "ChIJwevlauAEdkgRKVV2mYcoHCQ": {"geometry": {"location": {"lat": 51.49272260000001, "lng": -0.1393283}, "viewport": {"northeast": {"lat": 51.49407158029151, "lng": -0.137979319708498}, "southwest": {"lat": 51.49137361970851, "lng": -0.140677280291502}}}, "name": "James Of London", "place_id": "ChIJwevlauAEdkgRKVV2mYcoHCQ", "types": ["point_of_interest", "establishment"], "rating": 3.4, "user_ratings_total": 16}, "ChIJ5T2WF-AEdkgRjthg8PtBxlY": {"geometry": {"location": {"lat": 51.4926006, "lng": -0.1392161}, "viewport": {"northeast": {"lat": 51.49388993029149, "lng": -0.137818669708498}, "southwest": {"lat": 51.4911919697085, "lng": -0.140516630291502}}}, "name": "The Belgravia Trichological Group Limited", "place_id": "ChIJ5T2WF-AEdkgRjthg8PtBxlY", "types": ["point_of_interest", "establishment"]}, "ChIJmf4JBikFdkgRg5WwWHdNkMM": {"geometry": {"location": {"lat": 51.4926818, "lng": -0.1392496}, "viewport": {"northeast": {"lat": 51.4940615302915, "lng": -0.137819919708498}, "southwest": {"lat": 51.4913635697085, "lng": -0.140517880291502}}}, "name": "Ben Venuti", "place_id": "ChIJmf4JBikFdkgRg5WwWHdNkMM", "types": ["grocery_or_supermarket", "food", "point_of_interest", "store", "establishment"], "rating": 4.9, "user_ratings_total": 18}, "ChIJ0YXoem4FdkgRNh4BT9MgT94": {"geometry": {"location": {"lat": 51.49253789999999, "lng": -0.1393866}, "viewport": {"northeast": {"lat": 51.49383273029149, "lng": -0.137986119708498}, "southwest": {"lat": 51.49113476970849, "lng": -0.140684080291502}}}, "name": "Domino's Pizza - London - Victoria", "place_id": "ChIJ0YXoem4FdkgRNh4BT9MgT94", "types": ["meal_takeaway", "restaurant", "food", "point_of_interest", "establishment"], "rating": 3.1, "user_ratings_total": 70}, "ChIJqbYVQeAEdkgRDKT36G8Aq3g": {"geometry": {"location": {"lat": 51.4923519, "lng": -0.1391236}, "viewport": {"northeast": {"lat": 51.49375188029151, "lng": -0.137816019708498}, "southwest": {"lat": 51.49105391970851, "lng": -0.140513980291502}}}, "name": "Partytec", "place_id": "ChIJqbYVQeAEdkgRDKT36G8Aq3g", "types": ["point_of_interest", "establishment"]}, "ChIJOzjrz_UFdkgR9NeNECjxXDE": {"geometry": {"location": {"lat": 51.4923714, "lng": -0.1387868}, "viewport": {"northeast": {"lat": 51.4935111802915, "lng": -0.137268619708498}, "southwest": {"lat": 51.4908132197085, "lng": -0.139966580291502}}}, "name": "CauliBox @Tachbrook - Reusable lunchbox scheme", "place_id": "ChIJOzjrz_UFdkgR9NeNECjxXDE", "types": ["point_of_interest", "establishment"]}, "ChIJU-i5DHQ0cEERcQQ_n3e-npc": {"geometry": {"location": {"lat": 51.4924919, "lng": -0.1395067}, "viewport": {"northeast": {"lat": 51.4937892802915, "lng": -0.138111069708498}, "southwest": {"lat": 51.4910913197085, "lng": -0.140809030291502}}}, "name": "Little Waitrose & Partners Pimlico", "place_id": "ChIJU-i5DHQ0cEERcQQ_n3e-npc", "types": ["supermarket", "bakery", "grocery_or_supermarket", "food", "point_of_interest", "store", "establishment"], "rating": 4.2, "user_ratings_total": 311}, "ChIJYdyLQ-AEdkgRf_aE-elD3nQ": {"geometry": {"location": {"lat": 51.4922755, "lng": -0.1389028}, "viewport": {"northeast": {"lat": 51.4934632302915, "lng": -0.137326619708498}, "southwest": {"lat": 51.4907652697085, "lng": -0.1400245802915021}}}, "name": "Vores Hotel", "place_id": "ChIJYdyLQ-AEdkgRf_aE-elD3nQ", "types": ["lodging", "point_of_interest", "establishment"]}, "ChIJXeI2ROAEdkgRZ0czPBm4I5c": {"geometry": {"location": {"lat": 51.4922755, "lng": -0.1389028}, "viewport": {"northeast": {"lat": 51.4934632302915, "lng": -0.137326619708498}, "southwest": {"lat": 51.4907652697085, "lng": -0.1400245802915021}}}, "name": "AL HALAL SUPER MARKET", "place_id": "ChIJXeI2ROAEdkgRZ0czPBm4I5c", "types": ["point_of_interest", "establishment"]}, "ChIJ-592Q-AEdkgRl8c3a1uDVW8": {"geometry": {"location": {"lat": 51.4922222, "lng": -0.1388889}, "viewport": {"northeast": {"lat": 51.4935711802915, "lng": -0.137539919708498}, "southwest": {"lat": 51.4908732197085, "lng": -0.140237880291502}}}, "name": "Tachbrook Street Market", "place_id": "ChIJ-592Q-AEdkgRl8c3a1uDVW8", "types": ["point_of_interest", "establishment"], "rating": 4.3, "user_ratings_total": 493}, "ChIJkcluXeAEdkgRoA-pfMNlwbk": {"geometry": {"location": {"lat": 51.4924718, "lng": -0.1385333}, "viewport": {"northeast": {"lat": 51.4938955802915, "lng": -0.137228619708498}, "southwest": {"lat": 51.4911976197085, "lng": -0.139926580291502}}}, "name": "Westminster Coroner's Court", "place_id": "ChIJkcluXeAEdkgRoA-pfMNlwbk", "types": ["courthouse", "point_of_interest", "establishment"]}, "ChIJ_7J4pU4FdkgRNCR3aRrekt4": {"geometry": {"location": {"lat": 51.4928032, "lng": -0.1394139}, "viewport": {"northeast": {"lat": 51.49415218029151, "lng": -0.138064919708498}, "southwest": {"lat": 51.49145421970851, "lng": -0.140762880291502}}}, "name": "Kimchimama", "place_id": "ChIJ_7J4pU4FdkgRNCR3aRrekt4", "types": ["meal_delivery", "restaurant", "food", "point_of_interest", "establishment"], "rating": 4.9, "user_ratings_total": 54}, "ChIJ-6SAlBQFdkgR3fgqZIGz3po": {"geometry": {"location": {"lat": 51.49222, "lng": -0.1389693}, "viewport": {"northeast": {"lat": 51.49356898029149, "lng": -0.137620319708498}, "southwest": {"lat": 51.4908710197085, "lng": -0.140318280291502}}}, "name": "Flat 2 Tachbrook Court Tachbrook Street", "place_id": "ChIJ-6SAlBQFdkgR3fgqZIGz3po", "types": ["lodging", "point_of_interest", "establishment"]}, "ChIJXeI2ROAEdkgRP_5_MbL3aSM": {"geometry": {"location": {"lat": 51.4922222, "lng": -0.1388889}, "viewport": {"northeast": {"lat": 51.4935711802915, "lng": -0.137539919708498}, "southwest": {"lat": 51.4908732197085, "lng": -0.140237880291502}}}, "name": "Tachbrook Halal", "place_id": "ChIJXeI2ROAEdkgRP_5_MbL3aSM", "types": ["grocery_or_supermarket", "food", "point_of_interest", "store", "establishment"], "rating": 4.4, "user_ratings_total": 8}, "ChIJsWgNxLoFdkgRLb_J1JmtPm8": {"geometry": {"location": {"lat": 51.4922429, "lng": -0.1386266}, "viewport": {"northeast": {"lat": 51.4935918802915, "lng": -0.137277619708498}, "southwest": {"lat": 51.4908939197085, "lng": -0.139975580291502}}}, "name": "Karim's Falafel Stand", "place_id": "ChIJsWgNxLoFdkgRLb_J1JmtPm8", "types": ["restaurant", "food", "point_of_interest", "establishment"], "rating": 4.4, "user_ratings_total": 9}, "ChIJM8VBb-AEdkgR4G9aEGNZ5Ts": {"geometry": {"location": {"lat": 51.49298549999999, "lng": -0.1387785}, "viewport": {"northeast": {"lat": 51.49437878029149, "lng": -0.137377219708498}, "southwest": {"lat": 51.49168081970849, "lng": -0.140075180291502}}}, "name": "FredK E.Gillett Ltd", "place_id": "ChIJM8VBb-AEdkgR4G9aEGNZ5Ts", "types": ["point_of_interest", "establishment"]}, "ChIJpUVBR-AEdkgR24ztO-pGQnk": {"geometry": {"location": {"lat": 51.492211, "lng": -0.139609}, "viewport": {"northeast": {"lat": 51.4935599802915, "lng": -0.138260019708498}, "southwest": {"lat": 51.4908620197085, "lng": -0.140957980291502}}}, "name": "Chase Specialist Dry Cleaners", "place_id": "ChIJpUVBR-AEdkgR24ztO-pGQnk", "types": ["laundry", "point_of_interest", "establishment"], "rating": 4, "user_ratings_total": 28}, "ChIJO3XBp1UFdkgRRVdQwpNF-fA": {"geometry": {"location": {"lat": 51.49221840000001, "lng": -0.1395995}, "viewport": {"northeast": {"lat": 51.4936118802915, "lng": -0.138286669708498}, "southwest": {"lat": 51.4909139197085, "lng": -0.140984630291502}}}, "name": "Pimlico cleaners", "place_id": "ChIJO3XBp1UFdkgRRVdQwpNF-fA", "types": ["point_of_interest", "establishment"]}, "ChIJOSgaROAEdkgRcuqYtae_kUI": {"geometry": {"location": {"lat": 51.492098, "lng": -0.1387029}, "viewport": {"northeast": {"lat": 51.49338068029149, "lng": -0.137243319708498}, "southwest": {"lat": 51.4906827197085, "lng": -0.139941280291502}}}, "name": "Buckles & Brogues", "place_id": "ChIJOSgaROAEdkgRcuqYtae_kUI", "types": ["locksmith", "point_of_interest", "store", "establishment"], "rating": 4.8, "user_ratings_total": 54}, "ChIJJ3ajYOAEdkgRHRHr3is1OVU": {"geometry": {"location": {"lat": 51.49262119999999, "lng": -0.1382099}, "viewport": {"northeast": {"lat": 51.4939937802915, "lng": -0.137009069708498}, "southwest": {"lat": 51.4912958197085, "lng": -0.139707030291502}}}, "name": "Biguns Ribs", "place_id": "ChIJJ3ajYOAEdkgRHRHr3is1OVU", "types": ["restaurant", "food", "point_of_interest", "establishment"]}, "ChIJzVuttRgFdkgRW8AA6xXlJsw": {"geometry": {"location": {"lat": 51.4927582, "lng": -0.1398353}, "viewport": {"northeast": {"lat": 51.49413083029151, "lng": -0.138510819708498}, "southwest": {"lat": 51.49143286970851, "lng": -0.141208780291502}}}, "name": "The Belgavia Centre - Hair Clinic", "place_id": "ChIJzVuttRgFdkgRW8AA6xXlJsw", "types": ["hospital", "health", "point_of_interest", "establishment"]}, "ChIJz815NuAEdkgRA9yk6-Aa7og": {"geometry": {"location": {"lat": 51.491576, "lng": -0.1395579}, "viewport": {"northeast": {"lat": 51.4929249802915, "lng": -0.138208919708498}, "southwest": {"lat": 51.4902270197085, "lng": -0.1409068802915021}}}, "name": "Yum Yum (Pimlico)", "place_id": "ChIJz815NuAEdkgRA9yk6-Aa7og", "types": ["meal_delivery", "meal_takeaway", "restaurant", "food", "point_of_interest", "establishment"], "rating": 2.5, "user_ratings_total": 202}, "ChIJL17qUeAEdkgR0sme0AjjbJU": {"geometry": {"location": {"lat": 51.4916952, "lng": -0.1385391}, "viewport": {"northeast": {"lat": 51.49306758029149, "lng": -0.137270719708498}, "southwest": {"lat": 51.4903696197085, "lng": -0.139968680291502}}}, "name": "London Bride Couture", "place_id": "ChIJL17qUeAEdkgR0sme0AjjbJU", "types": ["point_of_interest", "clothing_store", "store", "establishment"], "rating": 4.5, "user_ratings_total": 113}, "ChIJ_3zRT-AEdkgRsUqy6tc3jl0": {"geometry": {"location": {"lat": 51.49189289999999, "lng": -0.1387553}, "viewport": {"northeast": {"lat": 51.49324188029149, "lng": -0.1374063197084979}, "southwest": {"lat": 51.49054391970849, "lng": -0.140104280291502}}}, "name": "L&Q Office", "place_id": "ChIJ_3zRT-AEdkgRsUqy6tc3jl0", "types": ["local_government_office", "point_of_interest", "establishment"], "rating": 1.3, "user_ratings_total": 12}, "ChIJ2dVASuAEdkgRa3YvCz9Gizs": {"geometry": {"location": {"lat": 51.4916144, "lng": -0.1390466}, "viewport": {"northeast": {"lat": 51.49293348029151, "lng": -0.137594669708498}, "southwest": {"lat": 51.49023551970851, "lng": -0.140292630291502}}}, "name": "The Latin Traveller Limited", "place_id": "ChIJ2dVASuAEdkgRa3YvCz9Gizs", "types": ["real_estate_agency", "lodging", "travel_agency", "point_of_interest", "establishment"]}, "ChIJ7RYYSuAEdkgRGEVVBUUdV-Y": {"geometry": {"location": {"lat": 51.4915664, "lng": -0.1392922}, "viewport": {"northeast": {"lat": 51.4929716802915, "lng": -0.137896519708498}, "southwest": {"lat": 51.4902737197085, "lng": -0.140594480291502}}}, "name": "Triggerfish Communications Ltd", "place_id": "ChIJ7RYYSuAEdkgRGEVVBUUdV-Y", "types": ["point_of_interest", "establishment"]}, "ChIJ8UDwtOEEdkgRYuh1cBxDWPs": {"geometry": {"location": {"lat": 51.4915082, "lng": -0.1390414}, "viewport": {"northeast": {"lat": 51.4928373802915, "lng": -0.1376242697084979}, "southwest": {"lat": 51.4901394197085, "lng": -0.140322230291502}}}, "name": "Goldgenie", "place_id": "ChIJ8UDwtOEEdkgRYuh1cBxDWPs", "types": ["point_of_interest", "store", "establishment"]}, "ChIJZ3os6j4xcEERMwWeNjpYMzM": {"geometry": {"location": {"lat": 51.4914674, "lng": -0.1387275}, "viewport": {"northeast": {"lat": 51.4928376802915, "lng": -0.137451819708498}, "southwest": {"lat": 51.4901397197085, "lng": -0.140149780291502}}}, "name": "Rodrigo Oliveira Stylist", "place_id": "ChIJZ3os6j4xcEERMwWeNjpYMzM", "types": ["hair_care", "point_of_interest", "establishment"], "rating": 3.9, "user_ratings_total": 33}, "ChIJnYzETuAEdkgR9MGvpDtudD0": {"geometry": {"location": {"lat": 51.4917185, "lng": -0.1389491}, "viewport": {"northeast": {"lat": 51.49304333029149, "lng": -0.137502619708498}, "southwest": {"lat": 51.4903453697085, "lng": -0.140200580291502}}}, "name": "GAIL's Bakery Pimlico", "place_id": "ChIJnYzETuAEdkgR9MGvpDtudD0", "types": ["bakery", "meal_delivery", "cafe", "restaurant", "food", "point_of_interest", "store", "establishment"], "rating": 4.4, "user_ratings_total": 516}, "ChIJf1SCNuAEdkgRYtV0Nmpx6ig": {"geometry": {"location": {"lat": 51.4916131, "lng": -0.1395962}, "viewport": {"northeast": {"lat": 51.49296208029151, "lng": -0.138247219708498}, "southwest": {"lat": 51.49026411970851, "lng": -0.140945180291502}}}, "name": "Linkfx Coe Solutions", "place_id": "ChIJf1SCNuAEdkgRYtV0Nmpx6ig", "types": ["finance", "point_of_interest", "establishment"]}, "ChIJickXUuAEdkgRrp2Co9oa7LI": {"geometry": {"location": {"lat": 51.4916119, "lng": -0.13866}, "viewport": {"northeast": {"lat": 51.49297728029151, "lng": -0.137367619708498}, "southwest": {"lat": 51.49027931970851, "lng": -0.140065580291502}}}, "name": "McKennell Dental Practice", "place_id": "ChIJickXUuAEdkgRrp2Co9oa7LI", "types": ["dentist", "health", "point_of_interest", "establishment"], "rating": 4.3, "user_ratings_total": 23}, "ChIJz815NuAEdkgRpJ8u0aDNTB8": {"geometry": {"location": {"lat": 51.4916776, "lng": -0.1396269}, "viewport": {"northeast": {"lat": 51.4930184802915, "lng": -0.138334369708498}, "southwest": {"lat": 51.4903205197085, "lng": -0.141032330291502}}}, "name": "CHOICE SPECIALIST DRY CLEANERS", "place_id": "ChIJz815NuAEdkgRpJ8u0aDNTB8", "types": ["laundry", "point_of_interest", "establishment"], "rating": 2.7, "user_ratings_total": 11}, "ChIJZXhVReAEdkgR1FKGDd3MU3g": {"geometry": {"location": {"lat": 51.4919843, "lng": -0.1387271}, "viewport": {"northeast": {"lat": 51.49329858029151, "lng": -0.137295469708498}, "southwest": {"lat": 51.49060061970851, "lng": -0.139993430291502}}}, "name": "Cz Property Limited", "place_id": "ChIJZXhVReAEdkgR1FKGDd3MU3g", "types": ["point_of_interest", "establishment"]}, "ChIJickXUuAEdkgR7FdiNXP3EJw": {"geometry": {"location": {"lat": 51.4915366, "lng": -0.1386393}, "viewport": {"northeast": {"lat": 51.4929112302915, "lng": -0.137378569708498}, "southwest": {"lat": 51.4902132697085, "lng": -0.140076530291502}}}, "name": "Dovers Flowers", "place_id": "ChIJickXUuAEdkgR7FdiNXP3EJw", "types": ["florist", "point_of_interest", "store", "establishment"], "rating": 4.8, "user_ratings_total": 32}, "ChIJW840NOAEdkgRBQpGc-qgU9w": {"geometry": {"location": {"lat": 51.49152119999999, "lng": -0.1395637}, "viewport": {"northeast": {"lat": 51.4928701802915, "lng": -0.138214719708498}, "southwest": {"lat": 51.4901722197085, "lng": -0.140912680291502}}}, "name": "Volpe", "place_id": "ChIJW840NOAEdkgRBQpGc-qgU9w", "types": ["point_of_interest", "establishment"], "rating": 5, "user_ratings_total": 6}, "ChIJPzQXTOAEdkgR2LvMvGjhjeQ": {"geometry": {"location": {"lat": 51.4915038, "lng": -0.13906}, "viewport": {"northeast": {"lat": 51.4928311802915, "lng": -0.137636569708498}, "southwest": {"lat": 51.4901332197085, "lng": -0.140334530291502}}}, "name": "St George's Conservative Club", "place_id": "ChIJPzQXTOAEdkgR2LvMvGjhjeQ", "types": ["point_of_interest", "establishment"], "rating": 4.3, "user_ratings_total": 3}, "ChIJB_0bnwcFdkgR1QfWRQFECiI": {"geometry": {"location": {"lat": 51.4915243, "lng": -0.1390461}, "viewport": {"northeast": {"lat": 51.49285148029151, "lng": -0.137622069708498}, "southwest": {"lat": 51.49015351970851, "lng": -0.1403200302915021}}}, "name": "Golden Butterfly", "place_id": "ChIJB_0bnwcFdkgR1QfWRQFECiI", "types": ["beauty_salon", "point_of_interest", "establishment"], "rating": 4.3, "user_ratings_total": 71}, "ChIJOR7G6vAEdkgRDP6B-yfdBD8": {"geometry": {"location": {"lat": 51.4915024, "lng": -0.1386578}, "viewport": {"northeast": {"lat": 51.4928778802915, "lng": -0.137399969708498}, "southwest": {"lat": 51.4901799197085, "lng": -0.140097930291502}}}, "name": "All London Fire Extinguishers", "place_id": "ChIJOR7G6vAEdkgRDP6B-yfdBD8", "types": ["point_of_interest", "establishment"], "rating": 5, "user_ratings_total": 4}, "ChIJM3v_S-AEdkgRcqAPCH2zzRk": {"geometry": {"location": {"lat": 51.4916215, "lng": -0.1390073}, "viewport": {"northeast": {"lat": 51.4929446302915, "lng": -0.137569319708498}, "southwest": {"lat": 51.4902466697085, "lng": -0.140267280291502}}}, "name": "Westminster Web Limited", "place_id": "ChIJM3v_S-AEdkgRcqAPCH2zzRk", "types": ["point_of_interest", "establishment"]}, "ChIJ02T_S-AEdkgRw_pAIjXqX5E": {"geometry": {"location": {"lat": 51.4916215, "lng": -0.1390073}, "viewport": {"northeast": {"lat": 51.4929446302915, "lng": -0.137569319708498}, "southwest": {"lat": 51.4902466697085, "lng": -0.140267280291502}}}, "name": "Latin Squares", "place_id": "ChIJ02T_S-AEdkgRw_pAIjXqX5E", "types": ["general_contractor", "point_of_interest", "establishment"], "rating": 3.3, "user_ratings_total": 7}, "ChIJA_OyTuAEdkgRpNuWSwqhRrA": {"geometry": {"location": {"lat": 51.4916509, "lng": -0.139003}, "viewport": {"northeast": {"lat": 51.4929719302915, "lng": -0.137557719708498}, "southwest": {"lat": 51.4902739697085, "lng": -0.140255680291502}}}, "name": "Virgilio Seo", "place_id": "ChIJA_OyTuAEdkgRpNuWSwqhRrA", "types": ["point_of_interest", "establishment"]}, "ChIJRejnnY4FdkgRLh-Tlo-OWvk": {"geometry": {"location": {"lat": 51.4915664, "lng": -0.1392922}, "viewport": {"northeast": {"lat": 51.4929716802915, "lng": -0.137896519708498}, "southwest": {"lat": 51.4902737197085, "lng": -0.140594480291502}}}, "name": "Heeran Construction Ltd", "place_id": "ChIJRejnnY4FdkgRLh-Tlo-OWvk", "types": ["general_contractor", "point_of_interest", "establishment"]}, "ChIJh51ITOAEdkgRNxg0e2UDLNE": {"geometry": {"location": {"lat": 51.4914593, "lng": -0.1387567}, "viewport": {"northeast": {"lat": 51.49282683029149, "lng": -0.137471519708498}, "southwest": {"lat": 51.49012886970849, "lng": -0.140169480291502}}}, "name": "Pimlico Apartment", "place_id": "ChIJh51ITOAEdkgRNxg0e2UDLNE", "types": ["point_of_interest", "establishment"], "rating": 5, "user_ratings_total": 1}, "ChIJE0BqqSEFdkgRHr_2NEiWNgU": {"geometry": {"location": {"lat": 51.4914597, "lng": -0.1386913}, "viewport": {"northeast": {"lat": 51.4928338302915, "lng": -0.137433719708498}, "southwest": {"lat": 51.4901358697085, "lng": -0.140131680291502}}}, "name": "Victoria Hair Studio", "place_id": "ChIJE0BqqSEFdkgRHr_2NEiWNgU", "types": ["hair_care", "point_of_interest", "establishment"], "rating": 4.9, "user_ratings_total": 84}, "ChIJkxYYSuAEdkgRz-ILcDO9NGw": {"geometry": {"location": {"lat": 51.491687, "lng": -0.1393423}, "viewport": {"northeast": {"lat": 51.49301783029151, "lng": -0.137921569708498}, "southwest": {"lat": 51.49031986970851, "lng": -0.140619530291502}}}, "name": "Mazzullo + Russell Landscape Design", "place_id": "ChIJkxYYSuAEdkgRz-ILcDO9NGw", "types": ["general_contractor", "point_of_interest", "establishment"], "rating": 5, "user_ratings_total": 1}, "ChIJz-ThTuAEdkgR0kRUqN41OXg": {"geometry": {"location": {"lat": 51.49176680000001, "lng": -0.1389012}, "viewport": {"northeast": {"lat": 51.49308963029151, "lng": -0.137462069708498}, "southwest": {"lat": 51.49039166970851, "lng": -0.140160030291502}}}, "name": "Ab Design & Build Ltd", "place_id": "ChIJz-ThTuAEdkgR0kRUqN41OXg", "types": ["point_of_interest", "establishment"]}, "ChIJp6feZO8FdkgR3hLwQRQaFmk": {"geometry": {"location": {"lat": 51.4917705, "lng": -0.1388901}, "viewport": {"northeast": {"lat": 51.4931541302915, "lng": -0.1375162197084979}, "southwest": {"lat": 51.4904561697085, "lng": -0.140214180291502}}}, "name": "MORE Provasi", "place_id": "ChIJp6feZO8FdkgR3hLwQRQaFmk", "types": ["furniture_store", "home_goods_store", "point_of_interest", "store", "establishment"]}, "ChIJickXUuAEdkgRCDiL_BMYuWo": {"geometry": {"location": {"lat": 51.4916305, "lng": -0.138586}, "viewport": {"northeast": {"lat": 51.49300308029149, "lng": -0.137318269708498}, "southwest": {"lat": 51.49030511970849, "lng": -0.140016230291502}}}, "name": "Boutique - Terrence Higgins Trust Charity Shop", "place_id": "ChIJickXUuAEdkgRCDiL_BMYuWo", "types": ["point_of_interest", "clothing_store", "store", "establishment"], "rating": 4.9, "user_ratings_total": 27}, "ChIJVVXwUeAEdkgRduFXPUbbZDY": {"geometry": {"location": {"lat": 51.49163550000001, "lng": -0.1385876}, "viewport": {"northeast": {"lat": 51.49300743029151, "lng": -0.137317669708498}, "southwest": {"lat": 51.49030946970851, "lng": -0.140015630291502}}}, "name": "Crusaid", "place_id": "ChIJVVXwUeAEdkgRduFXPUbbZDY", "types": ["point_of_interest", "establishment"]}, "ChIJtyJqx3AFdkgRMFuz7SYq2zg": {"geometry": {"location": {"lat": 51.49157559999999, "lng": -0.1395575}, "viewport": {"northeast": {"lat": 51.4929148302915, "lng": -0.138279619708498}, "southwest": {"lat": 51.4902168697085, "lng": -0.140977580291502}}}, "name": "Noodle House", "place_id": "ChIJtyJqx3AFdkgRMFuz7SYq2zg", "types": ["meal_delivery", "meal_takeaway", "restaurant", "food", "point_of_interest", "establishment"], "rating": 2.1, "user_ratings_total": 9}, "ChIJvyPDUeAEdkgRsUr5jp0nbDU": {"geometry": {"location": {"lat": 51.4916987, "lng": -0.1385947}, "viewport": {"northeast": {"lat": 51.4930641302915, "lng": -0.137302419708498}, "southwest": {"lat": 51.4903661697085, "lng": -0.140000380291502}}}, "name": "Luxury Alterations", "place_id": "ChIJvyPDUeAEdkgRsUr5jp0nbDU", "types": ["point_of_interest", "establishment"], "rating": 4.6, "user_ratings_total": 53}, "ChIJNxZgNuAEdkgRnUdDEEB1jsg": {"geometry": {"location": {"lat": 51.4916808, "lng": -0.1395598}, "viewport": {"northeast": {"lat": 51.4930170302915, "lng": -0.138299719708498}, "southwest": {"lat": 51.49031906970851, "lng": -0.140997680291502}}}, "name": "Dr Belinda Giles", "place_id": "ChIJNxZgNuAEdkgRnUdDEEB1jsg", "types": ["health", "point_of_interest", "establishment"]}, "ChIJF6snhHcFdkgRAx0SS2F7_0E": {"geometry": {"location": {"lat": 51.49195169999999, "lng": -0.1387415}, "viewport": {"northeast": {"lat": 51.49327323029149, "lng": -0.137311769708498}, "southwest": {"lat": 51.49057526970849, "lng": -0.140009730291502}}}, "name": "Cutting crew Pimlico", "place_id": "ChIJF6snhHcFdkgRAx0SS2F7_0E", "types": ["hair_care", "health", "point_of_interest", "establishment"], "rating": 5, "user_ratings_total": 2}, "ChIJWzFwBiAFdkgRvpsAvhEHKjk": {"geometry": {"location": {"lat": 51.49450150004724, "lng": -0.1411589997706288}, "viewport": {"northeast": {"lat": 51.49585048029149, "lng": -0.139810019708498}, "southwest": {"lat": 51.4931525197085, "lng": -0.142507980291502}}}, "name": "239-247 A202", "place_id": "ChIJWzFwBiAFdkgRvpsAvhEHKjk", "types": ["route"]}, "ChIJj7HgCyAFdkgRVkYmHfzRTS0": {"geometry": {"location": {"lat": 51.4949866, "lng": -0.1412787}, "viewport": {"northeast": {"lat": 51.4963355802915, "lng": -0.139929719708498}, "southwest": {"lat": 51.4936376197085, "lng": -0.142627680291502}}}, "name": "Victoria Station Hotel", "place_id": "ChIJj7HgCyAFdkgRVkYmHfzRTS0", "types": ["lodging", "point_of_interest", "establishment"], "rating": 2.8, "user_ratings_total": 287}, "ChIJpxK6ByAFdkgRCmd6h3oZ8Ic": {"geometry": {"location": {"lat": 51.4945774, "lng": -0.1409527}, "viewport": {"northeast": {"lat": 51.4958852802915, "lng": -0.139703519708498}, "southwest": {"lat": 51.4931873197085, "lng": -0.142401480291502}}}, "name": "Evan Evans Tours", "place_id": "ChIJpxK6ByAFdkgRCmd6h3oZ8Ic", "types": ["travel_agency", "point_of_interest", "establishment"], "rating": 4.4, "user_ratings_total": 1569}, "ChIJZTeB-N8EdkgR05E_fjRxRMo": {"geometry": {"location": {"lat": 51.4944084, "lng": -0.1407712}, "viewport": {"northeast": {"lat": 51.4957573802915, "lng": -0.139422219708498}, "southwest": {"lat": 51.4930594197085, "lng": -0.142120180291502}}}, "name": "Brass Monkey", "place_id": "ChIJZTeB-N8EdkgR05E_fjRxRMo", "types": ["bar", "point_of_interest", "establishment"], "rating": 4.1, "user_ratings_total": 334}, "ChIJj7HgCyAFdkgRXo7W34nCovY": {"geometry": {"location": {"lat": 51.49486530000001, "lng": -0.1411637}, "viewport": {"northeast": {"lat": 51.49616403029151, "lng": -0.139946369708498}, "southwest": {"lat": 51.49346606970851, "lng": -0.142644330291502}}}, "name": "The Booksellers Association", "place_id": "ChIJj7HgCyAFdkgRXo7W34nCovY", "types": ["point_of_interest", "establishment"]},