{"E00175232": {"ChIJt14xxxAQdkgRjaRE4nlb8sE": {"geometry": {"location": {"lat": 51.52677807457633, "lng": -0.2046963766396021}, "viewport": {"northeast": {"lat": 51.5281270802915, "lng": -0.203348019708498}, "southwest": {"lat": 51.5254291197085, "lng": -0.206045980291502}}}, "name": "2-34 Bravington Rd", "place_id": "ChIJt14xxxAQdkgRjaRE4nlb8sE", "types": ["route"]}, "ChIJ1eUTNiEFdkgRUQJ9vvWUAZE": {"geometry": {"location": {"lat": 51.52713079999999, "lng": -0.2042159}, "viewport": {"northeast": {"lat": 51.52854043029149, "lng": -0.2028568697084979}, "southwest": {"lat": 51.5258424697085, "lng": -0.205554830291502}}}, "name": "Aventurine web design training", "place_id": "ChIJ1eUTNiEFdkgRUQJ9vvWUAZE", "types": ["point_of_interest", "establishment"]}, "ChIJvXg9khAQdkgRc0mZF-Wt27E": {"geometry": {"location": {"lat": 51.5273742, "lng": -0.2044758}, "viewport": {"northeast": {"lat": 51.52872763029151, "lng": -0.203185819708498}, "southwest": {"lat": 51.52602966970851, "lng": -0.205883780291502}}}, "name": "Studio 29 Architects", "place_id": "ChIJvXg9khAQdkgRc0mZF-Wt27E", "types": ["general_contractor", "point_of_interest", "establishment"], "rating": 5, "user_ratings_total": 2}, "ChIJC_tjwBAQdkgRacUm6eyn0ns": {"geometry": {"location": {"lat": 51.5264894, "lng": -0.2044453}, "viewport": {"northeast": {"lat": 51.5278477302915, "lng": -0.203244169708498}, "southwest": {"lat": 51.5251497697085, "lng": -0.205942130291502}}}, "name": "Rainbow Nursery (Rainbow Family Centre)", "place_id": "ChIJC_tjwBAQdkgRacUm6eyn0ns", "types": ["school", "point_of_interest", "establishment"], "rating": 3.4, "user_ratings_total": 5}, "ChIJqQe26RAQdkgRyCc7Z-XBwf8": {"geometry": {"location": {"lat": 51.5271303, "lng": -0.2042367}, "viewport": {"northeast": {"lat": 51.5285408302915, "lng": -0.202877519708498}, "southwest": {"lat": 51.52584286970851, "lng": -0.205575480291502}}}, "name": "A M G Tech Ltd", "place_id": "ChIJqQe26RAQdkgRyCc7Z-XBwf8", "types": ["point_of_interest", "establishment"]}, "ChIJod_H6RAQdkgRfoOaP-TaSzc": {"geometry": {"location": {"lat": 51.5271303, "lng": -0.2042367}, "viewport": {"northeast": {"lat": 51.5285408302915, "lng": -0.202877519708498}, "southwest": {"lat": 51.52584286970851, "lng": -0.205575480291502}}}, "name": "Italian Tuition", "place_id": "ChIJod_H6RAQdkgRfoOaP-TaSzc", "types": ["point_of_interest", "establishment"]}, "ChIJn6qS8tgRdkgRoY__OGzcq8s": {"geometry": {"location": {"lat": 51.5271716, "lng": -0.2038794}, "viewport": {"northeast": {"lat": 51.52854883029149, "lng": -0.202525719708498}, "southwest": {"lat": 51.5258508697085, "lng": -0.205223680291502}}}, "name": "Zipcar", "place_id": "ChIJn6qS8tgRdkgRoY__OGzcq8s", "types": ["point_of_interest", "establishment"]}, "ChIJu-Ou7RAQdkgR9PB74b_FdCQ": {"geometry": {"location": {"lat": 51.52685100000001, "lng": -0.203743}, "viewport": {"northeast": {"lat": 51.52819843029149, "lng": -0.202372619708498}, "southwest": {"lat": 51.5255004697085, "lng": -0.205070580291502}}}, "name": "ubitricity Charging Station", "place_id": "ChIJu-Ou7RAQdkgR9PB74b_FdCQ", "types": ["point_of_interest", "establishment"]}, "ChIJt6IsxBAQdkgR84XvQoUJ7X0": {"geometry": {"location": {"lat": 51.5270089, "lng": -0.2048771}, "viewport": {"northeast": {"lat": 51.5283502302915, "lng": -0.203419669708498}, "southwest": {"lat": 51.5256522697085, "lng": -0.2061176302915021}}}, "name": "Laundry and Dry Cleaning", "place_id": "ChIJt6IsxBAQdkgR84XvQoUJ7X0", "types": ["laundry", "point_of_interest", "establishment"]}, "ChIJbZnQxRAQdkgRYI1IAylolpg": {"geometry": {"location": {"lat": 51.5270056, "lng": -0.2048911}, "viewport": {"northeast": {"lat": 51.5283464802915, "lng": -0.203427069708498}, "southwest": {"lat": 51.5256485197085, "lng": -0.206125030291502}}}, "name": "Sincere Management", "place_id": "ChIJbZnQxRAQdkgRYI1IAylolpg", "types": ["point_of_interest", "establishment"], "rating": 5, "user_ratings_total": 2}, "ChIJiTegHncRdkgRiQAK-PLv_mY": {"geometry": {"location": {"lat": 51.5270125, "lng": -0.2049267}, "viewport": {"northeast": {"lat": 51.5283520802915, "lng": -0.203444469708498}, "southwest": {"lat": 51.5256541197085, "lng": -0.206142430291502}}}, "name": "Savia Rocks - Professional Photographer", "place_id": "ChIJiTegHncRdkgRiQAK-PLv_mY", "types": ["point_of_interest", "establishment"], "rating": 5, "user_ratings_total": 1}, "ChIJ1QEl8BAQdkgRLo5Mp63skFI": {"geometry": {"location": {"lat": 51.5272038, "lng": -0.2035597}, "viewport": {"northeast": {"lat": 51.5285585302915, "lng": -0.202281119708498}, "southwest": {"lat": 51.52586056970851, "lng": -0.204979080291502}}}, "name": "Haines Innovations Ltd", "place_id": "ChIJ1QEl8BAQdkgRLo5Mp63skFI", "types": ["point_of_interest", "establishment"]}, "ChIJq6oevxAQdkgRJO8u5eVCb8Y": {"geometry": {"location": {"lat": 51.5265141, "lng": -0.2045797}, "viewport": {"northeast": {"lat": 51.52786813029149, "lng": -0.203310069708498}, "southwest": {"lat": 51.5251701697085, "lng": -0.206008030291502}}}, "name": "The Westminster Society", "place_id": "ChIJq6oevxAQdkgRJO8u5eVCb8Y", "types": ["point_of_interest", "establishment"]}, "ChIJc5nQxRAQdkgR6-FShN_3fkI": {"geometry": {"location": {"lat": 51.5266536, "lng": -0.2049129}, "viewport": {"northeast": {"lat": 51.5279963302915, "lng": -0.203467019708498}, "southwest": {"lat": 51.5252983697085, "lng": -0.206164980291502}}}, "name": "Queens Park CyberSecurity Solutions Ltd.", "place_id": "ChIJc5nQxRAQdkgR6-FShN_3fkI", "types": ["point_of_interest", "establishment"]}, "ChIJ0x0lohAQdkgRJxqhk47SM7w": {"geometry": {"location": {"lat": 51.52584520011467, "lng": -0.2046823496638016}, "viewport": {"northeast": {"lat": 51.5271941802915, "lng": -0.203333369708498}, "southwest": {"lat": 51.5244962197085, "lng": -0.206031330291502}}}, "name": "558-550 Harrow Rd", "place_id": "ChIJ0x0lohAQdkgRJxqhk47SM7w", "types": ["route"]}, "ChIJ1ytbmRAQdkgRaJOWPGY-J_U": {"geometry": {"location": {"lat": 51.5258578, "lng": -0.2040589}, "viewport": {"northeast": {"lat": 51.5272031802915, "lng": -0.2026610197084979}, "southwest": {"lat": 51.5245052197085, "lng": -0.205358980291502}}}, "name": "Freta Hair Salon", "place_id": "ChIJ1ytbmRAQdkgRaJOWPGY-J_U", "types": ["beauty_salon", "hair_care", "point_of_interest", "establishment"], "rating": 4.5, "user_ratings_total": 46}, "ChIJtUCcvBAQdkgRHV3KLyKjePQ": {"geometry": {"location": {"lat": 51.5260229, "lng": -0.2047047}, "viewport": {"northeast": {"lat": 51.5273268302915, "lng": -0.203421769708498}, "southwest": {"lat": 51.52462886970851, "lng": -0.206119730291502}}}, "name": "NEWHAIR", "place_id": "ChIJtUCcvBAQdkgRHV3KLyKjePQ", "types": ["point_of_interest", "store", "establishment"]}, "ChIJvXg9khAQdkgRYTkmdrqSRRo": {"geometry": {"location": {"lat": 51.5257515, "lng": -0.2038332}, "viewport": {"northeast": {"lat": 51.5271047302915, "lng": -0.2025514697084979}, "southwest": {"lat": 51.5244067697085, "lng": -0.205249430291502}}}, "name": "SD Urban Architect", "place_id": "ChIJvXg9khAQdkgRYTkmdrqSRRo", "types": ["point_of_interest", "establishment"]}, "ChIJ4SxapBAQdkgRDskOLjwh6O4": {"geometry": {"location": {"lat": 51.5258025, "lng": -0.2048331}, "viewport": {"northeast": {"lat": 51.5271864802915, "lng": -0.203432769708498}, "southwest": {"lat": 51.5244885197085, "lng": -0.206130730291502}}}, "name": "acc clearances and vans ltd", "place_id": "ChIJ4SxapBAQdkgRDskOLjwh6O4", "types": ["moving_company", "storage", "point_of_interest", "establishment"]}, "ChIJ86ZTnBAQdkgRbYd8RUy1xA8": {"geometry": {"location": {"lat": 51.5255204, "lng": -0.2037976}, "viewport": {"northeast": {"lat": 51.5269002302915, "lng": -0.202551769708498}, "southwest": {"lat": 51.5242022697085, "lng": -0.205249730291502}}}, "name": "Red Emu Advertising Studio", "place_id": "ChIJ86ZTnBAQdkgRbYd8RUy1xA8", "types": ["point_of_interest", "establishment"]}, "ChIJK4aTvBAQdkgRvhaaYqwFy7U": {"geometry": {"location": {"lat": 51.5262, "lng": -0.204609}, "viewport": {"northeast": {"lat": 51.5275575302915, "lng": -0.203352169708498}, "southwest": {"lat": 51.5248595697085, "lng": -0.206050130291502}}}, "name": "Kazem Ltd", "place_id": "ChIJK4aTvBAQdkgRvhaaYqwFy7U", "types": ["point_of_interest", "store", "establishment"], "rating": 3.3, "user_ratings_total": 21}, "ChIJBQ4orRAQdkgRLLxXWxojiu8": {"geometry": {"location": {"lat": 51.52591049999999, "lng": -0.2049963}, "viewport": {"northeast": {"lat": 51.52729053029149, "lng": -0.203604269708498}, "southwest": {"lat": 51.5245925697085, "lng": -0.206302230291502}}}, "name": "Paddington Law Centre", "place_id": "ChIJBQ4orRAQdkgRLLxXWxojiu8", "types": ["point_of_interest", "establishment"], "rating": 2.8, "user_ratings_total": 4}, "ChIJo9GQsBAQdkgRqaHnQJcAx1k": {"geometry": {"location": {"lat": 51.5261296, "lng": -0.204945}, "viewport": {"northeast": {"lat": 51.5274765802915, "lng": -0.203529719708498}, "southwest": {"lat": 51.5247786197085, "lng": -0.206227680291502}}}, "name": "The F Centre", "place_id": "ChIJo9GQsBAQdkgRqaHnQJcAx1k", "types": ["home_goods_store", "point_of_interest", "store", "establishment"], "rating": 4.5, "user_ratings_total": 15}, "ChIJBfLPBnARdkgRuTHgvgcADnw": {"geometry": {"location": {"lat": 51.5258675, "lng": -0.2044253}, "viewport": {"northeast": {"lat": 51.52716778029149, "lng": -0.203138619708498}, "southwest": {"lat": 51.52446981970849, "lng": -0.205836580291502}}}, "name": "alfayad refridgration world", "place_id": "ChIJBfLPBnARdkgRuTHgvgcADnw", "types": ["home_goods_store", "point_of_interest", "store", "establishment"], "rating": 1, "user_ratings_total": 1}, "ChIJ___yohAQdkgRZ8SFjBGjxGk": {"geometry": {"location": {"lat": 51.5258675, "lng": -0.2044253}, "viewport": {"northeast": {"lat": 51.5271704802915, "lng": -0.203143719708498}, "southwest": {"lat": 51.5244725197085, "lng": -0.205841680291502}}}, "name": "www.london-appliances.com", "place_id": "ChIJ___yohAQdkgRZ8SFjBGjxGk", "types": ["home_goods_store", "point_of_interest", "store", "establishment"]}, "ChIJs-LKcIIRdkgRmbd2qYvBe5w": {"geometry": {"location": {"lat": 51.5258858, "lng": -0.2044482}, "viewport": {"northeast": {"lat": 51.52718743029151, "lng": -0.203168619708498}, "southwest": {"lat": 51.52448946970851, "lng": -0.205866580291502}}}, "name": "Concrete Fence Panels", "place_id": "ChIJs-LKcIIRdkgRmbd2qYvBe5w", "types": ["point_of_interest", "establishment"]}, "ChIJ15rI0CARdkgRMm3_VYh97uM": {"geometry": {"location": {"lat": 51.5258858, "lng": -0.2044482}, "viewport": {"northeast": {"lat": 51.52718743029151, "lng": -0.203168619708498}, "southwest": {"lat": 51.52448946970851, "lng": -0.205866580291502}}}, "name": "Lawarde", "place_id": "ChIJ15rI0CARdkgRMm3_VYh97uM", "types": ["clothing_store", "point_of_interest", "store", "establishment"]}, "ChIJwVLuohAQdkgRcrVtjyHaKtQ": {"geometry": {"location": {"lat": 51.5258858, "lng": -0.2044482}, "viewport": {"northeast": {"lat": 51.52718743029151, "lng": -0.203168619708498}, "southwest": {"lat": 51.52448946970851, "lng": -0.205866580291502}}}, "name": "Ishtar & Al-Hareth Exchange", "place_id": "ChIJwVLuohAQdkgRcrVtjyHaKtQ", "types": ["store", "point_of_interest", "establishment"], "rating": 4.5, "user_ratings_total": 4}, "ChIJl5KeoaoadkgRj3ygqPiaofk": {"geometry": {"location": {"lat": 51.52598, "lng": -0.2044834}, "viewport": {"northeast": {"lat": 51.52726138029149, "lng": -0.203233519708498}, "southwest": {"lat": 51.52456341970849, "lng": -0.205931480291502}}}, "name": "Alexander Shaw Solicitors", "place_id": "ChIJl5KeoaoadkgRj3ygqPiaofk", "types": ["point_of_interest", "establishment"], "rating": 5, "user_ratings_total": 168}, "ChIJE5f2ohAQdkgRk7eBupTu86w": {"geometry": {"location": {"lat": 51.5258512, "lng": -0.20444}, "viewport": {"northeast": {"lat": 51.5271608802915, "lng": -0.203148569708498}, "southwest": {"lat": 51.5244629197085, "lng": -0.205846530291502}}}, "name": "Al Fayad", "place_id": "ChIJE5f2ohAQdkgRk7eBupTu86w", "types": ["electronics_store", "point_of_interest", "store", "establishment"], "rating": 2, "user_ratings_total": 8}, "ChIJ6Tl22O4RdkgRcvfFkcuFDcc": {"geometry": {"location": {"lat": 51.5258297, "lng": -0.2043956}, "viewport": {"northeast": {"lat": 51.5271383802915, "lng": -0.2031056697084979}, "southwest": {"lat": 51.5244404197085, "lng": -0.205803630291502}}}, "name": "Bella Moore Studio", "place_id": "ChIJ6Tl22O4RdkgRcvfFkcuFDcc", "types": ["beauty_salon", "hair_care", "point_of_interest", "store", "establishment"], "rating": 5, "user_ratings_total": 69}, "ChIJP3o9oxAQdkgRRFhQOcIl0rc": {"geometry": {"location": {"lat": 51.52592079999999, "lng": -0.2045621}, "viewport": {"northeast": {"lat": 51.52723038029149, "lng": -0.203270819708498}, "southwest": {"lat": 51.5245324197085, "lng": -0.205968780291502}}}, "name": "A-Z Household", "place_id": "ChIJP3o9oxAQdkgRRFhQOcIl0rc", "types": ["point_of_interest", "establishment"]}, "ChIJq5JtohAQdkgR2-3qwbUF5QQ": {"geometry": {"location": {"lat": 51.525764, "lng": -0.2043460000000001}, "viewport": {"northeast": {"lat": 51.5270829302915, "lng": -0.203041019708498}, "southwest": {"lat": 51.5243849697085, "lng": -0.205738980291502}}}, "name": "Portnall Road (Stop R)", "place_id": "ChIJq5JtohAQdkgR2-3qwbUF5QQ", "types": ["transit_station", "point_of_interest", "establishment"], "rating": 5, "user_ratings_total": 1}, "ChIJCZ9UeoIRdkgR8qRfiC50RAQ": {"geometry": {"location": {"lat": 51.52575179999999, "lng": -0.2042778}, "viewport": {"northeast": {"lat": 51.52706363029149, "lng": -0.2029833197084979}, "southwest": {"lat": 51.52436566970849, "lng": -0.205681280291502}}}, "name": "Istanbul food centre", "place_id": "ChIJCZ9UeoIRdkgR8qRfiC50RAQ", "types": ["grocery_or_supermarket", "food", "point_of_interest", "store", "establishment"]}, "ChIJ4S7oohAQdkgRMGQ6XLXBijU": {"geometry": {"location": {"lat": 51.5257523, "lng": -0.2042007}, "viewport": {"northeast": {"lat": 51.5270591302915, "lng": -0.202936419708498}, "southwest": {"lat": 51.5243611697085, "lng": -0.205634380291502}}}, "name": "Asian Food Centre Ltd.", "place_id": "ChIJ4S7oohAQdkgRMGQ6XLXBijU", "types": ["grocery_or_supermarket", "food", "point_of_interest", "store", "establishment"], "rating": 4.2, "user_ratings_total": 24}, "ChIJMYlFoxAQdkgRSMh3yOg_eEg": {"geometry": {"location": {"lat": 51.5259583, "lng": -0.2046293}, "viewport": {"northeast": {"lat": 51.5272680302915, "lng": -0.203337769708498}, "southwest": {"lat": 51.5245700697085, "lng": -0.206035730291502}}}, "name": "Al Firdaws Supermarket", "place_id": "ChIJMYlFoxAQdkgRSMh3yOg_eEg", "types": ["grocery_or_supermarket", "food", "point_of_interest", "store", "establishment"], "rating": 5, "user_ratings_total": 1}, "ChIJI-nHmBAQdkgRUkHnoRJBUjU": {"geometry": {"location": {"lat": 51.52571709999999, "lng": -0.204224}, "viewport": {"northeast": {"lat": 51.52702998029149, "lng": -0.202927919708498}, "southwest": {"lat": 51.5243320197085, "lng": -0.205625880291502}}}, "name": "Harrow Road Food Centre", "place_id": "ChIJI-nHmBAQdkgRUkHnoRJBUjU", "types": ["transit_station", "point_of_interest", "establishment"]}, "ChIJHwPEvBAQdkgRT5F_VF12v3o": {"geometry": {"location": {"lat": 51.5260229, "lng": -0.2047047}, "viewport": {"northeast": {"lat": 51.5273266802915, "lng": -0.203421919708498}, "southwest": {"lat": 51.5246287197085, "lng": -0.206119880291502}}}, "name": "Collog", "place_id": "ChIJHwPEvBAQdkgRT5F_VF12v3o", "types": ["point_of_interest", "establishment"]}, "ChIJ4S7oohAQdkgRLTaXLWZL7vg": {"geometry": {"location": {"lat": 51.5260229, "lng": -0.2047047}, "viewport": {"northeast": {"lat": 51.5273268302915, "lng": -0.203421769708498}, "southwest": {"lat": 51.52462886970851, "lng": -0.206119730291502}}}, "name": "K & A Fisheries London", "place_id": "ChIJ4S7oohAQdkgRLTaXLWZL7vg", "types": ["food", "point_of_interest", "store", "establishment"], "rating": 4.3, "user_ratings_total": 54}, "ChIJvYsqnxAQdkgRMR3GwL1QCJM": {"geometry": {"location": {"lat": 51.525692, "lng": -0.204133}, "viewport": {"northeast": {"lat": 51.52699888029149, "lng": -0.202850219708498}, "southwest": {"lat": 51.52430091970849, "lng": -0.205548180291502}}}, "name": "Freta Hair, Beauty & Cosmetics London", "place_id": "ChIJvYsqnxAQdkgRMR3GwL1QCJM", "types": ["beauty_salon", "point_of_interest", "establishment"], "rating": 5, "user_ratings_total": 1}, "ChIJkenjthwRdkgRhQ9kLoq4PU0": {"geometry": {"location": {"lat": 51.5256807, "lng": -0.204184}, "viewport": {"northeast": {"lat": 51.5269973302915, "lng": -0.202882469708498}, "southwest": {"lat": 51.5242993697085, "lng": -0.205580430291502}}}, "name": "freta hair and cosmetics", "place_id": "ChIJkenjthwRdkgRhQ9kLoq4PU0", "types": ["hair_care", "point_of_interest", "establishment"]}, "ChIJXaFRmhAQdkgRRRtmA2Thcpw": {"geometry": {"location": {"lat": 51.5258644, "lng": -0.2038051999999999}, "viewport": {"northeast": {"lat": 51.5272179802915, "lng": -0.2025280197084979}, "southwest": {"lat": 51.5245200197085, "lng": -0.205225980291502}}}, "name": "Alreem Beauty Salon", "place_id": "ChIJXaFRmhAQdkgRRRtmA2Thcpw", "types": ["beauty_salon", "point_of_interest", "establishment"]}, "ChIJ6e9aRFwRdkgRI9F8Ya_6J0A": {"geometry": {"location": {"lat": 51.5259874, "lng": -0.2048214999999999}, "viewport": {"northeast": {"lat": 51.52733413029151, "lng": -0.203448769708498}, "southwest": {"lat": 51.52463616970851, "lng": -0.206146730291502}}}, "name": "St Mungos", "place_id": "ChIJ6e9aRFwRdkgRI9F8Ya_6J0A", "types": ["lodging", "point_of_interest", "establishment"]}, "ChIJobyKkRAQdkgRPBtVzVPAtyo": {"geometry": {"location": {"lat": 51.5261563, "lng": -0.2036909}, "viewport": {"northeast": {"lat": 51.52751268029149, "lng": -0.202446719708498}, "southwest": {"lat": 51.5248147197085, "lng": -0.205144680291502}}}, "name": "DWL Barbados Villas", "place_id": "ChIJobyKkRAQdkgRPBtVzVPAtyo", "types": ["real_estate_agency", "travel_agency", "point_of_interest", "establishment"]}, "ChIJoRSldaMRdkgRU-t-4UYeuww": {"geometry": {"location": {"lat": 51.5260261, "lng": -0.20501}, "viewport": {"northeast": {"lat": 51.5273515802915, "lng": -0.203694169708498}, "southwest": {"lat": 51.5246536197085, "lng": -0.206392130291502}}}, "name": "deliciously sweets", "place_id": "ChIJoRSldaMRdkgRU-t-4UYeuww", "types": ["bakery", "food", "point_of_interest", "store", "establishment"]}, "ChIJAQmOSUsRdkgRYDevUqleB4M": {"geometry": {"location": {"lat": 51.5260261, "lng": -0.20501}, "viewport": {"northeast": {"lat": 51.52735123029149, "lng": -0.203694069708498}, "southwest": {"lat": 51.52465326970849, "lng": -0.206392030291502}}}, "name": "Adeeb Al-Khafaf", "place_id": "ChIJAQmOSUsRdkgRYDevUqleB4M", "types": ["point_of_interest", "establishment"]}, "ChIJ2bA-o3oRdkgR4B9NM-mFyd0": {"geometry": {"location": {"lat": 51.5260261, "lng": -0.20501}, "viewport": {"northeast": {"lat": 51.52735123029149, "lng": -0.203694069708498}, "southwest": {"lat": 51.52465326970849, "lng": -0.206392030291502}}}, "name": "Alpha Access Control - CCTV & Intercom Systems", "place_id": "ChIJ2bA-o3oRdkgR4B9NM-mFyd0", "types": ["point_of_interest", "establishment"]}, "ChIJzXq83LERdkgRsXlcz4VniPs": {"geometry": {"location": {"lat": 51.5260261, "lng": -0.20501}, "viewport": {"northeast": {"lat": 51.52735123029149, "lng": -0.203694069708498}, "southwest": {"lat": 51.52465326970849, "lng": -0.206392030291502}}}, "name": "Convertible CCTV & Intercom Systems", "place_id": "ChIJzXq83LERdkgRsXlcz4VniPs", "types": ["point_of_interest", "establishment"]}, "ChIJqc4AVAURdkgRcHbmLqsacw0": {"geometry": {"location": {"lat": 51.5260261, "lng": -0.20501}, "viewport": {"northeast": {"lat": 51.52735123029149, "lng": -0.203694069708498}, "southwest": {"lat": 51.52465326970849, "lng": -0.206392030291502}}}, "name": "Alpha Rooters & Heating", "place_id": "ChIJqc4AVAURdkgRcHbmLqsacw0", "types": ["plumber", "general_contractor", "point_of_interest", "establishment"]}, "ChIJEU8ur4kRdkgRtlU-3JFSXsM": {"geometry": {"location": {"lat": 51.5260261, "lng": -0.20501}, "viewport": {"northeast": {"lat": 51.52735123029149, "lng": -0.203694069708498}, "southwest": {"lat": 51.52465326970849, "lng": -0.206392030291502}}}, "name": "City Rooters & Heating", "place_id": "ChIJEU8ur4kRdkgRtlU-3JFSXsM", "types": ["plumber", "general_contractor", "point_of_interest", "establishment"]}, "ChIJVf1BASERdkgRp9hYc4rcvX0": {"geometry": {"location": {"lat": 51.5260261, "lng": -0.20501}, "viewport": {"northeast": {"lat": 51.52735123029149, "lng": -0.203694069708498}, "southwest": {"lat": 51.52465326970849, "lng": -0.206392030291502}}}, "name": "Frozone Rooters & Heating", "place_id": "ChIJVf1BASERdkgRp9hYc4rcvX0", "types": ["plumber", "general_contractor", "point_of_interest", "establishment"]}, "ChIJSZqpMVMRdkgRiT9dIY8Yigc": {"geometry": {"location": {"lat": 51.5260261, "lng": -0.20501}, "viewport": {"northeast": {"lat": 51.52735123029149, "lng": -0.203694069708498}, "southwest": {"lat": 51.52465326970849, "lng": -0.206392030291502}}}, "name": "MAX Plumbing Services", "place_id": "ChIJSZqpMVMRdkgRiT9dIY8Yigc", "types": ["plumber", "point_of_interest", "establishment"]}, "ChIJ-8KxuhAQdkgR2rzzZ4i6pwo": {"geometry": {"location": {"lat": 51.5260261, "lng": -0.20501}, "viewport": {"northeast": {"lat": 51.52735123029149, "lng": -0.203694069708498}, "southwest": {"lat": 51.52465326970849, "lng": -0.206392030291502}}}, "name": "WOLLATON PARK MEN\u2019S PROBUS CLUB", "place_id": "ChIJ-8KxuhAQdkgR2rzzZ4i6pwo", "types": ["point_of_interest", "establishment"]}, "ChIJi06JrYQRdkgRpXnHhBA_SAQ": {"geometry": {"location": {"lat": 51.5260286, "lng": -0.2050146}, "viewport": {"northeast": {"lat": 51.5273534302915, "lng": -0.203698269708498}, "southwest": {"lat": 51.5246554697085, "lng": -0.206396230291502}}}, "name": "Professional \u0420lumbing S\u0435rv\u0456\u0441\u0435", "place_id": "ChIJi06JrYQRdkgRpXnHhBA_SAQ", "types": ["plumber", "point_of_interest", "establishment"]}, "ChIJyTCrJoERdkgRa0uBWK4sxdg": {"geometry": {"location": {"lat": 51.5261734, "lng": -0.2049684}, "viewport": {"northeast": {"lat": 51.52750058029149, "lng": -0.203537969708498}, "southwest": {"lat": 51.5248026197085, "lng": -0.206235930291502}}}, "name": "Neat Construction Ltd", "place_id": "ChIJyTCrJoERdkgRa0uBWK4sxdg", "types": ["general_contractor", "point_of_interest", "establishment"], "rating": 5, "user_ratings_total": 1}, "ChIJobyKkRAQdkgRYrw0fjyUUFA": {"geometry": {"location": {"lat": 51.52553, "lng": -0.2038844}, "viewport": {"northeast": {"lat": 51.52690778029149, "lng": -0.202591419708498}, "southwest": {"lat": 51.5242098197085, "lng": -0.205289380291502}}}, "name": "Allnations", "place_id": "ChIJobyKkRAQdkgRYrw0fjyUUFA", "types": ["grocery_or_supermarket", "food", "point_of_interest", "store", "establishment"], "rating": 4.6, "user_ratings_total": 9}, "ChIJq20Yp9ERdkgRMZnNDWzistY": {"geometry": {"location": {"lat": 51.5255204, "lng": -0.2037977}, "viewport": {"northeast": {"lat": 51.5268217802915, "lng": -0.202529569708498}, "southwest": {"lat": 51.5241238197085, "lng": -0.205227530291502}}}, "name": "Amigos Burgers & Shakes Harrow Road", "place_id": "ChIJq20Yp9ERdkgRMZnNDWzistY", "types": ["restaurant", "food", "point_of_interest", "establishment"], "rating": 4, "user_ratings_total": 134}, "ChIJj3iAsBAQdkgRBX268SFv-h8": {"geometry": {"location": {"lat": 51.52619979999999, "lng": -0.2050533}, "viewport": {"northeast": {"lat": 51.52749898029149, "lng": -0.203756519708498}, "southwest": {"lat": 51.5248010197085, "lng": -0.206454480291502}}}, "name": "HR Dry Cleaners London", "place_id": "ChIJj3iAsBAQdkgRBX268SFv-h8", "types": ["laundry", "point_of_interest", "establishment"], "rating": 4.2, "user_ratings_total": 17}, "ChIJZ_tirhAQdkgRZSMySjeTc5U": {"geometry": {"location": {"lat": 51.52581439999999, "lng": -0.2054032}, "viewport": {"northeast": {"lat": 51.52719291284051, "lng": -0.2040223518670655}, "southwest": {"lat": 51.52449495225751, "lng": -0.2067203124500695}}}, "name": "Parking lot", "place_id": "ChIJZ_tirhAQdkgRZSMySjeTc5U", "types": ["parking", "premise", "point_of_interest", "establishment"]}, "ChIJE56veRoQdkgR0vRPCzSmFIw": {"geometry": {"location": {"lat": 51.52524864988499, "lng": -0.2036385729436018}, "viewport": {"northeast": {"lat": 51.52659753029151, "lng": -0.202289719708498}, "southwest": {"lat": 51.52389956970851, "lng": -0.204987680291502}}}, "name": "528-526 Harrow Rd", "place_id": "ChIJE56veRoQdkgR0vRPCzSmFIw", "types": ["route"]}, "ChIJzwo7dRoQdkgR7OztQzsN65A": {"geometry": {"location": {"lat": 51.5251629, "lng": -0.2042839}, "viewport": {"northeast": {"lat": 51.5265391302915, "lng": -0.202987769708498}, "southwest": {"lat": 51.5238411697085, "lng": -0.205685730291502}}}, "name": "Bradman", "place_id": "ChIJzwo7dRoQdkgR7OztQzsN65A", "types": ["car_repair", "point_of_interest", "establishment"], "rating": 4, "user_ratings_total": 2}, "ChIJE8OMdhoQdkgRc8cim6bW1Gw": {"geometry": {"location": {"lat": 51.525192, "lng": -0.2037751}, "viewport": {"northeast": {"lat": 51.5265809302915, "lng": -0.202382269708498}, "southwest": {"lat": 51.5238829697085, "lng": -0.205080230291502}}}, "name": "Bangladesh Caterers Association - UK", "place_id": "ChIJE8OMdhoQdkgRc8cim6bW1Gw", "types": ["restaurant", "food", "point_of_interest", "establishment"], "rating": 3.8, "user_ratings_total": 6}, "ChIJKysenhAQdkgRKvjRFOdeISY": {"geometry": {"location": {"lat": 51.5253394, "lng": -0.204036}, "viewport": {"northeast": {"lat": 51.5267239802915, "lng": -0.202635669708498}, "southwest": {"lat": 51.5240260197085, "lng": -0.205333630291502}}}, "name": "Pindi's Corner", "place_id": "ChIJKysenhAQdkgRKvjRFOdeISY", "types": ["home_goods_store", "general_contractor", "point_of_interest", "store", "establishment"], "rating": 5, "user_ratings_total": 14}, "ChIJr6vKexoQdkgR9CB0eGqMmwA": {"geometry": {"location": {"lat": 51.524916, "lng": -0.2034891}, "viewport": {"northeast": {"lat": 51.52634218029149, "lng": -0.202037569708498}, "southwest": {"lat": 51.52364421970849, "lng": -0.204735530291502}}}, "name": "Emmanuel Parish Church", "place_id": "ChIJr6vKexoQdkgR9CB0eGqMmwA", "types": ["church", "place_of_worship", "point_of_interest", "establishment"], "rating": 5, "user_ratings_total": 1}, "ChIJEcOMdhoQdkgRqjOQFgvZD1s": {"geometry": {"location": {"lat": 51.5250314, "lng": -0.2034797}, "viewport": {"northeast": {"lat": 51.5264220802915, "lng": -0.202076719708498}, "southwest": {"lat": 51.5237241197085, "lng": -0.2047746802915021}}}, "name": "Scrivens Opticians & Hearing Care", "place_id": "ChIJEcOMdhoQdkgRqjOQFgvZD1s", "types": ["doctor", "health", "point_of_interest", "store", "establishment"], "rating": 3.6, "user_ratings_total": 17}, "ChIJE8OMdhoQdkgRBVGoN7IovvU": {"geometry": {"location": {"lat": 51.5252552, "lng": -0.2039756}, "viewport": {"northeast": {"lat": 51.52664968029149, "lng": -0.202547869708498}, "southwest": {"lat": 51.5239517197085, "lng": -0.205245830291502}}}, "name": "Crystal Fish Bar And Kebabs", "place_id": "ChIJE8OMdhoQdkgRBVGoN7IovvU", "types": ["restaurant", "meal_takeaway", "food", "point_of_interest", "establishment"], "rating": 3.1, "user_ratings_total": 70}, "ChIJv0aoCxoQdkgRjQV0YuFSVfQ": {"geometry": {"location": {"lat": 51.52514499999999, "lng": -0.2045075}, "viewport": {"northeast": {"lat": 51.5265047802915, "lng": -0.203178969708498}, "southwest": {"lat": 51.5238068197085, "lng": -0.205876930291502}}}, "name": "Zipcar", "place_id": "ChIJv0aoCxoQdkgRjQV0YuFSVfQ", "types": ["car_rental", "point_of_interest", "establishment"], "rating": 3.5, "user_ratings_total": 4}, "ChIJR87kcRoQdkgRpurbhu2teaY": {"geometry": {"location": {"lat": 51.5247577, "lng": -0.2038167}, "viewport": {"northeast": {"lat": 51.5260534802915, "lng": -0.202540269708498}, "southwest": {"lat": 51.5233555197085, "lng": -0.205238230291502}}}, "name": "Speedy Same Day Courier", "place_id": "ChIJR87kcRoQdkgRpurbhu2teaY", "types": ["point_of_interest", "establishment"]}, "ChIJCUdOdRoQdkgR6rFAY1eIIv0": {"geometry": {"location": {"lat": 51.5252317, "lng": -0.2041593}, "viewport": {"northeast": {"lat": 51.5266129802915, "lng": -0.202872969708498}, "southwest": {"lat": 51.5239150197085, "lng": -0.205570930291502}}}, "name": "ABSOLUTE ENGLISH UK", "place_id": "ChIJCUdOdRoQdkgR6rFAY1eIIv0", "types": ["point_of_interest", "establishment"]}, "ChIJ38oCdxoQdkgRgfnRVR40-3E": {"geometry": {"location": {"lat": 51.5251399, "lng": -0.2037576}, "viewport": {"northeast": {"lat": 51.5265399302915, "lng": -0.202342469708498}, "southwest": {"lat": 51.5238419697085, "lng": -0.205040430291502}}}, "name": "The Pound Superstore", "place_id": "ChIJ38oCdxoQdkgRgfnRVR40-3E", "types": ["store", "point_of_interest", "establishment"]}, "ChIJX6BRzBsRdkgRR_hPW3qUYy8": {"geometry": {"location": {"lat": 51.525099, "lng": -0.2036883}, "viewport": {"northeast": {"lat": 51.5265009302915, "lng": -0.2022707697084979}, "southwest": {"lat": 51.5238029697085, "lng": -0.204968730291502}}}, "name": "The Web Masterminds", "place_id": "ChIJX6BRzBsRdkgRR_hPW3qUYy8", "types": ["point_of_interest", "establishment"]}, "ChIJbyc7aRwRdkgRZCP8lqsdN3I": {"geometry": {"location": {"lat": 51.525099, "lng": -0.2036883}, "viewport": {"northeast": {"lat": 51.5265009302915, "lng": -0.2022707697084979}, "southwest": {"lat": 51.5238029697085, "lng": -0.204968730291502}}}, "name": "Sam Removals Maida Vale - Van Removals - Man With A Van Near Me, Man And Van London", "place_id": "ChIJbyc7aRwRdkgRZCP8lqsdN3I", "types": ["moving_company", "storage", "point_of_interest", "establishment"]}, "ChIJSbT4dRoQdkgR4YTvTug-D5c": {"geometry": {"location": {"lat": 51.525285, "lng": -0.2040499}, "viewport": {"northeast": {"lat": 51.5266802802915, "lng": -0.202613119708498}, "southwest": {"lat": 51.5239823197085, "lng": -0.205311080291502}}}, "name": "Morgans News Food & Wine", "place_id": "ChIJSbT4dRoQdkgR4YTvTug-D5c", "types": ["point_of_interest", "store", "establishment"]}, "ChIJc51BdhoQdkgRXPX8Bwdixxs": {"geometry": {"location": {"lat": 51.5252452, "lng": -0.2038457}, "viewport": {"northeast": {"lat": 51.52662438029149, "lng": -0.202451519708498}, "southwest": {"lat": 51.5239264197085, "lng": -0.205149480291502}}}, "name": "Four O Five", "place_id": "ChIJc51BdhoQdkgRXPX8Bwdixxs", "types": ["cafe", "food", "point_of_interest", "establishment"], "rating": 3.6, "user_ratings_total": 8}, "ChIJ52T8dRoQdkgRYumOZKfDOMs": {"geometry": {"location": {"lat": 51.52530959999999, "lng": -0.2039843}, "viewport": {"northeast": {"lat": 51.52669303029149, "lng": -0.202583769708498}, "southwest": {"lat": 51.52399506970849, "lng": -0.205281730291502}}}, "name": "Morgans News", "place_id": "ChIJ52T8dRoQdkgRYumOZKfDOMs", "types": ["store", "point_of_interest", "establishment"]}, "ChIJ8wpydxoQdkgRdg93jyUnC4Q": {"geometry": {"location": {"lat": 51.52514009999999, "lng": -0.2036542}, "viewport": {"northeast": {"lat": 51.52652473029148, "lng": -0.2022602197084979}, "southwest": {"lat": 51.52382676970849, "lng": -0.204958180291502}}}, "name": "X Plus Gadget & Accessories", "place_id": "ChIJ8wpydxoQdkgRdg93jyUnC4Q", "types": ["point_of_interest", "store", "establishment"], "rating": 5, "user_ratings_total": 1}, "ChIJB9GEdxoQdkgRGvXqlDws0KI": {"geometry": {"location": {"lat": 51.52510179999999, "lng": -0.2036021}, "viewport": {"northeast": {"lat": 51.5264897802915, "lng": -0.202202669708498}, "southwest": {"lat": 51.5237918197085, "lng": -0.204900630291502}}}, "name": "Lane's Jewellers", "place_id": "ChIJB9GEdxoQdkgRGvXqlDws0KI", "types": ["jewelry_store", "point_of_interest", "store", "establishment"], "rating": 4.3, "user_ratings_total": 12}, "ChIJEcOMdhoQdkgRpMTawmm_Xpk": {"geometry": {"location": {"lat": 51.5249963, "lng": -0.2035098}, "viewport": {"northeast": {"lat": 51.52639643029149, "lng": -0.202075569708498}, "southwest": {"lat": 51.52369846970849, "lng": -0.204773530291502}}}, "name": "The Hearing Co", "place_id": "ChIJEcOMdhoQdkgRpMTawmm_Xpk", "types": ["health", "point_of_interest", "store", "establishment"]}, "ChIJE8OMdhoQdkgRzUmGA9mcsbA": {"geometry": {"location": {"lat": 51.525066, "lng": -0.2035361}, "viewport": {"northeast": {"lat": 51.52645273029149, "lng": -0.202131519708498}, "southwest": {"lat": 51.52375476970849, "lng": -0.204829480291502}}}, "name": "Angel Nails", "place_id": "ChIJE8OMdhoQdkgRzUmGA9mcsbA", "types": ["beauty_salon", "point_of_interest", "establishment"], "rating": 3.9, "user_ratings_total": 48}, "ChIJDzZc0hAQdkgRIqkHQ4kzZRU": {"geometry": {"location": {"lat": 51.52737492163524, "lng": -0.2055794333271092}, "viewport": {"northeast": {"lat": 51.52872388029149, "lng": -0.2042302697084979}, "southwest": {"lat": 51.5260259197085, "lng": -0.206928230291502}}}, "name": "3-65 First Ave", "place_id": "ChIJDzZc0hAQdkgRIqkHQ4kzZRU", "types": ["route"]}, "ChIJrxQUB0QRdkgR4UDz45yiy4A": {"geometry": {"location": {"lat": 51.526899, "lng": -0.205939}, "viewport": {"northeast": {"lat": 51.5282102802915, "lng": -0.204599869708498}, "southwest": {"lat": 51.5255123197085, "lng": -0.2072978302915021}}}, "name": "LMD technology", "place_id": "ChIJrxQUB0QRdkgR4UDz45yiy4A", "types": ["point_of_interest", "establishment"]}, "ChIJPYwuMRcQdkgR9oF-hq5TNlQ": {"geometry": {"location": {"lat": 51.527008, "lng": -0.206323}, "viewport": {"northeast": {"lat": 51.5283592802915, "lng": -0.204996369708498}, "southwest": {"lat": 51.5256613197085, "lng": -0.2076943302915021}}}, "name": "ubitricity Charging Station", "place_id": "ChIJPYwuMRcQdkgR9oF-hq5TNlQ", "types": ["point_of_interest", "establishment"]}, "ChIJIawTNxcQdkgRO00B-u2JYiQ": {"geometry": {"location": {"lat": 51.52687150000001, "lng": -0.2064334}, "viewport": {"northeast": {"lat": 51.52822048029151, "lng": -0.205084419708498}, "southwest": {"lat": 51.52552251970851, "lng": -0.207782380291502}}}, "name": "Aliza Solutions", "place_id": "ChIJIawTNxcQdkgRO00B-u2JYiQ", "types": ["point_of_interest", "establishment"], "rating": 5, "user_ratings_total": 1}, "ChIJNfZSzBAQdkgRFkL_y5TA6rc": {"geometry": {"location": {"lat": 51.52713900000001, "lng": -0.2055819}, "viewport": {"northeast": {"lat": 51.5284888802915, "lng": -0.2042418197084979}, "southwest": {"lat": 51.5257909197085, "lng": -0.206939780291502}}}, "name": "ubitricity Charging Station", "place_id": "ChIJNfZSzBAQdkgRFkL_y5TA6rc", "types": ["point_of_interest", "establishment"]}, "ChIJZ69GLhcQdkgRk9Fk_OFAVqQ": {"geometry": {"location": {"lat": 51.5273898, "lng": -0.206168}, "viewport": {"northeast": {"lat": 51.52874518029149, "lng": -0.204881419708498}, "southwest": {"lat": 51.5260472197085, "lng": -0.207579380291502}}}, "name": "Franca By Londra", "place_id": "ChIJZ69GLhcQdkgRk9Fk_OFAVqQ", "types": ["lodging", "point_of_interest", "establishment"]}, "ChIJtXt0SxcQdkgR9xiUTZEeMkA": {"geometry": {"location": {"lat": 51.5264712, "lng": -0.2059246}, "viewport": {"northeast": {"lat": 51.5278148802915, "lng": -0.204525569708498}, "southwest": {"lat": 51.52511691970851, "lng": -0.2072235302915021}}}, "name": "Home Fashion", "place_id": "ChIJtXt0SxcQdkgR9xiUTZEeMkA", "types": ["clothing_store", "point_of_interest", "store", "establishment"], "rating": 5, "user_ratings_total": 1}, "ChIJnXULsxAQdkgRcgkwYr8woE0": {"geometry": {"location": {"lat": 51.52624613931951, "lng": -0.2056219034704474}, "viewport": {"northeast": {"lat": 51.52758378029149, "lng": -0.204278969708498}, "southwest": {"lat": 51.52488581970849, "lng": -0.206976930291502}}}, "name": "423-425 Harrow Rd", "place_id": "ChIJnXULsxAQdkgRcgkwYr8woE0", "types": ["route"]}, "ChIJuYEjRxcQdkgR3Vv22NWQZs0": {"geometry": {"location": {"lat": 51.5263851, "lng": -0.2056201}, "viewport": {"northeast": {"lat": 51.5276658302915, "lng": -0.204263269708498}, "southwest": {"lat": 51.5249678697085, "lng": -0.206961230291502}}}, "name": "All Stars Boxing Gym", "place_id": "ChIJuYEjRxcQdkgR3Vv22NWQZs0", "types": ["gym", "health", "point_of_interest", "establishment"], "rating": 4.4, "user_ratings_total": 95}, "ChIJ0aOzThcQdkgRx3yGrU0sU6Y": {"geometry": {"location": {"lat": 51.5262602, "lng": -0.2062512}, "viewport": {"northeast": {"lat": 51.52764258029149, "lng": -0.204892869708498}, "southwest": {"lat": 51.52494461970849, "lng": -0.207590830291502}}}, "name": "Dr N Frazer - Half Penny Steps Health Centre", "place_id": "ChIJ0aOzThcQdkgRx3yGrU0sU6Y", "types": ["doctor", "health", "point_of_interest", "establishment"]}, "ChIJRVRSgxcQdkgRm6NUeBCStk0": {"geometry": {"location": {"lat": 51.5254684, "lng": -0.2059139}, "viewport": {"northeast": {"lat": 51.52672088029151, "lng": -0.204702419708498}, "southwest": {"lat": 51.52402291970851, "lng": -0.207400380291502}}}, "name": "Metronomes Steel Orchestra", "place_id": "ChIJRVRSgxcQdkgRm6NUeBCStk0", "types": ["point_of_interest", "establishment"]}, "ChIJm6my1MsRdkgRTJVAnRrRByY": {"geometry": {"location": {"lat": 51.52641619999999, "lng": -0.20608}, "viewport": {"northeast": {"lat": 51.52771378029149, "lng": -0.2047469197084979}, "southwest": {"lat": 51.5250158197085, "lng": -0.207444880291502}}}, "name": "IZABEL HAIR & BEAUTY", "place_id": "ChIJm6my1MsRdkgRTJVAnRrRByY", "types": ["beauty_salon", "hair_care", "point_of_interest", "establishment"], "rating": 4.6, "user_ratings_total": 34}, "ChIJc33NvRcQdkgRi4pQJHa7yew": {"geometry": {"location": {"lat": 51.5262129, "lng": -0.2059528}, "viewport": {"northeast": {"lat": 51.52760118029151, "lng": -0.204591669708498}, "southwest": {"lat": 51.52490321970851, "lng": -0.207289630291502}}}, "name": "Half Penny Steps Health Centre", "place_id": "ChIJc33NvRcQdkgRi4pQJHa7yew", "types": ["doctor", "health", "point_of_interest", "establishment"], "rating": 3.8, "user_ratings_total": 189}, "ChIJDw4orRAQdkgR7M6RwKrHKzc": {"geometry": {"location": {"lat": 51.5258381, "lng": -0.2057512}, "viewport": {"northeast": {"lat": 51.5272331302915, "lng": -0.204314269708498}, "southwest": {"lat": 51.5245351697085, "lng": -0.207012230291502}}}, "name": "Hazel Bryer", "place_id": "ChIJDw4orRAQdkgR7M6RwKrHKzc", "types": ["painter", "point_of_interest", "establishment"]}, "ChIJk8JEThcQdkgRS9igziwlnGU": {"geometry": {"location": {"lat": 51.5261161, "lng": -0.2062882}, "viewport": {"northeast": {"lat": 51.5275703302915, "lng": -0.204909919708498}, "southwest": {"lat": 51.5248723697085, "lng": -0.207607880291502}}}, "name": "REMY HAIR CLUB", "place_id": "ChIJk8JEThcQdkgRS9igziwlnGU", "types": ["point_of_interest", "establishment"]}, "ChIJVVXprBAQdkgRQK_-_9B20Ik": {"geometry": {"location": {"lat": 51.5257729, "lng": -0.2056791}, "viewport": {"northeast": {"lat": 51.5271703802915, "lng": -0.204237469708498}, "southwest": {"lat": 51.5244724197085, "lng": -0.206935430291502}}}, "name": "Blackstocke", "place_id": "ChIJVVXprBAQdkgRQK_-_9B20Ik", "types": ["finance", "point_of_interest", "establishment"]}, "ChIJG-3wshAQdkgRNQXqFJ8-Pbg": {"geometry": {"location": {"lat": 51.5261165, "lng": -0.2056436}, "viewport": {"northeast": {"lat": 51.5273994802915, "lng": -0.2042609697084979}, "southwest": {"lat": 51.5247015197085, "lng": -0.206958930291502}}}, "name": "Gallery Shop", "place_id": "ChIJG-3wshAQdkgRNQXqFJ8-Pbg", "types": ["clothing_store", "point_of_interest", "store", "establishment"]}, "ChIJq6pushAQdkgRgJEcat961K0": {"geometry": {"location": {"lat": 51.5260606, "lng": -0.2055431}, "viewport": {"northeast": {"lat": 51.5273715302915, "lng": -0.204246919708498}, "southwest": {"lat": 51.5246735697085, "lng": -0.206944880291502}}}, "name": "Cromwell Plumbing Ltd", "place_id": "ChIJq6pushAQdkgRgJEcat961K0", "types": ["point_of_interest", "store", "establishment"]}, "ChIJB9Up9GgRdkgRwg9UVAfIyvw": {"geometry": {"location": {"lat": 51.52624409999999, "lng": -0.2062632}, "viewport": {"northeast": {"lat": 51.52763488029149, "lng": -0.204902569708498}, "southwest": {"lat": 51.52493691970849, "lng": -0.207600530291502}}}, "name": "Half Penny Steps", "place_id": "ChIJB9Up9GgRdkgRwg9UVAfIyvw", "types": ["point_of_interest", "establishment"], "rating": 5, "user_ratings_total": 1}, "ChIJBQ5b-qoRdkgR4MjB0-duoAQ": {"geometry": {"location": {"lat": 51.52600770000001, "lng": -0.2053286}, "viewport": {"northeast": {"lat": 51.52741348029151, "lng": -0.203920069708498}, "southwest": {"lat": 51.52471551970851, "lng": -0.206618030291502}}}, "name": "russells wharf", "place_id": "ChIJBQ5b-qoRdkgR4MjB0-duoAQ", "types": ["point_of_interest", "establishment"], "rating": 4, "user_ratings_total": 1}, "ChIJ7yqT_2gRdkgRGkMJoIS6ty4": {"geometry": {"location": {"lat": 51.52603910000001, "lng": -0.205311}, "viewport": {"northeast": {"lat": 51.5274313302915, "lng": -0.203916669708498}, "southwest": {"lat": 51.52473336970851, "lng": -0.2066146302915021}}}, "name": "Cashpoint", "place_id": "ChIJ7yqT_2gRdkgRGkMJoIS6ty4", "types": ["atm", "finance", "point_of_interest", "establishment"], "rating": 3, "user_ratings_total": 2}, "ChIJWY2fSxcQdkgRUKpPkvlNIMw": {"geometry": {"location": {"lat": 51.5264046, "lng": -0.2059407}, "viewport": {"northeast": {"lat": 51.52769973029149, "lng": -0.204608369708498}, "southwest": {"lat": 51.5250017697085, "lng": -0.207306330291502}}}, "name": "Furniture Mart", "place_id": "ChIJWY2fSxcQdkgRUKpPkvlNIMw", "types": ["furniture_store", "home_goods_store", "point_of_interest", "store", "establishment"], "rating": 4, "user_ratings_total": 4}, "ChIJXWlQLYERdkgRy0YQvtPIqUM": {"geometry": {"location": {"lat": 51.5255258, "lng": -0.2056648}, "viewport": {"northeast": {"lat": 51.5270059802915, "lng": -0.204160669708498}, "southwest": {"lat": 51.5243080197085, "lng": -0.206858630291502}}}, "name": "Unidays", "place_id": "ChIJXWlQLYERdkgRy0YQvtPIqUM", "types": ["point_of_interest", "store", "establishment"]}, "ChIJSw_kw7ARdkgRlHlZCB4wTyw": {"geometry": {"location": {"lat": 51.5264081, "lng": -0.206045}, "viewport": {"northeast": {"lat": 51.5277075802915, "lng": -0.204711319708498}, "southwest": {"lat": 51.5250096197085, "lng": -0.207409280291502}}}, "name": "Brazilian Hairdresser - Extensions, Stylists & Colourists", "place_id": "ChIJSw_kw7ARdkgRlHlZCB4wTyw", "types": ["beauty_salon", "hair_care", "point_of_interest", "establishment"]}, "ChIJjdNRTRcQdkgRGhm8Q_eUj6k": {"geometry": {"location": {"lat": 51.52633740000001, "lng": -0.2055721}, "viewport": {"northeast": {"lat": 51.52764098029152, "lng": -0.204249069708498}, "southwest": {"lat": 51.52494301970852, "lng": -0.206947030291502}}}, "name": "W10 4RE", "place_id": "ChIJjdNRTRcQdkgRGhm8Q_eUj6k", "types": ["art_gallery", "point_of_interest", "establishment"]}, "ChIJWY2fSxcQdkgReF8Zq_h01N4": {"geometry": {"location": {"lat": 51.52642160000001, "lng": -0.2059465}, "viewport": {"northeast": {"lat": 51.52770888029151, "lng": -0.204616619708498}, "southwest": {"lat": 51.52501091970851, "lng": -0.207314580291502}}}, "name": "Tony Auto Care", "place_id": "ChIJWY2fSxcQdkgReF8Zq_h01N4", "types": ["car_repair", "point_of_interest", "establishment"]}, "ChIJrS7lM2wRdkgRPrUIyO-wydA": {"geometry": {"location": {"lat": 51.525451, "lng": -0.2059205}, "viewport": {"northeast": {"lat": 51.52679998029149, "lng": -0.204571519708498}, "southwest": {"lat": 51.5241020197085, "lng": -0.207269480291502}}}, "name": "Meanwhile Gardens Factory Building", "place_id": "ChIJrS7lM2wRdkgRPrUIyO-wydA", "types": ["cafe", "food", "point_of_interest", "establishment"]}, "ChIJra47SRcQdkgR6N7UPBuYbEU": {"geometry": {"location": {"lat": 51.52641079999999, "lng": -0.2062039}, "viewport": {"northeast": {"lat": 51.5277151302915, "lng": -0.204833719708498}, "southwest": {"lat": 51.5250171697085, "lng": -0.207531680291502}}}, "name": "Al Manzil Furniture & Carpet", "place_id": "ChIJra47SRcQdkgR6N7UPBuYbEU", "types": ["furniture_store", "home_goods_store", "point_of_interest", "store", "establishment"], "rating": 3.8, "user_ratings_total": 17}, "ChIJP6cerSERdkgRLDxTUOIevRo": {"geometry": {"location": {"lat": 51.5261873, "lng": -0.2052772}, "viewport": {"northeast": {"lat": 51.5275340302915, "lng": -0.203930369708498}, "southwest": {"lat": 51.5248360697085, "lng": -0.206628330291502}}}, "name": "Rebel Studio", "place_id": "ChIJP6cerSERdkgRLDxTUOIevRo", "types": ["point_of_interest", "establishment"]}, "ChIJTS8eSRcQdkgR7EiS2VYiiNY": {"geometry": {"location": {"lat": 51.5264209, "lng": -0.2063499}, "viewport": {"northeast": {"lat": 51.5277303802915, "lng": -0.205011919708498}, "southwest": {"lat": 51.5250324197085, "lng": -0.207709880291502}}}, "name": "Bismillah Halal Bazar", "place_id": "ChIJTS8eSRcQdkgR7EiS2VYiiNY", "types": ["point_of_interest", "establishment"]}, "ChIJ9eY4sRAQdkgRRE5pmX7flo8": {"geometry": {"location": {"lat": 51.5262724, "lng": -0.2053281}, "viewport": {"northeast": {"lat": 51.5275784802915, "lng": -0.204010019708498}, "southwest": {"lat": 51.5248805197085, "lng": -0.206707980291502}}}, "name": "Nhs", "place_id": "ChIJ9eY4sRAQdkgRRE5pmX7flo8", "types": ["point_of_interest", "establishment"]}, "ChIJ1Rc8sRAQdkgR0TXYly0q6_A": {"geometry": {"location": {"lat": 51.52626129999999, "lng": -0.2053108}, "viewport": {"northeast": {"lat": 51.5275764302915, "lng": -0.204005969708498}, "southwest": {"lat": 51.5248784697085, "lng": -0.206703930291502}}}, "name": "Nhs Pharmacy", "place_id": "ChIJ1Rc8sRAQdkgR0TXYly0q6_A", "types": ["pharmacy", "health", "point_of_interest", "store", "establishment"], "rating": 5, "user_ratings_total": 1}, "ChIJo_XlHBoQdkgRu0r_xwb071A": {"geometry": {"location": {"lat": 51.52485750900653, "lng": -0.2057444079009596}, "viewport": {"northeast": {"lat": 51.52620638029151, "lng": -0.204395819708498}, "southwest": {"lat": 51.52350841970851, "lng": -0.207093780291502}}}, "name": "105-109 Kensal Rd", "place_id": "ChIJo_XlHBoQdkgRu0r_xwb071A", "types": ["route"]}, "ChIJlbrAmxcQdkgRTPDdB5Gm4w8": {"geometry": {"location": {"lat": 51.524779, "lng": -0.205468}, "viewport": {"northeast": {"lat": 51.52610268029151, "lng": -0.204211669708498}, "southwest": {"lat": 51.52340471970851, "lng": -0.206909630291502}}}, "name": "Kensington & Chelsea Mind Skills Development Service at Meanwhile Wildlife Gardens", "place_id": "ChIJlbrAmxcQdkgRTPDdB5Gm4w8", "types": ["veterinary_care", "point_of_interest", "establishment"], "rating": 4, "user_ratings_total": 2}, "ChIJ_dx3ax8QdkgRYiq_pk4vz5Y": {"geometry": {"location": {"lat": 51.52465890000001, "lng": -0.2054288}, "viewport": {"northeast": {"lat": 51.5259873802915, "lng": -0.204152969708498}, "southwest": {"lat": 51.5232894197085, "lng": -0.206850930291502}}}, "name": "Meanwhile Gardens", "place_id": "ChIJ_dx3ax8QdkgRYiq_pk4vz5Y", "types": ["park", "point_of_interest", "establishment"], "rating": 4.5, "user_ratings_total": 38}, "ChIJSejwbBcQdkgRv-JeLjXbRN4": {"geometry": {"location": {"lat": 51.5265140001284, "lng": -0.2077710999076259}, "viewport": {"northeast": {"lat": 51.5278629802915, "lng": -0.2064221197084979}, "southwest": {"lat": 51.5251650197085, "lng": -0.209120080291502}}}, "name": "435-441 Harrow Rd", "place_id": "ChIJSejwbBcQdkgRv-JeLjXbRN4", "types": ["route"]}, "ChIJS4Y1GxcQdkgRyUbki-KiRx4": {"geometry": {"location": {"lat": 51.5270216, "lng": -0.2079671}, "viewport": {"northeast": {"lat": 51.52845878029149, "lng": -0.206597769708498}, "southwest": {"lat": 51.52576081970849, "lng": -0.209295730291502}}}, "name": "Avenues Radio", "place_id": "ChIJS4Y1GxcQdkgRyUbki-KiRx4", "types": ["point_of_interest", "establishment"]}, "ChIJS4Y1GxcQdkgRy5ewR-8Gg0E": {"geometry": {"location": {"lat": 51.5270216, "lng": -0.2079671}, "viewport": {"northeast": {"lat": 51.52845878029149, "lng": -0.206597769708498}, "southwest": {"lat": 51.52576081970849, "lng": -0.209295730291502}}}, "name": "Newtek Digital", "place_id": "ChIJS4Y1GxcQdkgRy5ewR-8Gg0E", "types": ["point_of_interest", "establishment"]}, "ChIJd3AQuyUOdkgRzUhfWX0P60Q": {"geometry": {"location": {"lat": 51.52710310000001, "lng": -0.2079325}, "viewport": {"northeast": {"lat": 51.5284989302915, "lng": -0.206591619708498}, "southwest": {"lat": 51.5258009697085, "lng": -0.209289580291502}}}, "name": "The Avenues Youth Project", "place_id": "ChIJd3AQuyUOdkgRzUhfWX0P60Q", "types": ["point_of_interest", "establishment"], "rating": 4.5, "user_ratings_total": 42}, "ChIJA9PHERcQdkgR3YI6hnJ4le8": {"geometry": {"location": {"lat": 51.5271019, "lng": -0.2079326}, "viewport": {"northeast": {"lat": 51.5285010802915, "lng": -0.206605819708498}, "southwest": {"lat": 51.5258031197085, "lng": -0.209303780291502}}}, "name": "New Avenues", "place_id": "ChIJA9PHERcQdkgR3YI6hnJ4le8", "types": ["point_of_interest", "establishment"], "rating": 4, "user_ratings_total": 1}, "ChIJp8pdpuERdkgRwz8QEun11Bw": {"geometry": {"location": {"lat": 51.5267239, "lng": -0.2081039}, "viewport": {"northeast": {"lat": 51.52806208029151, "lng": -0.206652969708498}, "southwest": {"lat": 51.52536411970851, "lng": -0.209350930291502}}}, "name": "Kingdom Hall of Jehovah's Witnesses", "place_id": "ChIJp8pdpuERdkgRwz8QEun11Bw", "types": ["place_of_worship", "point_of_interest", "establishment"], "rating": 5, "user_ratings_total": 5}, "ChIJAQDUbBcQdkgRxWxZgbv-muQ": {"geometry": {"location": {"lat": 51.5266317, "lng": -0.2078031}, "viewport": {"northeast": {"lat": 51.52792678029149, "lng": -0.206473519708498}, "southwest": {"lat": 51.5252288197085, "lng": -0.209171480291502}}}, "name": "In House Property Services Limited", "place_id": "ChIJAQDUbBcQdkgRxWxZgbv-muQ", "types": ["point_of_interest", "establishment"]}, "ChIJZfiubBcQdkgRYBGNfttNfI8": {"geometry": {"location": {"lat": 51.5266159, "lng": -0.2076536999999999}, "viewport": {"northeast": {"lat": 51.5279107302915, "lng": -0.2063406197084979}, "southwest": {"lat": 51.5252127697085, "lng": -0.209038580291502}}}, "name": "DJ's Caribbean Cuisine", "place_id": "ChIJZfiubBcQdkgRYBGNfttNfI8", "types": ["restaurant", "food", "point_of_interest", "establishment"], "rating": 4.2, "user_ratings_total": 84}, "ChIJUQ_I_fURdkgRotumyJuC8ok": {"geometry": {"location": {"lat": 51.5266099, "lng": -0.2076479}, "viewport": {"northeast": {"lat": 51.52790503029149, "lng": -0.206318269708498}, "southwest": {"lat": 51.52520706970849, "lng": -0.209016230291502}}}, "name": "cola cola eark shop", "place_id": "ChIJUQ_I_fURdkgRotumyJuC8ok", "types": ["shopping_mall", "point_of_interest", "establishment"], "rating": 5, "user_ratings_total": 1}, "ChIJIcRiaqIRdkgRC9MQXJGOjyM": {"geometry": {"location": {"lat": 51.52661, "lng": -0.20761}, "viewport": {"northeast": {"lat": 51.5279025802915, "lng": -0.206281319708498}, "southwest": {"lat": 51.5252046197085, "lng": -0.208979280291502}}}, "name": "UPS Access Point", "place_id": "ChIJIcRiaqIRdkgRC9MQXJGOjyM", "types": ["point_of_interest", "establishment"]}, "ChIJCwlEaxcQdkgRScyNeJuOU5E": {"geometry": {"location": {"lat": 51.5265917, "lng": -0.2075765}, "viewport": {"northeast": {"lat": 51.5279406802915, "lng": -0.206227519708498}, "southwest": {"lat": 51.52524271970851, "lng": -0.208925480291502}}}, "name": "Ek Sai", "place_id": "ChIJCwlEaxcQdkgRScyNeJuOU5E", "types": ["convenience_store", "food", "point_of_interest", "store", "establishment"], "rating": 3, "user_ratings_total": 2}, "ChIJp_lXaxcQdkgRtP4GwcDQAh8": {"geometry": {"location": {"lat": 51.5265771, "lng": -0.2076008}, "viewport": {"northeast": {"lat": 51.5279260802915, "lng": -0.206251819708498}, "southwest": {"lat": 51.5252281197085, "lng": -0.208949780291502}}}, "name": "P N N News", "place_id": "ChIJp_lXaxcQdkgRtP4GwcDQAh8", "types": ["point_of_interest", "store", "establishment"], "rating": 5, "user_ratings_total": 2}, "ChIJ6QM12DURdkgRk9tEkVEdVMw": {"geometry": {"location": {"lat": 51.5272319, "lng": -0.2071557}, "viewport": {"northeast": {"lat": 51.5285754302915, "lng": -0.205753719708498}, "southwest": {"lat": 51.5258774697085, "lng": -0.208451680291502}}}, "name": "Visage 2 Aesthetics", "place_id": "ChIJ6QM12DURdkgRk9tEkVEdVMw", "types": ["point_of_interest", "store", "establishment"]}, "ChIJNUyrrxcQdkgRIUvnoz7szek": {"geometry": {"location": {"lat": 51.5274318, "lng": -0.2082464}, "viewport": {"northeast": {"lat": 51.5287440302915, "lng": -0.206635469708498}, "southwest": {"lat": 51.5260460697085, "lng": -0.209333430291502}}}, "name": "Queen's Park Primary School", "place_id": "ChIJNUyrrxcQdkgRIUvnoz7szek", "types": ["primary_school", "school", "point_of_interest", "establishment"], "rating": 3.9, "user_ratings_total": 7}, "ChIJ1dxVQBcQdkgRX6zEiynhR3w": {"geometry": {"location": {"lat": 51.52654789999999, "lng": -0.2073298}, "viewport": {"northeast": {"lat": 51.5278518802915, "lng": -0.2059965197084979}, "southwest": {"lat": 51.5251539197085, "lng": -0.208694480291502}}}, "name": "Atlas Halal Meat", "place_id": "ChIJ1dxVQBcQdkgRX6zEiynhR3w", "types": ["grocery_or_supermarket", "food", "point_of_interest", "store", "establishment"], "rating": 4.4, "user_ratings_total": 11}, "ChIJ8_n5QBcQdkgR0grpAwxKmpU": {"geometry": {"location": {"lat": 51.5265478, "lng": -0.2073224}, "viewport": {"northeast": {"lat": 51.52785138029149, "lng": -0.205989269708498}, "southwest": {"lat": 51.5251534197085, "lng": -0.208687230291502}}}, "name": "A R Stores", "place_id": "ChIJ8_n5QBcQdkgR0grpAwxKmpU", "types": ["convenience_store", "food", "point_of_interest", "store", "establishment"], "rating": 3, "user_ratings_total": 1}, "ChIJKTRRahcQdkgR14lSRpjR_rU": {"geometry": {"location": {"lat": 51.52646680012334, "lng": -0.2074269499139494}, "viewport": {"northeast": {"lat": 51.5278157802915, "lng": -0.206077969708498}, "southwest": {"lat": 51.5251178197085, "lng": -0.208775930291502}}}, "name": "431-433 Harrow Rd", "place_id": "ChIJKTRRahcQdkgR14lSRpjR_rU", "types": ["route"]}, "ChIJf1QuehcQdkgRC4bimA_SZiA": {"geometry": {"location": {"lat": 51.5259202, "lng": -0.2079919}, "viewport": {"northeast": {"lat": 51.5272086802915, "lng": -0.206641369708498}, "southwest": {"lat": 51.52451071970851, "lng": -0.209339330291502}}}, "name": "James Hill House", "place_id": "ChIJf1QuehcQdkgRC4bimA_SZiA", "types": ["point_of_interest", "establishment"], "rating": 4.3, "user_ratings_total": 6}, "ChIJOZxucBcQdkgRoA7PWrgJSLA": {"geometry": {"location": {"lat": 51.5260494, "lng": -0.2081219}, "viewport": {"northeast": {"lat": 51.52729218029149, "lng": -0.206884519708498}, "southwest": {"lat": 51.52459421970849, "lng": -0.209582480291502}}}, "name": "The PFCA", "place_id": "ChIJOZxucBcQdkgRoA7PWrgJSLA", "types": ["health", "point_of_interest", "establishment"], "rating": 5, "user_ratings_total": 1}, "ChIJsYNvcBcQdkgRDNa0iXxCbcE": {"geometry": {"location": {"lat": 51.526045, "lng": -0.208142}, "viewport": {"northeast": {"lat": 51.5272914802915, "lng": -0.206894569708498}, "southwest": {"lat": 51.5245935197085, "lng": -0.209592530291502}}}, "name": "Laurie Neall Massage", "place_id": "ChIJsYNvcBcQdkgRDNa0iXxCbcE", "types": ["point_of_interest", "establishment"]}, "ChIJW9OIYxcQdkgRNj4-hOgQaLc": {"geometry": {"location": {"lat": 51.5256462, "lng": -0.2077628}, "viewport": {"northeast": {"lat": 51.5270446802915, "lng": -0.206391119708498}, "southwest": {"lat": 51.5243467197085, "lng": -0.209089080291502}}}, "name": "Discreet 24hr Investigations", "place_id": "ChIJW9OIYxcQdkgRNj4-hOgQaLc", "types": ["point_of_interest", "establishment"]}, "ChIJCfeJcBcQdkgRKa0HifYI74Q": {"geometry": {"location": {"lat": 51.5260553, "lng": -0.2081935}, "viewport": {"northeast": {"lat": 51.5273012802915, "lng": -0.206920319708498}, "southwest": {"lat": 51.5246033197085, "lng": -0.209618280291502}}}, "name": "Kensington Day Centre", "place_id": "ChIJCfeJcBcQdkgRKa0HifYI74Q", "types": ["point_of_interest", "establishment"], "rating": 1, "user_ratings_total": 1}, "ChIJ0b1BYxcQdkgRMNMKfrZ2tgU": {"geometry": {"location": {"lat": 51.52559900000001, "lng": -0.2079178}, "viewport": {"northeast": {"lat": 51.5270319802915, "lng": -0.206529019708498}, "southwest": {"lat": 51.5243340197085, "lng": -0.2092269802915021}}}, "name": "British Association of Chevaliers of Saint Stanislas", "place_id": "ChIJ0b1BYxcQdkgRMNMKfrZ2tgU", "types": ["point_of_interest", "establishment"]}, "ChIJ0VmDax8QdkgRvweRkq2Rezk": {"geometry": {"location": {"lat": 51.525599, "lng": -0.2079179}, "viewport": {"northeast": {"lat": 51.5269479802915, "lng": -0.206568919708498}, "southwest": {"lat": 51.5242500197085, "lng": -0.209266880291502}}}, "name": "SPID Theatre", "place_id": "ChIJ0VmDax8QdkgRvweRkq2Rezk", "types": ["point_of_interest", "establishment"], "rating": 4.3, "user_ratings_total": 14}, "ChIJf5AQehcQdkgRXP67_wb0hJ4": {"geometry": {"location": {"lat": 51.5260352, "lng": -0.2083281}, "viewport": {"northeast": {"lat": 51.5273016302915, "lng": -0.2070174197084979}, "southwest": {"lat": 51.5246036697085, "lng": -0.209715380291502}}}, "name": "Mears Group PLC", "place_id": "ChIJf5AQehcQdkgRXP67_wb0hJ4", "types": ["general_contractor", "point_of_interest", "establishment"], "rating": 2.7, "user_ratings_total": 28}, "ChIJc48xYxcQdkgRE9pqoMbxEnY": {"geometry": {"location": {"lat": 51.52555040000001, "lng": -0.2079771}, "viewport": {"northeast": {"lat": 51.52701073029149, "lng": -0.206575319708498}, "southwest": {"lat": 51.52431276970849, "lng": -0.209273280291502}}}, "name": "Knowledge School", "place_id": "ChIJc48xYxcQdkgRE9pqoMbxEnY", "types": ["school", "point_of_interest", "establishment"]}, "ChIJBQ4orRAQdkgR8tqnZxRI25w": {"geometry": {"location": {"lat": 51.5263856, "lng": -0.2075711}, "viewport": {"northeast": {"lat": 51.5277345802915, "lng": -0.206222119708498}, "southwest": {"lat": 51.5250366197085, "lng": -0.208920080291502}}}, "name": "Pizza 2 Night", "place_id": "ChIJBQ4orRAQdkgR8tqnZxRI25w", "types": ["meal_delivery", "meal_takeaway", "restaurant", "food", "point_of_interest", "establishment"], "rating": 3.3, "user_ratings_total": 38}, "ChIJNVU_WagadkgR3ShjcsmEJF4": {"geometry": {"location": {"lat": 51.526076, "lng": -0.2084665}, "viewport": {"northeast": {"lat": 51.5273350802915, "lng": -0.207159219708498}, "southwest": {"lat": 51.5246371197085, "lng": -0.209857180291502}}}, "name": "Shanade McAllister-Fisher Design", "place_id": "ChIJNVU_WagadkgR3ShjcsmEJF4", "types": ["general_contractor", "point_of_interest", "establishment"]}, "ChIJBQ4orRAQdkgR6pe38NuPRp0": {"geometry": {"location": {"lat": 51.526424, "lng": -0.2076966}, "viewport": {"northeast": {"lat": 51.5277729802915, "lng": -0.206347619708498}, "southwest": {"lat": 51.5250750197085, "lng": -0.209045580291502}}}, "name": "New Level Cuts", "place_id": "ChIJBQ4orRAQdkgR6pe38NuPRp0", "types": ["hair_care", "health", "point_of_interest", "store", "establishment"], "rating": 4.6, "user_ratings_total": 21}, "ChIJ31yS9BkQdkgRWnDbdiy_iJI": {"geometry": {"location": {"lat": 51.5255648, "lng": -0.2071967}, "viewport": {"northeast": {"lat": 51.5269534302915, "lng": -0.205840469708498}, "southwest": {"lat": 51.5242554697085, "lng": -0.208538430291502}}}, "name": "Join Avon London", "place_id": "ChIJ31yS9BkQdkgRWnDbdiy_iJI", "types": ["cafe", "bar", "restaurant", "food", "point_of_interest", "establishment"], "rating": 5, "user_ratings_total": 1}, "ChIJBQ4orRAQdkgRPnNn-etRmDE": {"geometry": {"location": {"lat": 51.52643860000001, "lng": -0.2077969}, "viewport": {"northeast": {"lat": 51.5277875802915, "lng": -0.206447919708498}, "southwest": {"lat": 51.52508961970851, "lng": -0.2091458802915021}}}, "name": "Human Relief Foundation", "place_id": "ChIJBQ4orRAQdkgRPnNn-etRmDE", "types": ["point_of_interest", "establishment"], "rating": 3.7, "user_ratings_total": 11}, "ChIJf5AQehcQdkgR3S1FSwgYfBo": {"geometry": {"location": {"lat": 51.52594509999999, "lng": -0.2083331}, "viewport": {"northeast": {"lat": 51.5272535302915, "lng": -0.207002919708498}, "southwest": {"lat": 51.5245555697085, "lng": -0.209700880291502}}}, "name": "Octavia", "place_id": "ChIJf5AQehcQdkgR3S1FSwgYfBo", "types": ["point_of_interest", "establishment"], "rating": 3, "user_ratings_total": 43}, "ChIJWXwJXhcQdkgRiUPtuDJeFpE": {"geometry": {"location": {"lat": 51.5258606, "lng": -0.2078273}, "viewport": {"northeast": {"lat": 51.5271655802915, "lng": -0.206499169708498}, "southwest": {"lat": 51.5244676197085, "lng": -0.209197130291502}}}, "name": "Homes for Students Portobello Garrow House", "place_id": "ChIJWXwJXhcQdkgRiUPtuDJeFpE", "types": ["point_of_interest", "establishment"], "rating": 3.8, "user_ratings_total": 64}, "ChIJAyP6XyAQdkgR74K3ThE1hbw": {"geometry": {"location": {"lat": 51.5260494, "lng": -0.2081219}, "viewport": {"northeast": {"lat": 51.52729218029149, "lng": -0.206884519708498}, "southwest": {"lat": 51.52459421970849, "lng": -0.209582480291502}}}, "name": "W10 Personal Training Gym", "place_id": "ChIJAyP6XyAQdkgR74K3ThE1hbw", "types": ["gym", "health", "point_of_interest", "establishment"], "rating": 4.9, "user_ratings_total": 60}, "ChIJvaecZhcQdkgRXqFf6Ia2s40": {"geometry": {"location": {"lat": 51.5260545, "lng": -0.2076278}, "viewport": {"northeast": {"lat": 51.5272530802915, "lng": -0.206347769708498}, "southwest": {"lat": 51.52455511970851, "lng": -0.209045730291502}}}, "name": "Rooms and Studios London Ltd.", "place_id": "ChIJvaecZhcQdkgRXqFf6Ia2s40", "types": ["real_estate_agency", "point_of_interest", "establishment"]}, "ChIJhevlZBcQdkgRoT5L6xD4MxE": {"geometry": {"location": {"lat": 51.52579350000001, "lng": -0.207884}, "viewport": {"northeast": {"lat": 51.5271559802915, "lng": -0.206528619708498}, "southwest": {"lat": 51.5244580197085, "lng": -0.2092265802915021}}}, "name": "Bosworth Road", "place_id": "ChIJhevlZBcQdkgRoT5L6xD4MxE", "types": ["transit_station", "point_of_interest", "establishment"]}, "ChIJJYqqjLsRdkgRim69WBYpbp8": {"geometry": {"location": {"lat": 51.52586, "lng": -0.20783}, "viewport": {"northeast": {"lat": 51.5271654802915, "lng": -0.206501619708498}, "southwest": {"lat": 51.52446751970851, "lng": -0.209199580291502}}}, "name": "Queen Mary University of London", "place_id": "ChIJJYqqjLsRdkgRim69WBYpbp8", "types": ["university", "point_of_interest", "establishment"]}, "ChIJWXwJXhcQdkgR3zzi49fGMWg": {"geometry": {"location": {"lat": 51.5260545, "lng": -0.2076278}, "viewport": {"northeast": {"lat": 51.5272530802915, "lng": -0.206347769708498}, "southwest": {"lat": 51.52455511970851, "lng": -0.209045730291502}}}, "name": "2 Work Ltd", "place_id": "ChIJWXwJXhcQdkgR3zzi49fGMWg", "types": ["general_contractor", "point_of_interest", "establishment"]}, "ChIJv7rAmxcQdkgRuSCiQPvElYo": {"geometry": {"location": {"lat": 51.5260545, "lng": -0.2076278}, "viewport": {"northeast": {"lat": 51.5272530802915, "lng": -0.206347769708498}, "southwest": {"lat": 51.52455511970851, "lng": -0.209045730291502}}}, "name": "Ladbrook Grove Tracing Services", "place_id": "ChIJv7rAmxcQdkgRuSCiQPvElYo", "types": ["point_of_interest", "establishment"]}, "ChIJWXwJXhcQdkgR1j1azwxiU2k": {"geometry": {"location": {"lat": 51.5260545, "lng": -0.2076278}, "viewport": {"northeast": {"lat": 51.5272530802915, "lng": -0.206347769708498}, "southwest": {"lat": 51.52455511970851, "lng": -0.209045730291502}}}, "name": "W10 Flowers", "place_id": "ChIJWXwJXhcQdkgR1j1azwxiU2k", "types": ["florist", "point_of_interest", "store", "establishment"], "rating": 4, "user_ratings_total": 4}, "ChIJWXwJXhcQdkgRuvP7Nd1NrMk": {"geometry": {"location": {"lat": 51.525819, "lng": -0.2074804}, "viewport": {"northeast": {"lat": 51.52711438029149, "lng": -0.2061559697084979}, "southwest": {"lat": 51.52441641970849, "lng": -0.208853930291502}}}, "name": "W10 Detectives", "place_id": "ChIJWXwJXhcQdkgRuvP7Nd1NrMk", "types": ["point_of_interest", "establishment"]}, "ChIJt8jyehcQdkgRlv2PMhSDAAE": {"geometry": {"location": {"lat": 51.525906, "lng": -0.208146}, "viewport": {"northeast": {"lat": 51.5272170302915, "lng": -0.206815019708498}, "southwest": {"lat": 51.5245190697085, "lng": -0.209512980291502}}}, "name": "Bosworth Road (Stop K)", "place_id": "ChIJt8jyehcQdkgRlv2PMhSDAAE", "types": ["transit_station", "point_of_interest", "establishment"]}, "ChIJOZxucBcQdkgRQXQ91of2WkY": {"geometry": {"location": {"lat": 51.5260494, "lng": -0.2081219}, "viewport": {"northeast": {"lat": 51.52729218029149, "lng": -0.206884519708498}, "southwest": {"lat": 51.52459421970849, "lng": -0.209582480291502}}}, "name": "Jean-Claude Vacassin", "place_id": "ChIJOZxucBcQdkgRQXQ91of2WkY", "types": ["health", "point_of_interest", "establishment"]}, "ChIJjfRucBcQdkgRw7zQcvQIGJI": {"geometry": {"location": {"lat": 51.5260468, "lng": -0.2081273}, "viewport": {"northeast": {"lat": 51.5272912302915, "lng": -0.206887219708498}, "southwest": {"lat": 51.5245932697085, "lng": -0.209585180291502}}}, "name": "Day Center for elderly people", "place_id": "ChIJjfRucBcQdkgRw7zQcvQIGJI", "types": ["point_of_interest", "establishment"]}, "ChIJgxcCZBcQdkgRFICAnyu3OVA": {"geometry": {"location": {"lat": 51.525681, "lng": -0.207622}, "viewport": {"northeast": {"lat": 51.52704338029151, "lng": -0.206266919708498}, "southwest": {"lat": 51.52434541970851, "lng": -0.208964880291502}}}, "name": "Bosworth Road (Stop G)", "place_id": "ChIJgxcCZBcQdkgRFICAnyu3OVA", "types": ["transit_station", "point_of_interest", "establishment"]}, "ChIJlUBsexcQdkgRXYKTj9chcxQ": {"geometry": {"location": {"lat": 51.5257269, "lng": -0.2081188}, "viewport": {"northeast": {"lat": 51.52711798029149, "lng": -0.2067498697084979}, "southwest": {"lat": 51.52442001970849, "lng": -0.209447830291502}}}, "name": "Oglon Day Nursery", "place_id": "ChIJlUBsexcQdkgRXYKTj9chcxQ", "types": ["school", "point_of_interest", "establishment"], "rating": 4.7, "user_ratings_total": 3}, "ChIJEVzAfd8RdkgRmCwO0utK0oo": {"geometry": {"location": {"lat": 51.5260848, "lng": -0.2072835}, "viewport": {"northeast": {"lat": 51.5273742802915, "lng": -0.205929519708498}, "southwest": {"lat": 51.5246763197085, "lng": -0.208627480291502}}}, "name": "Halfpenny Steps", "place_id": "ChIJEVzAfd8RdkgRmCwO0utK0oo", "types": ["point_of_interest", "establishment"], "rating": 5, "user_ratings_total": 1}, "ChIJOZxucBcQdkgR4PwkDbshcic": {"geometry": {"location": {"lat": 51.52594509999999, "lng": -0.2083331}, "viewport": {"northeast": {"lat": 51.5272535302915, "lng": -0.207002919708498}, "southwest": {"lat": 51.5245555697085, "lng": -0.209700880291502}}}, "name": "A Life more noble", "place_id": "ChIJOZxucBcQdkgR4PwkDbshcic", "types": ["point_of_interest", "establishment"]}, "ChIJgWhrexcQdkgRZPIn_QlYXtY": {"geometry": {"location": {"lat": 51.5255841, "lng": -0.2079104}, "viewport": {"northeast": {"lat": 51.5270232802915, "lng": -0.2065186697084979}, "southwest": {"lat": 51.5243253197085, "lng": -0.209216630291502}}}, "name": "Kensal Community Centre", "place_id": "ChIJgWhrexcQdkgRZPIn_QlYXtY", "types": ["point_of_interest", "establishment"], "rating": 4.3, "user_ratings_total": 4}, "ChIJq6ruaxcQdkgRtdlfeGaWlMs": {"geometry": {"location": {"lat": 51.5263856, "lng": -0.2075711}, "viewport": {"northeast": {"lat": 51.5277345802915, "lng": -0.206222119708498}, "southwest": {"lat": 51.5250366197085, "lng": -0.208920080291502}}}, "name": "China Palace North Kensington", "place_id": "ChIJq6ruaxcQdkgRtdlfeGaWlMs", "types": ["restaurant", "meal_takeaway", "food", "point_of_interest", "establishment"], "rating": 2.4, "user_ratings_total": 39}, "ChIJNUMxahcQdkgRpGSgFPUbv5s": {"geometry": {"location": {"lat": 51.5263755, "lng": -0.2075134}, "viewport": {"northeast": {"lat": 51.5277736302915, "lng": -0.2061472697084979}, "southwest": {"lat": 51.5250756697085, "lng": -0.208845230291502}}}, "name": "Massaya", "place_id": "ChIJNUMxahcQdkgRpGSgFPUbv5s", "types": ["cafe", "food", "point_of_interest", "establishment"]}, "ChIJizB4dTARdkgRK4EQ0gWamfY": {"geometry": {"location": {"lat": 51.526217, "lng": -0.2071517}, "viewport": {"northeast": {"lat": 51.5276675302915, "lng": -0.205767269708498}, "southwest": {"lat": 51.5249695697085, "lng": -0.208465230291502}}}, "name": "Footbridge", "place_id": "ChIJizB4dTARdkgRK4EQ0gWamfY", "types": ["point_of_interest", "establishment"]}, "ChIJP1Zq8xkQdkgRieEg_WsVF8w": {"geometry": {"location": {"lat": 51.5255648, "lng": -0.2071967}, "viewport": {"northeast": {"lat": 51.5269534302915, "lng": -0.205840469708498}, "southwest": {"lat": 51.5242554697085, "lng": -0.208538430291502}}}, "name": "\u53e4\u8463\u5e97", "place_id": "ChIJP1Zq8xkQdkgRieEg_WsVF8w", "types": ["store", "point_of_interest", "establishment"]}, "ChIJFTdJ5xkQdkgR1gXJmAOALqI": {"geometry": {"location": {"lat": 51.52506045109777, "lng": -0.2072956622068509}, "viewport": {"northeast": {"lat": 51.5264064302915, "lng": -0.205948869708498}, "southwest": {"lat": 51.5237084697085, "lng": -0.208646830291502}}}, "name": "364-501 Hazlewood Crescent", "place_id": "ChIJFTdJ5xkQdkgR1gXJmAOALqI", "types": ["route"]}, "ChIJjzKW2xkQdkgR_DAlaktAClE": {"geometry": {"location": {"lat": 51.5248737, "lng": -0.2077039}, "viewport": {"northeast": {"lat": 51.52622238029149, "lng": -0.2063942697084979}, "southwest": {"lat": 51.52352441970849, "lng": -0.209092230291502}}}, "name": "ubitricity Charging Station", "place_id": "ChIJjzKW2xkQdkgR_DAlaktAClE", "types": ["point_of_interest", "establishment"]}, "ChIJyeBw2RkQdkgRJgu8pjYynyA": {"geometry": {"location": {"lat": 51.5250595, "lng": -0.2077852}, "viewport": {"northeast": {"lat": 51.5264087802915, "lng": -0.206385719708498}, "southwest": {"lat": 51.5237108197085, "lng": -0.209083680291502}}}, "name": "Park london", "place_id": "ChIJyeBw2RkQdkgRJgu8pjYynyA", "types": ["park", "point_of_interest", "establishment"], "rating": 4, "user_ratings_total": 2}, "ChIJZyWW0BkQdkgRax3w9fHBZko": {"geometry": {"location": {"lat": 51.524925, "lng": -0.208058}, "viewport": {"northeast": {"lat": 51.5261927802915, "lng": -0.206663069708498}, "southwest": {"lat": 51.5234948197085, "lng": -0.209361030291502}}}, "name": "Bertoni Construction LTD", "place_id": "ChIJZyWW0BkQdkgRax3w9fHBZko", "types": ["general_contractor", "point_of_interest", "establishment"]}, "ChIJVVXB3RkQdkgRj5Yn0kT7Gok": {"geometry": {"location": {"lat": 51.52494840000001, "lng": -0.2073762}, "viewport": {"northeast": {"lat": 51.5263540802915, "lng": -0.2059896697084979}, "southwest": {"lat": 51.5236561197085, "lng": -0.208687630291502}}}, "name": "J & P Rubbish", "place_id": "ChIJVVXB3RkQdkgRj5Yn0kT7Gok", "types": ["point_of_interest", "establishment"]}, "ChIJwSGhYBcQdkgRhShIrkPT5D4": {"geometry": {"location": {"lat": 51.52517169999999, "lng": -0.2074599}, "viewport": {"northeast": {"lat": 51.5267601302915, "lng": -0.205978069708498}, "southwest": {"lat": 51.5240621697085, "lng": -0.2086760302915021}}}, "name": "Holmefield House", "place_id": "ChIJwSGhYBcQdkgRhShIrkPT5D4", "types": ["point_of_interest", "establishment"], "rating": 4.2, "user_ratings_total": 17}, "ChIJf8F-2hkQdkgRq4-v2FlH98I": {"geometry": {"location": {"lat": 51.5248858, "lng": -0.2079512}, "viewport": {"northeast": {"lat": 51.52620971530909, "lng": -0.2065987054133397}, "southwest": {"lat": 51.52351175472609, "lng": -0.2092966659963438}}}, "name": "Parking lot", "place_id": "ChIJf8F-2hkQdkgRq4-v2FlH98I", "types": ["parking", "premise", "point_of_interest", "establishment"]}, "ChIJfZaioRcQdkgRlcLkAJtVPyY": {"geometry": {"location": {"lat": 51.526779, "lng": -0.20902}, "viewport": {"northeast": {"lat": 51.5281043302915, "lng": -0.207681269708498}, "southwest": {"lat": 51.5254063697085, "lng": -0.210379230291502}}}, "name": "Third Avenue (Stop P)", "place_id": "ChIJfZaioRcQdkgRlcLkAJtVPyY", "types": ["transit_station", "point_of_interest", "establishment"], "rating": 5, "user_ratings_total": 2}, "ChIJaYJU858adkgR6sjIucbX-P0": {"geometry": {"location": {"lat": 51.52735970000001, "lng": -0.2088057}, "viewport": {"northeast": {"lat": 51.52867438029151, "lng": -0.2074664697084979}, "southwest": {"lat": 51.52597641970851, "lng": -0.210164430291502}}}, "name": "Robert Macdonald", "place_id": "ChIJaYJU858adkgR6sjIucbX-P0", "types": ["health", "point_of_interest", "establishment"], "rating": 5, "user_ratings_total": 1}, "ChIJWVK8pGARdkgRP3Bijc7KYCo": {"geometry": {"location": {"lat": 51.5269729, "lng": -0.2086287}, "viewport": {"northeast": {"lat": 51.5282879802915, "lng": -0.207282169708498}, "southwest": {"lat": 51.5255900197085, "lng": -0.209980130291502}}}, "name": "Ash house", "place_id": "ChIJWVK8pGARdkgRP3Bijc7KYCo", "types": ["point_of_interest", "establishment"]}, "ChIJn0PAnBcQdkgRW8-iv-0mJDk": {"geometry": {"location": {"lat": 51.5260682, "lng": -0.2090119}, "viewport": {"northeast": {"lat": 51.5273760802915, "lng": -0.207681969708498}, "southwest": {"lat": 51.5246781197085, "lng": -0.210379930291502}}}, "name": "Theophrastus Social Botany", "place_id": "ChIJn0PAnBcQdkgRW8-iv-0mJDk", "types": ["point_of_interest", "establishment"]}, "ChIJn524nBcQdkgRSUL96llW9ew": {"geometry": {"location": {"lat": 51.5260475, "lng": -0.209019}, "viewport": {"northeast": {"lat": 51.5273655302915, "lng": -0.207684369708498}, "southwest": {"lat": 51.52466756970851, "lng": -0.2103823302915021}}}, "name": "Charliesaidthat", "place_id": "ChIJn524nBcQdkgRSUL96llW9ew", "types": ["point_of_interest", "establishment"]}, "ChIJn524nBcQdkgRcQGzf637ni8": {"geometry": {"location": {"lat": 51.5260475, "lng": -0.209019}, "viewport": {"northeast": {"lat": 51.5273655302915, "lng": -0.207684369708498}, "southwest": {"lat": 51.52466756970851, "lng": -0.2103823302915021}}}, "name": "A Business Innovation", "place_id": "ChIJn524nBcQdkgRcQGzf637ni8", "types": ["point_of_interest", "establishment"]}, "ChIJ5524nBcQdkgRfRxM4YCl7_I": {"geometry": {"location": {"lat": 51.52604799999999, "lng": -0.209019}, "viewport": {"northeast": {"lat": 51.5273657802915, "lng": -0.207684469708498}, "southwest": {"lat": 51.5246678197085, "lng": -0.210382430291502}}}, "name": "Butterfly Twists", "place_id": "ChIJ5524nBcQdkgRfRxM4YCl7_I", "types": ["shoe_store", "point_of_interest", "store", "establishment"], "rating": 3.3, "user_ratings_total": 28}, "ChIJn524nBcQdkgRZnXWhoJqSJQ": {"geometry": {"location": {"lat": 51.52604799999999, "lng": -0.209019}, "viewport": {"northeast": {"lat": 51.5273657802915, "lng": -0.207684469708498}, "southwest": {"lat": 51.5246678197085, "lng": -0.210382430291502}}}, "name": "Bentheim London - Interior Design", "place_id": "ChIJn524nBcQdkgRZnXWhoJqSJQ", "types": ["general_contractor", "point_of_interest", "establishment"]}, "ChIJr1kKnRcQdkgRcoDAofGmQ7s": {"geometry": {"location": {"lat": 51.52606439999999, "lng": -0.209017}, "viewport": {"northeast": {"lat": 51.52737443029149, "lng": -0.2076860697084979}, "southwest": {"lat": 51.5246764697085, "lng": -0.210384030291502}}}, "name": "Workspace Meeting Rooms - Canalot Studios", "place_id": "ChIJr1kKnRcQdkgRcoDAofGmQ7s", "types": ["point_of_interest", "establishment"]}, "ChIJv7rAmxcQdkgRLXsE0WPbev8": {"geometry": {"location": {"lat": 51.5261164, "lng": -0.2088811}, "viewport": {"northeast": {"lat": 51.5273911802915, "lng": -0.207566519708498}, "southwest": {"lat": 51.5246932197085, "lng": -0.210264480291502}}}, "name": "Databasics/KnowledgeBase Ltd", "place_id": "ChIJv7rAmxcQdkgRLXsE0WPbev8", "types": ["point_of_interest", "establishment"]}, "ChIJv7rAmxcQdkgRaFAev5UMUyI": {"geometry": {"location": {"lat": 51.5261164, "lng": -0.2088811}, "viewport": {"northeast": {"lat": 51.5273911802915, "lng": -0.207566519708498}, "southwest": {"lat": 51.5246932197085, "lng": -0.210264480291502}}}, "name": "Green Row", "place_id": "ChIJv7rAmxcQdkgRaFAev5UMUyI", "types": ["point_of_interest", "establishment"]}, "ChIJZ77qmxcQdkgRyedwwjY0vmE": {"geometry": {"location": {"lat": 51.5261164, "lng": -0.2088811}, "viewport": {"northeast": {"lat": 51.5273911802915, "lng": -0.207566519708498}, "southwest": {"lat": 51.5246932197085, "lng": -0.210264480291502}}}, "name": "Fogelman P J & Co", "place_id": "ChIJZ77qmxcQdkgRyedwwjY0vmE", "types": ["accounting", "finance", "point_of_interest", "establishment"]}, "ChIJv7rAmxcQdkgR2iNTrKoIbDo": {"geometry": {"location": {"lat": 51.5261164, "lng": -0.2088811}, "viewport": {"northeast": {"lat": 51.5273911802915, "lng": -0.207566519708498}, "southwest": {"lat": 51.5246932197085, "lng": -0.210264480291502}}}, "name": "Creative Fibre", "place_id": "ChIJv7rAmxcQdkgR2iNTrKoIbDo", "types": ["point_of_interest", "establishment"]}, "ChIJk2SdpR4QdkgRAvoPGQs_fzg": {"geometry": {"location": {"lat": 51.526016, "lng": -0.2088399}, "viewport": {"northeast": {"lat": 51.5273337302915, "lng": -0.207505419708498}, "southwest": {"lat": 51.5246357697085, "lng": -0.210203380291502}}}, "name": "By Caprice", "place_id": "ChIJk2SdpR4QdkgRAvoPGQs_fzg", "types": ["home_goods_store", "point_of_interest", "store", "establishment"], "rating": 5, "user_ratings_total": 2}, "ChIJgUMo9-YadkgRV5hjIsh8y58": {"geometry": {"location": {"lat": 51.5261663, "lng": -0.2089322}, "viewport": {"northeast": {"lat": 51.5274222802915, "lng": -0.207626369708498}, "southwest": {"lat": 51.52472431970851, "lng": -0.210324330291502}}}, "name": "PMA Digital", "place_id": "ChIJgUMo9-YadkgRV5hjIsh8y58", "types": ["point_of_interest", "establishment"]}, "ChIJKxH4nRcQdkgRG3cG6GooQSs": {"geometry": {"location": {"lat": 51.52611640000001, "lng": -0.2088805}, "viewport": {"northeast": {"lat": 51.52739113029151, "lng": -0.207565969708498}, "southwest": {"lat": 51.52469316970851, "lng": -0.210263930291502}}}, "name": "Showroom One", "place_id": "ChIJKxH4nRcQdkgRG3cG6GooQSs", "types": ["point_of_interest", "store", "establishment"]}, "ChIJwwo2irscdkgRXUKcFpnGb88": {"geometry": {"location": {"lat": 51.52611640000001, "lng": -0.2088805}, "viewport": {"northeast": {"lat": 51.52739113029151, "lng": -0.207565969708498}, "southwest": {"lat": 51.52469316970851, "lng": -0.210263930291502}}}, "name": "Aula Education", "place_id": "ChIJwwo2irscdkgRXUKcFpnGb88", "types": ["point_of_interest", "establishment"]}, "ChIJz64dN90RdkgRHKE7Dj88xNo": {"geometry": {"location": {"lat": 51.5261444, "lng": -0.2088595}, "viewport": {"northeast": {"lat": 51.52740448029149, "lng": -0.207551769708498}, "southwest": {"lat": 51.5247065197085, "lng": -0.210249730291502}}}, "name": "100% STUDIOS WEST", "place_id": "ChIJz64dN90RdkgRHKE7Dj88xNo", "types": ["point_of_interest", "establishment"], "rating": 5, "user_ratings_total": 41}, "ChIJddNGmwAQdkgR0jJ65nbZS7M": {"geometry": {"location": {"lat": 51.5261203, "lng": -0.2088525}, "viewport": {"northeast": {"lat": 51.5273909302915, "lng": -0.207539869708498}, "southwest": {"lat": 51.5246929697085, "lng": -0.210237830291502}}}, "name": "ny-lon design ltd", "place_id": "ChIJddNGmwAQdkgR0jJ65nbZS7M", "types": ["point_of_interest", "establishment"]}, "ChIJ7_L7ccsRdkgRFX20cp6Q2jU": {"geometry": {"location": {"lat": 51.526149, "lng": -0.20885}, "viewport": {"northeast": {"lat": 51.52740618029149, "lng": -0.2075436197084979}, "southwest": {"lat": 51.5247082197085, "lng": -0.210241580291502}}}, "name": "breathingjuice", "place_id": "ChIJ7_L7ccsRdkgRFX20cp6Q2jU", "types": ["point_of_interest", "establishment"]}, "ChIJ1VEKnRcQdkgRLCYjGciEMQg": {"geometry": {"location": {"lat": 51.5261491, "lng": -0.2088497}, "viewport": {"northeast": {"lat": 51.52740618029149, "lng": -0.207543369708498}, "southwest": {"lat": 51.5247082197085, "lng": -0.210241330291502}}}, "name": "Belgriffin Construction", "place_id": "ChIJ1VEKnRcQdkgRLCYjGciEMQg", "types": ["general_contractor", "point_of_interest", "establishment"]}, "ChIJ1VEKnRcQdkgR_31Ps4_c_cU": {"geometry": {"location": {"lat": 51.5261491, "lng": -0.2088497}, "viewport": {"northeast": {"lat": 51.52740618029149, "lng": -0.207543369708498}, "southwest": {"lat": 51.5247082197085, "lng": -0.210241330291502}}}, "name": "District J Ltd", "place_id": "ChIJ1VEKnRcQdkgR_31Ps4_c_cU", "types": ["point_of_interest", "store", "establishment"]}, "ChIJ01EKnRcQdkgRsDx1LjSeju8": {"geometry": {"location": {"lat": 51.52614909999999, "lng": -0.2088496}, "viewport": {"northeast": {"lat": 51.52740618029149, "lng": -0.207543269708498}, "southwest": {"lat": 51.5247082197085, "lng": -0.210241230291502}}}, "name": "Peninsula Films", "place_id": "ChIJ01EKnRcQdkgRsDx1LjSeju8", "types": ["point_of_interest", "establishment"]}, "ChIJu8a74hwQdkgRz0WsH31ipm4": {"geometry": {"location": {"lat": 51.5261503, "lng": -0.2088477}, "viewport": {"northeast": {"lat": 51.5274992802915, "lng": -0.207498719708498}, "southwest": {"lat": 51.5248013197085, "lng": -0.210196680291502}}}, "name": "Foodery Halal Meals", "place_id": "ChIJu8a74hwQdkgRz0WsH31ipm4", "types": ["food", "point_of_interest", "establishment"]}, "ChIJKxH4nRcQdkgRLADark0mFC4": {"geometry": {"location": {"lat": 51.5261503, "lng": -0.2088477}, "viewport": {"northeast": {"lat": 51.5274066802915, "lng": -0.207541669708498}, "southwest": {"lat": 51.5247087197085, "lng": -0.210239630291502}}}, "name": "Amanda Nimmo Fashion Agency", "place_id": "ChIJKxH4nRcQdkgRLADark0mFC4", "types": ["clothing_store", "point_of_interest", "store", "establishment"], "rating": 5, "user_ratings_total": 1}, "ChIJKxH4nRcQdkgR2ppdhufME_M": {"geometry": {"location": {"lat": 51.5261503, "lng": -0.2088477}, "viewport": {"northeast": {"lat": 51.5274066802915, "lng": -0.207541669708498}, "southwest": {"lat": 51.5247087197085, "lng": -0.210239630291502}}}, "name": "Nice & Clean Kensington", "place_id": "ChIJKxH4nRcQdkgR2ppdhufME_M", "types": ["point_of_interest", "establishment"]}, "ChIJr1kKnRcQdkgRp_Qf_u6I4pA": {"geometry": {"location": {"lat": 51.5261503, "lng": -0.2088477}, "viewport": {"northeast": {"lat": 51.5274066802915, "lng": -0.207541669708498}, "southwest": {"lat": 51.5247087197085, "lng": -0.210239630291502}}}, "name": "Freewaters UK", "place_id": "ChIJr1kKnRcQdkgRp_Qf_u6I4pA", "types": ["point_of_interest", "establishment"], "rating": 5, "user_ratings_total": 1}, "ChIJoUGHFSzYdUgRaO5uV7CxjbU": {"geometry": {"location": {"lat": 51.526046, "lng": -0.208769}, "viewport": {"northeast": {"lat": 51.5273439802915, "lng": -0.207443669708498}, "southwest": {"lat": 51.5246460197085, "lng": -0.210141630291502}}}, "name": "Yacht Sentinel", "place_id": "ChIJoUGHFSzYdUgRaO5uV7CxjbU", "types": ["point_of_interest", "establishment"], "rating": 5, "user_ratings_total": 3}, "ChIJKxH4nRcQdkgROL8P2CUa0hk": {"geometry": {"location": {"lat": 51.5262566, "lng": -0.2089281}, "viewport": {"northeast": {"lat": 51.5274705802915, "lng": -0.207641769708498}, "southwest": {"lat": 51.5247726197085, "lng": -0.210339730291502}}}, "name": "Screenhits", "place_id": "ChIJKxH4nRcQdkgROL8P2CUa0hk", "types": ["point_of_interest", "establishment"]}, "ChIJheP94xcQdkgRTOaTGBpOuT4": {"geometry": {"location": {"lat": 51.52611700000001, "lng": -0.2087481}, "viewport": {"northeast": {"lat": 51.52738048029151, "lng": -0.207438769708498}, "southwest": {"lat": 51.52468251970851, "lng": -0.2101367302915021}}}, "name": "SoupClub.co.uk", "place_id": "ChIJheP94xcQdkgRTOaTGBpOuT4", "types": ["meal_delivery", "grocery_or_supermarket", "restaurant", "food", "health", "point_of_interest", "store", "establishment"]}, "ChIJn524nBcQdkgRGhJoIkEUYrM": {"geometry": {"location": {"lat": 51.5261157, "lng": -0.2087478}, "viewport": {"northeast": {"lat": 51.5273797802915, "lng": -0.207438219708498}, "southwest": {"lat": 51.5246818197085, "lng": -0.210136180291502}}}, "name": "EBS UK", "place_id": "ChIJn524nBcQdkgRGhJoIkEUYrM", "types": ["point_of_interest", "establishment"]}, "ChIJVVVFY9cPdkgRPxZUqMv9f6Y": {"geometry": {"location": {"lat": 51.5261157, "lng": -0.2087478}, "viewport": {"northeast": {"lat": 51.5273797802915, "lng": -0.207438219708498}, "southwest": {"lat": 51.5246818197085, "lng": -0.210136180291502}}}, "name": "Swimming Rocks Ltd", "place_id": "ChIJVVVFY9cPdkgRPxZUqMv9f6Y", "types": ["school", "health", "point_of_interest", "establishment"]}, "ChIJ36DST1cQdkgR1P2T31L3so8": {"geometry": {"location": {"lat": 51.52611700000001, "lng": -0.2087481}, "viewport": {"northeast": {"lat": 51.52738048029151, "lng": -0.207438769708498}, "southwest": {"lat": 51.52468251970851, "lng": -0.2101367302915021}}}, "name": "Loud & Clear Voices", "place_id": "ChIJ36DST1cQdkgR1P2T31L3so8", "types": ["point_of_interest", "establishment"], "rating": 5, "user_ratings_total": 1}, "ChIJn524nBcQdkgRJD5l8h5mWiA": {"geometry": {"location": {"lat": 51.5261164, "lng": -0.2088811}, "viewport": {"northeast": {"lat": 51.5273911802915, "lng": -0.207566519708498}, "southwest": {"lat": 51.5246932197085, "lng": -0.210264480291502}}}, "name": "Personal Presentation", "place_id": "ChIJn524nBcQdkgRJD5l8h5mWiA", "types": ["point_of_interest", "establishment"], "rating": 5, "user_ratings_total": 5}, "ChIJFVnUmRsQdkgREKDGMdgC8Z8": {"geometry": {"location": {"lat": 51.5260475, "lng": -0.209019}, "viewport": {"northeast": {"lat": 51.5273655302915, "lng": -0.207684369708498}, "southwest": {"lat": 51.52466756970851, "lng": -0.2103823302915021}}}, "name": "THABTO London", "place_id": "ChIJFVnUmRsQdkgREKDGMdgC8Z8", "types": ["home_goods_store", "point_of_interest", "store", "establishment"]}, "ChIJ45QxgxcQdkgR1NgK9iGUX-U": {"geometry": {"location": {"lat": 51.5260348, "lng": -0.2089485}, "viewport": {"northeast": {"lat": 51.5273528302915, "lng": -0.207613869708498}, "southwest": {"lat": 51.5246548697085, "lng": -0.210311830291502}}}, "name": "Ofis", "place_id": "ChIJ45QxgxcQdkgR1NgK9iGUX-U", "types": ["point_of_interest", "establishment"]}, "ChIJmQsDPFYRdkgRuTTqBwKNVXI": {"geometry": {"location": {"lat": 51.5260478, "lng": -0.2089442}, "viewport": {"northeast": {"lat": 51.52735948029149, "lng": -0.2076125197084979}, "southwest": {"lat": 51.52466151970849, "lng": -0.210310480291502}}}, "name": "Zipcar", "place_id": "ChIJmQsDPFYRdkgRuTTqBwKNVXI", "types": ["point_of_interest", "establishment"]}, "ChIJw2zZnBcQdkgRGIvwzTuEbE8": {"geometry": {"location": {"lat": 51.5260478, "lng": -0.2089442}, "viewport": {"northeast": {"lat": 51.52735948029149, "lng": -0.2076125197084979}, "southwest": {"lat": 51.52466151970849, "lng": -0.210310480291502}}}, "name": "Ethereal Blooms", "place_id": "ChIJw2zZnBcQdkgRGIvwzTuEbE8", "types": ["point_of_interest", "establishment"]}, "ChIJw2zZnBcQdkgRtLMPHOeDHr4": {"geometry": {"location": {"lat": 51.5260478, "lng": -0.2089442}, "viewport": {"northeast": {"lat": 51.52735948029149, "lng": -0.2076125197084979}, "southwest": {"lat": 51.52466151970849, "lng": -0.210310480291502}}}, "name": "Tim Allen-Mersh", "place_id": "ChIJw2zZnBcQdkgRtLMPHOeDHr4", "types": ["doctor", "health", "point_of_interest", "establishment"]}, "ChIJw2zZnBcQdkgRMg-LwzjuR2c": {"geometry": {"location": {"lat": 51.5260478, "lng": -0.2089442}, "viewport": {"northeast": {"lat": 51.52735948029149, "lng": -0.2076125197084979}, "southwest": {"lat": 51.52466151970849, "lng": -0.210310480291502}}}, "name": "Mobile Medic Services - HGV Specialists", "place_id": "ChIJw2zZnBcQdkgRMg-LwzjuR2c", "types": ["car_repair", "point_of_interest", "establishment"]}, "ChIJeZHTnBcQdkgRwRRCsqLvgUY": {"geometry": {"location": {"lat": 51.5260478, "lng": -0.2089442}, "viewport": {"northeast": {"lat": 51.52735948029149, "lng": -0.2076125197084979}, "southwest": {"lat": 51.52466151970849, "lng": -0.210310480291502}}}, "name": "RAND", "place_id": "ChIJeZHTnBcQdkgRwRRCsqLvgUY", "types": ["point_of_interest", "establishment"]}, "ChIJSegFTCkRdkgR2Glav_2l7H4": {"geometry": {"location": {"lat": 51.52617559999999, "lng": -0.2090163}, "viewport": {"northeast": {"lat": 51.52743428029149, "lng": -0.207709219708498}, "southwest": {"lat": 51.5247363197085, "lng": -0.210407180291502}}}, "name": "Buckingham & Lloyds", "place_id": "ChIJSegFTCkRdkgR2Glav_2l7H4", "types": ["real_estate_agency", "point_of_interest", "establishment"]}, "ChIJO8BDnBcQdkgR4fHOYECLAuk": {"geometry": {"location": {"lat": 51.5262141, "lng": -0.2090029}, "viewport": {"northeast": {"lat": 51.5274538802915, "lng": -0.207704569708498}, "southwest": {"lat": 51.5247559197085, "lng": -0.210402530291502}}}, "name": "London Wine Whisperer", "place_id": "ChIJO8BDnBcQdkgR4fHOYECLAuk", "types": ["food", "point_of_interest", "establishment"]}, "ChIJn524nBcQdkgRvma6diWhYcw": {"geometry": {"location": {"lat": 51.5261164, "lng": -0.2088811}, "viewport": {"northeast": {"lat": 51.5273911802915, "lng": -0.207566519708498}, "southwest": {"lat": 51.5246932197085, "lng": -0.210264480291502}}}, "name": "I C D Studios", "place_id": "ChIJn524nBcQdkgRvma6diWhYcw", "types": ["electronics_store", "home_goods_store", "point_of_interest", "store", "establishment"]}, "ChIJv7rAmxcQdkgRJa6yn1v5sWs": {"geometry": {"location": {"lat": 51.5261164, "lng": -0.2088811}, "viewport": {"northeast": {"lat": 51.5273911802915, "lng": -0.207566519708498}, "southwest": {"lat": 51.5246932197085, "lng": -0.210264480291502}}}, "name": "LONDON AUDIO LABS - Audio Post Production & Sound Design and VFX", "place_id": "ChIJv7rAmxcQdkgRJa6yn1v5sWs", "types": ["electronics_store", "home_goods_store", "point_of_interest", "store", "establishment"]}, "ChIJv7rAmxcQdkgRVQmqsjS04pg": {"geometry": {"location": {"lat": 51.5261164, "lng": -0.2088811}, "viewport": {"northeast": {"lat": 51.5273911802915, "lng": -0.207566519708498}, "southwest": {"lat": 51.5246932197085, "lng": -0.210264480291502}}}, "name": "lovethatwine ltd.", "place_id": "ChIJv7rAmxcQdkgRVQmqsjS04pg", "types": ["point_of_interest", "establishment"]}, "ChIJGbOAiAwRdkgR4kjVMwmSWYA": {"geometry": {"location": {"lat": 51.52611640000001, "lng": -0.2088805}, "viewport": {"northeast": {"lat": 51.52739113029151, "lng": -0.207565969708498}, "southwest": {"lat": 51.52469316970851, "lng": -0.210263930291502}}}, "name": "Hocroft London", "place_id": "ChIJGbOAiAwRdkgR4kjVMwmSWYA", "types": ["point_of_interest", "store", "establishment"]}, "ChIJ1_8PnRcQdkgRja3QNW6Fl6w": {"geometry": {"location": {"lat": 51.52611640000001, "lng": -0.2088805}, "viewport": {"northeast": {"lat": 51.52739113029151, "lng": -0.207565969708498}, "southwest": {"lat": 51.52469316970851, "lng": -0.210263930291502}}}, "name": "TruColor Limited", "place_id": "ChIJ1_8PnRcQdkgRja3QNW6Fl6w", "types": ["point_of_interest", "establishment"]}, "ChIJ1_8PnRcQdkgRE4e4ZZ1kasQ": {"geometry": {"location": {"lat": 51.52611640000001, "lng": -0.2088805}, "viewport": {"northeast": {"lat": 51.52739113029151, "lng": -0.207565969708498}, "southwest": {"lat": 51.52469316970851, "lng": -0.210263930291502}}}, "name": "Shanade McAllister Fisher", "place_id": "ChIJ1_8PnRcQdkgRE4e4ZZ1kasQ", "types": ["general_contractor", "point_of_interest", "establishment"]}, "ChIJz-h8qUgRdkgRJ1L4jpyMrhQ": {"geometry": {"location": {"lat": 51.5274946, "lng": -0.203519}, "viewport": {"northeast": {"lat": 51.52884788029151, "lng": -0.202236869708498}, "southwest": {"lat": 51.52614991970851, "lng": -0.204934830291502}}}, "name": "Presto Learn", "place_id": "ChIJz-h8qUgRdkgRJ1L4jpyMrhQ", "types": ["point_of_interest", "establishment"]}, "ChIJWT0m-xAQdkgR8zyRM22mYOc": {"geometry": {"location": {"lat": 51.5274946, "lng": -0.203519}, "viewport": {"northeast": {"lat": 51.52884783029149, "lng": -0.202236869708498}, "southwest": {"lat": 51.5261498697085, "lng": -0.204934830291502}}}, "name": "Movult Motion Graphics", "place_id": "ChIJWT0m-xAQdkgR8zyRM22mYOc", "types": ["point_of_interest", "establishment"], "rating": 5, "user_ratings_total": 3}, "ChIJiZLq5BAQdkgR0DGsa1rVdQM": {"geometry": {"location": {"lat": 51.52755550000001, "lng": -0.2036947}, "viewport": {"northeast": {"lat": 51.52890448029149, "lng": -0.2023458697084979}, "southwest": {"lat": 51.5262065197085, "lng": -0.205043830291502}}}, "name": "Silvertree Residents Association Ltd", "place_id": "ChIJiZLq5BAQdkgR0DGsa1rVdQM", "types": ["point_of_interest", "establishment"]}, "ChIJDcUaeBoQdkgRH8P75I4i0Vo": {"geometry": {"location": {"lat": 51.52530509999999, "lng": -0.2035377}, "viewport": {"northeast": {"lat": 51.5266195802915, "lng": -0.202232519708498}, "southwest": {"lat": 51.5239216197085, "lng": -0.204930480291502}}}, "name": "Generous Apartments", "place_id": "ChIJDcUaeBoQdkgRH8P75I4i0Vo", "types": ["lodging", "point_of_interest", "establishment"]}, "ChIJXTisghAQdkgRZeDiTYwDYPU": {"geometry": {"location": {"lat": 51.52530509999999, "lng": -0.2035377}, "viewport": {"northeast": {"lat": 51.5266216302915, "lng": -0.202230769708498}, "southwest": {"lat": 51.5239236697085, "lng": -0.204928730291502}}}, "name": "Hayat Estates", "place_id": "ChIJXTisghAQdkgRZeDiTYwDYPU", "types": ["real_estate_agency", "point_of_interest", "establishment"]}, "ChIJXTisghAQdkgRB3sny5Y4IlM": {"geometry": {"location": {"lat": 51.5253671, "lng": -0.2036433}, "viewport": {"northeast": {"lat": 51.5266889802915, "lng": -0.202348419708498}, "southwest": {"lat": 51.5239910197085, "lng": -0.205046380291502}}}, "name": "Atlantis Dry Cleaners", "place_id": "ChIJXTisghAQdkgRB3sny5Y4IlM", "types": ["locksmith", "laundry", "point_of_interest", "establishment"], "rating": 4.9, "user_ratings_total": 30}, "ChIJdRRqeBoQdkgROj7PKliJJ7M": {"geometry": {"location": {"lat": 51.5252807, "lng": -0.2034511}, "viewport": {"northeast": {"lat": 51.5265914802915, "lng": -0.202151619708498}, "southwest": {"lat": 51.5238935197085, "lng": -0.204849580291502}}}, "name": "Hr Coffee Hub", "place_id": "ChIJdRRqeBoQdkgROj7PKliJJ7M", "types": ["cafe", "food", "point_of_interest", "establishment"]}, "ChIJXTisghAQdkgRtT5HU_b1fTQ": {"geometry": {"location": {"lat": 51.52534000000001, "lng": -0.203603}, "viewport": {"northeast": {"lat": 51.5266557302915, "lng": -0.202293619708498}, "southwest": {"lat": 51.52395776970851, "lng": -0.204991580291502}}}, "name": "Top Look Food & Wine London", "place_id": "ChIJXTisghAQdkgRtT5HU_b1fTQ", "types": ["convenience_store", "food", "point_of_interest", "store", "establishment"], "rating": 5, "user_ratings_total": 2}, "ChIJ01XM1JARdkgRMCXDxIZJU-4": {"geometry": {"location": {"lat": 51.5254408, "lng": -0.2036664999999999}, "viewport": {"northeast": {"lat": 51.5267401802915, "lng": -0.2023891697084979}, "southwest": {"lat": 51.5240422197085, "lng": -0.205087130291502}}}, "name": "Whyegal.ltd painter's", "place_id": "ChIJ01XM1JARdkgRMCXDxIZJU-4", "types": ["general_contractor", "point_of_interest", "establishment"]}, "ChIJTdiknRAQdkgRQIEj2RsNegA": {"geometry": {"location": {"lat": 51.5254217, "lng": -0.2037118}, "viewport": {"northeast": {"lat": 51.5267315302915, "lng": -0.202413469708498}, "southwest": {"lat": 51.5240335697085, "lng": -0.205111430291502}}}, "name": "Sol's Gents Hairdressing", "place_id": "ChIJTdiknRAQdkgRQIEj2RsNegA", "types": ["hair_care", "health", "point_of_interest", "establishment"], "rating": 4.1, "user_ratings_total": 21}, "ChIJe1mhnRAQdkgRBiziNCx8HVA": {"geometry": {"location": {"lat": 51.5254762, "lng": -0.2037316}, "viewport": {"northeast": {"lat": 51.5267758302915, "lng": -0.2024538697084979}, "southwest": {"lat": 51.5240778697085, "lng": -0.205151830291502}}}, "name": "W9 Computer & Mobiles", "place_id": "ChIJe1mhnRAQdkgRBiziNCx8HVA", "types": ["point_of_interest", "store", "establishment"], "rating": 4.8, "user_ratings_total": 183}, "ChIJ_WKnnRAQdkgRir9eZ5UG41Y": {"geometry": {"location": {"lat": 51.525498, "lng": -0.2037695}, "viewport": {"northeast": {"lat": 51.5267974802915, "lng": -0.202492019708498}, "southwest": {"lat": 51.5240995197085, "lng": -0.205189980291502}}}, "name": "Carolina Chicken", "place_id": "ChIJ_WKnnRAQdkgRir9eZ5UG41Y", "types": ["restaurant", "food", "point_of_interest", "establishment"], "rating": 2.8, "user_ratings_total": 30}, "ChIJP_TD3BAQdkgRrQJ7_eColxo": {"geometry": {"location": {"lat": 51.52741149713219, "lng": -0.204588313027847}, "viewport": {"northeast": {"lat": 51.5287604802915, "lng": -0.203239369708498}, "southwest": {"lat": 51.5260625197085, "lng": -0.205937330291502}}}, "name": "40-42 Bravington Rd", "place_id": "ChIJP_TD3BAQdkgRrQJ7_eColxo", "types": ["route"]}, "ChIJT8QTsBAQdkgR_dQYFIXqM_g": {"geometry": {"location": {"lat": 51.52613608410608, "lng": -0.205247214570437}, "viewport": {"northeast": {"lat": 51.5274823302915, "lng": -0.203901019708498}, "southwest": {"lat": 51.52478436970851, "lng": -0.206598980291502}}}, "name": "570-562 Harrow Rd", "place_id": "ChIJT8QTsBAQdkgR_dQYFIXqM_g", "types": ["route"]}, "ChIJo9GQsBAQdkgRYTlODh34d6U": {"geometry": {"location": {"lat": 51.5262306, "lng": -0.2051233}, "viewport": {"northeast": {"lat": 51.52757958029149, "lng": -0.2037743197084979}, "southwest": {"lat": 51.5248816197085, "lng": -0.206472280291502}}}, "name": "Fudges Cyclestore", "place_id": "ChIJo9GQsBAQdkgRYTlODh34d6U", "types": ["bicycle_store", "point_of_interest", "store", "establishment"], "rating": 4, "user_ratings_total": 243}, "ChIJo9GQsBAQdkgRQauaDeAEWv8": {"geometry": {"location": {"lat": 51.5262767, "lng": -0.2053153}, "viewport": {"northeast": {"lat": 51.52757973029149, "lng": -0.204000369708498}, "southwest": {"lat": 51.52488176970849, "lng": -0.206698330291502}}}, "name": "Medicare Ltd", "place_id": "ChIJo9GQsBAQdkgRQauaDeAEWv8", "types": ["pharmacy", "health", "point_of_interest", "store", "establishment"], "rating": 4.8, "user_ratings_total": 12}, "ChIJgTqYuRAQdkgR6tOG2WCxQLI": {"geometry": {"location": {"lat": 51.526441, "lng": -0.2049608}, "viewport": {"northeast": {"lat": 51.5277420802915, "lng": -0.203583369708498}, "southwest": {"lat": 51.5250441197085, "lng": -0.206281330291502}}}, "name": "Bubble Dry Clean & Laundrette", "place_id": "ChIJgTqYuRAQdkgR6tOG2WCxQLI", "types": ["laundry", "point_of_interest", "establishment"], "rating": 2.7, "user_ratings_total": 10}, "ChIJt-LGthAQdkgRxNH5sSoq6bU": {"geometry": {"location": {"lat": 51.526382, "lng": -0.2053265}, "viewport": {"northeast": {"lat": 51.5277502302915, "lng": -0.203901369708498}, "southwest": {"lat": 51.5250522697085, "lng": -0.206599330291502}}}, "name": "Hairstory London", "place_id": "ChIJt-LGthAQdkgRxNH5sSoq6bU", "types": ["hair_care", "point_of_interest", "establishment"]}, "ChIJmdGQsBAQdkgRyV6lbrecV8U": {"geometry": {"location": {"lat": 51.5262957, "lng": -0.2052962}, "viewport": {"northeast": {"lat": 51.5275894302915, "lng": -0.203991469708498}, "southwest": {"lat": 51.52489146970851, "lng": -0.206689430291502}}}, "name": "Absolute Rubbish Waste Management", "place_id": "ChIJmdGQsBAQdkgRyV6lbrecV8U", "types": ["point_of_interest", "establishment"]}, "ChIJe7JVsRAQdkgRXLcAKcM1a2M": {"geometry": {"location": {"lat": 51.5263934, "lng": -0.2054888}, "viewport": {"northeast": {"lat": 51.5276639302915, "lng": -0.204184669708498}, "southwest": {"lat": 51.5249659697085, "lng": -0.206882630291502}}}, "name": "Ahmed's Halal Bazaar", "place_id": "ChIJe7JVsRAQdkgRXLcAKcM1a2M", "types": ["grocery_or_supermarket", "food", "point_of_interest", "store", "establishment"], "rating": 4.7, "user_ratings_total": 14}, "ChIJdWHgsBAQdkgRslx5HrlTBuA": {"geometry": {"location": {"lat": 51.52624199999999, "lng": -0.205234}, "viewport": {"northeast": {"lat": 51.5275555802915, "lng": -0.203937519708498}, "southwest": {"lat": 51.5248576197085, "lng": -0.206635480291502}}}, "name": "Realeyes Opticians - Maida Hill/Maida Vale", "place_id": "ChIJdWHgsBAQdkgRslx5HrlTBuA", "types": ["health", "point_of_interest", "store", "establishment"], "rating": 5, "user_ratings_total": 209}, "ChIJAQDwtBAQdkgRQmcTYuXZJEM": {"geometry": {"location": {"lat": 51.52645060000001, "lng": -0.205661}, "viewport": {"northeast": {"lat": 51.52770628029151, "lng": -0.204313119708498}, "southwest": {"lat": 51.52500831970851, "lng": -0.207011080291502}}}, "name": "All Stars Youth Club", "place_id": "ChIJAQDwtBAQdkgRQmcTYuXZJEM", "types": ["point_of_interest", "establishment"]}, "ChIJEYWxqBAQdkgRF4C8RJBgVTs": {"geometry": {"location": {"lat": 51.52564849999999, "lng": -0.2051118}, "viewport": {"northeast": {"lat": 51.52705053029149, "lng": -0.203798019708498}, "southwest": {"lat": 51.5243525697085, "lng": -0.206495980291502}}}, "name": "Andy Jordan Productions Ltd", "place_id": "ChIJEYWxqBAQdkgRF4C8RJBgVTs", "types": ["point_of_interest", "establishment"]}, "ChIJgXSAIxcQdkgR1WUtpv2DLww": {"geometry": {"location": {"lat": 51.52748099999999, "lng": -0.206913}, "viewport": {"northeast": {"lat": 51.52883338029149, "lng": -0.205597019708498}, "southwest": {"lat": 51.5261354197085, "lng": -0.208294980291502}}}, "name": "ubitricity Charging Station", "place_id": "ChIJgXSAIxcQdkgR1WUtpv2DLww", "types": ["point_of_interest", "establishment"]}, "ChIJDxnRH1wRdkgRF0zuzEeOXPg": {"geometry": {"location": {"lat": 51.5274446, "lng": -0.2068308}, "viewport": {"northeast": {"lat": 51.5288015302915, "lng": -0.205559569708498}, "southwest": {"lat": 51.5261035697085, "lng": -0.208257530291502}}}, "name": "Best Indian Astrologer in Uk, Get Ex Back, Black Magic Removal, Vashikaran Specialist, Husband & Wife Problem, Negative Energy Removal, Remove Jealousy, Health Problem, Divorce Problem, Lost Love Spells, Ex husband & Ex Wife back, Depression", "place_id": "ChIJDxnRH1wRdkgRF0zuzEeOXPg", "types": ["point_of_interest", "establishment"], "rating": 5, "user_ratings_total": 1}, "ChIJqYGQPBcQdkgRBp1D9loxhdY": {"geometry": {"location": {"lat": 51.5271528, "lng": -0.2068708}, "viewport": {"northeast": {"lat": 51.5285116302915, "lng": -0.205617719708498},