{"E00175223": {"ChIJSc4hrR4FdkgR1VJeVE5mR4M": {"geometry": {"location": {"lat": 51.48914400005477, "lng": -0.1466248998471492}, "viewport": {"northeast": {"lat": 51.4904929802915, "lng": -0.145275919708498}, "southwest": {"lat": 51.48779501970851, "lng": -0.147973880291502}}}, "name": "11 Sutherland St", "place_id": "ChIJSc4hrR4FdkgR1VJeVE5mR4M", "types": ["route"]}, "ChIJHV_CrB4FdkgRQaTpWsgHYvc": {"geometry": {"location": {"lat": 51.4890708, "lng": -0.1467326}, "viewport": {"northeast": {"lat": 51.4904401302915, "lng": -0.145462419708498}, "southwest": {"lat": 51.4877421697085, "lng": -0.148160380291502}}}, "name": "The White Ferry, Victoria (PUBLOVE)", "place_id": "ChIJHV_CrB4FdkgRQaTpWsgHYvc", "types": ["lodging", "bar", "restaurant", "food", "point_of_interest", "establishment"], "rating": 3.8, "user_ratings_total": 733}, "ChIJ3Vp7rB4FdkgRIRe2l99NYUY": {"geometry": {"location": {"lat": 51.48890069999999, "lng": -0.1466525}, "viewport": {"northeast": {"lat": 51.4902484802915, "lng": -0.145161669708498}, "southwest": {"lat": 51.48755051970851, "lng": -0.147859630291502}}}, "name": "Pimlico Launderette", "place_id": "ChIJ3Vp7rB4FdkgRIRe2l99NYUY", "types": ["laundry", "point_of_interest", "establishment"], "rating": 3.9, "user_ratings_total": 110}, "ChIJ56Yy_BsFdkgROg2Hyjq87aA": {"geometry": {"location": {"lat": 51.4885361, "lng": -0.1471006}, "viewport": {"northeast": {"lat": 51.48990698029151, "lng": -0.145660119708498}, "southwest": {"lat": 51.48720901970851, "lng": -0.148358080291502}}}, "name": "3queens.co.uk", "place_id": "ChIJ56Yy_BsFdkgROg2Hyjq87aA", "types": ["food", "point_of_interest", "establishment"]}, "ChIJKzE2ABwFdkgRzMWmF1OQo9E": {"geometry": {"location": {"lat": 51.4889671, "lng": -0.1467881}, "viewport": {"northeast": {"lat": 51.4903882802915, "lng": -0.145490169708498}, "southwest": {"lat": 51.48769031970851, "lng": -0.148188130291502}}}, "name": "S W 1 Surveyors", "place_id": "ChIJKzE2ABwFdkgRzMWmF1OQo9E", "types": ["point_of_interest", "establishment"], "rating": 4, "user_ratings_total": 1}, "ChIJ-SJNABwFdkgRv9eHFBcxmS0": {"geometry": {"location": {"lat": 51.488978, "lng": -0.146705}, "viewport": {"northeast": {"lat": 51.49039373029149, "lng": -0.145448619708498}, "southwest": {"lat": 51.4876957697085, "lng": -0.148146580291502}}}, "name": "Fidgens", "place_id": "ChIJ-SJNABwFdkgRv9eHFBcxmS0", "types": ["point_of_interest", "establishment"], "rating": 5, "user_ratings_total": 1}, "ChIJVSo9UBkFdkgRHKFcH6mWATQ": {"geometry": {"location": {"lat": 51.48900859999999, "lng": -0.1467587}, "viewport": {"northeast": {"lat": 51.4904090302915, "lng": -0.145475469708498}, "southwest": {"lat": 51.4877110697085, "lng": -0.148173430291502}}}, "name": "Ebury Place - Taylor Wimpey Central London", "place_id": "ChIJVSo9UBkFdkgRHKFcH6mWATQ", "types": ["point_of_interest", "establishment"], "rating": 5, "user_ratings_total": 5}, "ChIJ-SJNABwFdkgR5bArGQmL3aA": {"geometry": {"location": {"lat": 51.48899269999999, "lng": -0.1466019}, "viewport": {"northeast": {"lat": 51.4904010802915, "lng": -0.145302969708498}, "southwest": {"lat": 51.4877031197085, "lng": -0.148000930291502}}}, "name": "H4 Group", "place_id": "ChIJ-SJNABwFdkgR5bArGQmL3aA", "types": ["point_of_interest", "establishment"], "rating": 4.5, "user_ratings_total": 2}, "ChIJKzE2ABwFdkgRrcQbQv8Mgag": {"geometry": {"location": {"lat": 51.4888613, "lng": -0.1465385}, "viewport": {"northeast": {"lat": 51.4902048802915, "lng": -0.145109519708498}, "southwest": {"lat": 51.4875069197085, "lng": -0.147807480291502}}}, "name": "MHA Bella Best House - Retirement Apartments", "place_id": "ChIJKzE2ABwFdkgRrcQbQv8Mgag", "types": ["health", "point_of_interest", "establishment"], "rating": 4, "user_ratings_total": 1}, "ChIJxyjJHRwFdkgRO7Mnl6petk0": {"geometry": {"location": {"lat": 51.48935549999999, "lng": -0.1471938}, "viewport": {"northeast": {"lat": 51.49070448029149, "lng": -0.145844819708498}, "southwest": {"lat": 51.48800651970849, "lng": -0.148542780291502}}}, "name": "Sir Simon Milton Westminster UTC", "place_id": "ChIJxyjJHRwFdkgRO7Mnl6petk0", "types": ["university", "school", "point_of_interest", "establishment"], "rating": 3.6, "user_ratings_total": 23}, "ChIJY-zsqdQFdkgRqHw8AxVqeHw": {"geometry": {"location": {"lat": 51.4890489, "lng": -0.1473558}, "viewport": {"northeast": {"lat": 51.49040918029149, "lng": -0.1459390697084979}, "southwest": {"lat": 51.4877112197085, "lng": -0.148637030291502}}}, "name": "Renk records", "place_id": "ChIJY-zsqdQFdkgRqHw8AxVqeHw", "types": ["point_of_interest", "establishment"]}, "ChIJKddRRo4FdkgRtA6NsouQm6Y": {"geometry": {"location": {"lat": 51.48900859999999, "lng": -0.1467587}, "viewport": {"northeast": {"lat": 51.4904090302915, "lng": -0.145475469708498}, "southwest": {"lat": 51.4877110697085, "lng": -0.148173430291502}}}, "name": "LuggageHero", "place_id": "ChIJKddRRo4FdkgRtA6NsouQm6Y", "types": ["storage", "point_of_interest", "establishment"]}, "ChIJQYzAZ_cFdkgRQIbZ2QkzA6I": {"geometry": {"location": {"lat": 51.48900859999999, "lng": -0.1467587}, "viewport": {"northeast": {"lat": 51.4904090302915, "lng": -0.145475469708498}, "southwest": {"lat": 51.4877110697085, "lng": -0.148173430291502}}}, "name": "Mei Quan Tai Chi - Victoria Central", "place_id": "ChIJQYzAZ_cFdkgRQIbZ2QkzA6I", "types": ["health", "point_of_interest", "establishment"]}, "ChIJFwT1wzwFdkgRKcCABTKGouA": {"geometry": {"location": {"lat": 51.48897789999999, "lng": -0.146705}, "viewport": {"northeast": {"lat": 51.4903936802915, "lng": -0.145448619708498}, "southwest": {"lat": 51.4876957197085, "lng": -0.148146580291502}}}, "name": "GRA architecture & interiors ltd", "place_id": "ChIJFwT1wzwFdkgRKcCABTKGouA", "types": ["point_of_interest", "establishment"], "rating": 4, "user_ratings_total": 1}, "ChIJfW5okqIFdkgRiT7h7uB_unY": {"geometry": {"location": {"lat": 51.488978, "lng": -0.146705}, "viewport": {"northeast": {"lat": 51.49039373029149, "lng": -0.145448619708498}, "southwest": {"lat": 51.4876957697085, "lng": -0.148146580291502}}}, "name": "Architect7", "place_id": "ChIJfW5okqIFdkgRiT7h7uB_unY", "types": ["point_of_interest", "establishment"], "rating": 4.8, "user_ratings_total": 11}, "ChIJ0RwaKh8FdkgRwDuBkRyrNpQ": {"geometry": {"location": {"lat": 51.488978, "lng": -0.146705}, "viewport": {"northeast": {"lat": 51.49039373029149, "lng": -0.145448619708498}, "southwest": {"lat": 51.4876957697085, "lng": -0.148146580291502}}}, "name": "GRA architecture & interiors ltd", "place_id": "ChIJ0RwaKh8FdkgRwDuBkRyrNpQ", "types": ["point_of_interest", "establishment"]}, "ChIJ0Z3qBnkFdkgRlknMye9sEr4": {"geometry": {"location": {"lat": 51.488978, "lng": -0.146705}, "viewport": {"northeast": {"lat": 51.49039373029149, "lng": -0.145448619708498}, "southwest": {"lat": 51.4876957697085, "lng": -0.148146580291502}}}, "name": "velocity.business ltd", "place_id": "ChIJ0Z3qBnkFdkgRlknMye9sEr4", "types": ["point_of_interest", "establishment"]}, "ChIJuedUpx4FdkgRk2S7Ixl2MJQ": {"geometry": {"location": {"lat": 51.4890291, "lng": -0.1467358}, "viewport": {"northeast": {"lat": 51.49043853029149, "lng": -0.145449419708498}, "southwest": {"lat": 51.4877405697085, "lng": -0.148147380291502}}}, "name": "White Ferry House", "place_id": "ChIJuedUpx4FdkgRk2S7Ixl2MJQ", "types": ["bar", "point_of_interest", "establishment"], "rating": 4.1, "user_ratings_total": 66}, "ChIJx8HCrB4FdkgRJPLyqAQIvHk": {"geometry": {"location": {"lat": 51.489086, "lng": -0.146628}, "viewport": {"northeast": {"lat": 51.49044518029149, "lng": -0.145264669708498}, "southwest": {"lat": 51.4877472197085, "lng": -0.147962630291502}}}, "name": "Westmoreland Terrace Sutherland Row (Stop K)", "place_id": "ChIJx8HCrB4FdkgRJPLyqAQIvHk", "types": ["transit_station", "point_of_interest", "establishment"]}, "ChIJ9902rR4FdkgRus_evfpUvxg": {"geometry": {"location": {"lat": 51.48919850000001, "lng": -0.1466810000000001}, "viewport": {"northeast": {"lat": 51.4905574802915, "lng": -0.145318069708498}, "southwest": {"lat": 51.48785951970851, "lng": -0.148016030291502}}}, "name": "Turpentine Lane", "place_id": "ChIJ9902rR4FdkgRus_evfpUvxg", "types": ["transit_station", "point_of_interest", "establishment"], "rating": 5, "user_ratings_total": 1}, "ChIJ55-bBxwFdkgRtR44_5XSuVo": {"geometry": {"location": {"lat": 51.48821719248176, "lng": -0.1466938606221242}, "viewport": {"northeast": {"lat": 51.49019795000005, "lng": -0.145271269708498}, "southwest": {"lat": 51.48609934999994, "lng": -0.147969230291502}}}, "name": "12-10 Peabody Ave", "place_id": "ChIJ55-bBxwFdkgRtR44_5XSuVo", "types": ["route"]}, "ChIJ5S-syCUFdkgRxjGzzUiiad0": {"geometry": {"location": {"lat": 51.4877917, "lng": -0.1471676}, "viewport": {"northeast": {"lat": 51.48921738029149, "lng": -0.145497869708498}, "southwest": {"lat": 51.48651941970849, "lng": -0.148195830291502}}}, "name": "Victoria Station South Sidings.", "place_id": "ChIJ5S-syCUFdkgRxjGzzUiiad0", "types": ["point_of_interest", "establishment"]}, "ChIJk9eZJPQFdkgRvT_mMoqT42Q": {"geometry": {"location": {"lat": 51.4880585, "lng": -0.14726}, "viewport": {"northeast": {"lat": 51.4894766802915, "lng": -0.145621669708498}, "southwest": {"lat": 51.4867787197085, "lng": -0.148319630291502}}}, "name": "Dwayne Styling", "place_id": "ChIJk9eZJPQFdkgRvT_mMoqT42Q", "types": ["point_of_interest", "establishment"]}, "ChIJezBXlhUFdkgRRdfgXIHWp1Q": {"geometry": {"location": {"lat": 51.4882204, "lng": -0.1473506}, "viewport": {"northeast": {"lat": 51.48963763029149, "lng": -0.145716319708498}, "southwest": {"lat": 51.4869396697085, "lng": -0.148414280291502}}}, "name": "Pimlico Central Station", "place_id": "ChIJezBXlhUFdkgRRdfgXIHWp1Q", "types": ["point_of_interest", "establishment"], "rating": 5, "user_ratings_total": 1}, "ChIJ9z61DhwFdkgRsJvJhm_hHkE": {"geometry": {"location": {"lat": 51.4877422, "lng": -0.1464009}, "viewport": {"northeast": {"lat": 51.4890798802915, "lng": -0.145099119708498}, "southwest": {"lat": 51.4863819197085, "lng": -0.147797080291502}}}, "name": "The Filipino Agency Limited", "place_id": "ChIJ9z61DhwFdkgRsJvJhm_hHkE", "types": ["point_of_interest", "establishment"]}, "ChIJ-XOb2RsFdkgRh4xb1TINurI": {"geometry": {"location": {"lat": 51.488226, "lng": -0.1488208}, "viewport": {"northeast": {"lat": 51.48970955082271, "lng": -0.1474131608663694}, "southwest": {"lat": 51.48701159023972, "lng": -0.1501111214493735}}}, "name": "Parking lot", "place_id": "ChIJ-XOb2RsFdkgRh4xb1TINurI", "types": ["parking", "premise", "point_of_interest", "establishment"]}, "ChIJKXmBMxoFdkgRczCVBYuUzIs": {"geometry": {"location": {"lat": 51.48766964891157, "lng": -0.1498310670535497}, "viewport": {"northeast": {"lat": 51.4890181802915, "lng": -0.148491369708498}, "southwest": {"lat": 51.4863202197085, "lng": -0.151189330291502}}}, "name": "8 Gatliff Rd", "place_id": "ChIJKXmBMxoFdkgRczCVBYuUzIs", "types": ["route"]}, "ChIJhxgJyRsFdkgRVeFD9C1utBo": {"geometry": {"location": {"lat": 51.48789689999999, "lng": -0.1491874}, "viewport": {"northeast": {"lat": 51.48918323029149, "lng": -0.148170019708498}, "southwest": {"lat": 51.48648526970849, "lng": -0.150867980291502}}}, "name": "Garton Jones Estate Agents (Chelsea & Belgravia)", "place_id": "ChIJhxgJyRsFdkgRVeFD9C1utBo", "types": ["point_of_interest", "establishment"], "rating": 4.6, "user_ratings_total": 37}, "ChIJWc48mBsQdkgRfpmdIynLZqc": {"geometry": {"location": {"lat": 51.4875834, "lng": -0.1491746}, "viewport": {"northeast": {"lat": 51.4889345302915, "lng": -0.148154519708498}, "southwest": {"lat": 51.4862365697085, "lng": -0.150852480291502}}}, "name": "Tollgard Design Group", "place_id": "ChIJWc48mBsQdkgRfpmdIynLZqc", "types": ["furniture_store", "home_goods_store", "general_contractor", "point_of_interest", "store", "establishment"], "rating": 4.7, "user_ratings_total": 18}, "ChIJyyuz2hsFdkgRCdKPdAah33g": {"geometry": {"location": {"lat": 51.4879807, "lng": -0.1488532}, "viewport": {"northeast": {"lat": 51.48932928029151, "lng": -0.147555469708498}, "southwest": {"lat": 51.48663131970851, "lng": -0.150253430291502}}}, "name": "British Transport Police", "place_id": "ChIJyyuz2hsFdkgRCdKPdAah33g", "types": ["police", "point_of_interest", "establishment"], "rating": 4, "user_ratings_total": 4}, "ChIJ14dzNRoFdkgRKlCQZ7rourY": {"geometry": {"location": {"lat": 51.487575, "lng": -0.149293}, "viewport": {"northeast": {"lat": 51.4889239802915, "lng": -0.147944019708498}, "southwest": {"lat": 51.4862260197085, "lng": -0.150641980291502}}}, "name": "NV Integration", "place_id": "ChIJ14dzNRoFdkgRKlCQZ7rourY", "types": ["electronics_store", "home_goods_store", "point_of_interest", "store", "establishment"], "rating": 5, "user_ratings_total": 2}, "ChIJExT_zBsFdkgRu1BTxaZT4vs": {"geometry": {"location": {"lat": 51.487873, "lng": -0.1497145}, "viewport": {"northeast": {"lat": 51.4891848802915, "lng": -0.148444319708498}, "southwest": {"lat": 51.4864869197085, "lng": -0.151142280291502}}}, "name": "The Locals Chelsea", "place_id": "ChIJExT_zBsFdkgRu1BTxaZT4vs", "types": ["restaurant", "food", "point_of_interest", "establishment"], "rating": 4.4, "user_ratings_total": 390}, "ChIJ57Vnf-8adkgRRyyXezHISH0": {"geometry": {"location": {"lat": 51.4876494, "lng": -0.1496591}, "viewport": {"northeast": {"lat": 51.48899838029151, "lng": -0.148310119708498}, "southwest": {"lat": 51.48630041970851, "lng": -0.151008080291502}}}, "name": "Chase Apartments", "place_id": "ChIJ57Vnf-8adkgRRyyXezHISH0", "types": ["real_estate_agency", "finance", "point_of_interest", "establishment"], "rating": 4.4, "user_ratings_total": 111}, "ChIJj9FQzhsFdkgRMHVXdbOpfGg": {"geometry": {"location": {"lat": 51.4877139, "lng": -0.1491167}, "viewport": {"northeast": {"lat": 51.4890546802915, "lng": -0.1481246697084979}, "southwest": {"lat": 51.4863567197085, "lng": -0.150822630291502}}}, "name": "Caro Point", "place_id": "ChIJj9FQzhsFdkgRMHVXdbOpfGg", "types": ["point_of_interest", "establishment"], "rating": 4, "user_ratings_total": 23}, "ChIJ42UAMBoFdkgREbu1hKPviYU": {"geometry": {"location": {"lat": 51.487961, "lng": -0.1492523}, "viewport": {"northeast": {"lat": 51.4892222802915, "lng": -0.1482065197084979}, "southwest": {"lat": 51.4865243197085, "lng": -0.150904480291502}}}, "name": "Lister Hosptital Delivery Bay", "place_id": "ChIJ42UAMBoFdkgREbu1hKPviYU", "types": ["hospital", "health", "point_of_interest", "establishment"]}, "ChIJ9To6MxoFdkgR4mzsRIPe6nU": {"geometry": {"location": {"lat": 51.487756, "lng": -0.149699}, "viewport": {"northeast": {"lat": 51.48910498029149, "lng": -0.1483500197084979}, "southwest": {"lat": 51.4864070197085, "lng": -0.151047980291502}}}, "name": "RESCO Results", "place_id": "ChIJ9To6MxoFdkgR4mzsRIPe6nU", "types": ["health", "point_of_interest", "establishment"]}, "ChIJo6zerhsFdkgRW0gV2wZVJ9s": {"geometry": {"location": {"lat": 51.48645529075289, "lng": -0.1490780645223642}, "viewport": {"northeast": {"lat": 51.4878040302915, "lng": -0.1477290697084979}, "southwest": {"lat": 51.4851060697085, "lng": -0.150427030291502}}}, "name": "Swing Bridge", "place_id": "ChIJo6zerhsFdkgRW0gV2wZVJ9s", "types": ["route"]}, "ChIJ8wo3shsFdkgR5QmpNaA3w9A": {"geometry": {"location": {"lat": 51.4867943, "lng": -0.1493523}, "viewport": {"northeast": {"lat": 51.48806648029149, "lng": -0.1480023197084979}, "southwest": {"lat": 51.48536851970849, "lng": -0.150700280291502}}}, "name": "PCPL Ltd", "place_id": "ChIJ8wo3shsFdkgR5QmpNaA3w9A", "types": ["real_estate_agency", "point_of_interest", "establishment"]}, "ChIJJws3shsFdkgRkMZNBRI8M3g": {"geometry": {"location": {"lat": 51.4867943, "lng": -0.1493524}, "viewport": {"northeast": {"lat": 51.4881432802915, "lng": -0.148003419708498}, "southwest": {"lat": 51.4854453197085, "lng": -0.150701380291502}}}, "name": "Mabes", "place_id": "ChIJJws3shsFdkgRkMZNBRI8M3g", "types": ["point_of_interest", "establishment"]}, "ChIJ6av7sxsFdkgR_RTEOxagbVU": {"geometry": {"location": {"lat": 51.48696419999999, "lng": -0.1493065}, "viewport": {"northeast": {"lat": 51.48831318029149, "lng": -0.147957519708498}, "southwest": {"lat": 51.48561521970849, "lng": -0.150655480291502}}}, "name": "The Thames Stone and Negative Fall", "place_id": "ChIJ6av7sxsFdkgR_RTEOxagbVU", "types": ["point_of_interest", "establishment"]}, "ChIJuSSkrwkFdkgRuJ4GD9jIXBM": {"geometry": {"location": {"lat": 51.48705099999999, "lng": -0.1486628}, "viewport": {"northeast": {"lat": 51.4885599302915, "lng": -0.147939669708498}, "southwest": {"lat": 51.4858619697085, "lng": -0.150637630291502}}}, "name": "Purple Dragon", "place_id": "ChIJuSSkrwkFdkgRuJ4GD9jIXBM", "types": ["point_of_interest", "establishment"], "rating": 4.2, "user_ratings_total": 121}, "ChIJpemlz9sFdkgRxiTX-HzGFhs": {"geometry": {"location": {"lat": 51.4867943, "lng": -0.1493524}, "viewport": {"northeast": {"lat": 51.4881432802915, "lng": -0.148003419708498}, "southwest": {"lat": 51.4854453197085, "lng": -0.150701380291502}}}, "name": "Elevate Tutors", "place_id": "ChIJpemlz9sFdkgRxiTX-HzGFhs", "types": ["point_of_interest", "establishment"], "rating": 4.9, "user_ratings_total": 8}, "ChIJjQo3shsFdkgRe5CO4NJARe4": {"geometry": {"location": {"lat": 51.4867943, "lng": -0.1493524}, "viewport": {"northeast": {"lat": 51.48806648029149, "lng": -0.148002419708498}, "southwest": {"lat": 51.48536851970849, "lng": -0.150700380291502}}}, "name": "W1Events & Wedding Mission", "place_id": "ChIJjQo3shsFdkgRe5CO4NJARe4", "types": ["point_of_interest", "establishment"]}, "ChIJjQo3shsFdkgRbHqgj7JVdBA": {"geometry": {"location": {"lat": 51.4867943, "lng": -0.1493524}, "viewport": {"northeast": {"lat": 51.48806648029149, "lng": -0.148002419708498}, "southwest": {"lat": 51.48536851970849, "lng": -0.150700380291502}}}, "name": "Grosvenor Waterside Estate Management Office", "place_id": "ChIJjQo3shsFdkgRbHqgj7JVdBA", "types": ["point_of_interest", "establishment"], "rating": 5, "user_ratings_total": 3}, "ChIJd__RiRkFdkgRdC1MctTua68": {"geometry": {"location": {"lat": 51.48867465002086, "lng": -0.1505913501572505}, "viewport": {"northeast": {"lat": 51.4900236302915, "lng": -0.1492423697084979}, "southwest": {"lat": 51.4873256697085, "lng": -0.151940330291502}}}, "name": "Ebury Bridge Road", "place_id": "ChIJd__RiRkFdkgRdC1MctTua68", "types": ["route"]}, "ChIJuwIahxkFdkgR_wraY5qcL4g": {"geometry": {"location": {"lat": 51.4888201, "lng": -0.1503183}, "viewport": {"northeast": {"lat": 51.4901880802915, "lng": -0.149043469708498}, "southwest": {"lat": 51.4874901197085, "lng": -0.151741430291502}}}, "name": "Kamila London's Award winning Beauty Specialist", "place_id": "ChIJuwIahxkFdkgR_wraY5qcL4g", "types": ["beauty_salon", "point_of_interest", "establishment"], "rating": 5, "user_ratings_total": 1}, "ChIJKRebJhoFdkgRSZpSA1-DCiA": {"geometry": {"location": {"lat": 51.4883335, "lng": -0.1506193}, "viewport": {"northeast": {"lat": 51.48955808029149, "lng": -0.149361919708498}, "southwest": {"lat": 51.4868601197085, "lng": -0.152059880291502}}}, "name": "GlobalMax Line", "place_id": "ChIJKRebJhoFdkgRSZpSA1-DCiA", "types": ["point_of_interest", "establishment"]}, "ChIJB1YqKW0FdkgRjX9Koo9wF2w": {"geometry": {"location": {"lat": 51.4888902, "lng": -0.1504517}, "viewport": {"northeast": {"lat": 51.4902262302915, "lng": -0.1490531697084979}, "southwest": {"lat": 51.4875282697085, "lng": -0.151751130291502}}}, "name": "Manufactured Culture", "place_id": "ChIJB1YqKW0FdkgRjX9Koo9wF2w", "types": ["furniture_store", "home_goods_store", "point_of_interest", "store", "establishment"], "rating": 5, "user_ratings_total": 7}, "ChIJhycKipQFdkgRyyGrZVa5M88": {"geometry": {"location": {"lat": 51.4886833, "lng": -0.1504553}, "viewport": {"northeast": {"lat": 51.4900468802915, "lng": -0.149161369708498}, "southwest": {"lat": 51.4873489197085, "lng": -0.151859330291502}}}, "name": "Heir Wardrobe", "place_id": "ChIJhycKipQFdkgRyyGrZVa5M88", "types": ["point_of_interest", "clothing_store", "store", "establishment"]}, "ChIJZTlejlIFdkgRA2vNCgRI57I": {"geometry": {"location": {"lat": 51.48895599999999, "lng": -0.1504005}, "viewport": {"northeast": {"lat": 51.4903049802915, "lng": -0.149051519708498}, "southwest": {"lat": 51.4876070197085, "lng": -0.151749480291502}}}, "name": "Glow Organic", "place_id": "ChIJZTlejlIFdkgRA2vNCgRI57I", "types": ["point_of_interest", "store", "establishment"]}, "ChIJFX4khRkFdkgRiH0V9HM4hJ8": {"geometry": {"location": {"lat": 51.489052, "lng": -0.150274}, "viewport": {"northeast": {"lat": 51.4904048302915, "lng": -0.148944319708498}, "southwest": {"lat": 51.4877068697085, "lng": -0.151642280291502}}}, "name": "Ebury Bridge Road", "place_id": "ChIJFX4khRkFdkgRiH0V9HM4hJ8", "types": ["transit_station", "point_of_interest", "establishment"]}, "ChIJiWlsPvkFdkgRhwkVFvIAhE8": {"geometry": {"location": {"lat": 51.4890958, "lng": -0.1503259}, "viewport": {"northeast": {"lat": 51.49045278029149, "lng": -0.149025719708498}, "southwest": {"lat": 51.4877548197085, "lng": -0.151723680291502}}}, "name": "Each x Every", "place_id": "ChIJiWlsPvkFdkgRhwkVFvIAhE8", "types": ["point_of_interest", "establishment"]}, "ChIJ83qjtJAFdkgRUXH_EwYq0KM": {"geometry": {"location": {"lat": 51.4890958, "lng": -0.1503259}, "viewport": {"northeast": {"lat": 51.49045278029149, "lng": -0.149025719708498}, "southwest": {"lat": 51.4877548197085, "lng": -0.151723680291502}}}, "name": "Ebury by Fat Macy's", "place_id": "ChIJ83qjtJAFdkgRUXH_EwYq0KM", "types": ["restaurant", "food", "point_of_interest", "establishment"], "rating": 4.7, "user_ratings_total": 24}, "ChIJbQqGTWCFdUgRKwMVtFsAQ1k": {"geometry": {"location": {"lat": 51.4891431, "lng": -0.1503581}, "viewport": {"northeast": {"lat": 51.4904922302915, "lng": -0.149010219708498}, "southwest": {"lat": 51.4877942697085, "lng": -0.151708180291502}}}, "name": "Glow Organic", "place_id": "ChIJbQqGTWCFdUgRKwMVtFsAQ1k", "types": ["point_of_interest", "store", "establishment"], "rating": 5, "user_ratings_total": 4}, "ChIJAz67XtMFdkgRznhpD3zMGaU": {"geometry": {"location": {"lat": 51.4890841, "lng": -0.1502487}, "viewport": {"northeast": {"lat": 51.49043733029149, "lng": -0.148927719708498}, "southwest": {"lat": 51.4877393697085, "lng": -0.151625680291502}}}, "name": "Car wash", "place_id": "ChIJAz67XtMFdkgRznhpD3zMGaU", "types": ["shopping_mall", "cafe", "real_estate_agency", "food", "point_of_interest", "establishment"], "rating": 1, "user_ratings_total": 1}, "ChIJkxEQsAsFdkgRC4Rl_7a3FR8": {"geometry": {"location": {"lat": 51.48890220000001, "lng": -0.1500057}, "viewport": {"northeast": {"lat": 51.4902921802915, "lng": -0.148846269708498}, "southwest": {"lat": 51.4875942197085, "lng": -0.151544230291502}}}, "name": "Ebury Edge", "place_id": "ChIJkxEQsAsFdkgRC4Rl_7a3FR8", "types": ["point_of_interest", "establishment"]}, "ChIJJU7VULEFdkgRBITj7NMX5WY": {"geometry": {"location": {"lat": 51.48859109999999, "lng": -0.1500448}, "viewport": {"northeast": {"lat": 51.4900078802915, "lng": -0.148951269708498}, "southwest": {"lat": 51.4873099197085, "lng": -0.151649230291502}}}, "name": "Learning and Skills Solutions", "place_id": "ChIJJU7VULEFdkgRBITj7NMX5WY", "types": ["point_of_interest", "establishment"]}, "ChIJc0TiPvcFdkgRLTHjOXe-E0c": {"geometry": {"location": {"lat": 51.4891895, "lng": -0.1501651}, "viewport": {"northeast": {"lat": 51.4905459802915, "lng": -0.148878419708498}, "southwest": {"lat": 51.4878480197085, "lng": -0.151576380291502}}}, "name": "Clay Habitat (Ebury Edge)", "place_id": "ChIJc0TiPvcFdkgRLTHjOXe-E0c", "types": ["art_gallery", "point_of_interest", "store", "establishment"], "rating": 5, "user_ratings_total": 2}, "ChIJVZoqIhoFdkgRCr-9s4Yozmg": {"geometry": {"location": {"lat": 51.4883035, "lng": -0.1509414}, "viewport": {"northeast": {"lat": 51.48964423029149, "lng": -0.149560169708498}, "southwest": {"lat": 51.4869462697085, "lng": -0.152258130291502}}}, "name": "MACE", "place_id": "ChIJVZoqIhoFdkgRCr-9s4Yozmg", "types": ["point_of_interest", "establishment"]}, "ChIJpepVPRoFdkgRuSBOl0A0r20": {"geometry": {"location": {"lat": 51.48797875004706, "lng": -0.1510688003505917}, "viewport": {"northeast": {"lat": 51.4893277302915, "lng": -0.149719819708498}, "southwest": {"lat": 51.4866297697085, "lng": -0.152417780291502}}}, "name": "119 Ebury Bridge Rd", "place_id": "ChIJpepVPRoFdkgRuSBOl0A0r20", "types": ["route"]}, "ChIJO-y4pSEFdkgRrl7Hg2PitlI": {"geometry": {"location": {"lat": 51.487661, "lng": -0.14988}, "viewport": {"northeast": {"lat": 51.4890099802915, "lng": -0.148532819708498}, "southwest": {"lat": 51.4863120197085, "lng": -0.151230780291502}}}, "name": "Victoria Bed and Breakfast Hotel", "place_id": "ChIJO-y4pSEFdkgRrl7Hg2PitlI", "types": ["lodging", "point_of_interest", "establishment"], "rating": 3.4, "user_ratings_total": 9}, "ChIJNS5oJBoFdkgR7WA0iMWmYgM": {"geometry": {"location": {"lat": 51.48818010000001, "lng": -0.1507589}, "viewport": {"northeast": {"lat": 51.48948453029151, "lng": -0.149442719708498}, "southwest": {"lat": 51.48678656970851, "lng": -0.152140680291502}}}, "name": "Sainsbury's Bank ATM", "place_id": "ChIJNS5oJBoFdkgR7WA0iMWmYgM", "types": ["atm", "finance", "point_of_interest", "establishment"]}, "ChIJoz38IhoFdkgR_8RSmgKf8lI": {"geometry": {"location": {"lat": 51.48823549999999, "lng": -0.1507196}, "viewport": {"northeast": {"lat": 51.4895070302915, "lng": -0.149404919708498}, "southwest": {"lat": 51.48680906970851, "lng": -0.152102880291502}}}, "name": "Sainsbury's Local", "place_id": "ChIJoz38IhoFdkgR_8RSmgKf8lI", "types": ["supermarket", "convenience_store", "grocery_or_supermarket", "food", "point_of_interest", "store", "establishment"], "rating": 4, "user_ratings_total": 46}, "ChIJD9uKFRoFdkgRTgAHoySWdZA": {"geometry": {"location": {"lat": 51.4875253, "lng": -0.1510671}, "viewport": {"northeast": {"lat": 51.4889112802915, "lng": -0.149852419708498}, "southwest": {"lat": 51.4862133197085, "lng": -0.152550380291502}}}, "name": "Richard Birtchnell The London Toastmaster", "place_id": "ChIJD9uKFRoFdkgRTgAHoySWdZA", "types": ["point_of_interest", "establishment"], "rating": 5, "user_ratings_total": 5}, "ChIJVVXJPBoFdkgR2f8Ps3IJYyk": {"geometry": {"location": {"lat": 51.4879566, "lng": -0.1508628}, "viewport": {"northeast": {"lat": 51.4893306302915, "lng": -0.149607119708498}, "southwest": {"lat": 51.48663266970851, "lng": -0.152305080291502}}}, "name": "junk-masters ltd", "place_id": "ChIJVVXJPBoFdkgR2f8Ps3IJYyk", "types": ["point_of_interest", "establishment"]}, "ChIJBduKFRoFdkgR1YJCq7Vaf78": {"geometry": {"location": {"lat": 51.487563, "lng": -0.1511224}, "viewport": {"northeast": {"lat": 51.4889395302915, "lng": -0.149873419708498}, "southwest": {"lat": 51.4862415697085, "lng": -0.152571380291502}}}, "name": "London Fami Clinic HQ", "place_id": "ChIJBduKFRoFdkgR1YJCq7Vaf78", "types": ["doctor", "health", "point_of_interest", "establishment"], "rating": 4.5, "user_ratings_total": 15}, "ChIJlUKAHuQFdkgR0z0jJIzuRto": {"geometry": {"location": {"lat": 51.4875295, "lng": -0.1512229}, "viewport": {"northeast": {"lat": 51.4888959302915, "lng": -0.149942719708498}, "southwest": {"lat": 51.4861979697085, "lng": -0.152640680291502}}}, "name": "Chelsea Gate apartments", "place_id": "ChIJlUKAHuQFdkgR0z0jJIzuRto", "types": ["point_of_interest", "establishment"], "rating": 5, "user_ratings_total": 1}, "ChIJ17wfSxoFdkgRjPeY6C3SMOM": {"geometry": {"location": {"lat": 51.4881705, "lng": -0.150713}, "viewport": {"northeast": {"lat": 51.48947348029149, "lng": -0.149397919708498}, "southwest": {"lat": 51.4867755197085, "lng": -0.152095880291502}}}, "name": "ATM", "place_id": "ChIJ17wfSxoFdkgRjPeY6C3SMOM", "types": ["atm", "finance", "point_of_interest", "establishment"]}, "ChIJe6edHysFdkgRwfT49nx8eAI": {"geometry": {"location": {"lat": 51.48775850000001, "lng": -0.150029}, "viewport": {"northeast": {"lat": 51.4891450302915, "lng": -0.148634019708498}, "southwest": {"lat": 51.4864470697085, "lng": -0.151331980291502}}}, "name": "school", "place_id": "ChIJe6edHysFdkgRwfT49nx8eAI", "types": ["school", "point_of_interest", "establishment"]}, "ChIJ5xrxIhoFdkgRm7vdzHMSpz0": {"geometry": {"location": {"lat": 51.4879841, "lng": -0.1513751}, "viewport": {"northeast": {"lat": 51.4892979802915, "lng": -0.149895419708498}, "southwest": {"lat": 51.4866000197085, "lng": -0.152593380291502}}}, "name": "Chelsea Barracks - Site Office", "place_id": "ChIJ5xrxIhoFdkgRm7vdzHMSpz0", "types": ["general_contractor", "point_of_interest", "establishment"], "rating": 3.9, "user_ratings_total": 120}, "ChIJeeISJBoFdkgR6aPHrl8ZVo8": {"geometry": {"location": {"lat": 51.48823059999999, "lng": -0.1506921}, "viewport": {"northeast": {"lat": 51.48950628029149, "lng": -0.149397119708498}, "southwest": {"lat": 51.48680831970849, "lng": -0.152095080291502}}}, "name": "Curamos Ltd", "place_id": "ChIJeeISJBoFdkgR6aPHrl8ZVo8", "types": ["health", "point_of_interest", "establishment"]}, "ChIJPUIeXRoFdkgREFIrzQTzBSQ": {"geometry": {"location": {"lat": 51.48656230012065, "lng": -0.1509133495895614}, "viewport": {"northeast": {"lat": 51.4879112802915, "lng": -0.149564369708498}, "southwest": {"lat": 51.48521331970851, "lng": -0.152262330291502}}}, "name": "Chelsea Bridge Road", "place_id": "ChIJPUIeXRoFdkgREFIrzQTzBSQ", "types": ["route"]}, "ChIJY4oLWxoFdkgRWtNSBPfK4iI": {"geometry": {"location": {"lat": 51.4864726, "lng": -0.1501081}, "viewport": {"northeast": {"lat": 51.4877226802915, "lng": -0.149072819708498}, "southwest": {"lat": 51.4850247197085, "lng": -0.151770780291502}}}, "name": "The Lister Hospital", "place_id": "ChIJY4oLWxoFdkgRWtNSBPfK4iI", "types": ["hospital", "health", "point_of_interest", "establishment"], "rating": 3.5, "user_ratings_total": 123}, "ChIJY4oLWxoFdkgRrc0GPD8MTQY": {"geometry": {"location": {"lat": 51.48654119999999, "lng": -0.1505999}, "viewport": {"northeast": {"lat": 51.48784463029149, "lng": -0.149189419708498}, "southwest": {"lat": 51.48514666970849, "lng": -0.151887380291502}}}, "name": "All About Spines", "place_id": "ChIJY4oLWxoFdkgRrc0GPD8MTQY", "types": ["hospital", "health", "point_of_interest", "establishment"], "rating": 5, "user_ratings_total": 1}, "ChIJsw6-WhoFdkgRW9RnTw9aBJY": {"geometry": {"location": {"lat": 51.4865857, "lng": -0.1504436}, "viewport": {"northeast": {"lat": 51.4878668802915, "lng": -0.149186519708498}, "southwest": {"lat": 51.4851689197085, "lng": -0.151884480291502}}}, "name": "Adam Searle", "place_id": "ChIJsw6-WhoFdkgRW9RnTw9aBJY", "types": ["doctor", "health", "point_of_interest", "establishment"]}, "ChIJj8cLWxoFdkgRfrMDg5PwZ9k": {"geometry": {"location": {"lat": 51.4865266, "lng": -0.1504191}, "viewport": {"northeast": {"lat": 51.4878429302915, "lng": -0.149174269708498}, "southwest": {"lat": 51.4851449697085, "lng": -0.151872230291502}}}, "name": "London Foot and Ankle Centre", "place_id": "ChIJj8cLWxoFdkgRfrMDg5PwZ9k", "types": ["doctor", "health", "point_of_interest", "establishment"]}, "ChIJwQt-phAFdkgRNuzvaGbIDI8": {"geometry": {"location": {"lat": 51.4864393, "lng": -0.1505276}, "viewport": {"northeast": {"lat": 51.48775733029149, "lng": -0.149231419708498}, "southwest": {"lat": 51.4850593697085, "lng": -0.151929380291502}}}, "name": "Enrique Saavedra LMS FRCS", "place_id": "ChIJwQt-phAFdkgRNuzvaGbIDI8", "types": ["doctor", "health", "point_of_interest", "establishment"], "rating": 5, "user_ratings_total": 2}, "ChIJgaPWaxoFdkgRapTf_l7qwD8": {"geometry": {"location": {"lat": 51.4870135, "lng": -0.1504427}, "viewport": {"northeast": {"lat": 51.48851338029149, "lng": -0.149641169708498}, "southwest": {"lat": 51.48581541970849, "lng": -0.152339130291502}}}, "name": "singing lessons london", "place_id": "ChIJgaPWaxoFdkgRapTf_l7qwD8", "types": ["school", "point_of_interest", "establishment"], "rating": 4.9, "user_ratings_total": 30}, "ChIJBd8bQBoFdkgRxo3BJiqh6iI": {"geometry": {"location": {"lat": 51.4870135, "lng": -0.1504427}, "viewport": {"northeast": {"lat": 51.4883190802915, "lng": -0.149141369708498}, "southwest": {"lat": 51.4856211197085, "lng": -0.151839330291502}}}, "name": "Care Home Entertainment London", "place_id": "ChIJBd8bQBoFdkgRxo3BJiqh6iI", "types": ["point_of_interest", "establishment"], "rating": 5, "user_ratings_total": 9}, "ChIJLy6UbRoFdkgRrjgVGAr5x-4": {"geometry": {"location": {"lat": 51.4864714, "lng": -0.1500845}, "viewport": {"northeast": {"lat": 51.4877127802915, "lng": -0.148917969708498}, "southwest": {"lat": 51.4850148197085, "lng": -0.151615930291502}}}, "name": "Tania Adib - London Gynaecologist", "place_id": "ChIJLy6UbRoFdkgRrjgVGAr5x-4", "types": ["doctor", "health", "point_of_interest", "establishment"], "rating": 5, "user_ratings_total": 1}, "ChIJwb3BbRoFdkgRTDgT-wD9eXE": {"geometry": {"location": {"lat": 51.4869306, "lng": -0.1512489}, "viewport": {"northeast": {"lat": 51.48824168029149, "lng": -0.149961469708498}, "southwest": {"lat": 51.4855437197085, "lng": -0.152659430291502}}}, "name": "J S Medical Supplies Ltd", "place_id": "ChIJwb3BbRoFdkgRTDgT-wD9eXE", "types": ["health", "point_of_interest", "store", "establishment"]}, "ChIJtQ6-WhoFdkgR3ZQOGd5rGWs": {"geometry": {"location": {"lat": 51.48693299999999, "lng": -0.1512452}, "viewport": {"northeast": {"lat": 51.48824288029149, "lng": -0.1499596197084979}, "southwest": {"lat": 51.4855449197085, "lng": -0.152657580291502}}}, "name": "London Pain Management", "place_id": "ChIJtQ6-WhoFdkgR3ZQOGd5rGWs", "types": ["doctor", "health", "point_of_interest", "establishment"]}, "ChIJY4oLWxoFdkgRaSgLHBdA9mQ": {"geometry": {"location": {"lat": 51.48693299999999, "lng": -0.1512452}, "viewport": {"northeast": {"lat": 51.48824288029149, "lng": -0.1499596197084979}, "southwest": {"lat": 51.4855449197085, "lng": -0.152657580291502}}}, "name": "David Oram", "place_id": "ChIJY4oLWxoFdkgRaSgLHBdA9mQ", "types": ["health", "point_of_interest", "establishment"]}, "ChIJy_8sVxoFdkgRfkvHVQhcjpY": {"geometry": {"location": {"lat": 51.4863264, "lng": -0.1502223}, "viewport": {"northeast": {"lat": 51.4876244802915, "lng": -0.148963669708498}, "southwest": {"lat": 51.4849265197085, "lng": -0.151661630291502}}}, "name": "Dr David Game", "place_id": "ChIJy_8sVxoFdkgRfkvHVQhcjpY", "types": ["doctor", "health", "point_of_interest", "establishment"]}, "ChIJy_8sVxoFdkgRv_kDA0waAYg": {"geometry": {"location": {"lat": 51.4863264, "lng": -0.1502223}, "viewport": {"northeast": {"lat": 51.4876244802915, "lng": -0.148963669708498}, "southwest": {"lat": 51.4849265197085, "lng": -0.151661630291502}}}, "name": "Back4life", "place_id": "ChIJy_8sVxoFdkgRv_kDA0waAYg", "types": ["health", "point_of_interest", "establishment"]}, "ChIJfQIuLxcFdkgRpwq8gkIry_M": {"geometry": {"location": {"lat": 51.48624179999999, "lng": -0.1502361}, "viewport": {"northeast": {"lat": 51.4875610802915, "lng": -0.148939869708498}, "southwest": {"lat": 51.4848631197085, "lng": -0.151637830291502}}}, "name": "Lister Fertility Clinic", "place_id": "ChIJfQIuLxcFdkgRpwq8gkIry_M", "types": ["health", "point_of_interest", "establishment"], "rating": 3.6, "user_ratings_total": 58}, "ChIJF8zVWhoFdkgRG7CHpR4pjII": {"geometry": {"location": {"lat": 51.4868071, "lng": -0.15105}, "viewport": {"northeast": {"lat": 51.4881176802915, "lng": -0.149762619708498}, "southwest": {"lat": 51.4854197197085, "lng": -0.152460580291502}}}, "name": "James Calder Consultant Orthopaedic Foot and Ankle Surgeon", "place_id": "ChIJF8zVWhoFdkgRG7CHpR4pjII", "types": ["doctor", "health", "point_of_interest", "establishment"]}, "ChIJU7UIIb0FdkgRvWFOxSqYIRY": {"geometry": {"location": {"lat": 51.48678889999999, "lng": -0.1506823}, "viewport": {"northeast": {"lat": 51.4880485802915, "lng": -0.149485219708498}, "southwest": {"lat": 51.4853506197085, "lng": -0.152183180291502}}}, "name": "Amgad Nakhla MBBCh MSc MRCS FRCS (Tr & Orth) Orthopaedic Consultant; Consultant Hip & Knee Surgeon", "place_id": "ChIJU7UIIb0FdkgRvWFOxSqYIRY", "types": ["doctor", "health", "point_of_interest", "establishment"]}, "ChIJ18OUlagFdkgRt9ugDmbO2OI": {"geometry": {"location": {"lat": 51.4865525, "lng": -0.1505168}, "viewport": {"northeast": {"lat": 51.4878502802915, "lng": -0.149189419708498}, "southwest": {"lat": 51.4851523197085, "lng": -0.151887380291502}}}, "name": "Nick Ferran @ Shoulder & Elbow London Ltd", "place_id": "ChIJ18OUlagFdkgRt9ugDmbO2OI", "types": ["doctor", "health", "point_of_interest", "establishment"]}, "ChIJ__-7WhoFdkgRhFO6nMmY8gs": {"geometry": {"location": {"lat": 51.4866009, "lng": -0.1504394}, "viewport": {"northeast": {"lat": 51.4878744802915, "lng": -0.149184419708498}, "southwest": {"lat": 51.4851765197085, "lng": -0.151882380291502}}}, "name": "Mr Parag Patel ENT Consultant Surgeon", "place_id": "ChIJ__-7WhoFdkgRhFO6nMmY8gs", "types": ["doctor", "health", "point_of_interest", "establishment"], "rating": 5, "user_ratings_total": 2}, "ChIJY4oLWxoFdkgR6ST2NiDacbQ": {"geometry": {"location": {"lat": 51.4865856, "lng": -0.1504437}, "viewport": {"northeast": {"lat": 51.48786683029149, "lng": -0.149186569708498}, "southwest": {"lat": 51.4851688697085, "lng": -0.151884530291502}}}, "name": "Hugh Byrne - Consultant Obstetrician and Gynaecologist", "place_id": "ChIJY4oLWxoFdkgR6ST2NiDacbQ", "types": ["health", "point_of_interest", "establishment"], "rating": 5, "user_ratings_total": 1}, "ChIJtQ6-WhoFdkgRZNW37FuwLYs": {"geometry": {"location": {"lat": 51.4865856, "lng": -0.1504436}, "viewport": {"northeast": {"lat": 51.48786683029149, "lng": -0.149186519708498}, "southwest": {"lat": 51.4851688697085, "lng": -0.151884480291502}}}, "name": "Womb Transplant UK", "place_id": "ChIJtQ6-WhoFdkgRZNW37FuwLYs", "types": ["point_of_interest", "establishment"]}, "ChIJDeVSSPUFdkgRblB5Did2zj4": {"geometry": {"location": {"lat": 51.48659730000001, "lng": -0.1504338000000001}, "viewport": {"northeast": {"lat": 51.4878726802915, "lng": -0.149181619708498}, "southwest": {"lat": 51.4851747197085, "lng": -0.151879580291502}}}, "name": "Miss Alice Bremner-Smith", "place_id": "ChIJDeVSSPUFdkgRblB5Did2zj4", "types": ["doctor", "health", "point_of_interest", "establishment"]}, "ChIJD0wAqoIJdkgRYqyWGO448cU": {"geometry": {"location": {"lat": 51.48659730000001, "lng": -0.1504338000000001}, "viewport": {"northeast": {"lat": 51.4878726802915, "lng": -0.149181619708498}, "southwest": {"lat": 51.4851747197085, "lng": -0.151879580291502}}}, "name": "Mr Mohamed Abdelhamid", "place_id": "ChIJD0wAqoIJdkgRYqyWGO448cU", "types": ["doctor", "health", "point_of_interest", "establishment"]}, "ChIJY4oLWxoFdkgRi3q0xLNfUbE": {"geometry": {"location": {"lat": 51.48651890000001, "lng": -0.1504877}, "viewport": {"northeast": {"lat": 51.4878429302915, "lng": -0.149189419708498}, "southwest": {"lat": 51.4851449697085, "lng": -0.151887380291502}}}, "name": "Scurr J H", "place_id": "ChIJY4oLWxoFdkgRi3q0xLNfUbE", "types": ["health", "point_of_interest", "establishment"]}, "ChIJO3_0WhoFdkgR66EA5iwdjmo": {"geometry": {"location": {"lat": 51.48652000000001, "lng": -0.1504774}, "viewport": {"northeast": {"lat": 51.4878429302915, "lng": -0.149189419708498}, "southwest": {"lat": 51.4851449697085, "lng": -0.151887380291502}}}, "name": "JSL Yoon", "place_id": "ChIJO3_0WhoFdkgR66EA5iwdjmo", "types": ["hospital", "health", "point_of_interest", "establishment"], "rating": 4.2, "user_ratings_total": 5}, "ChIJY4oLWxoFdkgRJ_qO_Mxb-qE": {"geometry": {"location": {"lat": 51.48652000000001, "lng": -0.1504774}, "viewport": {"northeast": {"lat": 51.4878429302915, "lng": -0.149189419708498}, "southwest": {"lat": 51.4851449697085, "lng": -0.151887380291502}}}, "name": "Dr Andrew Markey", "place_id": "ChIJY4oLWxoFdkgRJ_qO_Mxb-qE", "types": ["doctor", "health", "point_of_interest", "establishment"]}, "ChIJO3_0WhoFdkgRSFITgj2mMEg": {"geometry": {"location": {"lat": 51.4865247, "lng": -0.1504702}, "viewport": {"northeast": {"lat": 51.4878429302915, "lng": -0.149189419708498}, "southwest": {"lat": 51.4851449697085, "lng": -0.151887380291502}}}, "name": "Mr J Meirion Thomas MS FRCS FRCP", "place_id": "ChIJO3_0WhoFdkgRSFITgj2mMEg", "types": ["doctor", "health", "point_of_interest", "establishment"], "rating": 5, "user_ratings_total": 5}, "ChIJk7eyWxoFdkgRB4Zmc4lkTdM": {"geometry": {"location": {"lat": 51.48648659999999, "lng": -0.1505104}, "viewport": {"northeast": {"lat": 51.4878429302915, "lng": -0.149189419708498}, "southwest": {"lat": 51.4851449697085, "lng": -0.151887380291502}}}, "name": "BCOSTC", "place_id": "ChIJk7eyWxoFdkgRB4Zmc4lkTdM", "types": ["point_of_interest", "establishment"]}, "ChIJQ655sPAFdkgRoACU0TQqBx4": {"geometry": {"location": {"lat": 51.4864816, "lng": -0.1504672}, "viewport": {"northeast": {"lat": 51.4878429302915, "lng": -0.149189419708498}, "southwest": {"lat": 51.4851449697085, "lng": -0.151887380291502}}}, "name": "Mr Luke Jones, Knee Surgeon", "place_id": "ChIJQ655sPAFdkgRoACU0TQqBx4", "types": ["doctor", "health", "point_of_interest", "establishment"]}, "ChIJ01qhgBIPdkgRJqc0zdwgF8k": {"geometry": {"location": {"lat": 51.4866603, "lng": -0.1503336}, "viewport": {"northeast": {"lat": 51.4878962302915, "lng": -0.149177419708498}, "southwest": {"lat": 51.4851982697085, "lng": -0.151875380291502}}}, "name": "Professor Zoe Winters London Breast Health Consultant Breast Cancer Surgeon & Breast Specialist", "place_id": "ChIJ01qhgBIPdkgRJqc0zdwgF8k", "types": ["hospital", "doctor", "health", "point_of_interest", "establishment"]}, "ChIJDdLtJ7QFdkgRB8YpAqGNUvU": {"geometry": {"location": {"lat": 51.48690819999999, "lng": -0.1506528}, "viewport": {"northeast": {"lat": 51.4882770802915, "lng": -0.149281969708498}, "southwest": {"lat": 51.4855791197085, "lng": -0.151979930291502}}}, "name": "SALK-TECH ELECTRIC", "place_id": "ChIJDdLtJ7QFdkgRB8YpAqGNUvU", "types": ["electrician", "point_of_interest", "establishment"], "rating": 5, "user_ratings_total": 4}, "ChIJqwEiQBoFdkgRlLQeYAsMC5Q": {"geometry": {"location": {"lat": 51.48690819999999, "lng": -0.1506528}, "viewport": {"northeast": {"lat": 51.4882770802915, "lng": -0.149281969708498}, "southwest": {"lat": 51.4855791197085, "lng": -0.151979930291502}}}, "name": "DK Painting & Decorating, Home Improvements", "place_id": "ChIJqwEiQBoFdkgRlLQeYAsMC5Q", "types": ["painter", "general_contractor", "point_of_interest", "establishment"], "rating": 5, "user_ratings_total": 10}, "ChIJ8anw6rgFdkgRSRYnBDLVqRY": {"geometry": {"location": {"lat": 51.48690819999999, "lng": -0.1506528}, "viewport": {"northeast": {"lat": 51.4882770802915, "lng": -0.149281969708498}, "southwest": {"lat": 51.4855791197085, "lng": -0.151979930291502}}}, "name": "Deler Photography - Portrait Photographer", "place_id": "ChIJ8anw6rgFdkgRSRYnBDLVqRY", "types": ["point_of_interest", "establishment"]}, "ChIJFdMtVBoFdkgRL3M8aneg3NU": {"geometry": {"location": {"lat": 51.4864264, "lng": -0.1504034}, "viewport": {"northeast": {"lat": 51.4877534302915, "lng": -0.149155269708498}, "southwest": {"lat": 51.4850554697085, "lng": -0.151853230291502}}}, "name": "HCA UK Urgent Care Centre - Chelsea", "place_id": "ChIJFdMtVBoFdkgRL3M8aneg3NU", "types": ["hospital", "health", "point_of_interest", "establishment"], "rating": 4.4, "user_ratings_total": 7}, "ChIJs9gkjW4FdkgRXPdPsCzXChM": {"geometry": {"location": {"lat": 51.4864726, "lng": -0.1501081}, "viewport": {"northeast": {"lat": 51.4877173802915, "lng": -0.148935819708498}, "southwest": {"lat": 51.4850194197085, "lng": -0.151633780291502}}}, "name": "Emma Cannon", "place_id": "ChIJs9gkjW4FdkgRXPdPsCzXChM", "types": ["health", "point_of_interest", "establishment"], "rating": 4.2, "user_ratings_total": 5}, "ChIJUeKqrmYFdkgRmmxgyUR16sM": {"geometry": {"location": {"lat": 51.4864244, "lng": -0.1501405}, "viewport": {"northeast": {"lat": 51.48768563029149, "lng": -0.148940419708498}, "southwest": {"lat": 51.4849876697085, "lng": -0.151638380291502}}}, "name": "Mr Charles Rivi\u00e8re - Physiological Hip & Knee Replacement", "place_id": "ChIJUeKqrmYFdkgRmmxgyUR16sM", "types": ["doctor", "health", "point_of_interest", "establishment"], "rating": 5, "user_ratings_total": 6}, "ChIJeRDxURoFdkgRGB0IJAJhiN0": {"geometry": {"location": {"lat": 51.4866107, "lng": -0.1500371}, "viewport": {"northeast": {"lat": 51.48773208029151, "lng": -0.148836269708498}, "southwest": {"lat": 51.48503411970851, "lng": -0.151534230291502}}}, "name": "\u0645\u0633\u062a\u0634\u0641\u0649 \u0644\u0633\u062a\u0631", "place_id": "ChIJeRDxURoFdkgRGB0IJAJhiN0", "types": ["hospital", "health", "point_of_interest", "establishment"], "rating": 5, "user_ratings_total": 1}, "ChIJiZMe-UYFdkgRFc-EfDY5Nng": {"geometry": {"location": {"lat": 51.486315, "lng": -0.1502747}, "viewport": {"northeast": {"lat": 51.4876237302915, "lng": -0.148997069708498}, "southwest": {"lat": 51.4849257697085, "lng": -0.1516950302915021}}}, "name": "Dr Kinesh Patel", "place_id": "ChIJiZMe-UYFdkgRFc-EfDY5Nng", "types": ["doctor", "health", "point_of_interest", "establishment"]}, "ChIJndI1VxoFdkgR2sWRUdtkIBE": {"geometry": {"location": {"lat": 51.486318, "lng": -0.150269}, "viewport": {"northeast": {"lat": 51.4876251802915, "lng": -0.148994169708498}, "southwest": {"lat": 51.4849272197085, "lng": -0.151692130291502}}}, "name": "Mr. Raef Faris", "place_id": "ChIJndI1VxoFdkgR2sWRUdtkIBE", "types": ["doctor", "health", "point_of_interest", "establishment"], "rating": 3.8, "user_ratings_total": 4}, "ChIJbc8Ohh4RdkgRrWoOpteCZis": {"geometry": {"location": {"lat": 51.4863988, "lng": -0.1500914}, "viewport": {"northeast": {"lat": 51.4876830302915, "lng": -0.148931369708498}, "southwest": {"lat": 51.4849850697085, "lng": -0.151629330291502}}}, "name": "Lister Hospital", "place_id": "ChIJbc8Ohh4RdkgRrWoOpteCZis", "types": ["hospital", "health", "point_of_interest", "establishment"], "rating": 5, "user_ratings_total": 2}, "ChIJkzDUTxoFdkgRz9x2P26OtNM": {"geometry": {"location": {"lat": 51.486726, "lng": -0.1502133}, "viewport": {"northeast": {"lat": 51.48809280206519, "lng": -0.1488733076669514}, "southwest": {"lat": 51.48539484148219, "lng": -0.1515712682499554}}}, "name": "Parking lot", "place_id": "ChIJkzDUTxoFdkgRz9x2P26OtNM", "types": ["parking", "premise", "point_of_interest", "establishment"]}, "ChIJFT1UTRkFdkgRG1JUHtWWhKk": {"geometry": {"location": {"lat": 51.48932660000001, "lng": -0.1468347}, "viewport": {"northeast": {"lat": 51.49065738029151, "lng": -0.145512669708498}, "southwest": {"lat": 51.48795941970851, "lng": -0.148210630291502}}}, "name": "Westmoreland Terrace Sutherland Row (Stop J)", "place_id": "ChIJFT1UTRkFdkgRG1JUHtWWhKk", "types": ["bus_station", "transit_station", "point_of_interest", "establishment"], "rating": 5, "user_ratings_total": 2}, "ChIJxY9HAhwFdkgRXGvThSriTnc": {"geometry": {"location": {"lat": 51.4884832, "lng": -0.1463937}, "viewport": {"northeast": {"lat": 51.48985313029149, "lng": -0.144951669708498}, "southwest": {"lat": 51.48715516970849, "lng": -0.147649630291502}}}, "name": "The Anglo-Belgian Society", "place_id": "ChIJxY9HAhwFdkgRXGvThSriTnc", "types": ["point_of_interest", "establishment"]}, "ChIJeUKM-MoFdkgR5hGftV1Sno0": {"geometry": {"location": {"lat": 51.48829929999999, "lng": -0.1467445}, "viewport": {"northeast": {"lat": 51.48963698029149, "lng": -0.145442719708498}, "southwest": {"lat": 51.48693901970849, "lng": -0.148140680291502}}}, "name": "Lovenhighlights", "place_id": "ChIJeUKM-MoFdkgR5hGftV1Sno0", "types": ["place_of_worship", "point_of_interest", "establishment"]}, "ChIJ92YwuBsFdkgR9Nb8HML_cm0": {"geometry": {"location": {"lat": 51.4871956, "lng": -0.1488108}, "viewport": {"northeast": {"lat": 51.4886607302915, "lng": -0.147996469708498}, "southwest": {"lat": 51.48596276970851, "lng": -0.150694430291502}}}, "name": "Belgravia Waterside Apartment", "place_id": "ChIJ92YwuBsFdkgR9Nb8HML_cm0", "types": ["lodging", "point_of_interest", "establishment"], "rating": 1, "user_ratings_total": 1}, "ChIJnVtwkL4IdkgRdvTcuNWyY3A": {"geometry": {"location": {"lat": 51.48720120000002, "lng": -0.148813}, "viewport": {"northeast": {"lat": 51.48855018029152, "lng": -0.147464019708498}, "southwest": {"lat": 51.48585221970852, "lng": -0.150161980291502}}}, "name": "Templeton Events Ltd", "place_id": "ChIJnVtwkL4IdkgRdvTcuNWyY3A", "types": ["point_of_interest", "establishment"], "rating": 5, "user_ratings_total": 1}, "ChIJFY3zlRsFdkgRk9cBtIL9RVM": {"geometry": {"location": {"lat": 51.4870609, "lng": -0.1480931}, "viewport": {"northeast": {"lat": 51.4882302802915, "lng": -0.146830569708498}, "southwest": {"lat": 51.4855323197085, "lng": -0.149528530291502}}}, "name": "Woods House", "place_id": "ChIJFY3zlRsFdkgRk9cBtIL9RVM", "types": ["lodging", "point_of_interest", "establishment"], "rating": 4.6, "user_ratings_total": 27}, "ChIJQQ-R-QgFdkgRlCsAb5HRXeo": {"geometry": {"location": {"lat": 51.4870258, "lng": -0.1481192}, "viewport": {"northeast": {"lat": 51.48821273029149, "lng": -0.146843619708498}, "southwest": {"lat": 51.48551476970849, "lng": -0.149541580291502}}}, "name": "Luxus London Beauty & Massage", "place_id": "ChIJQQ-R-QgFdkgRlCsAb5HRXeo", "types": ["beauty_salon", "point_of_interest", "establishment"]}, "ChIJmVHBNRoFdkgRGyM3jn3bPAg": {"geometry": {"location": {"lat": 51.4869902, "lng": -0.1480951}, "viewport": {"northeast": {"lat": 51.48819493029149, "lng": -0.1468315697084979}, "southwest": {"lat": 51.48549696970849, "lng": -0.149529530291502}}}, "name": "Gani Construction Ltd", "place_id": "ChIJmVHBNRoFdkgRGyM3jn3bPAg", "types": ["painter", "locksmith", "home_goods_store", "general_contractor", "point_of_interest", "store", "establishment"]}, "ChIJb8lX9PgFdkgRTq8oM-IBdPU": {"geometry": {"location": {"lat": 51.4871956, "lng": -0.1488108}, "viewport": {"northeast": {"lat": 51.4886607302915, "lng": -0.147996469708498}, "southwest": {"lat": 51.48596276970851, "lng": -0.150694430291502}}}, "name": "Bramah House", "place_id": "ChIJb8lX9PgFdkgRTq8oM-IBdPU", "types": ["point_of_interest", "establishment"]}, "ChIJF_4zJRoFdkgRgMQhamiKLgs": {"geometry": {"location": {"lat": 51.48795931041613, "lng": -0.1503635543235736}, "viewport": {"northeast": {"lat": 51.4893087802915, "lng": -0.149014219708498}, "southwest": {"lat": 51.4866108197085, "lng": -0.151712180291502}}}, "name": "103 Gatliff Rd", "place_id": "ChIJF_4zJRoFdkgRgMQhamiKLgs", "types": ["route"]}, "ChIJeYbCNRoFdkgRGjSXFBnvSZc": {"geometry": {"location": {"lat": 51.48741410844797, "lng": -0.1498884233310706}, "viewport": {"northeast": {"lat": 51.4887685302915, "lng": -0.148566119708498}, "southwest": {"lat": 51.4860705697085, "lng": -0.151264080291502}}}, "name": "9-20 Gatliff Rd", "place_id": "ChIJeYbCNRoFdkgRGjSXFBnvSZc", "types": ["route"]}, "ChIJx1RgNBoFdkgRL4_wLvtCI-U": {"geometry": {"location": {"lat": 51.487578, "lng": -0.149838}, "viewport": {"northeast": {"lat": 51.4889300802915, "lng": -0.148534919708498}, "southwest": {"lat": 51.4862321197085, "lng": -0.151232880291502}}}, "name": "Chelsea Waterside ArtSpace", "place_id": "ChIJx1RgNBoFdkgRL4_wLvtCI-U", "types": ["art_gallery", "point_of_interest", "establishment"], "rating": 4.1, "user_ratings_total": 8}, "ChIJWRWRNhoFdkgRQ7EZnn1tfgU": {"geometry": {"location": {"lat": 51.4871951, "lng": -0.1501785}, "viewport": {"northeast": {"lat": 51.4885964302915, "lng": -0.148737669708498}, "southwest": {"lat": 51.48589846970851, "lng": -0.151435630291502}}}, "name": "Bright Horizons Chelsea Day Nursery and Preschool", "place_id": "ChIJWRWRNhoFdkgRQ7EZnn1tfgU", "types": ["school", "point_of_interest", "establishment"], "rating": 4.2, "user_ratings_total": 10}, "ChIJ0YqiShoFdkgRdV5dyB-KCyI": {"geometry": {"location": {"lat": 51.4872905, "lng": -0.1497286}, "viewport": {"northeast": {"lat": 51.4886708302915, "lng": -0.148479719708498}, "southwest": {"lat": 51.4859728697085, "lng": -0.151177680291502}}}, "name": "Grosvenor Waterside Development", "place_id": "ChIJ0YqiShoFdkgRdV5dyB-KCyI", "types": ["point_of_interest", "establishment"], "rating": 4, "user_ratings_total": 16}, "ChIJcT5I3hoFdkgRECFdegEpl3k": {"geometry": {"location": {"lat": 51.4873501, "lng": -0.1497424}, "viewport": {"northeast": {"lat": 51.4887180302915, "lng": -0.1484743197084979}, "southwest": {"lat": 51.4860200697085, "lng": -0.151172280291502}}}, "name": "NOATerapi Londra - Uzm.Psikolog/Psikoterapist Nuray \u00d6zben Av\u015far", "place_id": "ChIJcT5I3hoFdkgRECFdegEpl3k", "types": ["health", "point_of_interest", "establishment"], "rating": 5, "user_ratings_total": 14}, "ChIJmVHBNRoFdkgR32_RDqX5Et8": {"geometry": {"location": {"lat": 51.4874226, "lng": -0.1499393}, "viewport": {"northeast": {"lat": 51.4887711802915, "lng": -0.148588569708498}, "southwest": {"lat": 51.4860732197085, "lng": -0.151286530291502}}}, "name": "Help a Child Ltd", "place_id": "ChIJmVHBNRoFdkgR32_RDqX5Et8", "types": ["point_of_interest", "establishment"]}, "ChIJRVjjXO8FdkgRsG5cgI5VW0U": {"geometry": {"location": {"lat": 51.4862111, "lng": -0.1500971}, "viewport": {"northeast": {"lat": 51.4875212302915, "lng": -0.1488387697084979}, "southwest": {"lat": 51.4848232697085, "lng": -0.151536730291502}}}, "name": "Ben Spiegelberg London Knee and Hip Surgeon", "place_id": "ChIJRVjjXO8FdkgRsG5cgI5VW0U", "types": ["doctor", "health", "point_of_interest", "establishment"], "rating": 5, "user_ratings_total": 1}, "ChIJt9zxqkIddkgRjmoj7pQ8RO8": {"geometry": {"location": {"lat": 51.4863514, "lng": -0.1497138}, "viewport": {"northeast": {"lat": 51.48770038029151, "lng": -0.148364819708498}, "southwest": {"lat": 51.48500241970851, "lng": -0.151062780291502}}}, "name": "Enterprise Car Club - Grosvenor Waterside Gatliff Road SW1W 8QN", "place_id": "ChIJt9zxqkIddkgRjmoj7pQ8RO8", "types": ["car_rental", "point_of_interest", "establishment"]}, "ChIJOdK_ahoFdkgR1Lcpq2t0l38": {"geometry": {"location": {"lat": 51.4872585, "lng": -0.1510886}, "viewport": {"northeast": {"lat": 51.4886418802915, "lng": -0.149926019708498}, "southwest": {"lat": 51.4859439197085, "lng": -0.152623980291502}}}, "name": "Irish Band London", "place_id": "ChIJOdK_ahoFdkgR1Lcpq2t0l38", "types": ["point_of_interest", "establishment"], "rating": 5, "user_ratings_total": 8}, "ChIJwb3BbRoFdkgRWvQVsI278Og": {"geometry": {"location": {"lat": 51.4871148, "lng": -0.151534}, "viewport": {"northeast": {"lat": 51.4884609302915, "lng": -0.150227819708498}, "southwest": {"lat": 51.4857629697085, "lng": -0.152925780291502}}}, "name": "West London Spine Clinic", "place_id": "ChIJwb3BbRoFdkgRWvQVsI278Og", "types": ["health", "point_of_interest", "establishment"]}, "ChIJMZ-W7PIFdkgRkFSz6mUf00s": {"geometry": {"location": {"lat": 51.48708389999999, "lng": -0.1515254}, "viewport": {"northeast": {"lat": 51.4883991302915, "lng": -0.150229819708498}, "southwest": {"lat": 51.4857011697085, "lng": -0.152927780291502}}}, "name": "Jerome K. Jerome Blue Plaque", "place_id": "ChIJMZ-W7PIFdkgRkFSz6mUf00s", "types": ["point_of_interest", "establishment"], "rating": 5, "user_ratings_total": 1}, "ChIJdWVubBoFdkgRyv2uPH0mu40": {"geometry": {"location": {"lat": 51.487092, "lng": -0.1514895}, "viewport": {"northeast": {"lat": 51.48839393029151, "lng": -0.150196819708498}, "southwest": {"lat": 51.48569596970851, "lng": -0.152894780291502}}}, "name": "Chelsea Gardens", "place_id": "ChIJdWVubBoFdkgRyv2uPH0mu40", "types": ["transit_station", "point_of_interest", "establishment"], "rating": 4.5, "user_ratings_total": 8}, "ChIJ3Z5MaxoFdkgRECYvd_OY9WI": {"geometry": {"location": {"lat": 51.4873138, "lng": -0.1514115}, "viewport": {"northeast": {"lat": 51.4886818302915, "lng": -0.150111169708498}, "southwest": {"lat": 51.48598386970851, "lng": -0.152809130291502}}}, "name": "Wellington Buildings", "place_id": "ChIJ3Z5MaxoFdkgRECYvd_OY9WI", "types": ["point_of_interest", "establishment"], "rating": 5, "user_ratings_total": 2}, "ChIJwb3BbRoFdkgRzgZWwM8W7b4": {"geometry": {"location": {"lat": 51.4870579, "lng": -0.1517459}, "viewport": {"northeast": {"lat": 51.4883987302915, "lng": -0.150409769708498}, "southwest": {"lat": 51.4857007697085, "lng": -0.153107730291502}}}, "name": "James Smellie Within the Lister Hospital", "place_id": "ChIJwb3BbRoFdkgRzgZWwM8W7b4", "types": ["health", "point_of_interest", "establishment"]}, "ChIJiyRZExoFdkgRQWQwhldfuLA": {"geometry": {"location": {"lat": 51.4874057, "lng": -0.1515395}, "viewport": {"northeast": {"lat": 51.4887522302915, "lng": -0.150181469708498}, "southwest": {"lat": 51.4860542697085, "lng": -0.152879430291502}}}, "name": "Paramount Heating", "place_id": "ChIJiyRZExoFdkgRQWQwhldfuLA", "types": ["general_contractor", "point_of_interest", "establishment"], "rating": 1, "user_ratings_total": 2}}}