{"E00175180": {"ChIJgyVpjt8EdkgRBDvxPOzMlNY": {"geometry": {"location": {"lat": 51.49562766033651, "lng": -0.1403937895489192}, "viewport": {"northeast": {"lat": 51.49695698029149, "lng": -0.138909369708498}, "southwest": {"lat": 51.49425901970849, "lng": -0.141607330291502}}}, "name": "2-1 Morpeth Terrace", "place_id": "ChIJgyVpjt8EdkgRBDvxPOzMlNY", "types": ["route"]}, "ChIJOygVLycFdkgRhyguzyhC0oY": {"geometry": {"location": {"lat": 51.49528120000001, "lng": -0.1396861}, "viewport": {"northeast": {"lat": 51.4965832802915, "lng": -0.138463419708498}, "southwest": {"lat": 51.4938853197085, "lng": -0.141161380291502}}}, "name": "4th City of Westminster Scouts", "place_id": "ChIJOygVLycFdkgRhyguzyhC0oY", "types": ["point_of_interest", "establishment"]}, "ChIJx3mSeiAFdkgRU93gXkgYppA": {"geometry": {"location": {"lat": 51.4949281, "lng": -0.1401767}, "viewport": {"northeast": {"lat": 51.49624128029149, "lng": -0.138918719708498}, "southwest": {"lat": 51.49354331970849, "lng": -0.141616680291502}}}, "name": "A G Chapman", "place_id": "ChIJx3mSeiAFdkgRU93gXkgYppA", "types": ["health", "point_of_interest", "establishment"]}, "ChIJ41LGid8EdkgRW4uUpAo0C28": {"geometry": {"location": {"lat": 51.4956457, "lng": -0.1405712}, "viewport": {"northeast": {"lat": 51.4969946802915, "lng": -0.139222219708498}, "southwest": {"lat": 51.4942967197085, "lng": -0.141920180291502}}}, "name": "Morpeth Terrace", "place_id": "ChIJ41LGid8EdkgRW4uUpAo0C28", "types": ["transit_station", "point_of_interest", "establishment"]}, "ChIJRWME8d8EdkgRiaya5J-rOG8": {"geometry": {"location": {"lat": 51.4947459, "lng": -0.1403467}, "viewport": {"northeast": {"lat": 51.4960948802915, "lng": -0.1389977197084979}, "southwest": {"lat": 51.4933969197085, "lng": -0.141695680291502}}}, "name": "Carlisle Mansions", "place_id": "ChIJRWME8d8EdkgRiaya5J-rOG8", "types": ["point_of_interest", "establishment"], "rating": 4, "user_ratings_total": 8}, "ChIJIfW1B-AEdkgRXvOCfK_kkYc": {"geometry": {"location": {"lat": 51.49378127434653, "lng": -0.1401651126173789}, "viewport": {"northeast": {"lat": 51.49512978029149, "lng": -0.138816719708498}, "southwest": {"lat": 51.4924318197085, "lng": -0.141514680291502}}}, "name": "228-218 A202", "place_id": "ChIJIfW1B-AEdkgRXvOCfK_kkYc", "types": ["route"]}, "ChIJ__-v_d8EdkgR_irGh9K-M7g": {"geometry": {"location": {"lat": 51.4940247, "lng": -0.1403558}, "viewport": {"northeast": {"lat": 51.4953307802915, "lng": -0.139065719708498}, "southwest": {"lat": 51.4926328197085, "lng": -0.1417636802915021}}}, "name": "Posh Westminster Suites by Sonder", "place_id": "ChIJ__-v_d8EdkgR_irGh9K-M7g", "types": ["lodging", "point_of_interest", "establishment"], "rating": 5, "user_ratings_total": 1}, "ChIJ81up_98EdkgRzdzXlz4ww44": {"geometry": {"location": {"lat": 51.4936977, "lng": -0.1404267}, "viewport": {"northeast": {"lat": 51.4951118802915, "lng": -0.138994019708498}, "southwest": {"lat": 51.4924139197085, "lng": -0.141691980291502}}}, "name": "Queen Mother Sports Centre", "place_id": "ChIJ81up_98EdkgRzdzXlz4ww44", "types": ["gym", "school", "health", "point_of_interest", "establishment"], "rating": 3.5, "user_ratings_total": 390}, "ChIJhzx7yLIadkgRfov7twkbDgc": {"geometry": {"location": {"lat": 51.4939042, "lng": -0.1407533}, "viewport": {"northeast": {"lat": 51.4953055302915, "lng": -0.139328819708498}, "southwest": {"lat": 51.4926075697085, "lng": -0.142026780291502}}}, "name": "Amedia - Accounting & Company formation", "place_id": "ChIJhzx7yLIadkgRfov7twkbDgc", "types": ["accounting", "finance", "point_of_interest", "establishment"], "rating": 5, "user_ratings_total": 8}, "ChIJh3uZ_d8EdkgRLOohyBBFOIo": {"geometry": {"location": {"lat": 51.4940131, "lng": -0.1402771}, "viewport": {"northeast": {"lat": 51.4953109802915, "lng": -0.139000919708498}, "southwest": {"lat": 51.4926130197085, "lng": -0.141698880291502}}}, "name": "Lucid Thinking", "place_id": "ChIJh3uZ_d8EdkgRLOohyBBFOIo", "types": ["point_of_interest", "establishment"]}, "ChIJZTeB-N8EdkgR05E_fjRxRMo": {"geometry": {"location": {"lat": 51.4944084, "lng": -0.1407712}, "viewport": {"northeast": {"lat": 51.4957573802915, "lng": -0.139422219708498}, "southwest": {"lat": 51.4930594197085, "lng": -0.142120180291502}}}, "name": "Brass Monkey", "place_id": "ChIJZTeB-N8EdkgR05E_fjRxRMo", "types": ["bar", "point_of_interest", "establishment"], "rating": 4.1, "user_ratings_total": 334}, "ChIJc_sv_98EdkgRprrdDIsuwFE": {"geometry": {"location": {"lat": 51.4940248, "lng": -0.140264}, "viewport": {"northeast": {"lat": 51.4953173802915, "lng": -0.138995369708498}, "southwest": {"lat": 51.4926194197085, "lng": -0.1416933302915021}}}, "name": "Stop Climate Chaos", "place_id": "ChIJc_sv_98EdkgRprrdDIsuwFE", "types": ["point_of_interest", "establishment"]}, "ChIJb-vP5N8EdkgR4xwDUht2hD8": {"geometry": {"location": {"lat": 51.49429180000001, "lng": -0.1400572}, "viewport": {"northeast": {"lat": 51.4956806302915, "lng": -0.138609119708498}, "southwest": {"lat": 51.4929826697085, "lng": -0.141307080291502}}}, "name": "Maran (UK) Ltd.", "place_id": "ChIJb-vP5N8EdkgR4xwDUht2hD8", "types": ["point_of_interest", "establishment"]}, "ChIJb-vP5N8EdkgR1ZkcC73yldg": {"geometry": {"location": {"lat": 51.4942983, "lng": -0.1400508}, "viewport": {"northeast": {"lat": 51.4956852802915, "lng": -0.138607369708498}, "southwest": {"lat": 51.4929873197085, "lng": -0.141305330291502}}}, "name": "Agelef Maritime", "place_id": "ChIJb-vP5N8EdkgR1ZkcC73yldg", "types": ["point_of_interest", "establishment"]}, "ChIJs_APgyEFdkgRa2pFRsHlI4I": {"geometry": {"location": {"lat": 51.4943422, "lng": -0.1400824}, "viewport": {"northeast": {"lat": 51.4957271802915, "lng": -0.138643869708498}, "southwest": {"lat": 51.4930292197085, "lng": -0.141341830291502}}}, "name": "Vectura Group", "place_id": "ChIJs_APgyEFdkgRa2pFRsHlI4I", "types": ["health", "point_of_interest", "establishment"], "rating": 5, "user_ratings_total": 1}, "ChIJR-25_d8EdkgR19lXF4P5tKg": {"geometry": {"location": {"lat": 51.4940209, "lng": -0.1403801}, "viewport": {"northeast": {"lat": 51.49536988029149, "lng": -0.139031119708498}, "southwest": {"lat": 51.4926719197085, "lng": -0.141729080291502}}}, "name": "Kings Scholars House", "place_id": "ChIJR-25_d8EdkgR19lXF4P5tKg", "types": ["lodging", "point_of_interest", "establishment"], "rating": 4.7, "user_ratings_total": 9}, "ChIJNRR24t8EdkgRABWfAhtJvMs": {"geometry": {"location": {"lat": 51.493906, "lng": -0.139878}, "viewport": {"northeast": {"lat": 51.49525503029151, "lng": -0.138565619708498}, "southwest": {"lat": 51.49255706970851, "lng": -0.141263580291502}}}, "name": "Fresh Perception", "place_id": "ChIJNRR24t8EdkgRABWfAhtJvMs", "types": ["school", "health", "point_of_interest", "establishment"]}, "ChIJSehqdd0cdkgRmCKEdT7L_Hk": {"geometry": {"location": {"lat": 51.4940604, "lng": -0.1396436}, "viewport": {"northeast": {"lat": 51.4954407802915, "lng": -0.138354619708498}, "southwest": {"lat": 51.4927428197085, "lng": -0.141052580291502}}}, "name": "Clear Village Charitable Trust", "place_id": "ChIJSehqdd0cdkgRmCKEdT7L_Hk", "types": ["point_of_interest", "establishment"], "rating": 4.5, "user_ratings_total": 2}, "ChIJX1sG4t8EdkgRSt1awOfMsdw": {"geometry": {"location": {"lat": 51.4939162, "lng": -0.1397953}, "viewport": {"northeast": {"lat": 51.49526528029151, "lng": -0.138531269708498}, "southwest": {"lat": 51.49256731970851, "lng": -0.141229230291502}}}, "name": "Small Works Victoria", "place_id": "ChIJX1sG4t8EdkgRSt1awOfMsdw", "types": ["point_of_interest", "establishment"], "rating": 1, "user_ratings_total": 1}, "ChIJFwck_98EdkgRFPIxcB362zY": {"geometry": {"location": {"lat": 51.49420019999999, "lng": -0.1406157}, "viewport": {"northeast": {"lat": 51.4954638802915, "lng": -0.139223719708498}, "southwest": {"lat": 51.4927659197085, "lng": -0.141921680291502}}}, "name": "PNB (Europe)", "place_id": "ChIJFwck_98EdkgRFPIxcB362zY", "types": ["bank", "finance", "point_of_interest", "establishment"], "rating": 3.6, "user_ratings_total": 21}, "ChIJZQ8K_N8EdkgRRPs3NnS8fmc": {"geometry": {"location": {"lat": 51.49427099999999, "lng": -0.1407018}, "viewport": {"northeast": {"lat": 51.4955903302915, "lng": -0.139439619708498}, "southwest": {"lat": 51.4928923697085, "lng": -0.142137580291502}}}, "name": "Masterfare", "place_id": "ChIJZQ8K_N8EdkgRRPs3NnS8fmc", "types": ["travel_agency", "point_of_interest", "establishment"], "rating": 4, "user_ratings_total": 10}, "ChIJAQuuC8oadkgRAQy4fSj_m-4": {"geometry": {"location": {"lat": 51.4937584, "lng": -0.1404681}, "viewport": {"northeast": {"lat": 51.49510738029151, "lng": -0.139119119708498}, "southwest": {"lat": 51.49240941970852, "lng": -0.1418170802915021}}}, "name": "Momo Kovacevic", "place_id": "ChIJAQuuC8oadkgRAQy4fSj_m-4", "types": ["point_of_interest", "establishment"], "rating": 5, "user_ratings_total": 1}, "ChIJM1gcAeAEdkgRKXjjAeL77_8": {"geometry": {"location": {"lat": 51.4937587, "lng": -0.1404689}, "viewport": {"northeast": {"lat": 51.4951619802915, "lng": -0.139055119708498}, "southwest": {"lat": 51.4924640197085, "lng": -0.141753080291502}}}, "name": "Albatross CX", "place_id": "ChIJM1gcAeAEdkgRKXjjAeL77_8", "types": ["point_of_interest", "establishment"]}, "ChIJSYaiciEFdkgR6MhQve49Bmg": {"geometry": {"location": {"lat": 51.4937873, "lng": -0.14057}, "viewport": {"northeast": {"lat": 51.4951936302915, "lng": -0.139139269708498}, "southwest": {"lat": 51.4924956697085, "lng": -0.141837230291502}}}, "name": "Greenwich Partners", "place_id": "ChIJSYaiciEFdkgR6MhQve49Bmg", "types": ["point_of_interest", "establishment"], "rating": 4.1, "user_ratings_total": 55}, "ChIJCVfeG7oEdkgRCialY2TVAC4": {"geometry": {"location": {"lat": 51.4937873, "lng": -0.14057}, "viewport": {"northeast": {"lat": 51.4951936302915, "lng": -0.139139269708498}, "southwest": {"lat": 51.4924956697085, "lng": -0.141837230291502}}}, "name": "JCA", "place_id": "ChIJCVfeG7oEdkgRCialY2TVAC4", "types": ["point_of_interest", "establishment"]}, "ChIJGwbDAOAEdkgRSJkv2KSE-vk": {"geometry": {"location": {"lat": 51.4937873, "lng": -0.14057}, "viewport": {"northeast": {"lat": 51.4951936302915, "lng": -0.139139269708498}, "southwest": {"lat": 51.4924956697085, "lng": -0.141837230291502}}}, "name": "BSE 3D - Building Services Consultants - London Office", "place_id": "ChIJGwbDAOAEdkgRSJkv2KSE-vk", "types": ["point_of_interest", "establishment"]}, "ChIJ_f_vFroEdkgRAISBStwpyxY": {"geometry": {"location": {"lat": 51.4937873, "lng": -0.14057}, "viewport": {"northeast": {"lat": 51.4951936302915, "lng": -0.139139269708498}, "southwest": {"lat": 51.4924956697085, "lng": -0.141837230291502}}}, "name": "MASSERIA KAGGIO Italian Luxury Food", "place_id": "ChIJ_f_vFroEdkgRAISBStwpyxY", "types": ["food", "point_of_interest", "establishment"], "rating": 5, "user_ratings_total": 3}, "ChIJM1gcAeAEdkgR2YW5v7ehGw4": {"geometry": {"location": {"lat": 51.4937873, "lng": -0.14057}, "viewport": {"northeast": {"lat": 51.4951936302915, "lng": -0.139139269708498}, "southwest": {"lat": 51.4924956697085, "lng": -0.141837230291502}}}, "name": "Serendi Recruitment Services (UK) Ltd.", "place_id": "ChIJM1gcAeAEdkgR2YW5v7ehGw4", "types": ["point_of_interest", "establishment"]}, "ChIJmSMdppSn2EcRnOS8WxFInO0": {"geometry": {"location": {"lat": 51.4937873, "lng": -0.14057}, "viewport": {"northeast": {"lat": 51.4951936302915, "lng": -0.139139269708498}, "southwest": {"lat": 51.4924956697085, "lng": -0.141837230291502}}}, "name": "Positive Effects", "place_id": "ChIJmSMdppSn2EcRnOS8WxFInO0", "types": ["health", "point_of_interest", "establishment"], "rating": 5, "user_ratings_total": 2}, "ChIJGwbDAOAEdkgRGjhFUpbLckU": {"geometry": {"location": {"lat": 51.4937873, "lng": -0.14057}, "viewport": {"northeast": {"lat": 51.4951936302915, "lng": -0.139139269708498}, "southwest": {"lat": 51.4924956697085, "lng": -0.141837230291502}}}, "name": "ACP Rail International", "place_id": "ChIJGwbDAOAEdkgRGjhFUpbLckU", "types": ["travel_agency", "point_of_interest", "establishment"], "rating": 1, "user_ratings_total": 4}, "ChIJLZfu_98EdkgRSNg_kzNxSwM": {"geometry": {"location": {"lat": 51.49391189999999, "lng": -0.1407465}, "viewport": {"northeast": {"lat": 51.4953100302915, "lng": -0.139326619708498}, "southwest": {"lat": 51.4926120697085, "lng": -0.142024580291502}}}, "name": "Ayalaland International Marketing", "place_id": "ChIJLZfu_98EdkgRSNg_kzNxSwM", "types": ["point_of_interest", "establishment"]}, "ChIJq9Xe_98EdkgRBiGjCBPLPaU": {"geometry": {"location": {"lat": 51.49391189999999, "lng": -0.1407464}, "viewport": {"northeast": {"lat": 51.4953100302915, "lng": -0.139326569708498}, "southwest": {"lat": 51.4926120697085, "lng": -0.142024530291502}}}, "name": "National Casino Forum", "place_id": "ChIJq9Xe_98EdkgRBiGjCBPLPaU", "types": ["point_of_interest", "establishment"]}, "ChIJq9Xe_98EdkgRGd7Tnaxs9FU": {"geometry": {"location": {"lat": 51.49391189999999, "lng": -0.1407464}, "viewport": {"northeast": {"lat": 51.4953100302915, "lng": -0.139326569708498}, "southwest": {"lat": 51.4926120697085, "lng": -0.142024530291502}}}, "name": "Cyrenians", "place_id": "ChIJq9Xe_98EdkgRGd7Tnaxs9FU", "types": ["point_of_interest", "establishment"]}, "ChIJs9Xe_98EdkgRMzy9u0959rg": {"geometry": {"location": {"lat": 51.49391189999999, "lng": -0.1407465}, "viewport": {"northeast": {"lat": 51.4953100302915, "lng": -0.139326619708498}, "southwest": {"lat": 51.4926120697085, "lng": -0.142024580291502}}}, "name": "London Cyrenians Housing", "place_id": "ChIJs9Xe_98EdkgRMzy9u0959rg", "types": ["point_of_interest", "establishment"]}, "ChIJeWXNMSwFdkgRv8EkdifiBcQ": {"geometry": {"location": {"lat": 51.493922, "lng": -0.1407723}, "viewport": {"northeast": {"lat": 51.4953213302915, "lng": -0.139350719708498}, "southwest": {"lat": 51.4926233697085, "lng": -0.142048680291502}}}, "name": "Embassy of Mauritania", "place_id": "ChIJeWXNMSwFdkgRv8EkdifiBcQ", "types": ["embassy", "point_of_interest", "establishment"], "rating": 5, "user_ratings_total": 2}, "ChIJYauW-N8EdkgR9lG-jgD7k9M": {"geometry": {"location": {"lat": 51.4943535, "lng": -0.1407643}, "viewport": {"northeast": {"lat": 51.4957024802915, "lng": -0.139415319708498}, "southwest": {"lat": 51.4930045197085, "lng": -0.142113280291502}}}, "name": "INAS CISL UK", "place_id": "ChIJYauW-N8EdkgR9lG-jgD7k9M", "types": ["point_of_interest", "establishment"], "rating": 4.9, "user_ratings_total": 17}, "ChIJvYvC-qUEdkgR3tMu6TgBmwE": {"geometry": {"location": {"lat": 51.49377500000001, "lng": -0.140606}, "viewport": {"northeast": {"lat": 51.49519033029151, "lng": -0.139162469708498}, "southwest": {"lat": 51.49249236970851, "lng": -0.141860430291502}}}, "name": "OtB Concrete Ltd.", "place_id": "ChIJvYvC-qUEdkgR3tMu6TgBmwE", "types": ["point_of_interest", "establishment"]}, "ChIJeUfm_98EdkgRgdjBMJM0QyE": {"geometry": {"location": {"lat": 51.4939368, "lng": -0.1407838}, "viewport": {"northeast": {"lat": 51.4953322302915, "lng": -0.139362569708498}, "southwest": {"lat": 51.4926342697085, "lng": -0.1420605302915021}}}, "name": "INDEPENDENT PANEL FOR CASINO AND BINGO ARBITRATION", "place_id": "ChIJeUfm_98EdkgRgdjBMJM0QyE", "types": ["courthouse", "point_of_interest", "establishment"]}, "ChIJ__8LjSQQdkgRullfxrl1c3I": {"geometry": {"location": {"lat": 51.4937996, "lng": -0.140677}, "viewport": {"northeast": {"lat": 51.4952201302915, "lng": -0.139229819708498}, "southwest": {"lat": 51.4925221697085, "lng": -0.141927780291502}}}, "name": "Cultural Agenda", "place_id": "ChIJ__8LjSQQdkgRullfxrl1c3I", "types": ["point_of_interest", "establishment"], "rating": 5, "user_ratings_total": 1}, "ChIJSYaiciEFdkgREofmFVhJ7zU": {"geometry": {"location": {"lat": 51.4936838, "lng": -0.1405128}, "viewport": {"northeast": {"lat": 51.4951153302915, "lng": -0.139057919708498}, "southwest": {"lat": 51.4924173697085, "lng": -0.141755880291502}}}, "name": "TRL Ltd", "place_id": "ChIJSYaiciEFdkgREofmFVhJ7zU", "types": ["point_of_interest", "establishment"], "rating": 3, "user_ratings_total": 2}, "ChIJkUTV598EdkgRnuwT92xmw-8": {"geometry": {"location": {"lat": 51.4945575, "lng": -0.139549}, "viewport": {"northeast": {"lat": 51.4959427302915, "lng": -0.138113319708498}, "southwest": {"lat": 51.4932447697085, "lng": -0.140811280291502}}}, "name": "Maslinski & Co", "place_id": "ChIJkUTV598EdkgRnuwT92xmw-8", "types": ["point_of_interest", "establishment"]}, "ChIJM1gcAeAEdkgRBeY4O3tazFQ": {"geometry": {"location": {"lat": 51.493724, "lng": -0.1406177}, "viewport": {"northeast": {"lat": 51.4951554302915, "lng": -0.1391512197084979}, "southwest": {"lat": 51.4924574697085, "lng": -0.141849180291502}}}, "name": "Equerry", "place_id": "ChIJM1gcAeAEdkgRBeY4O3tazFQ", "types": ["point_of_interest", "establishment"], "rating": 1, "user_ratings_total": 1}, "ChIJM1gcAeAEdkgR6bXVQiyo_eo": {"geometry": {"location": {"lat": 51.493724, "lng": -0.1406177}, "viewport": {"northeast": {"lat": 51.4951554302915, "lng": -0.1391512197084979}, "southwest": {"lat": 51.4924574697085, "lng": -0.141849180291502}}}, "name": "Advising Health & Social-Care", "place_id": "ChIJM1gcAeAEdkgR6bXVQiyo_eo", "types": ["health", "point_of_interest", "establishment"]}, "ChIJM1gcAeAEdkgRHeiN5KTzj7Y": {"geometry": {"location": {"lat": 51.493724, "lng": -0.1406177}, "viewport": {"northeast": {"lat": 51.4950729802915, "lng": -0.139268719708498}, "southwest": {"lat": 51.4923750197085, "lng": -0.141966680291502}}}, "name": "Wellman Clean", "place_id": "ChIJM1gcAeAEdkgRHeiN5KTzj7Y", "types": ["point_of_interest", "establishment"], "rating": 5, "user_ratings_total": 2}, "ChIJM1gcAeAEdkgRJGF1uKMXQjA": {"geometry": {"location": {"lat": 51.493724, "lng": -0.1406177}, "viewport": {"northeast": {"lat": 51.4951554302915, "lng": -0.1391512197084979}, "southwest": {"lat": 51.4924574697085, "lng": -0.141849180291502}}}, "name": "ICash Capital Ltd", "place_id": "ChIJM1gcAeAEdkgRJGF1uKMXQjA", "types": ["finance", "point_of_interest", "establishment"], "rating": 5, "user_ratings_total": 1}, "ChIJlUte5t4EdkgRBCH-CqVV-PY": {"geometry": {"location": {"lat": 51.493724, "lng": -0.140618}, "viewport": {"northeast": {"lat": 51.49515548029149, "lng": -0.139151469708498}, "southwest": {"lat": 51.49245751970849, "lng": -0.141849430291502}}}, "name": "Circular Wave", "place_id": "ChIJlUte5t4EdkgRBCH-CqVV-PY", "types": ["point_of_interest", "establishment"]}, "ChIJM1gcAeAEdkgRKlD1eHLIIr8": {"geometry": {"location": {"lat": 51.493724, "lng": -0.140618}, "viewport": {"northeast": {"lat": 51.4950729802915, "lng": -0.139269019708498}, "southwest": {"lat": 51.4923750197085, "lng": -0.141966980291502}}}, "name": "Mary Nanny", "place_id": "ChIJM1gcAeAEdkgRKlD1eHLIIr8", "types": ["point_of_interest", "establishment"]}, "ChIJPXGovBgFdkgRp3r8bom-iyk": {"geometry": {"location": {"lat": 51.4942873, "lng": -0.1400958}, "viewport": {"northeast": {"lat": 51.4956822802915, "lng": -0.138632469708498}, "southwest": {"lat": 51.4929843197085, "lng": -0.141330430291502}}}, "name": "Somerset Capital Management", "place_id": "ChIJPXGovBgFdkgRp3r8bom-iyk", "types": ["finance", "point_of_interest", "establishment"], "rating": 2.7, "user_ratings_total": 57}, "ChIJZcTBKLsFdkgRyzKGAQYE4lY": {"geometry": {"location": {"lat": 51.49412040000001, "lng": -0.1400439}, "viewport": {"northeast": {"lat": 51.4954276802915, "lng": -0.138613019708498}, "southwest": {"lat": 51.4927297197085, "lng": -0.1413109802915021}}}, "name": "Luxury Car Transportation Westminster", "place_id": "ChIJZcTBKLsFdkgRyzKGAQYE4lY", "types": ["car_repair", "point_of_interest", "establishment"]}, "ChIJI4qMLLcFdkgR472zQl1a0CQ": {"geometry": {"location": {"lat": 51.4939833, "lng": -0.1398983}, "viewport": {"northeast": {"lat": 51.4953268302915, "lng": -0.138535619708498}, "southwest": {"lat": 51.4926288697085, "lng": -0.141233580291502}}}, "name": "Hotel Londres", "place_id": "ChIJI4qMLLcFdkgR472zQl1a0CQ", "types": ["lodging", "point_of_interest", "establishment"]}, "ChIJh3uZ_d8EdkgRwbXb_DEQpLc": {"geometry": {"location": {"lat": 51.4940131, "lng": -0.1402771}, "viewport": {"northeast": {"lat": 51.4953109802915, "lng": -0.139000919708498}, "southwest": {"lat": 51.4926130197085, "lng": -0.141698880291502}}}, "name": "Gardner Austin LLP", "place_id": "ChIJh3uZ_d8EdkgRwbXb_DEQpLc", "types": ["lawyer", "point_of_interest", "establishment"]}, "ChIJMzgJ_d8EdkgR13SV1TAgynY": {"geometry": {"location": {"lat": 51.49401, "lng": -0.14029}, "viewport": {"northeast": {"lat": 51.49531078029149, "lng": -0.139009719708498}, "southwest": {"lat": 51.49261281970849, "lng": -0.141707680291502}}}, "name": "VAUXHALL BRIDGE ROAD", "place_id": "ChIJMzgJ_d8EdkgR13SV1TAgynY", "types": ["lodging", "point_of_interest", "establishment"], "rating": 2, "user_ratings_total": 1}, "ChIJCzUI_d8EdkgRc16qDHyFaa0": {"geometry": {"location": {"lat": 51.49401510000001, "lng": -0.1403045}, "viewport": {"northeast": {"lat": 51.4953166802915, "lng": -0.139023069708498}, "southwest": {"lat": 51.49261871970851, "lng": -0.141721030291502}}}, "name": "Nsc Global Ltd", "place_id": "ChIJCzUI_d8EdkgRc16qDHyFaa0", "types": ["point_of_interest", "establishment"]}, "ChIJYylkACAFdkgRx-1X2hIHzWc": {"geometry": {"location": {"lat": 51.4943146, "lng": -0.1399516}, "viewport": {"northeast": {"lat": 51.4956850802915, "lng": -0.138549119708498}, "southwest": {"lat": 51.4929871197085, "lng": -0.141247080291502}}}, "name": "The Eaton Town House", "place_id": "ChIJYylkACAFdkgRx-1X2hIHzWc", "types": ["lodging", "point_of_interest", "establishment"], "rating": 3.9, "user_ratings_total": 46}, "ChIJa7xY5N8EdkgR8vg4dFVthE0": {"geometry": {"location": {"lat": 51.494331, "lng": -0.1399712}, "viewport": {"northeast": {"lat": 51.4956831802915, "lng": -0.138555619708498}, "southwest": {"lat": 51.4929852197085, "lng": -0.141253580291502}}}, "name": "Beacon Platform", "place_id": "ChIJa7xY5N8EdkgR8vg4dFVthE0", "types": ["point_of_interest", "establishment"], "rating": 3.7, "user_ratings_total": 3}, "ChIJz-Xz5N8EdkgRK262juZI0fM": {"geometry": {"location": {"lat": 51.49433099999999, "lng": -0.1399711}, "viewport": {"northeast": {"lat": 51.49570183029149, "lng": -0.138567769708498}, "southwest": {"lat": 51.49300386970849, "lng": -0.141265730291502}}}, "name": "Outshore", "place_id": "ChIJz-Xz5N8EdkgRK262juZI0fM", "types": ["point_of_interest", "establishment"]}, "ChIJS5ty6hkFdkgR5D61rEWKFb0": {"geometry": {"location": {"lat": 51.49392820000001, "lng": -0.1398421}, "viewport": {"northeast": {"lat": 51.4952772302915, "lng": -0.1385546697084979}, "southwest": {"lat": 51.4925792697085, "lng": -0.141252630291502}}}, "name": "7clouds ltd London office", "place_id": "ChIJS5ty6hkFdkgR5D61rEWKFb0", "types": ["point_of_interest", "establishment"]}, "ChIJc_sv_98EdkgRvPlinyIYQgU": {"geometry": {"location": {"lat": 51.49418869999999, "lng": -0.1405403}, "viewport": {"northeast": {"lat": 51.4954812302915, "lng": -0.139279069708498}, "southwest": {"lat": 51.4927832697085, "lng": -0.141977030291502}}}, "name": "Lyris", "place_id": "ChIJc_sv_98EdkgRvPlinyIYQgU", "types": ["point_of_interest", "establishment"]}, "ChIJlRTP_t8EdkgR9oNq1hULaiI": {"geometry": {"location": {"lat": 51.4941967, "lng": -0.140611}, "viewport": {"northeast": {"lat": 51.49550463029149, "lng": -0.139341469708498}, "southwest": {"lat": 51.49280666970849, "lng": -0.142039430291502}}}, "name": "Diamond Offshore Drilling (Uk) Limited.", "place_id": "ChIJlRTP_t8EdkgR9oNq1hULaiI", "types": ["general_contractor", "point_of_interest", "establishment"], "rating": 2, "user_ratings_total": 2}, "ChIJlRTP_t8EdkgRtZUyR9FFroA": {"geometry": {"location": {"lat": 51.4941967, "lng": -0.140611}, "viewport": {"northeast": {"lat": 51.49550463029149, "lng": -0.139341469708498}, "southwest": {"lat": 51.49280666970849, "lng": -0.142039430291502}}}, "name": "\u062e\u0648\u062f\u067e\u0631\u062f\u0627\u0632 \u0628\u0627\u0646\u06a9", "place_id": "ChIJlRTP_t8EdkgRtZUyR9FFroA", "types": ["atm", "finance", "point_of_interest", "establishment"]}, "ChIJaQ3Z_98EdkgR4FMNK15qHeE": {"geometry": {"location": {"lat": 51.4937583, "lng": -0.1402001}, "viewport": {"northeast": {"lat": 51.4951072802915, "lng": -0.1388510697084979}, "southwest": {"lat": 51.49240931970851, "lng": -0.141549030291502}}}, "name": "Tandex Services Ltd", "place_id": "ChIJaQ3Z_98EdkgR4FMNK15qHeE", "types": ["point_of_interest", "establishment"], "rating": 5, "user_ratings_total": 3}, "ChIJV5oq_98EdkgRlF3wMRineW8": {"geometry": {"location": {"lat": 51.4942225, "lng": -0.1406806}, "viewport": {"northeast": {"lat": 51.4955399302915, "lng": -0.139402819708498}, "southwest": {"lat": 51.4928419697085, "lng": -0.1421007802915021}}}, "name": "Gardeners Waterloo", "place_id": "ChIJV5oq_98EdkgRlF3wMRineW8", "types": ["general_contractor", "point_of_interest", "establishment"]}, "ChIJV5oq_98EdkgRlh-SBaSXJ2I": {"geometry": {"location": {"lat": 51.4942225, "lng": -0.1406806}, "viewport": {"northeast": {"lat": 51.4955399302915, "lng": -0.139402819708498}, "southwest": {"lat": 51.4928419697085, "lng": -0.1421007802915021}}}, "name": "Mandatewire", "place_id": "ChIJV5oq_98EdkgRlh-SBaSXJ2I", "types": ["point_of_interest", "establishment"]}, "ChIJWTkh-d8EdkgRrY8GNclHdsk": {"geometry": {"location": {"lat": 51.4942948, "lng": -0.1406628}, "viewport": {"northeast": {"lat": 51.49560448029149, "lng": -0.139422219708498}, "southwest": {"lat": 51.49290651970849, "lng": -0.1421201802915021}}}, "name": "David Uri Memorial Trust", "place_id": "ChIJWTkh-d8EdkgRrY8GNclHdsk", "types": ["point_of_interest", "establishment"]}, "ChIJVwTpcuAEdkgRu5Hk52ybuxE": {"geometry": {"location": {"lat": 51.49335660044564, "lng": -0.1392639488814403}, "viewport": {"northeast": {"lat": 51.4947055802915, "lng": -0.137914969708498}, "southwest": {"lat": 51.4920076197085, "lng": -0.140612930291502}}}, "name": "193-209 A202", "place_id": "ChIJVwTpcuAEdkgRu5Hk52ybuxE", "types": ["route"]}, "ChIJn5rzHuAEdkgRlRctaI9r1go": {"geometry": {"location": {"lat": 51.49290730000001, "lng": -0.1404695}, "viewport": {"northeast": {"lat": 51.4942242802915, "lng": -0.139211419708498}, "southwest": {"lat": 51.49152631970851, "lng": -0.141909380291502}}}, "name": "Preto Victoria", "place_id": "ChIJn5rzHuAEdkgRlRctaI9r1go", "types": ["restaurant", "food", "point_of_interest", "establishment"], "rating": 4.1, "user_ratings_total": 1395}, "ChIJUeiGnCEFdkgRQn8M4wRRW_s": {"geometry": {"location": {"lat": 51.492758, "lng": -0.139835}, "viewport": {"northeast": {"lat": 51.4940715302915, "lng": -0.138597569708498}, "southwest": {"lat": 51.4913735697085, "lng": -0.141295530291502}}}, "name": "The Belgravia Centre Central London", "place_id": "ChIJUeiGnCEFdkgRQn8M4wRRW_s", "types": ["hair_care", "pharmacy", "health", "point_of_interest", "store", "establishment"], "rating": 4.5, "user_ratings_total": 381}, "ChIJyVvsH-AEdkgRGcXLKqKrmJA": {"geometry": {"location": {"lat": 51.4926778, "lng": -0.1405889}, "viewport": {"northeast": {"lat": 51.4940507802915, "lng": -0.139199169708498}, "southwest": {"lat": 51.4913528197085, "lng": -0.141897130291502}}}, "name": "Kazan", "place_id": "ChIJyVvsH-AEdkgRGcXLKqKrmJA", "types": ["bar", "restaurant", "food", "point_of_interest", "establishment"], "rating": 4.4, "user_ratings_total": 1208}, "ChIJW5xvHeAEdkgRywrT6Jn4zDo": {"geometry": {"location": {"lat": 51.4931709, "lng": -0.1407742}, "viewport": {"northeast": {"lat": 51.4944777802915, "lng": -0.139513469708498}, "southwest": {"lat": 51.4917798197085, "lng": -0.142211430291502}}}, "name": "Loco Mexicano", "place_id": "ChIJW5xvHeAEdkgRywrT6Jn4zDo", "types": ["restaurant", "food", "point_of_interest", "establishment"], "rating": 4.1, "user_ratings_total": 846}, "ChIJO4o1PeAEdkgRLNFFN_NLdEc": {"geometry": {"location": {"lat": 51.4925231, "lng": -0.1401175}, "viewport": {"northeast": {"lat": 51.4938505302915, "lng": -0.138813669708498}, "southwest": {"lat": 51.4911525697085, "lng": -0.141511630291502}}}, "name": "Seafresh", "place_id": "ChIJO4o1PeAEdkgRLNFFN_NLdEc", "types": ["meal_takeaway", "restaurant", "food", "point_of_interest", "establishment"], "rating": 4.3, "user_ratings_total": 849}, "ChIJG4cmPuAEdkgRCwaEFDNDA9I": {"geometry": {"location": {"lat": 51.4927576, "lng": -0.139642}, "viewport": {"northeast": {"lat": 51.49415928029151, "lng": -0.138347569708498}, "southwest": {"lat": 51.49146131970851, "lng": -0.141045530291502}}}, "name": "Passage House", "place_id": "ChIJG4cmPuAEdkgRCwaEFDNDA9I", "types": ["point_of_interest", "establishment"], "rating": 3.6, "user_ratings_total": 16}, "ChIJcbhaH-AEdkgRW7WT3zJq2cM": {"geometry": {"location": {"lat": 51.49263229999999, "lng": -0.1405642}, "viewport": {"northeast": {"lat": 51.49398128029149, "lng": -0.139215219708498}, "southwest": {"lat": 51.49128331970849, "lng": -0.141913180291502}}}, "name": "The Prince of Wales", "place_id": "ChIJcbhaH-AEdkgRW7WT3zJq2cM", "types": ["bar", "restaurant", "food", "point_of_interest", "establishment"], "rating": 4.1, "user_ratings_total": 400}, "ChIJPTge_h8FdkgRa1bgT_vgmds": {"geometry": {"location": {"lat": 51.4933325, "lng": -0.1405268}, "viewport": {"northeast": {"lat": 51.49487338029149, "lng": -0.138931619708498}, "southwest": {"lat": 51.4921754197085, "lng": -0.141629580291502}}}, "name": "dll Ltd", "place_id": "ChIJPTge_h8FdkgRa1bgT_vgmds", "types": ["point_of_interest", "establishment"]}, "ChIJhQFWEuAEdkgRRh8OChla5Eg": {"geometry": {"location": {"lat": 51.49309700000001, "lng": -0.13959}, "viewport": {"northeast": {"lat": 51.49446723029151, "lng": -0.138179669708498}, "southwest": {"lat": 51.49176926970851, "lng": -0.140877630291502}}}, "name": "Pimlico Trove", "place_id": "ChIJhQFWEuAEdkgRRh8OChla5Eg", "types": ["point_of_interest", "store", "establishment"], "rating": 5, "user_ratings_total": 8}, "ChIJiw2veeAEdkgR-Fxv2FZAkWY": {"geometry": {"location": {"lat": 51.4932552, "lng": -0.1397358}, "viewport": {"northeast": {"lat": 51.4946260802915, "lng": -0.138324119708498}, "southwest": {"lat": 51.4919281197085, "lng": -0.141022080291502}}}, "name": "Photography", "place_id": "ChIJiw2veeAEdkgR-Fxv2FZAkWY", "types": ["point_of_interest", "establishment"]}, "ChIJnfyrAuAEdkgR7Gdu2R_EZ-o": {"geometry": {"location": {"lat": 51.49290730000001, "lng": -0.1404695}, "viewport": {"northeast": {"lat": 51.4942172302915, "lng": -0.139202769708498}, "southwest": {"lat": 51.4915192697085, "lng": -0.141900730291502}}}, "name": "Wakeling Charles & Co", "place_id": "ChIJnfyrAuAEdkgR7Gdu2R_EZ-o", "types": ["accounting", "finance", "point_of_interest", "establishment"]}, "ChIJ4RQ7DuAEdkgRNMC0KCRRLS4": {"geometry": {"location": {"lat": 51.49329209999999, "lng": -0.1398762}, "viewport": {"northeast": {"lat": 51.4946739802915, "lng": -0.138418869708498}, "southwest": {"lat": 51.4919760197085, "lng": -0.1411168302915021}}}, "name": "Inova Investment Ltd", "place_id": "ChIJ4RQ7DuAEdkgRNMC0KCRRLS4", "types": ["finance", "point_of_interest", "establishment"], "rating": 1, "user_ratings_total": 1}, "ChIJS8lVGeAEdkgRG8sKLh2cEhg": {"geometry": {"location": {"lat": 51.4929074, "lng": -0.1404694}, "viewport": {"northeast": {"lat": 51.4942172802915, "lng": -0.139202769708498}, "southwest": {"lat": 51.4915193197085, "lng": -0.141900730291502}}}, "name": "Kinetica Consulting Ltd", "place_id": "ChIJS8lVGeAEdkgRG8sKLh2cEhg", "types": ["point_of_interest", "establishment"]}, "ChIJHaXtCyAFdkgRDX2rp5oxySk": {"geometry": {"location": {"lat": 51.4928901, "lng": -0.1404562}, "viewport": {"northeast": {"lat": 51.4942011802915, "lng": -0.139187019708498}, "southwest": {"lat": 51.4915032197085, "lng": -0.141884980291502}}}, "name": "First Model Management", "place_id": "ChIJHaXtCyAFdkgRDX2rp5oxySk", "types": ["point_of_interest", "establishment"], "rating": 4.4, "user_ratings_total": 12}, "ChIJv1moHuAEdkgR_Fn3Fok3ih8": {"geometry": {"location": {"lat": 51.49290670000001, "lng": -0.1405257}, "viewport": {"northeast": {"lat": 51.4942251802915, "lng": -0.139240969708498}, "southwest": {"lat": 51.4915272197085, "lng": -0.141938930291502}}}, "name": "SV Acoustics", "place_id": "ChIJv1moHuAEdkgR_Fn3Fok3ih8", "types": ["point_of_interest", "establishment"]}, "ChIJDbAEGeAEdkgRljS1ZwkdGmg": {"geometry": {"location": {"lat": 51.49277539999999, "lng": -0.1403468}, "viewport": {"northeast": {"lat": 51.49409118029149, "lng": -0.139067819708498}, "southwest": {"lat": 51.4913932197085, "lng": -0.141765780291502}}}, "name": "Lorne", "place_id": "ChIJDbAEGeAEdkgRljS1ZwkdGmg", "types": ["restaurant", "food", "point_of_interest", "establishment"], "rating": 4.7, "user_ratings_total": 275}, "ChIJ2Y0qDuAEdkgROKeTjDtrSUQ": {"geometry": {"location": {"lat": 51.4934473, "lng": -0.1400744}, "viewport": {"northeast": {"lat": 51.49478283029151, "lng": -0.138526369708498}, "southwest": {"lat": 51.49208486970851, "lng": -0.1412243302915021}}}, "name": "Ebury Management Ltd", "place_id": "ChIJ2Y0qDuAEdkgROKeTjDtrSUQ", "types": ["point_of_interest", "establishment"]}, "ChIJZcvwa-AEdkgRkglPaqLgFZc": {"geometry": {"location": {"lat": 51.4933928, "lng": -0.1398554}, "viewport": {"northeast": {"lat": 51.4947462302915, "lng": -0.138418119708498}, "southwest": {"lat": 51.4920482697085, "lng": -0.141116080291502}}}, "name": "Dr E Tay - Victoria Medical Centre", "place_id": "ChIJZcvwa-AEdkgRkglPaqLgFZc", "types": ["doctor", "health", "point_of_interest", "establishment"]}, "ChIJed7pEOAEdkgR5oowwQaLGV4": {"geometry": {"location": {"lat": 51.49342830000001, "lng": -0.1399323}, "viewport": {"northeast": {"lat": 51.49477728029151, "lng": -0.1385833197084979}, "southwest": {"lat": 51.49207931970851, "lng": -0.141281280291502}}}, "name": "Belle Cour Beauty Salon Victoria", "place_id": "ChIJed7pEOAEdkgR5oowwQaLGV4", "types": ["beauty_salon", "hair_care", "spa", "point_of_interest", "establishment"], "rating": 3.9, "user_ratings_total": 42}, "ChIJwwFA-_4adkgRmp9ixn-iHaQ": {"geometry": {"location": {"lat": 51.4933325, "lng": -0.1405268}, "viewport": {"northeast": {"lat": 51.49487338029149, "lng": -0.138931619708498}, "southwest": {"lat": 51.4921754197085, "lng": -0.141629580291502}}}, "name": "The Therapy Lounge", "place_id": "ChIJwwFA-_4adkgRmp9ixn-iHaQ", "types": ["health", "point_of_interest", "establishment"], "rating": 5, "user_ratings_total": 4}, "ChIJGxBwD-AEdkgR6EW6YSdln7o": {"geometry": {"location": {"lat": 51.4934475, "lng": -0.1400744}, "viewport": {"northeast": {"lat": 51.49479648029151, "lng": -0.138725419708498}, "southwest": {"lat": 51.49209851970851, "lng": -0.141423380291502}}}, "name": "Inverbroom Lodge", "place_id": "ChIJGxBwD-AEdkgR6EW6YSdln7o", "types": ["lodging", "point_of_interest", "establishment"], "rating": 4.5, "user_ratings_total": 2}, "ChIJRRjAD7ocdkgRqGEzUBhP6AY": {"geometry": {"location": {"lat": 51.4928865, "lng": -0.1394892}, "viewport": {"northeast": {"lat": 51.4942706302915, "lng": -0.138044569708498}, "southwest": {"lat": 51.4915726697085, "lng": -0.140742530291502}}}, "name": "Kookie of London", "place_id": "ChIJRRjAD7ocdkgRqGEzUBhP6AY", "types": ["clothing_store", "point_of_interest", "store", "establishment"], "rating": 4.3, "user_ratings_total": 3}, "ChIJgQXnHeAEdkgRjsPWO0VDIIY": {"geometry": {"location": {"lat": 51.493058, "lng": -0.140694}, "viewport": {"northeast": {"lat": 51.49437373029149, "lng": -0.139414719708498}, "southwest": {"lat": 51.49167576970849, "lng": -0.142112680291502}}}, "name": "Gertrude Fashions", "place_id": "ChIJgQXnHeAEdkgRjsPWO0VDIIY", "types": ["point_of_interest", "clothing_store", "store", "establishment"], "rating": 4.8, "user_ratings_total": 4}, "ChIJFWVnA-AEdkgRMtOE5EmIwYk": {"geometry": {"location": {"lat": 51.4933288, "lng": -0.1405213}, "viewport": {"northeast": {"lat": 51.4946284302915, "lng": -0.138906369708498}, "southwest": {"lat": 51.4919304697085, "lng": -0.141604330291502}}}, "name": "Victoria Badminton Club", "place_id": "ChIJFWVnA-AEdkgRMtOE5EmIwYk", "types": ["point_of_interest", "establishment"]}, "ChIJqaNnA-AEdkgR3WCBi0oMlQI": {"geometry": {"location": {"lat": 51.4933325, "lng": -0.1405267}, "viewport": {"northeast": {"lat": 51.4948733302915, "lng": -0.138931569708498}, "southwest": {"lat": 51.49217536970851, "lng": -0.141629530291502}}}, "name": "Apnea Revolution", "place_id": "ChIJqaNnA-AEdkgR3WCBi0oMlQI", "types": ["point_of_interest", "establishment"], "rating": 4.7, "user_ratings_total": 6}, "ChIJX-MTD-AEdkgRzdxGfFXfsYk": {"geometry": {"location": {"lat": 51.49346799999999, "lng": -0.14001}, "viewport": {"northeast": {"lat": 51.4948002302915, "lng": -0.138492969708498}, "southwest": {"lat": 51.4921022697085, "lng": -0.141190930291502}}}, "name": "Blo Norton Hall", "place_id": "ChIJX-MTD-AEdkgRzdxGfFXfsYk", "types": ["point_of_interest", "establishment"]}, "ChIJTzZgDuAEdkgR7NUgOuToH4k": {"geometry": {"location": {"lat": 51.4933789, "lng": -0.1399516}, "viewport": {"northeast": {"lat": 51.49472788029149, "lng": -0.138602619708498}, "southwest": {"lat": 51.49202991970849, "lng": -0.141300580291502}}}, "name": "Retromania London", "place_id": "ChIJTzZgDuAEdkgR7NUgOuToH4k", "types": ["point_of_interest", "establishment"], "rating": 4.2, "user_ratings_total": 62}, "ChIJr4VuE-dFcUgRVvIKt5hrTTY": {"geometry": {"location": {"lat": 51.49354719999999, "lng": -0.1402299}, "viewport": {"northeast": {"lat": 51.4948961802915, "lng": -0.1388809197084979}, "southwest": {"lat": 51.4921982197085, "lng": -0.141578880291502}}}, "name": "Parkinson's UK", "place_id": "ChIJr4VuE-dFcUgRVvIKt5hrTTY", "types": ["point_of_interest", "establishment"], "rating": 4.6, "user_ratings_total": 19}, "ChIJ8e0uGeAEdkgRAtc5hw3PiAM": {"geometry": {"location": {"lat": 51.4927978, "lng": -0.1403753}, "viewport": {"northeast": {"lat": 51.49414678029149, "lng": -0.139026319708498}, "southwest": {"lat": 51.49144881970849, "lng": -0.141724280291502}}}, "name": "ZNiPS", "place_id": "ChIJ8e0uGeAEdkgRAtc5hw3PiAM", "types": ["hair_care", "point_of_interest", "establishment"], "rating": 4.6, "user_ratings_total": 62}, "ChIJZV_jFCkHdkgRrY4Rundl5rc": {"geometry": {"location": {"lat": 51.49326459999999, "lng": -0.1397779}, "viewport": {"northeast": {"lat": 51.49463998029149, "lng": -0.138353419708498}, "southwest": {"lat": 51.49194201970849, "lng": -0.141051380291502}}}, "name": "Mr CAD Photographic", "place_id": "ChIJZV_jFCkHdkgRrY4Rundl5rc", "types": ["electronics_store", "home_goods_store", "point_of_interest", "store", "establishment"], "rating": 4.3, "user_ratings_total": 182}, "ChIJ8xNLa-AEdkgRaJZAwN_JMDk": {"geometry": {"location": {"lat": 51.49284869999999, "lng": -0.1394515}, "viewport": {"northeast": {"lat": 51.49419768029149, "lng": -0.138102519708498}, "southwest": {"lat": 51.49149971970849, "lng": -0.140800480291502}}}, "name": "Rippon Cheese Stores", "place_id": "ChIJ8xNLa-AEdkgRaJZAwN_JMDk", "types": ["food", "point_of_interest", "store", "establishment"], "rating": 4.8, "user_ratings_total": 90}, "ChIJS7kCaeAEdkgRDXzHYmjXq_8": {"geometry": {"location": {"lat": 51.49327650000001, "lng": -0.1394452}, "viewport": {"northeast": {"lat": 51.4946777302915, "lng": -0.138030669708498}, "southwest": {"lat": 51.4919797697085, "lng": -0.140728630291502}}}, "name": "Hermes London Dental Clinic", "place_id": "ChIJS7kCaeAEdkgRDXzHYmjXq_8", "types": ["dentist", "health", "point_of_interest", "establishment"], "rating": 4.9, "user_ratings_total": 149}, "ChIJOa_XAOAEdkgR4_OFC-1C-Mo": {"geometry": {"location": {"lat": 51.4933352, "lng": -0.1405439}, "viewport": {"northeast": {"lat": 51.49487783029149, "lng": -0.138946469708498}, "southwest": {"lat": 51.4921798697085, "lng": -0.141644430291502}}}, "name": "Ambition Health and Performance Clinic ,Victoria", "place_id": "ChIJOa_XAOAEdkgR4_OFC-1C-Mo", "types": ["health", "point_of_interest", "establishment"], "rating": 4.9, "user_ratings_total": 46}, "ChIJBdOJIuAEdkgRK-p_Og1S4AI": {"geometry": {"location": {"lat": 51.4926188, "lng": -0.1401995}, "viewport": {"northeast": {"lat": 51.49394133029151, "lng": -0.138906919708498}, "southwest": {"lat": 51.49124336970851, "lng": -0.141604880291502}}}, "name": "Chicken Joint & Taquitos Mexican Grill", "place_id": "ChIJBdOJIuAEdkgRK-p_Og1S4AI", "types": ["meal_takeaway", "restaurant", "food", "point_of_interest", "establishment"], "rating": 4.3, "user_ratings_total": 178}, "ChIJOWHWAOAEdkgR7tgMInBQ170": {"geometry": {"location": {"lat": 51.4933328, "lng": -0.1405216}, "viewport": {"northeast": {"lat": 51.4948727802915, "lng": -0.138927569708498}, "southwest": {"lat": 51.4921748197085, "lng": -0.141625530291502}}}, "name": "Cobra Gym", "place_id": "ChIJOWHWAOAEdkgR7tgMInBQ170", "types": ["gym", "health", "point_of_interest", "establishment"], "rating": 4.3, "user_ratings_total": 13}, "ChIJCaToflyfc0gRUSswvMaQt8k": {"geometry": {"location": {"lat": 51.4928901, "lng": -0.1404562}, "viewport": {"northeast": {"lat": 51.4942011802915, "lng": -0.139187019708498}, "southwest": {"lat": 51.4915032197085, "lng": -0.141884980291502}}}, "name": "Base Model & Influencer Agency", "place_id": "ChIJCaToflyfc0gRUSswvMaQt8k", "types": ["point_of_interest", "establishment"], "rating": 4.4, "user_ratings_total": 21}, "ChIJ74Xo8zIbdkgRtgmuX_cNHoY": {"geometry": {"location": {"lat": 51.4933325, "lng": -0.1405268}, "viewport": {"northeast": {"lat": 51.49487338029149, "lng": -0.138931619708498}, "southwest": {"lat": 51.4921754197085, "lng": -0.141629580291502}}}, "name": "Specialist Haircare Salon @Queen Mother Centre", "place_id": "ChIJ74Xo8zIbdkgRtgmuX_cNHoY", "types": ["hair_care", "point_of_interest", "establishment"], "rating": 5, "user_ratings_total": 2}, "ChIJ2-XAHfwFdkgRHWebT9UIi08": {"geometry": {"location": {"lat": 51.493114, "lng": -0.1397042}, "viewport": {"northeast": {"lat": 51.49449733029149, "lng": -0.138256119708498}, "southwest": {"lat": 51.4917993697085, "lng": -0.140954080291502}}}, "name": "CHENGDU LONDON", "place_id": "ChIJ2-XAHfwFdkgRHWebT9UIi08", "types": ["restaurant", "food", "point_of_interest", "establishment"]}, "ChIJg5lcEuAEdkgRWi6tvCssoKo": {"geometry": {"location": {"lat": 51.493114, "lng": -0.139704}, "viewport": {"northeast": {"lat": 51.4944973302915, "lng": -0.138255969708498}, "southwest": {"lat": 51.4917993697085, "lng": -0.140953930291502}}}, "name": "Dragon Inn Club", "place_id": "ChIJg5lcEuAEdkgRWi6tvCssoKo", "types": ["bar", "restaurant", "food", "point_of_interest", "establishment"], "rating": 4.1, "user_ratings_total": 177}, "ChIJbUgdDuAEdkgR9j8yoRjgXl8": {"geometry": {"location": {"lat": 51.4932501, "lng": -0.1398036}, "viewport": {"northeast": {"lat": 51.49463063029149, "lng": -0.138364369708498}, "southwest": {"lat": 51.49193266970849, "lng": -0.141062330291502}}}, "name": "Cornucopia", "place_id": "ChIJbUgdDuAEdkgR9j8yoRjgXl8", "types": ["store", "point_of_interest", "establishment"], "rating": 5, "user_ratings_total": 2}, "ChIJ1VoLDuAEdkgRNC00m51AoD0": {"geometry": {"location": {"lat": 51.4932921, "lng": -0.1398763}, "viewport": {"northeast": {"lat": 51.4946739802915, "lng": -0.138418919708498}, "southwest": {"lat": 51.4919760197085, "lng": -0.141116880291502}}}, "name": "Red Circle Security Services Ltd", "place_id": "ChIJ1VoLDuAEdkgRNC00m51AoD0", "types": ["point_of_interest", "establishment"], "rating": 5, "user_ratings_total": 1}, "ChIJVRhkUkcFdkgRIH2iITaYrn0": {"geometry": {"location": {"lat": 51.49329049999999, "lng": -0.1398423}, "viewport": {"northeast": {"lat": 51.4946683302915, "lng": -0.138398119708498}, "southwest": {"lat": 51.4919703697085, "lng": -0.141096080291502}}}, "name": "Coco & Nut Coffee Co Victoria", "place_id": "ChIJVRhkUkcFdkgRIH2iITaYrn0", "types": ["cafe", "food", "point_of_interest", "store", "establishment"], "rating": 4.6, "user_ratings_total": 9}, "ChIJqWOvm24FdkgRd2x2eBfIbXs": {"geometry": {"location": {"lat": 51.49333, "lng": -0.1399051}, "viewport": {"northeast": {"lat": 51.49470153029149, "lng": -0.138440669708498}, "southwest": {"lat": 51.49200356970849, "lng": -0.141138630291502}}}, "name": "retro designer&vintage", "place_id": "ChIJqWOvm24FdkgRd2x2eBfIbXs", "types": ["clothing_store", "point_of_interest", "store", "establishment"]}, "ChIJkZJvDuAEdkgROnd5hjepjf8": {"geometry": {"location": {"lat": 51.49333540000001, "lng": -0.1399139}, "viewport": {"northeast": {"lat": 51.49468438029151, "lng": -0.138564919708498}, "southwest": {"lat": 51.49198641970851, "lng": -0.141262880291502}}}, "name": "Gastronomia Italia", "place_id": "ChIJkZJvDuAEdkgROnd5hjepjf8", "types": ["food", "point_of_interest", "store", "establishment"], "rating": 4.8, "user_ratings_total": 18}, "ChIJB4n74h8FdkgRpinGJfTgvYM": {"geometry": {"location": {"lat": 51.4929074, "lng": -0.1404695}, "viewport": {"northeast": {"lat": 51.4942173302915, "lng": -0.139202819708498}, "southwest": {"lat": 51.4915193697085, "lng": -0.141900780291502}}}, "name": "Enterpreneurs World Ltd", "place_id": "ChIJB4n74h8FdkgRpinGJfTgvYM", "types": ["point_of_interest", "establishment"]}, "ChIJkQhKHeAEdkgRbgw0TGfq-W8": {"geometry": {"location": {"lat": 51.49299700000001, "lng": -0.1405274}, "viewport": {"northeast": {"lat": 51.4943110302915, "lng": -0.139291519708498}, "southwest": {"lat": 51.49161306970851, "lng": -0.141989480291502}}}, "name": "A. Wong", "place_id": "ChIJkQhKHeAEdkgRbgw0TGfq-W8", "types": ["restaurant", "food", "point_of_interest", "establishment"], "rating": 4.4, "user_ratings_total": 767}, "ChIJX_wB_xcFdkgRe5dkFlHOboU": {"geometry": {"location": {"lat": 51.4930239, "lng": -0.1395655}, "viewport": {"northeast": {"lat": 51.4943995302915, "lng": -0.138139569708498}, "southwest": {"lat": 51.4917015697085, "lng": -0.140837530291502}}}, "name": "Choi", "place_id": "ChIJX_wB_xcFdkgRe5dkFlHOboU", "types": ["grocery_or_supermarket", "meal_takeaway", "restaurant", "food", "point_of_interest", "store", "establishment"], "rating": 4.8, "user_ratings_total": 47}, "ChIJKQih0tMFdkgRW1m1BmYpHg0": {"geometry": {"location": {"lat": 51.4928, "lng": -0.140347}, "viewport": {"northeast": {"lat": 51.49411128029149, "lng": -0.1390774697084979}, "southwest": {"lat": 51.4914133197085, "lng": -0.141775430291502}}}, "name": "Rapid Skip Hire Pimlico", "place_id": "ChIJKQih0tMFdkgRW1m1BmYpHg0", "types": ["point_of_interest", "establishment"]}, "ChIJzVuttRgFdkgRW8AA6xXlJsw": {"geometry": {"location": {"lat": 51.4927582, "lng": -0.1398353}, "viewport": {"northeast": {"lat": 51.49413083029151, "lng": -0.138510819708498}, "southwest": {"lat": 51.49143286970851, "lng": -0.141208780291502}}}, "name": "The Belgavia Centre - Hair Clinic", "place_id": "ChIJzVuttRgFdkgRW8AA6xXlJsw", "types": ["hospital", "health", "point_of_interest", "establishment"]}, "ChIJg3saGeAEdkgRxua-Dn1nqPg": {"geometry": {"location": {"lat": 51.4927912, "lng": -0.1403627}, "viewport": {"northeast": {"lat": 51.4941064302915, "lng": -0.139084819708498}, "southwest": {"lat": 51.4914084697085, "lng": -0.141782780291502}}}, "name": "Home From Home", "place_id": "ChIJg3saGeAEdkgRxua-Dn1nqPg", "types": ["real_estate_agency", "travel_agency", "point_of_interest", "establishment"], "rating": 4.8, "user_ratings_total": 28}, "ChIJU1BM8fYFdkgReN4QBJMBEzM": {"geometry": {"location": {"lat": 51.49281949999999, "lng": -0.1404424}, "viewport": {"northeast": {"lat": 51.4941414802915, "lng": -0.1391502697084979}, "southwest": {"lat": 51.4914435197085, "lng": -0.141848230291502}}}, "name": "Lovage Indian Restaurant", "place_id": "ChIJU1BM8fYFdkgReN4QBJMBEzM", "types": ["restaurant", "food", "point_of_interest", "establishment"], "rating": 4.6, "user_ratings_total": 65}, "ChIJLwOgHqsFdkgRwSgSljmKhQs": {"geometry": {"location": {"lat": 51.4927364, "lng": -0.1402602}, "viewport": {"northeast": {"lat": 51.4940463302915, "lng": -0.138993469708498}, "southwest": {"lat": 51.4913483697085, "lng": -0.1416914302915021}}}, "name": "Hatch 77", "place_id": "ChIJLwOgHqsFdkgRwSgSljmKhQs", "types": ["cafe", "food", "point_of_interest", "establishment"], "rating": 4.3, "user_ratings_total": 43}, "ChIJZWuqqtsFdkgRa1Gq_kldCuY": {"geometry": {"location": {"lat": 51.4934135, "lng": -0.1399577}, "viewport": {"northeast": {"lat": 51.4947583302915, "lng": -0.138469019708498}, "southwest": {"lat": 51.4920603697085, "lng": -0.141166980291502}}}, "name": "Iluvo", "place_id": "ChIJZWuqqtsFdkgRa1Gq_kldCuY", "types": ["beauty_salon", "hair_care", "health", "point_of_interest", "establishment"], "rating": 5, "user_ratings_total": 21}, "ChIJWfHxIuAEdkgROwYWxYLRrDk": {"geometry": {"location": {"lat": 51.4930384, "lng": -0.1406318}, "viewport": {"northeast": {"lat": 51.4943483802915, "lng": -0.139364519708498}, "southwest": {"lat": 51.49165041970851, "lng": -0.142062480291502}}}, "name": "Forbidden City", "place_id": "ChIJWfHxIuAEdkgROwYWxYLRrDk", "types": ["restaurant", "food", "point_of_interest", "establishment"], "rating": 4.5, "user_ratings_total": 4}, "ChIJ-YAwDOAEdkgRl1ZhVbTZJJY": {"geometry": {"location": {"lat": 51.493419, "lng": -0.1399525}, "viewport": {"northeast": {"lat": 51.4947638802915, "lng": -0.138466219708498}, "southwest": {"lat": 51.4920659197085, "lng": -0.141164180291502}}}, "name": "The Welcome Inn", "place_id": "ChIJ-YAwDOAEdkgRl1ZhVbTZJJY", "types": ["lodging", "point_of_interest", "establishment"]}, "ChIJWdMKHeAEdkgRFrMffl6vaZQ": {"geometry": {"location": {"lat": 51.4930596, "lng": -0.1406495}, "viewport": {"northeast": {"lat": 51.4943683302915, "lng": -0.139384869708498}, "southwest": {"lat": 51.4916703697085, "lng": -0.142082830291502}}}, "name": "LetsHaggle.com", "place_id": "ChIJWdMKHeAEdkgRFrMffl6vaZQ", "types": ["point_of_interest", "establishment"]}, "ChIJN2XJHuAEdkgR4uoj3Z122s8": {"geometry": {"location": {"lat": 51.49282099999999, "lng": -0.140513}, "viewport": {"northeast": {"lat": 51.49415098029149, "lng": -0.139196219708498}, "southwest": {"lat": 51.49145301970849, "lng": -0.141894180291502}}}, "name": "Warwick Way (Stop P)", "place_id": "ChIJN2XJHuAEdkgR4uoj3Z122s8", "types": ["transit_station", "point_of_interest", "establishment"]}, "ChIJLT3xDYgFdkgRNNRiwMGR2s4": {"geometry": {"location": {"lat": 51.4930022, "lng": -0.1406496}, "viewport": {"northeast": {"lat": 51.4943214802915, "lng": -0.139362569708498}, "southwest": {"lat": 51.4916235197085, "lng": -0.142060530291502}}}, "name": "VTA Revit", "place_id": "ChIJLT3xDYgFdkgRNNRiwMGR2s4", "types": ["point_of_interest", "establishment"]}, "ChIJfQjSJeAEdkgRWyrWBGhSJUU": {"geometry": {"location": {"lat": 51.49207947836889, "lng": -0.1404187623656301}, "viewport": {"northeast": {"lat": 51.4934319802915, "lng": -0.139072469708498}, "southwest": {"lat": 51.4907340197085, "lng": -0.141770430291502}}}, "name": "53-29 Warwick Way", "place_id": "ChIJfQjSJeAEdkgRWyrWBGhSJUU", "types": ["route"]}, "ChIJf8_gMeAEdkgRKeEqBKT0GcI": {"geometry": {"location": {"lat": 51.4920892, "lng": -0.1400803}, "viewport": {"northeast": {"lat": 51.49346798029149, "lng": -0.138779069708498}, "southwest": {"lat": 51.49077001970849, "lng": -0.141477030291502}}}, "name": "Uno", "place_id": "ChIJf8_gMeAEdkgRKeEqBKT0GcI", "types": ["restaurant", "food", "point_of_interest", "establishment"], "rating": 4.1, "user_ratings_total": 391}, "ChIJxdvnP-AEdkgREmrOTCZGprU": {"geometry": {"location": {"lat": 51.4923994, "lng": -0.1397215}, "viewport": {"northeast": {"lat": 51.4937078302915, "lng": -0.138330269708498}, "southwest": {"lat": 51.49100986970851, "lng": -0.141028230291502}}}, "name": "The Warwick Pimlico GastroPub and Dining Room", "place_id": "ChIJxdvnP-AEdkgREmrOTCZGprU", "types": ["bar", "restaurant", "food", "point_of_interest", "establishment"], "rating": 4.2, "user_ratings_total": 624}, "ChIJUbV5KOAEdkgRWeiG5CzZOEU": {"geometry": {"location": {"lat": 51.49187059999999, "lng": -0.1407168}, "viewport": {"northeast": {"lat": 51.49327723029149, "lng": -0.139379219708498}, "southwest": {"lat": 51.4905792697085, "lng": -0.142077180291502}}}, "name": "Eureka Newsagents & Stationery", "place_id": "ChIJUbV5KOAEdkgRWeiG5CzZOEU", "types": ["point_of_interest", "store", "establishment"], "rating": 4.2, "user_ratings_total": 43}, "ChIJf8_gMeAEdkgRAW-wfB0JQYA": {"geometry": {"location": {"lat": 51.49188960000001, "lng": -0.140028}, "viewport": {"northeast": {"lat": 51.4932524802915, "lng": -0.138582419708498}, "southwest": {"lat": 51.4905545197085, "lng": -0.141280380291502}}}, "name": "Tantalizing", "place_id": "ChIJf8_gMeAEdkgRAW-wfB0JQYA", "types": ["beauty_salon", "point_of_interest", "establishment"], "rating": 3.6, "user_ratings_total": 155}, "ChIJNWMjPeAEdkgR4dus-r8uYFc": {"geometry": {"location": {"lat": 51.4924712, "lng": -0.1400219}, "viewport": {"northeast": {"lat": 51.4938201802915, "lng": -0.138672919708498}, "southwest": {"lat": 51.4911222197085, "lng": -0.1413708802915021}}}, "name": "About Thyme", "place_id": "ChIJNWMjPeAEdkgR4dus-r8uYFc", "types": ["restaurant", "food", "point_of_interest", "establishment"], "rating": 4.4, "user_ratings_total": 256}, "ChIJ__84IuAEdkgRUf98X7aSfkg": {"geometry": {"location": {"lat": 51.4924749, "lng": -0.1404054}, "viewport": {"northeast": {"lat": 51.4938542802915, "lng": -0.138991619708498}, "southwest": {"lat": 51.4911563197085, "lng": -0.1416895802915021}}}, "name": "Victoria Apartments", "place_id": "ChIJ__84IuAEdkgRUf98X7aSfkg", "types": ["lodging", "point_of_interest", "establishment"], "rating": 2.2, "user_ratings_total": 9}, "ChIJ_9FCJOAEdkgRdsz8n2vD92o": {"geometry": {"location": {"lat": 51.4921782, "lng": -0.1403986}, "viewport": {"northeast": {"lat": 51.49352718029149, "lng": -0.1390496197084979}, "southwest": {"lat": 51.4908292197085, "lng": -0.141747580291502}}}, "name": "DDK Kitchen", "place_id": "ChIJ_9FCJOAEdkgRdsz8n2vD92o", "types": ["cafe", "food", "point_of_interest", "establishment"], "rating": 4.6, "user_ratings_total": 117}, "ChIJ8Sd-O-AEdkgRZKg2oBxpySY": {"geometry": {"location": {"lat": 51.4923765, "lng": -0.1398858}, "viewport": {"northeast": {"lat": 51.4936870802915, "lng": -0.138591319708498}, "southwest": {"lat": 51.4909891197085, "lng": -0.141289280291502}}}, "name": "London Dental Studio", "place_id": "ChIJ8Sd-O-AEdkgRZKg2oBxpySY", "types": ["dentist", "health", "point_of_interest", "establishment"], "rating": 4, "user_ratings_total": 55}, "ChIJf8_gMeAEdkgRQkXG0eb5jx0": {"geometry": {"location": {"lat": 51.4919842, "lng": -0.1400631}, "viewport": {"northeast": {"lat": 51.49334768029149, "lng": -0.138617719708498}, "southwest": {"lat": 51.49064971970849, "lng": -0.141315680291502}}}, "name": "Paradise Indian Restaurant", "place_id": "ChIJf8_gMeAEdkgRQkXG0eb5jx0", "types": ["restaurant", "food", "point_of_interest", "establishment"], "rating": 4, "user_ratings_total": 441}, "ChIJVX7HJuAEdkgRDcEcSXwPeKE": {"geometry": {"location": {"lat": 51.492, "lng": -0.140347}, "viewport": {"northeast": {"lat": 51.4933489802915, "lng": -0.138998019708498}, "southwest": {"lat": 51.4906510197085, "lng": -0.141695980291502}}}, "name": "Sue Ryder", "place_id": "ChIJVX7HJuAEdkgRDcEcSXwPeKE", "types": ["point_of_interest", "store", "establishment"], "rating": 4, "user_ratings_total": 3}, "ChIJz815NuAEdkgR41T5DGWJGPg": {"geometry": {"location": {"lat": 51.4920309, "lng": -0.1397122}, "viewport": {"northeast": {"lat": 51.4933686302915, "lng": -0.138441419708498}, "southwest": {"lat": 51.4906706697085, "lng": -0.141139380291502}}}, "name": "Dauntons Soar", "place_id": "ChIJz815NuAEdkgR41T5DGWJGPg", "types": ["finance", "real_estate_agency", "point_of_interest", "establishment"], "rating": 3.6, "user_ratings_total": 17}, "ChIJF8bBJeAEdkgRjeTJRuhAqQ8": {"geometry": {"location": {"lat": 51.49199259999999, "lng": -0.1403227}, "viewport": {"northeast": {"lat": 51.4933887802915, "lng": -0.139008419708498}, "southwest": {"lat": 51.4906908197085, "lng": -0.141706380291502}}}, "name": "The Sporting Mind", "place_id": "ChIJF8bBJeAEdkgRjeTJRuhAqQ8", "types": ["health", "point_of_interest", "establishment"]}, "ChIJf8_gMeAEdkgRA2c368N4M7E": {"geometry": {"location": {"lat": 51.49208530000001, "lng": -0.140105}, "viewport": {"northeast": {"lat": 51.4934480802915, "lng": -0.138657219708498}, "southwest": {"lat": 51.4907501197085, "lng": -0.141355180291502}}}, "name": "Bin Ends London \ud1a0\ub9c8\ud1a0\ud558\uc6b0\uc2a4", "place_id": "ChIJf8_gMeAEdkgRA2c368N4M7E", "types": ["liquor_store", "food", "point_of_interest", "store", "establishment"], "rating": 4.2, "user_ratings_total": 9}, "ChIJF8bBJeAEdkgREQcIh59vQqY": {"geometry": {"location": {"lat": 51.49198939999999, "lng": -0.1403354}, "viewport": {"northeast": {"lat": 51.49333838029149, "lng": -0.138986419708498}, "southwest": {"lat": 51.49064041970849, "lng": -0.141684380291502}}}, "name": "Rupert Chapman Osteopath", "place_id": "ChIJF8bBJeAEdkgREQcIh59vQqY", "types": ["health", "point_of_interest", "establishment"], "rating": 5, "user_ratings_total": 5}, "ChIJu0BIO-AEdkgRyAw-a9h35Fw": {"geometry": {"location": {"lat": 51.49198939999999, "lng": -0.1403354}, "viewport": {"northeast": {"lat": 51.4933853802915, "lng": -0.139021019708498}, "southwest": {"lat": 51.4906874197085, "lng": -0.141718980291502}}}, "name": "Andy Barton", "place_id": "ChIJu0BIO-AEdkgRyAw-a9h35Fw", "types": ["health", "point_of_interest", "establishment"]}, "ChIJ5-TAPuAEdkgR63phOG_UjRI": {"geometry": {"location": {"lat": 51.4919617, "lng": -0.1404488}, "viewport": {"northeast": {"lat": 51.49335578029149, "lng": -0.139132969708498}, "southwest": {"lat": 51.4906578197085, "lng": -0.141830930291502}}}, "name": "Blue-Magic", "place_id": "ChIJ5-TAPuAEdkgR63phOG_UjRI", "types": ["point_of_interest", "establishment"]}, "ChIJz815NuAEdkgR1IsvB9o-m04": {"geometry": {"location": {"lat": 51.4919524, "lng": -0.1395878}, "viewport": {"northeast": {"lat": 51.49328363029151, "lng": -0.138362219708498}, "southwest": {"lat": 51.49058566970851, "lng": -0.1410601802915021}}}, "name": "Betenoir Web Creative", "place_id": "ChIJz815NuAEdkgR1IsvB9o-m04", "types": ["point_of_interest", "establishment"], "rating": 4, "user_ratings_total": 1}, "ChIJq0JzLuAEdkgRWwTJA-t-NeY": {"geometry": {"location": {"lat": 51.49211690000001, "lng": -0.1397602}, "viewport": {"northeast": {"lat": 51.4934557302915, "lng": -0.138481769708498}, "southwest": {"lat": 51.4907577697085, "lng": -0.141179730291502}}}, "name": "Bryce-Smith & Partners", "place_id": "ChIJq0JzLuAEdkgRWwTJA-t-NeY", "types": ["insurance_agency", "point_of_interest", "establishment"]}, "ChIJZZuwOuAEdkgR2hQsu7p1q-k": {"geometry": {"location": {"lat": 51.4919857, "lng": -0.1400717}, "viewport": {"northeast": {"lat": 51.4933491302915, "lng": -0.138622319708498}, "southwest": {"lat": 51.4906511697085, "lng": -0.141320280291502}}}, "name": "EJS Capital", "place_id": "ChIJZZuwOuAEdkgR2hQsu7p1q-k", "types": ["finance", "point_of_interest", "establishment"]}, "ChIJJfW3YCQFdkgRH5j-F7_DXOg": {"geometry": {"location": {"lat": 51.4919486, "lng": -0.1400303}, "viewport": {"northeast": {"lat": 51.4933101302915, "lng": -0.138594019708498}, "southwest": {"lat": 51.4906121697085, "lng": -0.141291980291502}}}, "name": "Luminaire Arts Ltd", "place_id": "ChIJJfW3YCQFdkgRH5j-F7_DXOg", "types": ["art_gallery", "general_contractor", "point_of_interest", "store", "establishment"], "rating": 4.8, "user_ratings_total": 5}, "ChIJPfqtKOAEdkgROFXLCVgxIYA": {"geometry": {"location": {"lat": 51.49202349999999, "lng": -0.1402192}, "viewport": {"northeast": {"lat": 51.4933724802915, "lng": -0.1388702197084979}, "southwest": {"lat": 51.4906745197085, "lng": -0.141568180291502}}}, "name": "William Hill", "place_id": "ChIJPfqtKOAEdkgROFXLCVgxIYA", "types": ["point_of_interest", "establishment"], "rating": 5, "user_ratings_total": 3}, "ChIJOyF0JeAEdkgR3QBVGmSvNoc": {"geometry": {"location": {"lat": 51.49198939999999, "lng": -0.1403354}, "viewport": {"northeast": {"lat": 51.4933853802915, "lng": -0.139021019708498}, "southwest": {"lat": 51.4906874197085, "lng": -0.141718980291502}}}, "name": "Acupuncture Access SW1", "place_id": "ChIJOyF0JeAEdkgR3QBVGmSvNoc", "types": ["health", "point_of_interest", "establishment"], "rating": 5, "user_ratings_total": 1}, "ChIJ0zOaJeAEdkgR_eLSgTczEkY": {"geometry": {"location": {"lat": 51.49198939999999, "lng": -0.1403354}, "viewport": {"northeast": {"lat": 51.4933853802915, "lng": -0.139021019708498}, "southwest": {"lat": 51.4906874197085, "lng": -0.141718980291502}}}, "name": "Medicspot Clinic Pimlico", "place_id": "ChIJ0zOaJeAEdkgR_eLSgTczEkY", "types": ["hospital", "doctor", "health", "point_of_interest", "establishment"], "rating": 4, "user_ratings_total": 9}, "ChIJz3yXJeAEdkgRU4Jzoq1N-o8": {"geometry": {"location": {"lat": 51.492, "lng": -0.140347}, "viewport": {"northeast": {"lat": 51.4933906802915, "lng": -0.139026819708498}, "southwest": {"lat": 51.4906927197085, "lng": -0.141724780291502}}}, "name": "Pimlico Osteopathy", "place_id": "ChIJz3yXJeAEdkgRU4Jzoq1N-o8", "types": ["health", "point_of_interest", "establishment"], "rating": 4.8, "user_ratings_total": 23}, "ChIJDcXxOeAEdkgRMxtBrEOfHJI": {"geometry": {"location": {"lat": 51.491986, "lng": -0.1397062}, "viewport": {"northeast": {"lat": 51.4933244802915, "lng": -0.138430319708498}, "southwest": {"lat": 51.49062651970851, "lng": -0.141128280291502}}}, "name": "Metro Apartments", "place_id": "ChIJDcXxOeAEdkgRMxtBrEOfHJI", "types": ["real_estate_agency", "point_of_interest", "establishment"], "rating": 3, "user_ratings_total": 19}, "ChIJy-_2SOAEdkgRoBckP5wsLgY": {"geometry": {"location": {"lat": 51.4922276, "lng": -0.1402459}, "viewport": {"northeast": {"lat": 51.4935355802915, "lng": -0.138867319708498}, "southwest": {"lat": 51.4908376197085, "lng": -0.141565280291502}}}, "name": "Ivan Coffey Associates", "place_id": "ChIJy-_2SOAEdkgRoBckP5wsLgY", "types": ["point_of_interest", "establishment"]}, "ChIJVX7HJuAEdkgRNoqrS6Ue7Po": {"geometry": {"location": {"lat": 51.4922745, "lng": -0.1401916}, "viewport": {"northeast": {"lat": 51.4936522802915, "lng": -0.138760769708498}, "southwest": {"lat": 51.4909543197085, "lng": -0.141458730291502}}}, "name": "Caff\u00e8 Nero", "place_id": "ChIJVX7HJuAEdkgRNoqrS6Ue7Po", "types": ["cafe", "food", "point_of_interest", "store", "establishment"], "rating": 4.2, "user_ratings_total": 592}, "ChIJK5vTQOAEdkgR33EY-7Mum5o": {"geometry": {"location": {"lat": 51.49218260000001, "lng": -0.1395998}, "viewport": {"northeast": {"lat": 51.49359028029149, "lng": -0.138298519708498}, "southwest": {"lat": 51.4908923197085, "lng": -0.140996480291502}}}, "name": "Tesco Express", "place_id": "ChIJK5vTQOAEdkgR33EY-7Mum5o", "types": ["convenience_store", "food", "point_of_interest", "store", "establishment"], "rating": 3.8, "user_ratings_total": 41}, "ChIJVX7HJuAEdkgRNM6tOf-w1qw": {"geometry": {"location": {"lat": 51.4921611, "lng": -0.1404512}, "viewport": {"northeast": {"lat": 51.49351008029149, "lng": -0.1391022197084979}, "southwest": {"lat": 51.49081211970849, "lng": -0.141800180291502}}}, "name": "Cafe Mignon", "place_id": "ChIJVX7HJuAEdkgRNM6tOf-w1qw", "types": ["cafe", "food", "point_of_interest", "establishment"], "rating": 4.4, "user_ratings_total": 271}, "ChIJxWDnIuAEdkgRM6JoOKk-LBk": {"geometry": {"location": {"lat": 51.49243259999999, "lng": -0.1403598}, "viewport": {"northeast": {"lat": 51.49381323029149, "lng": -0.138944619708498}, "southwest": {"lat": 51.49111526970849, "lng": -0.141642580291502}}}, "name": "Shiraz Travel", "place_id": "ChIJxWDnIuAEdkgRM6JoOKk-LBk", "types": ["travel_agency", "point_of_interest", "establishment"], "rating": 4.4, "user_ratings_total": 62}, "ChIJddiIR-AEdkgRuinEVQ8j5JQ": {"geometry": {"location": {"lat": 51.4920451, "lng": -0.139362}, "viewport": {"northeast": {"lat": 51.4933516302915, "lng": -0.137941369708498}, "southwest": {"lat": 51.4906536697085, "lng": -0.140639330291502}}}, "name": "Barbie Campbell Cole", "place_id": "ChIJddiIR-AEdkgRuinEVQ8j5JQ", "types": ["point_of_interest", "establishment"]}, "ChIJrdeuJ-AEdkgRL1FjrNAolnc": {"geometry": {"location": {"lat": 51.4921065, "lng": -0.1407169}, "viewport": {"northeast": {"lat": 51.4934092802915, "lng": -0.139334569708498}, "southwest": {"lat": 51.4907113197085, "lng": -0.142032530291502}}}, "name": "Hopkins Hairdressing", "place_id": "ChIJrdeuJ-AEdkgRL1FjrNAolnc", "types": ["hair_care", "point_of_interest", "establishment"], "rating": 4.6, "user_ratings_total": 8}, "ChIJDbOZJ-AEdkgRUqjAgcEN5ns": {"geometry": {"location": {"lat": 51.4920605, "lng": -0.1407713}, "viewport": {"northeast": {"lat": 51.4933760302915, "lng": -0.139398119708498}, "southwest": {"lat": 51.4906780697085, "lng": -0.142096080291502}}}, "name": "Kallond", "place_id": "ChIJDbOZJ-AEdkgRUqjAgcEN5ns", "types": ["point_of_interest", "establishment"]}, "ChIJPfqtKOAEdkgRcV4Rn6ak00s": {"geometry": {"location": {"lat": 51.49190970000001, "lng": -0.1406083}, "viewport": {"northeast": {"lat": 51.49330863029151, "lng": -0.1392883197084979}, "southwest": {"lat": 51.49061066970851, "lng": -0.141986280291502}}}, "name": "Boots", "place_id": "ChIJPfqtKOAEdkgRcV4Rn6ak00s", "types": ["pharmacy", "health", "point_of_interest", "store", "establishment"], "rating": 4.2, "user_ratings_total": 32}, "ChIJKbMiI-AEdkgREDrrVC3D84I": {"geometry": {"location": {"lat": 51.4923827, "lng": -0.1402558}, "viewport": {"northeast": {"lat": 51.4937724302915, "lng": -0.138848869708498}, "southwest": {"lat": 51.4910744697085, "lng": -0.141546830291502}}}, "name": "Pimlico Fresh", "place_id": "ChIJKbMiI-AEdkgREDrrVC3D84I", "types": ["cafe", "food", "point_of_interest", "establishment"], "rating": 4.5, "user_ratings_total": 698}, "ChIJYZL8POAEdkgR10R0BnxWkgM": {"geometry": {"location": {"lat": 51.4924249, "lng": -0.1399996000000001}, "viewport": {"northeast": {"lat": 51.49377388029151, "lng": -0.138650619708498}, "southwest": {"lat": 51.49107591970851, "lng": -0.1413485802915021}}}, "name": "Spicy Food Plus", "place_id": "ChIJYZL8POAEdkgR10R0BnxWkgM", "types": ["restaurant", "food", "point_of_interest", "establishment"], "rating": 4.5, "user_ratings_total": 121}, "ChIJU5ZHI-AEdkgREmn06-f-22M": {"geometry": {"location": {"lat": 51.4923109, "lng": -0.1402439}, "viewport": {"northeast": {"lat": 51.4936932802915, "lng": -0.138814269708498}, "southwest": {"lat": 51.4909953197085, "lng": -0.141512230291502}}}, "name": "Royal Trinity Hospice - Pimlico Shop", "place_id": "ChIJU5ZHI-AEdkgREmn06-f-22M", "types": ["point_of_interest", "clothing_store", "store", "establishment"], "rating": 3.3, "user_ratings_total": 19}, "ChIJM96KJuAEdkgRpVnz86I3DWg": {"geometry": {"location": {"lat": 51.4921423, "lng": -0.1406124}, "viewport": {"northeast": {"lat": 51.49344233029149, "lng": -0.139228019708498}, "southwest": {"lat": 51.49074436970849, "lng": -0.141925980291502}}}, "name": "Cyprus Mangal", "place_id": "ChIJM96KJuAEdkgRpVnz86I3DWg", "types": ["restaurant", "food", "point_of_interest", "establishment"], "rating": 4.6, "user_ratings_total": 952}, "ChIJVX7HJuAEdkgRRHd0e4UYUWU": {"geometry": {"location": {"lat": 51.49206, "lng": -0.1409}, "viewport": {"northeast": {"lat": 51.49336073029149, "lng": -0.139516119708498}, "southwest": {"lat": 51.49066276970849, "lng": -0.142214080291502}}}, "name": "Marsh & Parsons Pimlico & Westminster Estate Agents", "place_id": "ChIJVX7HJuAEdkgRRHd0e4UYUWU", "types": ["real_estate_agency", "point_of_interest", "establishment"], "rating": 3.7, "user_ratings_total": 25}, "ChIJIZZcIuAEdkgRspcgLyWtews": {"geometry": {"location": {"lat": 51.4924653, "lng": -0.1404213}, "viewport": {"northeast": {"lat": 51.4938497802915, "lng": -0.138999919708498}, "southwest": {"lat": 51.4911518197085, "lng": -0.141697880291502}}}, "name": "ffields", "place_id": "ChIJIZZcIuAEdkgRspcgLyWtews", "types": ["real_estate_agency", "point_of_interest", "establishment"]}, "ChIJL3owIuAEdkgRn3wFD4OnH_E": {"geometry": {"location": {"lat": 51.4924834, "lng": -0.140371}, "viewport": {"northeast": {"lat": 51.49385608029149, "lng": -0.138971469708498}, "southwest": {"lat": 51.49115811970849, "lng": -0.141669430291502}}}, "name": "SatoshiPoint Bitcoin ATM, AOL Apartments of London, Pimlico", "place_id": "ChIJL3owIuAEdkgRn3wFD4OnH_E", "types": ["atm", "finance", "point_of_interest", "establishment"], "rating": 3, "user_ratings_total": 2}, "ChIJpWnR2y0bdkgRumXKb924UlU": {"geometry": {"location": {"lat": 51.4919433, "lng": -0.1400169}, "viewport": {"northeast": {"lat": 51.49330408029149, "lng": -0.138586019708498}, "southwest": {"lat": 51.4906061197085, "lng": -0.141283980291502}}}, "name": "London Contemporary Art Ltd.", "place_id": "ChIJpWnR2y0bdkgRumXKb924UlU", "types": ["art_gallery", "point_of_interest", "establishment"], "rating": 4.8, "user_ratings_total": 12}, "ChIJF8bBJeAEdkgR3lvVIFhdJL8": {"geometry": {"location": {"lat": 51.49198939999999, "lng": -0.1403354}, "viewport": {"northeast": {"lat": 51.49333838029149, "lng": -0.138986419708498}, "southwest": {"lat": 51.49064041970849, "lng": -0.141684380291502}}}, "name": "Warwick Pharmacy", "place_id": "ChIJF8bBJeAEdkgR3lvVIFhdJL8", "types": ["pharmacy", "health", "point_of_interest", "store", "establishment"], "rating": 4.3, "user_ratings_total": 83}, "ChIJpUVBR-AEdkgR24ztO-pGQnk": {"geometry": {"location": {"lat": 51.492211, "lng": -0.139609}, "viewport": {"northeast": {"lat": 51.4935599802915, "lng": -0.138260019708498}, "southwest": {"lat": 51.4908620197085, "lng": -0.140957980291502}}}, "name": "Chase Specialist Dry Cleaners", "place_id": "ChIJpUVBR-AEdkgR24ztO-pGQnk", "types": ["laundry", "point_of_interest", "establishment"], "rating": 4, "user_ratings_total": 28}, "ChIJzw3Fqo8FdkgRcuSp68i_RKk": {"geometry": {"location": {"lat": 51.49198939999999, "lng": -0.1403354}, "viewport": {"northeast": {"lat": 51.4933853802915, "lng": -0.139021019708498}, "southwest": {"lat": 51.4906874197085, "lng": -0.141718980291502}}}, "name": "Zak Acupuncture London", "place_id": "ChIJzw3Fqo8FdkgRcuSp68i_RKk", "types": ["health", "point_of_interest", "establishment"], "rating": 5, "user_ratings_total": 20}, "ChIJLQGzJeAEdkgRLJ2ypqyZIew": {"geometry": {"location": {"lat": 51.4919703, "lng": -0.1404996}, "viewport": {"northeast": {"lat": 51.49335498029149, "lng": -0.139176419708498}, "southwest": {"lat": 51.4906570197085, "lng": -0.141874380291502}}}, "name": "Hospices of Hope - Pimlico", "place_id": "ChIJLQGzJeAEdkgRLJ2ypqyZIew", "types": ["point_of_interest", "store", "establishment"], "rating": 3.8, "user_ratings_total": 6}, "ChIJp5D3POAEdkgRgammQCsgNXk": {"geometry": {"location": {"lat": 51.492362, "lng": -0.1398797}, "viewport": {"northeast": {"lat": 51.4936871802915, "lng": -0.1385952697084979}, "southwest": {"lat": 51.4909892197085, "lng": -0.141293230291502}}}, "name": "Life Dental Implants (by Dr Azhar Sheikh)", "place_id": "ChIJp5D3POAEdkgRgammQCsgNXk", "types": ["dentist", "health", "point_of_interest", "establishment"], "rating": 4.9, "user_ratings_total": 117}, "ChIJ01joOuAEdkgRmMSIsXtqNXI": {"geometry": {"location": {"lat": 51.49204810000001, "lng": -0.1400136}, "viewport": {"northeast": {"lat": 51.4934052802915, "lng": -0.138602519708498}, "southwest": {"lat": 51.49070731970851, "lng": -0.141300480291502}}}, "name": "Pronto!", "place_id": "ChIJ01joOuAEdkgRmMSIsXtqNXI", "types": ["point_of_interest", "establishment"]}, "ChIJXRltMOAEdkgRyo1S3LkG1gA": {"geometry": {"location": {"lat": 51.4918817, "lng": -0.1400166}, "viewport": {"northeast": {"lat": 51.4932439802915, "lng": -0.138575019708498}, "southwest": {"lat": 51.4905460197085, "lng": -0.141272980291502}}}, "name": "Mira Intelligent Read cic", "place_id": "ChIJXRltMOAEdkgRyo1S3LkG1gA", "types": ["point_of_interest", "establishment"]}, "ChIJby_2DSAFdkgR63NSTVjNxDA": {"geometry": {"location": {"lat": 51.49507775008174, "lng": -0.1417350495715775}, "viewport": {"northeast": {"lat": 51.4964267302915, "lng": -0.140386069708498}, "southwest": {"lat": 51.4937287697085, "lng": -0.143084030291502}}}, "name": "292-282 A202", "place_id": "ChIJby_2DSAFdkgR63NSTVjNxDA", "types": ["route"]}, "ChIJj7HgCyAFdkgRVkYmHfzRTS0": {"geometry": {"location": {"lat": 51.4949866, "lng": -0.1412787}, "viewport": {"northeast": {"lat": 51.4963355802915, "lng": -0.139929719708498}, "southwest": {"lat": 51.4936376197085, "lng": -0.142627680291502}}}, "name": "Victoria Station Hotel", "place_id": "ChIJj7HgCyAFdkgRVkYmHfzRTS0", "types": ["lodging", "point_of_interest", "establishment"], "rating": 2.8, "user_ratings_total": 287}, "ChIJ3-dQFSAFdkgR74tjp7XFxTY": {"geometry": {"location": {"lat": 51.4950218, "lng": -0.1423933}, "viewport": {"northeast": {"lat": 51.4962773802915, "lng": -0.140879969708498}, "southwest": {"lat": 51.4935794197085, "lng": -0.143577930291502}}}, "name": "The Willow Walk", "place_id": "ChIJ3-dQFSAFdkgR74tjp7XFxTY", "types": ["bar", "restaurant", "food", "point_of_interest", "establishment"], "rating": 4, "user_ratings_total": 2328}, "ChIJUcv6biAFdkgRxRGAgJUPjKA": {"geometry": {"location": {"lat": 51.4956965, "lng": -0.1419466}, "viewport": {"northeast": {"lat": 51.4970454802915, "lng": -0.140597619708498}, "southwest": {"lat": 51.4943475197085, "lng": -0.143295580291502}}}, "name": "Il Posto", "place_id": "ChIJUcv6biAFdkgRxRGAgJUPjKA", "types": ["restaurant", "food", "point_of_interest", "establishment"], "rating": 4.2, "user_ratings_total": 605}, "ChIJUcv6biAFdkgRbQN6nriTbZw": {"geometry": {"location": {"lat": 51.4956965, "lng": -0.1418902}, "viewport": {"northeast": {"lat": 51.4970143802915, "lng": -0.140670869708498}, "southwest": {"lat": 51.4943164197085, "lng": -0.143368830291502}}}, "name": "Russell Hotel", "place_id": "ChIJUcv6biAFdkgRbQN6nriTbZw", "types": ["lodging", "point_of_interest", "establishment"], "rating": 2.4, "user_ratings_total": 10}, "ChIJpy5AAyAFdkgRudjo2d1DRoY": {"geometry": {"location": {"lat": 51.4956527, "lng": -0.1418922}, "viewport": {"northeast": {"lat": 51.49695743029149, "lng": -0.140650169708498}, "southwest": {"lat": 51.4942594697085, "lng": -0.143348130291502}}}, "name": "Lime Orange", "place_id": "ChIJpy5AAyAFdkgRudjo2d1DRoY", "types": ["restaurant", "food", "point_of_interest", "establishment"], "rating": 4.4, "user_ratings_total": 1093}, "ChIJbd5JKNwEdkgRLJ8Luy6bLHE": {"geometry": {"location": {"lat": 51.49548830000001, "lng": -0.1416809}, "viewport": {"northeast": {"lat": 51.4967959302915, "lng": -0.140492569708498}, "southwest": {"lat": 51.49409796970851, "lng": -0.143190530291502}}}, "name": "Dictating Machine Co Ltd", "place_id": "ChIJbd5JKNwEdkgRLJ8Luy6bLHE", "types": ["electronics_store", "home_goods_store", "point_of_interest", "store", "establishment"], "rating": 4.6, "user_ratings_total": 5}, "ChIJq54cbCAFdkgRpiHpnJ_hFtI": {"geometry": {"location": {"lat": 51.49548830000001, "lng": -0.1416809}, "viewport": {"northeast": {"lat": 51.4967959302915, "lng": -0.140492569708498}, "southwest": {"lat": 51.49409796970851, "lng": -0.143190530291502}}}, "name": "Ray Morris Hill Associates", "place_id": "ChIJq54cbCAFdkgRpiHpnJ_hFtI", "types": ["point_of_interest", "establishment"]}, "ChIJqZIF2uYEdkgR9_lNSC1Uk54": {"geometry": {"location": {"lat": 51.49548830000001, "lng": -0.1416809}, "viewport": {"northeast": {"lat": 51.4967959302915, "lng": -0.140492569708498}, "southwest": {"lat": 51.49409796970851, "lng": -0.143190530291502}}}, "name": "Data Protection Officer", "place_id": "ChIJqZIF2uYEdkgR9_lNSC1Uk54", "types": ["point_of_interest", "establishment"]}, "ChIJ7dLmEiAFdkgR-q4yQWaVjFw": {"geometry": {"location": {"lat": 51.4952146, "lng": -0.1414653}, "viewport": {"northeast": {"lat": 51.49658238029149, "lng": -0.140062619708498}, "southwest": {"lat": 51.49388441970849, "lng": -0.142760580291502}}}, "name": "Connectivity Business", "place_id": "ChIJ7dLmEiAFdkgR-q4yQWaVjFw", "types": ["point_of_interest", "establishment"]}, "ChIJO8FKbSAFdkgRSGI6_R_3SGU": {"geometry": {"location": {"lat": 51.4952146, "lng": -0.1414653}, "viewport": {"northeast": {"lat": 51.4965074802915, "lng": -0.140263319708498}, "southwest": {"lat": 51.4938095197085, "lng": -0.142961280291502}}}, "name": "Pielle & Co Ltd", "place_id": "ChIJO8FKbSAFdkgRSGI6_R_3SGU", "types": ["point_of_interest", "establishment"]}, "ChIJh1TNciAFdkgR_UVye6F6xPs": {"geometry": {"location": {"lat": 51.4952145, "lng": -0.1414653}, "viewport": {"northeast": {"lat": 51.4965073802915, "lng": -0.140263319708498}, "southwest": {"lat": 51.49380941970851, "lng": -0.142961280291502}}}, "name": "Regulatory Funding Company", "place_id": "ChIJh1TNciAFdkgR_UVye6F6xPs", "types": ["point_of_interest", "establishment"]}, "ChIJY1TNciAFdkgRFMMS81rjzf4": {"geometry": {"location": {"lat": 51.49521460000001, "lng": -0.1414652}, "viewport": {"northeast": {"lat": 51.49650748029151, "lng": -0.140263269708498}, "southwest": {"lat": 51.49380951970851, "lng": -0.142961230291502}}}, "name": "Local Media Works", "place_id": "ChIJY1TNciAFdkgRFMMS81rjzf4", "types": ["point_of_interest", "establishment"]}, "ChIJY1TNciAFdkgRxSBoTrIUKzk": {"geometry": {"location": {"lat": 51.49521460000001, "lng": -0.1414652}, "viewport": {"northeast": {"lat": 51.49650748029151, "lng": -0.140263269708498}, "southwest": {"lat": 51.49380951970851, "lng": -0.142961230291502}}}, "name": "Duncan Raban", "place_id": "ChIJY1TNciAFdkgRxSBoTrIUKzk", "types": ["point_of_interest", "establishment"], "rating": 5, "user_ratings_total": 3}, "ChIJWQbfDCAFdkgRtm98aQi2N0A": {"geometry": {"location": {"lat": 51.495143, "lng": -0.141408}, "viewport": {"northeast": {"lat": 51.4964377302915, "lng": -0.1402012197084979}, "southwest": {"lat": 51.4937397697085, "lng": -0.142899180291502}}}, "name": "PMA", "place_id": "ChIJWQbfDCAFdkgRtm98aQi2N0A", "types": ["point_of_interest", "establishment"]}, "ChIJWQXpbSAFdkgRd-tnTB8OB20": {"geometry": {"location": {"lat": 51.4954882, "lng": -0.1416808}, "viewport": {"northeast": {"lat": 51.4967958302915, "lng": -0.140492469708498}, "southwest": {"lat": 51.4940978697085, "lng": -0.143190430291502}}}, "name": "British Moroccan Society", "place_id": "ChIJWQXpbSAFdkgRd-tnTB8OB20", "types": ["point_of_interest", "establishment"]}, "ChIJWQXpbSAFdkgReljXR2352bc": {"geometry": {"location": {"lat": 51.4954882, "lng": -0.1416808}, "viewport": {"northeast": {"lat": 51.4967958302915, "lng": -0.140492469708498}, "southwest": {"lat": 51.4940978697085, "lng": -0.143190430291502}}}, "name": "Giuseppe Zeno Family Group", "place_id": "ChIJWQXpbSAFdkgReljXR2352bc", "types": ["finance", "point_of_interest", "establishment"]}, "ChIJWQXpbSAFdkgRDatChZXfGPI": {"geometry": {"location": {"lat": 51.4954882, "lng": -0.1416808}, "viewport": {"northeast": {"lat": 51.4967958302915, "lng": -0.140492469708498}, "southwest": {"lat": 51.4940978697085, "lng": -0.143190430291502}}}, "name": "Pizza Chef Jobs", "place_id": "ChIJWQXpbSAFdkgRDatChZXfGPI", "types": ["point_of_interest", "establishment"]}, "ChIJXQXpbSAFdkgRW96A7-IOYUI": {"geometry": {"location": {"lat": 51.49548830000001, "lng": -0.1416809}, "viewport": {"northeast": {"lat": 51.4967959302915, "lng": -0.140492569708498}, "southwest": {"lat": 51.49409796970851, "lng": -0.143190530291502}}}, "name": "Storing Renewable Energy", "place_id": "ChIJXQXpbSAFdkgRW96A7-IOYUI", "types": ["point_of_interest", "establishment"]}, "ChIJYW9FbCAFdkgRg0zFMFjlwdY": {"geometry": {"location": {"lat": 51.49548830000001, "lng": -0.1416809}, "viewport": {"northeast": {"lat": 51.4967959302915, "lng": -0.140492569708498}, "southwest": {"lat": 51.49409796970851, "lng": -0.143190530291502}}}, "name": "Wordsmith", "place_id": "ChIJYW9FbCAFdkgRg0zFMFjlwdY", "types": ["point_of_interest", "establishment"]}, "ChIJWwXpbSAFdkgRjR269MBc9Us": {"geometry": {"location": {"lat": 51.4954883, "lng": -0.1416808}, "viewport": {"northeast": {"lat": 51.49679588029149, "lng": -0.140492519708498}, "southwest": {"lat": 51.4940979197085, "lng": -0.143190480291502}}}, "name": "Hilites Property Services", "place_id": "ChIJWwXpbSAFdkgRjR269MBc9Us", "types": ["point_of_interest", "establishment"]}, "ChIJXQXpbSAFdkgRO94n-AbgPQI": {"geometry": {"location": {"lat": 51.4954883, "lng": -0.1416808}, "viewport": {"northeast": {"lat": 51.49679588029149, "lng": -0.140492519708498}, "southwest": {"lat": 51.4940979197085, "lng": -0.143190480291502}}}, "name": "Temporary Global Talents Ltd", "place_id": "ChIJXQXpbSAFdkgRO94n-AbgPQI", "types": ["point_of_interest", "establishment"]}, "ChIJ2X1t-FAbdkgRu70IwjrkwiM": {"geometry": {"location": {"lat": 51.4954936, "lng": -0.1417869}, "viewport": {"northeast": {"lat": 51.4968124802915, "lng": -0.140554819708498}, "southwest": {"lat": 51.4941145197085, "lng": -0.143252780291502}}}, "name": "Go2UK&Europe Travels", "place_id": "ChIJ2X1t-FAbdkgRu70IwjrkwiM", "types": ["point_of_interest", "establishment"]}, "ChIJg-Aff9QadkgRlv328adQtmY": {"geometry": {"location": {"lat": 51.4954936, "lng": -0.1417869}, "viewport": {"northeast": {"lat": 51.4968124802915, "lng": -0.140554819708498}, "southwest": {"lat": 51.4941145197085, "lng": -0.143252780291502}}}, "name": "Pimlico Building Ltd", "place_id": "ChIJg-Aff9QadkgRlv328adQtmY", "types": ["electrician", "plumber", "home_goods_store", "general_contractor", "point_of_interest", "store", "establishment"], "rating": 5, "user_ratings_total": 13}, "ChIJlel5qgEFdkgRzcCiAl5CzIA": {"geometry": {"location": {"lat": 51.4954936, "lng": -0.1417869}, "viewport": {"northeast": {"lat": 51.4968124802915, "lng": -0.140554819708498}, "southwest": {"lat": 51.4941145197085, "lng": -0.143252780291502}}}, "name": "Studio 198", "place_id": "ChIJlel5qgEFdkgRzcCiAl5CzIA", "types": ["home_goods_store", "point_of_interest", "store", "establishment"]}, "ChIJA0FXmdqEdkgRn_HaHeLwZNs": {"geometry": {"location": {"lat": 51.49514809999999, "lng": -0.1423581}, "viewport": {"northeast": {"lat": 51.49643818029148, "lng": -0.141175019708498}, "southwest": {"lat": 51.49374021970849, "lng": -0.143872980291502}}}, "name": "SureCloud Limited", "place_id": "ChIJA0FXmdqEdkgRn_HaHeLwZNs", "types": ["point_of_interest", "establishment"], "rating": 5, "user_ratings_total": 2}, "ChIJtXJQlEIFdkgRBUw5_6ilRJk": {"geometry": {"location": {"lat": 51.49514809999999, "lng": -0.1423581}, "viewport": {"northeast": {"lat": 51.49643818029148, "lng": -0.141175019708498}, "southwest": {"lat": 51.49374021970849, "lng": -0.143872980291502}}}, "name": "Signature Staff", "place_id": "ChIJtXJQlEIFdkgRBUw5_6ilRJk", "types": ["point_of_interest", "establishment"], "rating": 4.2, "user_ratings_total": 19}, "ChIJTwZ1miAFdkgRMLbV6QdC30s": {"geometry": {"location": {"lat": 51.4954098, "lng": -0.1422196}, "viewport": {"northeast": {"lat": 51.4966628802915, "lng": -0.140778969708498}, "southwest": {"lat": 51.4939649197085, "lng": -0.143476930291502}}}, "name": "London Doctors Clinic Private GP", "place_id": "ChIJTwZ1miAFdkgRMLbV6QdC30s", "types": ["doctor", "hospital", "health", "point_of_interest", "establishment"], "rating": 4.4, "user_ratings_total": 107}, "ChIJ6QWeTE4bdkgRNVBabZ6Y8Dc": {"geometry": {"location": {"lat": 51.49514809999999, "lng": -0.1423581}, "viewport": {"northeast": {"lat": 51.49643818029148, "lng": -0.141175019708498}, "southwest": {"lat": 51.49374021970849, "lng": -0.143872980291502}}}, "name": "Graduate Coach", "place_id": "ChIJ6QWeTE4bdkgRNVBabZ6Y8Dc", "types": ["point_of_interest", "establishment"], "rating": 5, "user_ratings_total": 84}, "ChIJoaphSNUEdkgRqwDj6AXUcio": {"geometry": {"location": {"lat": 51.49514809999999, "lng": -0.1423581}, "viewport": {"northeast": {"lat": 51.4964640802915, "lng": -0.141175019708498}, "southwest": {"lat": 51.4937661197085, "lng": -0.143872980291502}}}, "name": "SMARTHOST", "place_id": "ChIJoaphSNUEdkgRqwDj6AXUcio", "types": ["point_of_interest", "establishment"], "rating": 5, "user_ratings_total": 138}, "ChIJyf9AjikFdkgRXIMTu28110c": {"geometry": {"location": {"lat": 51.49514809999999, "lng": -0.1423581}, "viewport": {"northeast": {"lat": 51.49643818029148, "lng": -0.141175019708498}, "southwest": {"lat": 51.49374021970849, "lng": -0.143872980291502}}}, "name": "Ribston", "place_id": "ChIJyf9AjikFdkgRXIMTu28110c", "types": ["finance", "point_of_interest", "establishment"]}, "ChIJhfdRfLkcdkgROz8aG3_aIKU": {"geometry": {"location": {"lat": 51.49514809999999, "lng": -0.1423581}, "viewport": {"northeast": {"lat": 51.49643818029148, "lng": -0.141175019708498}, "southwest": {"lat": 51.49374021970849, "lng": -0.143872980291502}}}, "name": "London Capital Homes Limited", "place_id": "ChIJhfdRfLkcdkgROz8aG3_aIKU", "types": ["real_estate_agency", "point_of_interest", "establishment"], "rating": 4.3, "user_ratings_total": 270}, "ChIJk38v4rIcdkgRtVQvs1Xi0Cc": {"geometry": {"location": {"lat": 51.49514809999999, "lng": -0.1423581}, "viewport": {"northeast": {"lat": 51.49643818029148, "lng": -0.141175019708498}, "southwest": {"lat": 51.49374021970849, "lng": -0.143872980291502}}}, "name": "Bee Teacher | The Education Recruitment Agency", "place_id": "ChIJk38v4rIcdkgRtVQvs1Xi0Cc", "types": ["point_of_interest", "establishment"], "rating": 5, "user_ratings_total": 2}, "ChIJj2xjLdMadkgRl_2bZ6PbD6c": {"geometry": {"location": {"lat": 51.49514809999999, "lng": -0.1423581}, "viewport": {"northeast": {"lat": 51.4964640802915, "lng": -0.141175019708498}, "southwest": {"lat": 51.4937661197085, "lng": -0.143872980291502}}}, "name": "Wine Source", "place_id": "ChIJj2xjLdMadkgRl_2bZ6PbD6c", "types": ["liquor_store", "food", "point_of_interest", "store", "establishment"], "rating": 5, "user_ratings_total": 6}, "ChIJr2r_XjMbdkgRIj_1rvH9KVk": {"geometry": {"location": {"lat": 51.49514809999999, "lng": -0.1423581}, "viewport": {"northeast": {"lat": 51.49643818029148, "lng": -0.141175019708498}, "southwest": {"lat": 51.49374021970849, "lng": -0.143872980291502}}}, "name": "Paperhat Creative", "place_id": "ChIJr2r_XjMbdkgRIj_1rvH9KVk", "types": ["point_of_interest", "establishment"], "rating": 5, "user_ratings_total": 1}, "ChIJ6V4bE9kFdkgR7yGETNcQ_C4": {"geometry": {"location": {"lat": 51.49514809999999, "lng": -0.1423581}, "viewport": {"northeast": {"lat": 51.49643818029148, "lng": -0.141175019708498}, "southwest": {"lat": 51.49374021970849, "lng": -0.143872980291502}}}, "name": "Social Acumen", "place_id": "ChIJ6V4bE9kFdkgR7yGETNcQ_C4", "types": ["point_of_interest", "establishment"], "rating": 5, "user_ratings_total": 1}, "ChIJm6uEOisFdkgRPY_iwh9uGbw": {"geometry": {"location": {"lat": 51.49514809999999, "lng": -0.1423581}, "viewport": {"northeast": {"lat": 51.49643818029148, "lng": -0.141175019708498}, "southwest": {"lat": 51.49374021970849, "lng": -0.143872980291502}}}, "name": "RTX Routetrader Limited", "place_id": "ChIJm6uEOisFdkgRPY_iwh9uGbw", "types": ["point_of_interest", "establishment"]}, "ChIJS5An4NAEdkgREO9qDGagHdU": {"geometry": {"location": {"lat": 51.49514809999999, "lng": -0.1423581}, "viewport": {"northeast": {"lat": 51.49643818029148, "lng": -0.141175019708498}, "southwest": {"lat": 51.49374021970849, "lng": -0.143872980291502}}}, "name": "Asset House Piccadilly Limited", "place_id": "ChIJS5An4NAEdkgREO9qDGagHdU", "types": ["point_of_interest", "establishment"], "rating": 4.3, "user_ratings_total": 3}, "ChIJW3zhHu00d0gRSyNIgRHtbE0": {"geometry": {"location": {"lat": 51.4951213, "lng": -0.1424009}, "viewport": {"northeast": {"lat": 51.4964247802915, "lng": -0.141192169708498}, "southwest": {"lat": 51.4937268197085, "lng": -0.143890130291502}}}, "name": "Adaptavist", "place_id": "ChIJW3zhHu00d0gRSyNIgRHtbE0", "types": ["point_of_interest", "establishment"], "rating": 5, "user_ratings_total": 14}, "ChIJtUxPQCAFdkgRD9oLTNHhfhc": {"geometry": {"location": {"lat": 51.4953394, "lng": -0.142452}, "viewport": {"northeast": {"lat": 51.49653383029149, "lng": -0.1412707197084979}, "southwest": {"lat": 51.49383586970849, "lng": -0.143968680291502}}}, "name": "Mecom Group Plc", "place_id": "ChIJtUxPQCAFdkgRD9oLTNHhfhc", "types": ["point_of_interest", "establishment"], "rating": 5, "user_ratings_total": 1}, "ChIJJbUdTkgbdkgRvgEd_sRaaJ8": {"geometry": {"location": {"lat": 51.494893, "lng": -0.1411975}, "viewport": {"northeast": {"lat": 51.4962419802915, "lng": -0.139848519708498}, "southwest": {"lat": 51.4935440197085, "lng": -0.142546480291502}}}, "name": "CurrencyTransfer Ltd", "place_id": "ChIJJbUdTkgbdkgRvgEd_sRaaJ8", "types": ["finance", "point_of_interest", "establishment"], "rating": 4.8, "user_ratings_total": 51}, "ChIJDzGuDiAFdkgRFTyKWhWHoUc": {"geometry": {"location": {"lat": 51.494848, "lng": -0.141265}, "viewport": {"northeast": {"lat": 51.4961969802915, "lng": -0.139916019708498}, "southwest": {"lat": 51.4934990197085, "lng": -0.142613980291502}}}, "name": "Trufflr", "place_id": "ChIJDzGuDiAFdkgRFTyKWhWHoUc", "types": ["food", "point_of_interest", "establishment"], "rating": 5, "user_ratings_total": 1}, "ChIJ8_RYCSAFdkgRS33UGKs366A": {"geometry": {"location": {"lat": 51.4948802, "lng": -0.1411742}, "viewport": {"northeast": {"lat": 51.4961783802915, "lng": -0.139958369708498}, "southwest": {"lat": 51.4934804197085, "lng": -0.142656330291502}}}, "name": "ExtraTime Management", "place_id": "ChIJ8_RYCSAFdkgRS33UGKs366A", "types": ["point_of_interest", "establishment"]}, "ChIJ8_RYCSAFdkgRJW48ngQ5QNI": {"geometry": {"location": {"lat": 51.4948802, "lng": -0.1411742}, "viewport": {"northeast": {"lat": 51.4961783802915, "lng": -0.139958369708498}, "southwest": {"lat": 51.4934804197085, "lng": -0.142656330291502}}}, "name": "Queen Anne's Business Centre", "place_id": "ChIJ8_RYCSAFdkgRJW48ngQ5QNI", "types": ["real_estate_agency", "point_of_interest", "establishment"], "rating": 5, "user_ratings_total": 1}, "ChIJ8_RYCSAFdkgRFEswkvsyvP0": {"geometry": {"location": {"lat": 51.4948802, "lng": -0.1411742}, "viewport": {"northeast": {"lat": 51.4961783802915, "lng": -0.139958369708498}, "southwest": {"lat": 51.4934804197085, "lng": -0.142656330291502}}}, "name": "IFMeD", "place_id": "ChIJ8_RYCSAFdkgRFEswkvsyvP0", "types": ["point_of_interest", "establishment"]}, "ChIJ8_RYCSAFdkgRCrX9nmDJ-5A": {"geometry": {"location": {"lat": 51.4948802, "lng": -0.1411742}, "viewport": {"northeast": {"lat": 51.4961783802915, "lng": -0.139958369708498}, "southwest": {"lat": 51.4934804197085, "lng": -0.142656330291502}}}, "name": "Tracey Smith Reflexology", "place_id": "ChIJ8_RYCSAFdkgRCrX9nmDJ-5A", "types": ["health", "point_of_interest", "establishment"], "rating": 5, "user_ratings_total": 2}, "ChIJHaXtCyAFdkgRVWHZxWC4y1A": {"geometry": {"location": {"lat": 51.4948801, "lng": -0.1411743}, "viewport": {"northeast": {"lat": 51.4962290802915, "lng": -0.139825319708498}, "southwest": {"lat": 51.4935311197085, "lng": -0.142523280291502}}}, "name": "TGP International", "place_id": "ChIJHaXtCyAFdkgRVWHZxWC4y1A", "types": ["point_of_interest", "establishment"], "rating": 5, "user_ratings_total": 1}, "ChIJz8_QCCAFdkgRWQ0Q0zHqvJs": {"geometry": {"location": {"lat": 51.4948801, "lng": -0.1411743}, "viewport": {"northeast": {"lat": 51.4961782802915, "lng": -0.139958419708498}, "southwest": {"lat": 51.4934803197085, "lng": -0.142656380291502}}}, "name": "Jeighteen & Partners Limited", "place_id": "ChIJz8_QCCAFdkgRWQ0Q0zHqvJs", "types": ["finance", "point_of_interest", "establishment"]}, "ChIJj7HgCyAFdkgRXo7W34nCovY": {"geometry": {"location": {"lat": 51.49486530000001, "lng": -0.1411637}, "viewport": {"northeast": {"lat": 51.49616403029151, "lng": -0.139946369708498}, "southwest": {"lat": 51.49346606970851, "lng": -0.142644330291502}}}, "name": "The Booksellers Association", "place_id": "ChIJj7HgCyAFdkgRXo7W34nCovY", "types": ["point_of_interest", "establishment"]}, "ChIJ-QJYBiAFdkgRv9JIWxCcq-A": {"geometry": {"location": {"lat": 51.49486530000001, "lng": -0.1411637}, "viewport": {"northeast": {"lat": 51.49616403029151, "lng": -0.139946369708498}, "southwest": {"lat": 51.49346606970851, "lng": -0.142644330291502}}}, "name": "Baba Executive Services", "place_id": "ChIJ-QJYBiAFdkgRv9JIWxCcq-A", "types": ["point_of_interest", "establishment"]}, "ChIJx8gzAKAPdkgRp2NKpiyToX8": {"geometry": {"location": {"lat": 51.49514809999999, "lng": -0.1423581}, "viewport": {"northeast": {"lat": 51.49643818029148, "lng": -0.141175019708498}, "southwest": {"lat": 51.49374021970849, "lng": -0.143872980291502}}}, "name": "Blues Agency", "place_id": "ChIJx8gzAKAPdkgRp2NKpiyToX8", "types": ["point_of_interest", "establishment"], "rating": 4.8, "user_ratings_total": 23}, "ChIJXQXpbSAFdkgRdqwN8-oiaH4": {"geometry": {"location": {"lat": 51.4953302, "lng": -0.1417416}, "viewport": {"northeast": {"lat": 51.4966553802915, "lng": -0.140480919708498}, "southwest": {"lat": 51.4939574197085, "lng": -0.143178880291502}}}, "name": "TANIT WEB", "place_id": "ChIJXQXpbSAFdkgRdqwN8-oiaH4", "types": ["point_of_interest", "establishment"], "rating": 5, "user_ratings_total": 1}, "ChIJNXn0bCAFdkgRblJhnKIsaTQ": {"geometry": {"location": {"lat": 51.49534509999999, "lng": -0.1417894}, "viewport": {"northeast": {"lat": 51.4966724802915, "lng": -0.140516219708498}, "southwest": {"lat": 51.4939745197085, "lng": -0.143214180291502}}}, "name": "Neathouse Place (Stop L)", "place_id": "ChIJNXn0bCAFdkgRblJhnKIsaTQ", "types": ["transit_station", "point_of_interest", "establishment"], "rating": 3.6, "user_ratings_total": 5}, "ChIJpSyxciAFdkgRYH8I3kXjj70": {"geometry": {"location": {"lat": 51.4952432, "lng": -0.1415332}, "viewport": {"northeast": {"lat": 51.49654158029151, "lng": -0.140316769708498}, "southwest": {"lat": 51.49384361970851, "lng": -0.143014730291502}}}, "name": "PRIMET Ltd", "place_id": "ChIJpSyxciAFdkgRYH8I3kXjj70", "types": ["point_of_interest", "establishment"]}, "ChIJpSyxciAFdkgRa7l6fKuj5DU": {"geometry": {"location": {"lat": 51.4952432, "lng": -0.1415332}, "viewport": {"northeast": {"lat": 51.49654158029151, "lng": -0.140316769708498}, "southwest": {"lat": 51.49384361970851, "lng": -0.143014730291502}}}, "name": "Sticky Content Ltd", "place_id": "ChIJpSyxciAFdkgRa7l6fKuj5DU", "types": ["point_of_interest", "establishment"]}, "ChIJpSyxciAFdkgRulW9RYskGHs": {"geometry": {"location": {"lat": 51.4952432, "lng": -0.1415332}, "viewport": {"northeast": {"lat": 51.49654158029151, "lng": -0.140316769708498}, "southwest": {"lat": 51.49384361970851, "lng": -0.143014730291502}}}, "name": "We Make Commotion", "place_id": "ChIJpSyxciAFdkgRulW9RYskGHs", "types": ["point_of_interest", "establishment"]}, "ChIJ39ASKuYFdkgRBFC5qHlFCBc": {"geometry": {"location": {"lat": 51.495401, "lng": -0.14169}, "viewport": {"northeast": {"lat": 51.4967147302915, "lng": -0.140471769708498}, "southwest": {"lat": 51.4940167697085, "lng": -0.143169730291502}}}, "name": "UPS Access Point", "place_id": "ChIJ39ASKuYFdkgRBFC5qHlFCBc", "types": ["point_of_interest", "establishment"]}, "ChIJY1TNciAFdkgRgJCWwOeeABw": {"geometry": {"location": {"lat": 51.49521460000001, "lng": -0.1414652}, "viewport": {"northeast": {"lat": 51.49650748029151, "lng": -0.140263269708498}, "southwest": {"lat": 51.49380951970851, "lng": -0.142961230291502}}}, "name": "PA Group", "place_id": "ChIJY1TNciAFdkgRgJCWwOeeABw", "types": ["point_of_interest", "establishment"]}, "ChIJWQXpbSAFdkgRod4nm3h22Pw": {"geometry": {"location": {"lat": 51.4954882, "lng": -0.1416808}, "viewport": {"northeast": {"lat": 51.4967958302915, "lng": -0.140492469708498}, "southwest": {"lat": 51.4940978697085, "lng": -0.143190430291502}}}, "name": "Borrelli Zeno & Associates Law Consultancy LTD.", "place_id": "ChIJWQXpbSAFdkgRod4nm3h22Pw", "types": ["point_of_interest", "establishment"]}, "ChIJi-UvByAFdkgRNn8Yb1oDYng": {"geometry": {"location": {"lat": 51.49430700003375, "lng": -0.1409644998137252}, "viewport": {"northeast": {"lat": 51.4956559802915, "lng": -0.139615519708498}, "southwest": {"lat": 51.4929580197085, "lng": -0.142313480291502}}}, "name": "237-239 A202", "place_id": "ChIJi-UvByAFdkgRNn8Yb1oDYng", "types": ["route"]}, "ChIJ5y8q-B8FdkgRNAGbmj7KOU8": {"geometry": {"location": {"lat": 51.4937406, "lng": -0.141551}, "viewport": {"northeast": {"lat": 51.4950818302915, "lng": -0.140283369708498}, "southwest": {"lat": 51.4923838697085, "lng": -0.142981330291502}}}, "name": "Rosa's Thai Cafe Victoria", "place_id": "ChIJ5y8q-B8FdkgRNAGbmj7KOU8", "types": ["restaurant", "food", "point_of_interest", "establishment"], "rating": 4.1, "user_ratings_total": 930}, "ChIJwVwF41AFdkgRJBW8l1URbzI": {"geometry": {"location": {"lat": 51.4940491, "lng": -0.1417751}, "viewport": {"northeast": {"lat": 51.4954074802915, "lng": -0.1405679697084979}, "southwest": {"lat": 51.49270951970851, "lng": -0.143265930291502}}}, "name": "Park Plaza Victoria London", "place_id": "ChIJwVwF41AFdkgRJBW8l1URbzI", "types": ["lodging", "point_of_interest", "establishment"], "rating": 4.3, "user_ratings_total": 2117}, "ChIJozheih8FdkgRSM_9X9m6Xu0": {"geometry": {"location": {"lat": 51.4938716, "lng": -0.142221}, "viewport": {"northeast": {"lat": 51.49527563029149, "lng": -0.140770269708498}, "southwest": {"lat": 51.4925776697085, "lng": -0.143468230291502}}}, "name": "Giraffe", "place_id": "ChIJozheih8FdkgRSM_9X9m6Xu0", "types": ["restaurant", "food", "point_of_interest", "establishment"], "rating": 4.1, "user_ratings_total": 1290}, "ChIJVSeDIiAFdkgRrMb5RBtr_8E": {"geometry": {"location": {"lat": 51.4940928, "lng": -0.1423931}, "viewport": {"northeast": {"lat": 51.49545208029149, "lng": -0.140899369708498}, "southwest": {"lat": 51.4927541197085, "lng": -0.143597330291502}}}, "name": "Le Pain Quotidien", "place_id": "ChIJVSeDIiAFdkgRrMb5RBtr_8E", "types": ["restaurant", "bakery", "cafe", "food", "point_of_interest", "store", "establishment"], "rating": 3.9, "user_ratings_total": 640}, "ChIJnysPArkfdkgRXr8dkrTHAyA": {"geometry": {"location": {"lat": 51.4943081, "lng": -0.1418792}, "viewport": {"northeast": {"lat": 51.4956188302915, "lng": -0.140677269708498}, "southwest": {"lat": 51.4929208697085, "lng": -0.143375230291502}}}, "name": "Wealden Computing Services Ltd (HR & Payroll Solutions)", "place_id": "ChIJnysPArkfdkgRXr8dkrTHAyA", "types": ["point_of_interest", "establishment"], "rating": 5, "user_ratings_total": 4}, "ChIJSQuGGyAFdkgRzIkoaGXS_L0": {"geometry": {"location": {"lat": 51.49418720000001, "lng": -0.1417343}, "viewport": {"northeast": {"lat": 51.49547993029151, "lng": -0.140568119708498}, "southwest": {"lat": 51.49278196970851, "lng": -0.143266080291502}}}, "name": "PCI London", "place_id": "ChIJSQuGGyAFdkgRzIkoaGXS_L0", "types": ["point_of_interest", "establishment"]}, "ChIJkyzMSgcDdkgRDtlHodr-Clc": {"geometry": {"location": {"lat": 51.4942477, "lng": -0.1418208}, "viewport": {"northeast": {"lat": 51.4955101802915, "lng": -0.140631419708498}, "southwest": {"lat": 51.49281221970851, "lng": -0.143329380291502}}}, "name": "Kharis Ministries", "place_id": "ChIJkyzMSgcDdkgRDtlHodr-Clc", "types": ["church", "place_of_worship", "point_of_interest", "establishment"], "rating": 4.8, "user_ratings_total": 30}, "ChIJC5WbBCAFdkgRV6kp95-ofUo": {"geometry": {"location": {"lat": 51.4942539, "lng": -0.1414756}, "viewport": {"northeast": {"lat": 51.4956859302915, "lng": -0.139925019708498}, "southwest": {"lat": 51.4929879697085, "lng": -0.142622980291502}}}, "name": "Rotary Club of Westminster East", "place_id": "ChIJC5WbBCAFdkgRV6kp95-ofUo", "types": ["point_of_interest", "establishment"], "rating": 4, "user_ratings_total": 1}, "ChIJC5WbBCAFdkgRJH1dw1p9H3M": {"geometry": {"location": {"lat": 51.4942539, "lng": -0.1414756}, "viewport": {"northeast": {"lat": 51.4956859302915, "lng": -0.139925019708498}, "southwest": {"lat": 51.4929879697085, "lng": -0.142622980291502}}}, "name": "Luis Azevedo", "place_id": "ChIJC5WbBCAFdkgRJH1dw1p9H3M", "types": ["health", "point_of_interest", "establishment"]}, "ChIJ-5WkAyAFdkgRIrEdoX2CpXU": {"geometry": {"location": {"lat": 51.4941056, "lng": -0.1413665}, "viewport": {"northeast": {"lat": 51.4955908302915, "lng": -0.139797069708498}, "southwest": {"lat": 51.4928928697085, "lng": -0.142495030291502}}}, "name": "TOZI", "place_id": "ChIJ-5WkAyAFdkgRIrEdoX2CpXU", "types": ["bar", "restaurant", "food", "point_of_interest", "establishment"], "rating": 4.5, "user_ratings_total": 1070}, "ChIJ65-nICAFdkgRJ38qRYRKwvo": {"geometry": {"location": {"lat": 51.4942481, "lng": -0.1421843}, "viewport": {"northeast": {"lat": 51.4956092302915, "lng": -0.140788669708498}, "southwest": {"lat": 51.49291126970851, "lng": -0.143486630291502}}}, "name": "IQPC Ltd", "place_id": "ChIJ65-nICAFdkgRJ38qRYRKwvo", "types": ["point_of_interest", "establishment"], "rating": 3.2, "user_ratings_total": 5}, "ChIJa5tKjdsEdkgRb4t32rwB-4U": {"geometry": {"location": {"lat": 51.4942139, "lng": -0.1423154}, "viewport": {"northeast": {"lat": 51.4956193302915, "lng": -0.140902869708498}, "southwest": {"lat": 51.4929213697085, "lng": -0.143600830291502}}}, "name": "Trident Energy Management Limited", "place_id": "ChIJa5tKjdsEdkgRb4t32rwB-4U", "types": ["point_of_interest", "establishment"], "rating": 5, "user_ratings_total": 1},