{"E00175220": {"ChIJWRMIa7oadkgR3qGKJQx59Wo": {"geometry": {"location": {"lat": 51.5264926838774, "lng": -0.1720534685682216}, "viewport": {"northeast": {"lat": 51.52784168029149, "lng": -0.170704469708498}, "southwest": {"lat": 51.5251437197085, "lng": -0.173402430291502}}}, "name": "219 B507", "place_id": "ChIJWRMIa7oadkgR3qGKJQx59Wo", "types": ["route"]}, "ChIJP_PtEboadkgR1-_sVWVIh2o": {"geometry": {"location": {"lat": 51.5263146, "lng": -0.1719742}, "viewport": {"northeast": {"lat": 51.52770993029149, "lng": -0.170601519708498}, "southwest": {"lat": 51.52501196970849, "lng": -0.1732994802915021}}}, "name": "Westminster Learning Disability Partnership", "place_id": "ChIJP_PtEboadkgR1-_sVWVIh2o", "types": ["hospital", "health", "point_of_interest", "establishment"]}, "ChIJP1iibLoadkgRvHwd2jtlliY": {"geometry": {"location": {"lat": 51.52633110000001, "lng": -0.1719986}, "viewport": {"northeast": {"lat": 51.5277365302915, "lng": -0.170641919708498}, "southwest": {"lat": 51.5250385697085, "lng": -0.173339880291502}}}, "name": "Westminster Adult Education Service", "place_id": "ChIJP1iibLoadkgRvHwd2jtlliY", "types": ["university", "school", "point_of_interest", "establishment"], "rating": 3.8, "user_ratings_total": 58}, "ChIJhUKUa7oadkgR84XmxAnRJVs": {"geometry": {"location": {"lat": 51.52644799999999, "lng": -0.17219}, "viewport": {"northeast": {"lat": 51.52779698029149, "lng": -0.170841019708498}, "southwest": {"lat": 51.5250990197085, "lng": -0.1735389802915021}}}, "name": "Santander Cycles", "place_id": "ChIJhUKUa7oadkgR84XmxAnRJVs", "types": ["point_of_interest", "establishment"]}, "ChIJQU6ZbLoadkgRRncuN8z9MqE": {"geometry": {"location": {"lat": 51.5263592, "lng": -0.1720401}, "viewport": {"northeast": {"lat": 51.5277497302915, "lng": -0.170642369708498}, "southwest": {"lat": 51.5250517697085, "lng": -0.173340330291502}}}, "name": "Ecole", "place_id": "ChIJQU6ZbLoadkgRRncuN8z9MqE", "types": ["school", "point_of_interest", "establishment"]}, "ChIJG7BdXboadkgRthdVfofxgnY": {"geometry": {"location": {"lat": 51.5267395, "lng": -0.1727623}, "viewport": {"northeast": {"lat": 51.5281141302915, "lng": -0.171387169708498}, "southwest": {"lat": 51.5254161697085, "lng": -0.174085130291502}}}, "name": "ubitricity Charging Station", "place_id": "ChIJG7BdXboadkgRthdVfofxgnY", "types": ["point_of_interest", "establishment"]}, "ChIJhefenbAadkgRRrnruC5wRaY": {"geometry": {"location": {"lat": 51.52533146184319, "lng": -0.1722628454089832}, "viewport": {"northeast": {"lat": 51.52668078029149, "lng": -0.170914619708498}, "southwest": {"lat": 51.52398281970849, "lng": -0.1736125802915021}}}, "name": "28-8 Frampton St", "place_id": "ChIJhefenbAadkgRRrnruC5wRaY", "types": ["route"]}, "ChIJ34tHbLoadkgRrjxwua18W5k": {"geometry": {"location": {"lat": 51.5254653, "lng": -0.1719305}, "viewport": {"northeast": {"lat": 51.5268402302915, "lng": -0.1706385697084979}, "southwest": {"lat": 51.5241422697085, "lng": -0.173336530291502}}}, "name": "Family Information Service", "place_id": "ChIJ34tHbLoadkgRrjxwua18W5k", "types": ["point_of_interest", "establishment"]}, "ChIJbT4KDroadkgRg8AWJ3o8et4": {"geometry": {"location": {"lat": 51.5254653, "lng": -0.1719305}, "viewport": {"northeast": {"lat": 51.5268402302915, "lng": -0.1706385697084979}, "southwest": {"lat": 51.5241422697085, "lng": -0.173336530291502}}}, "name": "Housing 21 Care Services", "place_id": "ChIJbT4KDroadkgRg8AWJ3o8et4", "types": ["point_of_interest", "establishment"], "rating": 5, "user_ratings_total": 1}, "ChIJg6hzDLoadkgRtclUNxcrza0": {"geometry": {"location": {"lat": 51.5253865, "lng": -0.1719908}, "viewport": {"northeast": {"lat": 51.52676623029149, "lng": -0.170709369708498}, "southwest": {"lat": 51.5240682697085, "lng": -0.173407330291502}}}, "name": "Zipcar UK - Frampton St E", "place_id": "ChIJg6hzDLoadkgRtclUNxcrza0", "types": ["point_of_interest", "establishment"], "rating": 1, "user_ratings_total": 1}, "ChIJq9g4bLoadkgRrcF0eVuKAEs": {"geometry": {"location": {"lat": 51.526045, "lng": -0.1720395}, "viewport": {"northeast": {"lat": 51.5273236802915, "lng": -0.170810169708498}, "southwest": {"lat": 51.5246257197085, "lng": -0.173508130291502}}}, "name": "Westminster Information Advice Support Service (IASS) for SEND", "place_id": "ChIJq9g4bLoadkgRrcF0eVuKAEs", "types": ["point_of_interest", "establishment"], "rating": 3, "user_ratings_total": 2}, "ChIJbRpLdboadkgR3h37FO0NUX4": {"geometry": {"location": {"lat": 51.5260458, "lng": -0.1717999}, "viewport": {"northeast": {"lat": 51.52727563029151, "lng": -0.170405319708498}, "southwest": {"lat": 51.52457766970851, "lng": -0.173103280291502}}}, "name": "Westminster City Council", "place_id": "ChIJbRpLdboadkgR3h37FO0NUX4", "types": ["point_of_interest", "establishment"], "rating": 2, "user_ratings_total": 8}, "ChIJscseeroadkgRvI6B66GxhJw": {"geometry": {"location": {"lat": 51.5257429, "lng": -0.1727362}, "viewport": {"northeast": {"lat": 51.5270666302915, "lng": -0.171330519708498}, "southwest": {"lat": 51.5243686697085, "lng": -0.174028480291502}}}, "name": "Housing Office Westminster", "place_id": "ChIJscseeroadkgRvI6B66GxhJw", "types": ["point_of_interest", "establishment"], "rating": 1.6, "user_ratings_total": 11}, "ChIJscseeroadkgRudv7Z8V-7Jk": {"geometry": {"location": {"lat": 51.5257429, "lng": -0.1727362}, "viewport": {"northeast": {"lat": 51.5270666302915, "lng": -0.171330519708498}, "southwest": {"lat": 51.5243686697085, "lng": -0.174028480291502}}}, "name": "Westminster Council, Housing Options", "place_id": "ChIJscseeroadkgRudv7Z8V-7Jk", "types": ["school", "point_of_interest", "establishment"], "rating": 2.5, "user_ratings_total": 2}, "ChIJA79beLoadkgRIw33hlofYlY": {"geometry": {"location": {"lat": 51.52550309999999, "lng": -0.1728137}, "viewport": {"northeast": {"lat": 51.5268415302915, "lng": -0.1714406697084979}, "southwest": {"lat": 51.5241435697085, "lng": -0.174138630291502}}}, "name": "Fisherton Hall", "place_id": "ChIJA79beLoadkgRIw33hlofYlY", "types": ["point_of_interest", "establishment"], "rating": 4.3, "user_ratings_total": 4}, "ChIJbT4KDroadkgRasBvq5IdqO4": {"geometry": {"location": {"lat": 51.5254653, "lng": -0.1719305}, "viewport": {"northeast": {"lat": 51.5268402302915, "lng": -0.1706385697084979}, "southwest": {"lat": 51.5241422697085, "lng": -0.173336530291502}}}, "name": "Family Recovery Project", "place_id": "ChIJbT4KDroadkgRasBvq5IdqO4", "types": ["point_of_interest", "establishment"], "rating": 5, "user_ratings_total": 1}, "ChIJYZBZnbAadkgRI9Yh9NdmVRE": {"geometry": {"location": {"lat": 51.5255222, "lng": -0.1724615}, "viewport": {"northeast": {"lat": 51.52680853029149, "lng": -0.170974769708498}, "southwest": {"lat": 51.52411056970849, "lng": -0.173672730291502}}}, "name": "Aramic Interiors", "place_id": "ChIJYZBZnbAadkgRI9Yh9NdmVRE", "types": ["general_contractor", "point_of_interest", "establishment"]}, "ChIJPXi_CboadkgR95vpRShAb7A": {"geometry": {"location": {"lat": 51.52548099999999, "lng": -0.171451}, "viewport": {"northeast": {"lat": 51.52682883029149, "lng": -0.170103519708498}, "southwest": {"lat": 51.52413086970849, "lng": -0.172801480291502}}}, "name": "ubitricity Charging Station", "place_id": "ChIJPXi_CboadkgR95vpRShAb7A", "types": ["point_of_interest", "establishment"]}, "ChIJU3OUEroadkgRpe_YQHOq12I": {"geometry": {"location": {"lat": 51.5261199, "lng": -0.1718135}, "viewport": {"northeast": {"lat": 51.5275581802915, "lng": -0.170322119708498}, "southwest": {"lat": 51.5248602197085, "lng": -0.173020080291502}}}, "name": "Westminster Duke of Edinburgh's Awards", "place_id": "ChIJU3OUEroadkgRpe_YQHOq12I", "types": ["point_of_interest", "establishment"], "rating": 5, "user_ratings_total": 1}, "ChIJdRUBV7cadkgRr6peTq8PZv8": {"geometry": {"location": {"lat": 51.5256844, "lng": -0.1711422}, "viewport": {"northeast": {"lat": 51.5269342302915, "lng": -0.169913019708498}, "southwest": {"lat": 51.5242362697085, "lng": -0.172610980291502}}}, "name": "Shojujitsu Karate Do Association", "place_id": "ChIJdRUBV7cadkgRr6peTq8PZv8", "types": ["health", "point_of_interest", "establishment"], "rating": 5, "user_ratings_total": 1}, "ChIJ2948EroadkgRssdlNc9eEOo": {"geometry": {"location": {"lat": 51.5261466, "lng": -0.1716096}, "viewport": {"northeast": {"lat": 51.52754413029151, "lng": -0.170204619708498}, "southwest": {"lat": 51.52484616970851, "lng": -0.172902580291502}}}, "name": "Westminster Youth Council & Participation", "place_id": "ChIJ2948EroadkgRssdlNc9eEOo", "types": ["point_of_interest", "establishment"]}, "ChIJcYfHkLAadkgRbzJDdjybKa0": {"geometry": {"location": {"lat": 51.52456406185383, "lng": -0.172120739924898}, "viewport": {"northeast": {"lat": 51.52591198029149, "lng": -0.1707733197084979}, "southwest": {"lat": 51.52321401970849, "lng": -0.173471280291502}}}, "name": "25-17 Fisherton St", "place_id": "ChIJcYfHkLAadkgRbzJDdjybKa0", "types": ["route"]}, "ChIJi1PjlbAadkgRoCUtNbeWrCY": {"geometry": {"location": {"lat": 51.52443639999999, "lng": -0.1721016}, "viewport": {"northeast": {"lat": 51.5257553302915, "lng": -0.170693119708498}, "southwest": {"lat": 51.5230573697085, "lng": -0.173391080291502}}}, "name": "St Pauls Newpin", "place_id": "ChIJi1PjlbAadkgRoCUtNbeWrCY", "types": ["point_of_interest", "establishment"], "rating": 4, "user_ratings_total": 1}, "ChIJWa0bmLAadkgRMPtmW8xNLZ0": {"geometry": {"location": {"lat": 51.52476919999999, "lng": -0.1719789}, "viewport": {"northeast": {"lat": 51.52603578029149, "lng": -0.170741219708498}, "southwest": {"lat": 51.52333781970849, "lng": -0.173439180291502}}}, "name": "Hasim Vitija Memorial Bench", "place_id": "ChIJWa0bmLAadkgRMPtmW8xNLZ0", "types": ["point_of_interest", "establishment"], "rating": 4.3, "user_ratings_total": 7}, "ChIJaX3hjbAadkgRjf3gbBKAS9c": {"geometry": {"location": {"lat": 51.524611, "lng": -0.1726359}, "viewport": {"northeast": {"lat": 51.52603053029151, "lng": -0.171441269708498}, "southwest": {"lat": 51.52333256970851, "lng": -0.174139230291502}}}, "name": "Eastlake House", "place_id": "ChIJaX3hjbAadkgRjf3gbBKAS9c", "types": ["point_of_interest", "establishment"], "rating": 4.3, "user_ratings_total": 6}, "ChIJgWqJuLAadkgR2ioDhKQSp7U": {"geometry": {"location": {"lat": 51.5241439, "lng": -0.1713857}, "viewport": {"northeast": {"lat": 51.52549193801622, "lng": -0.1700333999981951}, "southwest": {"lat": 51.52279397743322, "lng": -0.1727313605811991}}}, "name": "Parking lot", "place_id": "ChIJgWqJuLAadkgR2ioDhKQSp7U", "types": ["parking", "premise", "point_of_interest", "establishment"]}, "ChIJeYED57AadkgRTgHA4QUhCM0": {"geometry": {"location": {"lat": 51.52327650055394, "lng": -0.172159298508819}, "viewport": {"northeast": {"lat": 51.5246254802915, "lng": -0.1708103197084979}, "southwest": {"lat": 51.5219275197085, "lng": -0.173508280291502}}}, "name": "61 Penfold St", "place_id": "ChIJeYED57AadkgRTgHA4QUhCM0", "types": ["route"]}, "ChIJ_4KG77AadkgR7GC3Soz2EyA": {"geometry": {"location": {"lat": 51.52360520000001, "lng": -0.1720878}, "viewport": {"northeast": {"lat": 51.52495418029152, "lng": -0.170738819708498}, "southwest": {"lat": 51.52225621970852, "lng": -0.173436780291502}}}, "name": "Penfold Community Hub", "place_id": "ChIJ_4KG77AadkgR7GC3Soz2EyA", "types": ["point_of_interest", "establishment"], "rating": 4.8, "user_ratings_total": 22}, "ChIJE2mq5rAadkgRK8Nc0sireIE": {"geometry": {"location": {"lat": 51.523199, "lng": -0.172186}, "viewport": {"northeast": {"lat": 51.52457468029149, "lng": -0.170800569708498}, "southwest": {"lat": 51.52187671970849, "lng": -0.173498530291502}}}, "name": "Consonant", "place_id": "ChIJE2mq5rAadkgRK8Nc0sireIE", "types": ["point_of_interest", "establishment"], "rating": 4.3, "user_ratings_total": 7}, "ChIJixwbYhISdkgRBqoHHbvof80": {"geometry": {"location": {"lat": 51.52345630000001, "lng": -0.1727748}, "viewport": {"northeast": {"lat": 51.52475948029151, "lng": -0.171351869708498}, "southwest": {"lat": 51.52206151970851, "lng": -0.174049830291502}}}, "name": "The Voice of Domestic Workers", "place_id": "ChIJixwbYhISdkgRBqoHHbvof80", "types": ["point_of_interest", "establishment"]}, "ChIJaQAA0LAadkgRR6iwjnfa0gw": {"geometry": {"location": {"lat": 51.52342499999999, "lng": -0.171174}, "viewport": {"northeast": {"lat": 51.5247711302915, "lng": -0.169824269708498}, "southwest": {"lat": 51.5220731697085, "lng": -0.172522230291502}}}, "name": "Eurosom Technology Ltd", "place_id": "ChIJaQAA0LAadkgRR6iwjnfa0gw", "types": ["point_of_interest", "establishment"]}, "ChIJmylG8LAadkgRwhrVtljbldY": {"geometry": {"location": {"lat": 51.523459, "lng": -0.172789}, "viewport": {"northeast": {"lat": 51.52476083029149, "lng": -0.171359669708498}, "southwest": {"lat": 51.52206286970849, "lng": -0.1740576302915021}}}, "name": "The Showroom", "place_id": "ChIJmylG8LAadkgRwhrVtljbldY", "types": ["art_gallery", "tourist_attraction", "point_of_interest", "establishment"], "rating": 4.4, "user_ratings_total": 23}, "ChIJE2mq5rAadkgR1rxt_aDv1Po": {"geometry": {"location": {"lat": 51.5231666, "lng": -0.1721962}, "viewport": {"northeast": {"lat": 51.5244804302915, "lng": -0.170972769708498}, "southwest": {"lat": 51.5217824697085, "lng": -0.173670730291502}}}, "name": "Derry Hall", "place_id": "ChIJE2mq5rAadkgR1rxt_aDv1Po", "types": ["point_of_interest", "establishment"], "rating": 3.8, "user_ratings_total": 4}, "ChIJ______9yYEgRKnAqoFHxGe4": {"geometry": {"location": {"lat": 51.523157, "lng": -0.1722076}, "viewport": {"northeast": {"lat": 51.5245482302915, "lng": -0.170800919708498}, "southwest": {"lat": 51.5218502697085, "lng": -0.173498880291502}}}, "name": "Sinead Devine Yoga", "place_id": "ChIJ______9yYEgRKnAqoFHxGe4", "types": ["school", "gym", "health", "point_of_interest", "establishment"]}, "ChIJj1_vTEUbdkgRz1_YGFSuvEE": {"geometry": {"location": {"lat": 51.52364, "lng": -0.1726202}, "viewport": {"northeast": {"lat": 51.5249521302915, "lng": -0.171320269708498}, "southwest": {"lat": 51.5222541697085, "lng": -0.174018230291502}}}, "name": "Video Services Marylebone", "place_id": "ChIJj1_vTEUbdkgRz1_YGFSuvEE", "types": ["point_of_interest", "establishment"]}, "ChIJi_KYQ_IbdkgRgl_Zup6HFpQ": {"geometry": {"location": {"lat": 51.5233763, "lng": -0.1728057}, "viewport": {"northeast": {"lat": 51.5246927802915, "lng": -0.171413569708498}, "southwest": {"lat": 51.5219948197085, "lng": -0.174111530291502}}}, "name": "\u0645\u0633\u062c\u062f \u0627\u0643\u0627\u062f\u064a\u0645\u064a\u0629 \u062d\u0641\u0635", "place_id": "ChIJi_KYQ_IbdkgRgl_Zup6HFpQ", "types": ["school", "point_of_interest", "establishment"]}, "ChIJ50Ue47AadkgRqbdkES5ZsZI": {"geometry": {"location": {"lat": 51.5229101, "lng": -0.1724821}, "viewport": {"northeast": {"lat": 51.52428615316128, "lng": -0.1711875780369416}, "southwest": {"lat": 51.52158819257829, "lng": -0.1738855386199457}}}, "name": "Parking lot", "place_id": "ChIJ50Ue47AadkgRqbdkES5ZsZI", "types": ["parking", "premise", "point_of_interest", "establishment"]}, "ChIJKz2BIbEadkgRaIKdkbE1kyY": {"geometry": {"location": {"lat": 51.52236058135691, "lng": -0.171868716807394}, "viewport": {"northeast": {"lat": 51.5237114802915, "lng": -0.170522919708498}, "southwest": {"lat": 51.5210135197085, "lng": -0.173220880291502}}}, "name": "122-94 Church St", "place_id": "ChIJKz2BIbEadkgRaIKdkbE1kyY", "types": ["route"]}, "ChIJ_-E6GbEadkgRlY3MG3u-z1U": {"geometry": {"location": {"lat": 51.5222795, "lng": -0.1722188}, "viewport": {"northeast": {"lat": 51.5235938302915, "lng": -0.170909969708498}, "southwest": {"lat": 51.5208958697085, "lng": -0.173607930291502}}}, "name": "Tesco Metro", "place_id": "ChIJ_-E6GbEadkgRlY3MG3u-z1U", "types": ["supermarket", "convenience_store", "grocery_or_supermarket", "food", "point_of_interest", "store", "establishment"], "rating": 3.6, "user_ratings_total": 92}, "ChIJ9VafELEadkgR3twXCexP5KY": {"geometry": {"location": {"lat": 51.5227799, "lng": -0.1717576}, "viewport": {"northeast": {"lat": 51.52420238029149, "lng": -0.170276419708498}, "southwest": {"lat": 51.5215044197085, "lng": -0.172974380291502}}}, "name": "Travelease", "place_id": "ChIJ9VafELEadkgR3twXCexP5KY", "types": ["travel_agency", "point_of_interest", "establishment"], "rating": 4, "user_ratings_total": 1}, "ChIJu0wxIbEadkgRCUt4RTTTOBk": {"geometry": {"location": {"lat": 51.52250780000001, "lng": -0.1713039}, "viewport": {"northeast": {"lat": 51.5239097302915, "lng": -0.169992069708498}, "southwest": {"lat": 51.5212117697085, "lng": -0.172690030291502}}}, "name": "Creative Web Solutions", "place_id": "ChIJu0wxIbEadkgRCUt4RTTTOBk", "types": ["point_of_interest", "establishment"]}, "ChIJCZpoJrEadkgRG1Y2x1FAxt4": {"geometry": {"location": {"lat": 51.52250780000001, "lng": -0.1713039}, "viewport": {"northeast": {"lat": 51.5239097302915, "lng": -0.169992069708498}, "southwest": {"lat": 51.5212117697085, "lng": -0.172690030291502}}}, "name": "Westminster City Council, Regeneration Base", "place_id": "ChIJCZpoJrEadkgRG1Y2x1FAxt4", "types": ["local_government_office", "point_of_interest", "establishment"]}, "ChIJLdHKJbEadkgRVMD_j5eD8dI": {"geometry": {"location": {"lat": 51.5222193, "lng": -0.1717702}, "viewport": {"northeast": {"lat": 51.5236240802915, "lng": -0.170494219708498}, "southwest": {"lat": 51.5209261197085, "lng": -0.173192180291502}}}, "name": "COLLINS CHEMIST", "place_id": "ChIJLdHKJbEadkgRVMD_j5eD8dI", "types": ["pharmacy", "health", "point_of_interest", "store", "establishment"], "rating": 4.3, "user_ratings_total": 12}, "ChIJLdHKJbEadkgRl_CIQs9peKc": {"geometry": {"location": {"lat": 51.52251949999999, "lng": -0.1712579}, "viewport": {"northeast": {"lat": 51.52392588029149, "lng": -0.169976769708498}, "southwest": {"lat": 51.52122791970849, "lng": -0.172674730291502}}}, "name": "City Carpet Ltd", "place_id": "ChIJLdHKJbEadkgRl_CIQs9peKc", "types": ["home_goods_store", "point_of_interest", "store", "establishment"], "rating": 4, "user_ratings_total": 6}, "ChIJLdHKJbEadkgR-uunTI8rj20": {"geometry": {"location": {"lat": 51.5222807, "lng": -0.1716776}, "viewport": {"northeast": {"lat": 51.52368868029149, "lng": -0.170395469708498}, "southwest": {"lat": 51.52099071970849, "lng": -0.173093430291502}}}, "name": "D A Selection Ltd", "place_id": "ChIJLdHKJbEadkgR-uunTI8rj20", "types": ["store", "point_of_interest", "establishment"]}, "ChIJLdHKJbEadkgR3zR6VKGFRiI": {"geometry": {"location": {"lat": 51.5223686, "lng": -0.17157}, "viewport": {"northeast": {"lat": 51.5237558302915, "lng": -0.170306619708498}, "southwest": {"lat": 51.5210578697085, "lng": -0.173004580291502}}}, "name": "Greggs", "place_id": "ChIJLdHKJbEadkgR3zR6VKGFRiI", "types": ["bakery", "cafe", "restaurant", "food", "point_of_interest", "store", "establishment"], "rating": 4, "user_ratings_total": 100}, "ChIJLdHKJbEadkgRL6D1eTmNQIM": {"geometry": {"location": {"lat": 51.5222209, "lng": -0.1717443}, "viewport": {"northeast": {"lat": 51.52362403029149, "lng": -0.170482569708498}, "southwest": {"lat": 51.52092606970849, "lng": -0.173180530291502}}}, "name": "H D International", "place_id": "ChIJLdHKJbEadkgRL6D1eTmNQIM", "types": ["pharmacy", "health", "point_of_interest", "store", "establishment"]}, "ChIJLdHKJbEadkgRNu4LkwMhHXY": {"geometry": {"location": {"lat": 51.5224048, "lng": -0.1715527}, "viewport": {"northeast": {"lat": 51.5237756302915, "lng": -0.170270019708498}, "southwest": {"lat": 51.5210776697085, "lng": -0.172967980291502}}}, "name": "La Bouchrie D'or", "place_id": "ChIJLdHKJbEadkgRNu4LkwMhHXY", "types": ["food", "point_of_interest", "store", "establishment"], "rating": 5, "user_ratings_total": 2}, "ChIJp24PJLEadkgRAG8hg_ld5Zc": {"geometry": {"location": {"lat": 51.5223944, "lng": -0.1715056}, "viewport": {"northeast": {"lat": 51.5237801802915, "lng": -0.170239619708498}, "southwest": {"lat": 51.5210822197085, "lng": -0.172937580291502}}}, "name": "Tipaza Supermarket Ltd", "place_id": "ChIJp24PJLEadkgRAG8hg_ld5Zc", "types": ["grocery_or_supermarket", "food", "point_of_interest", "store", "establishment"], "rating": 5, "user_ratings_total": 1}, "ChIJEZmoJrEadkgR-IPZUx9sMbk": {"geometry": {"location": {"lat": 51.522428, "lng": -0.1714706}, "viewport": {"northeast": {"lat": 51.5237945302915, "lng": -0.170200469708498}, "southwest": {"lat": 51.52109656970851, "lng": -0.172898430291502}}}, "name": "Pound Place", "place_id": "ChIJEZmoJrEadkgR-IPZUx9sMbk", "types": ["supermarket", "grocery_or_supermarket", "food", "point_of_interest", "store", "establishment"], "rating": 3.8, "user_ratings_total": 5}, "ChIJzeqZ2LAadkgRCCLDJ0k_ToI": {"geometry": {"location": {"lat": 51.522772, "lng": -0.1717593}, "viewport": {"northeast": {"lat": 51.5242070302915, "lng": -0.170293569708498}, "southwest": {"lat": 51.5215090697085, "lng": -0.172991530291502}}}, "name": "Braham Opticians", "place_id": "ChIJzeqZ2LAadkgRCCLDJ0k_ToI", "types": ["health", "point_of_interest", "store", "establishment"], "rating": 4, "user_ratings_total": 4}, "ChIJlXAfJ7EadkgRCvOsu1edUTQ": {"geometry": {"location": {"lat": 51.5226155, "lng": -0.1714422}, "viewport": {"northeast": {"lat": 51.5239538802915, "lng": -0.170074069708498}, "southwest": {"lat": 51.52125591970851, "lng": -0.172772030291502}}}, "name": "Parkeerplaats", "place_id": "ChIJlXAfJ7EadkgRCvOsu1edUTQ", "types": ["parking", "point_of_interest", "establishment"]}, "ChIJLdHKJbEadkgRzShkX4dNouI": {"geometry": {"location": {"lat": 51.52248769999999, "lng": -0.1713609}, "viewport": {"northeast": {"lat": 51.52389698029149, "lng": -0.170013269708498}, "southwest": {"lat": 51.5211990197085, "lng": -0.172711230291502}}}, "name": "101 Church Street Cafe and Restaurant", "place_id": "ChIJLdHKJbEadkgRzShkX4dNouI", "types": ["cafe", "restaurant", "food", "point_of_interest", "establishment"], "rating": 3.9, "user_ratings_total": 63}, "ChIJp5BoJrEadkgRqQOWSTket1Y": {"geometry": {"location": {"lat": 51.52250780000001, "lng": -0.1713038000000001}, "viewport": {"northeast": {"lat": 51.5239097802915, "lng": -0.169992019708498}, "southwest": {"lat": 51.5212118197085, "lng": -0.172689980291502}}}, "name": "The Set", "place_id": "ChIJp5BoJrEadkgRqQOWSTket1Y", "types": ["point_of_interest", "establishment"]}, "ChIJc1xoJrEadkgRGUIN9_XDbYc": {"geometry": {"location": {"lat": 51.5225131, "lng": -0.1712997}, "viewport": {"northeast": {"lat": 51.5239144802915, "lng": -0.169988969708498}, "southwest": {"lat": 51.5212165197085, "lng": -0.172686930291502}}}, "name": "Church Street Regeneration Base", "place_id": "ChIJc1xoJrEadkgRGUIN9_XDbYc", "types": ["point_of_interest", "establishment"], "rating": 3, "user_ratings_total": 2}, "ChIJX1kF37AadkgRvefY8sYbikw": {"geometry": {"location": {"lat": 51.522892, "lng": -0.171681}, "viewport": {"northeast": {"lat": 51.5242808302915, "lng": -0.170280669708498}, "southwest": {"lat": 51.5215828697085, "lng": -0.172978630291502}}}, "name": "Santander Cycles", "place_id": "ChIJX1kF37AadkgRvefY8sYbikw", "types": ["point_of_interest", "establishment"]}, "ChIJ9SrJWLoadkgRJ8mrlcpaaAQ": {"geometry": {"location": {"lat": 51.52706289417114, "lng": -0.1732596358150371}, "viewport": {"northeast": {"lat": 51.5284188802915, "lng": -0.171900069708498}, "southwest": {"lat": 51.5257209197085, "lng": -0.174598030291502}}}, "name": "Lisson Grove", "place_id": "ChIJ9SrJWLoadkgRJ8mrlcpaaAQ", "types": ["route"]}, "ChIJP7oojboadkgRpKlU79H2gGU": {"geometry": {"location": {"lat": 51.5266866, "lng": -0.1739776}, "viewport": {"northeast": {"lat": 51.5281578302915, "lng": -0.1727757697084979}, "southwest": {"lat": 51.5254598697085, "lng": -0.175473730291502}}}, "name": "Raha Software Ltd", "place_id": "ChIJP7oojboadkgRpKlU79H2gGU", "types": ["point_of_interest", "establishment"]}, "ChIJzeXZoR8bdkgRU-N8AYSLPLU": {"geometry": {"location": {"lat": 51.526687, "lng": -0.173978}, "viewport": {"northeast": {"lat": 51.52815803029149, "lng": -0.172775919708498}, "southwest": {"lat": 51.5254600697085, "lng": -0.175473880291502}}}, "name": "Taraq glazed", "place_id": "ChIJzeXZoR8bdkgRU-N8AYSLPLU", "types": ["point_of_interest", "establishment"]}, "ChIJ80b809kbdkgRJ5ls5sn6Yy4": {"geometry": {"location": {"lat": 51.5267444, "lng": -0.1734075}, "viewport": {"northeast": {"lat": 51.5282414802915, "lng": -0.172373169708498}, "southwest": {"lat": 51.5255435197085, "lng": -0.175071130291502}}}, "name": "Cheadle Court", "place_id": "ChIJ80b809kbdkgRJ5ls5sn6Yy4", "types": ["point_of_interest", "establishment"]}, "ChIJ1fvS4L4bdkgRCR-96BMTflA": {"geometry": {"location": {"lat": 51.52655679999999, "lng": -0.1735057}, "viewport": {"northeast": {"lat": 51.52789103029149, "lng": -0.172014619708498}, "southwest": {"lat": 51.5251930697085, "lng": -0.174712580291502}}}, "name": "William Lock&Doors", "place_id": "ChIJ1fvS4L4bdkgRCR-96BMTflA", "types": ["general_contractor", "point_of_interest", "establishment"]}, "ChIJLyAGXroadkgRHLaOGMlGh3Q": {"geometry": {"location": {"lat": 51.5272449, "lng": -0.173667}, "viewport": {"northeast": {"lat": 51.5286166302915, "lng": -0.172284419708498}, "southwest": {"lat": 51.5259186697085, "lng": -0.174982380291502}}}, "name": "St John's Wood Road Lord's Cricket Ground (Stop LS)", "place_id": "ChIJLyAGXroadkgRHLaOGMlGh3Q", "types": ["transit_station", "point_of_interest", "establishment"], "rating": 3, "user_ratings_total": 2}, "ChIJ6XsK9LoadkgRsNILtEuRlBU": {"geometry": {"location": {"lat": 51.5269949, "lng": -0.1738185}, "viewport": {"northeast": {"lat": 51.52831465512088, "lng": -0.1724215905248311}, "southwest": {"lat": 51.52561669453788, "lng": -0.1751195511078352}}}, "name": "Parking lot", "place_id": "ChIJ6XsK9LoadkgRsNILtEuRlBU", "types": ["parking", "premise", "point_of_interest", "establishment"]}, "ChIJwb5zjboadkgRpT-FRE2K_fE": {"geometry": {"location": {"lat": 51.5265632, "lng": -0.1740688}, "viewport": {"northeast": {"lat": 51.52791834146227, "lng": -0.1727130499503358}, "southwest": {"lat": 51.52522038087928, "lng": -0.1754110105333399}}}, "name": "Parking lot", "place_id": "ChIJwb5zjboadkgRpT-FRE2K_fE", "types": ["parking", "premise", "point_of_interest", "establishment"]}, "ChIJ-_YdYboadkgRBiAhUoYpeAc": {"geometry": {"location": {"lat": 51.5265029, "lng": -0.1731714}, "viewport": {"northeast": {"lat": 51.52789221191303, "lng": -0.1718033122040523}, "southwest": {"lat": 51.52519425133003, "lng": -0.1745012727870563}}}, "name": "Parking lot", "place_id": "ChIJ-_YdYboadkgRBiAhUoYpeAc", "types": ["parking", "premise", "point_of_interest", "establishment"]}, "ChIJQUAh7roadkgREx_CCaj9EEs": {"geometry": {"location": {"lat": 51.5271586, "lng": -0.1741876}, "viewport": {"northeast": {"lat": 51.52847919858186, "lng": -0.172810103505687}, "southwest": {"lat": 51.52578123799886, "lng": -0.1755080640886911}}}, "name": "Parking lot", "place_id": "ChIJQUAh7roadkgREx_CCaj9EEs", "types": ["parking", "premise", "point_of_interest", "establishment"]}, "ChIJdcL2eLAadkgR585meRFMgv4": {"geometry": {"location": {"lat": 51.52528914935112, "lng": -0.1736315121878865}, "viewport": {"northeast": {"lat": 51.5266323802915, "lng": -0.172286669708498}, "southwest": {"lat": 51.5239344197085, "lng": -0.174984630291502}}}, "name": "Fisherton Street", "place_id": "ChIJdcL2eLAadkgR585meRFMgv4", "types": ["route"]}, "ChIJQ6rfhLoadkgRFmkgeoRkJIg": {"geometry": {"location": {"lat": 51.5258761, "lng": -0.1740526}, "viewport": {"northeast": {"lat": 51.52722508029149, "lng": -0.172703619708498}, "southwest": {"lat": 51.52452711970849, "lng": -0.175401580291502}}}, "name": "The Floating Skiff", "place_id": "ChIJQ6rfhLoadkgRFmkgeoRkJIg", "types": ["point_of_interest", "establishment"], "rating": 4.5, "user_ratings_total": 2}, "ChIJn7gqm7oadkgRK2QMTCyDVvc": {"geometry": {"location": {"lat": 51.5258803, "lng": -0.1741375}, "viewport": {"northeast": {"lat": 51.52722928029151, "lng": -0.172788519708498}, "southwest": {"lat": 51.52453131970851, "lng": -0.175486480291502}}}, "name": "Maida Hill Tunnel", "place_id": "ChIJn7gqm7oadkgRK2QMTCyDVvc", "types": ["point_of_interest", "establishment"], "rating": 4.4, "user_ratings_total": 21}, "ChIJ8f2GgLoadkgRrq2CPOpW3a8": {"geometry": {"location": {"lat": 51.5256808, "lng": -0.1736263}, "viewport": {"northeast": {"lat": 51.52690435244226, "lng": -0.1720724059996966}, "southwest": {"lat": 51.52420639185927, "lng": -0.1747703665827006}}}, "name": "Parking lot", "place_id": "ChIJ8f2GgLoadkgRrq2CPOpW3a8", "types": ["parking", "premise", "point_of_interest", "establishment"]}, "ChIJRYCpZ7AadkgRCBOosHCECRU": {"geometry": {"location": {"lat": 51.5242907500437, "lng": -0.174086399885652}, "viewport": {"northeast": {"lat": 51.52563973029149, "lng": -0.172737419708498}, "southwest": {"lat": 51.5229417697085, "lng": -0.175435380291502}}}, "name": "Penfold Street", "place_id": "ChIJRYCpZ7AadkgRCBOosHCECRU", "types": ["route"]}, "ChIJE_LXYLAadkgR7PhyCJ08gfk": {"geometry": {"location": {"lat": 51.524261, "lng": -0.173522}, "viewport": {"northeast": {"lat": 51.5255920302915, "lng": -0.172133819708498}, "southwest": {"lat": 51.5228940697085, "lng": -0.174831780291502}}}, "name": "Lisson Grove - Frampton St W", "place_id": "ChIJE_LXYLAadkgR7PhyCJ08gfk", "types": ["car_rental", "point_of_interest", "establishment"], "rating": 5, "user_ratings_total": 1}, "ChIJL36fZrAadkgRVDfgErrwMKg": {"geometry": {"location": {"lat": 51.5243962, "lng": -0.1738484}, "viewport": {"northeast": {"lat": 51.5256734302915, "lng": -0.172342369708498}, "southwest": {"lat": 51.5229754697085, "lng": -0.175040330291502}}}, "name": "Euro Cars Taxis", "place_id": "ChIJL36fZrAadkgRVDfgErrwMKg", "types": ["point_of_interest", "establishment"]}, "ChIJr51UY7AadkgR9_PBwgBXKJI": {"geometry": {"location": {"lat": 51.524729, "lng": -0.173736}, "viewport": {"northeast": {"lat": 51.5260593302915, "lng": -0.172345819708498}, "southwest": {"lat": 51.5233613697085, "lng": -0.175043780291502}}}, "name": "Impacting Paths Tutoring Company", "place_id": "ChIJr51UY7AadkgR9_PBwgBXKJI", "types": ["point_of_interest", "establishment"]}, "ChIJecGtYbAadkgRC9I-V6g_PBc": {"geometry": {"location": {"lat": 51.52419039999999, "lng": -0.1735316}, "viewport": {"northeast": {"lat": 51.5255510302915, "lng": -0.1722070197084979}, "southwest": {"lat": 51.5228530697085, "lng": -0.174904980291502}}}, "name": "ubitricity Charging Station", "place_id": "ChIJecGtYbAadkgRC9I-V6g_PBc", "types": ["point_of_interest", "establishment"]}, "ChIJJULy1DUbdkgRG3ShwK3v2vM": {"geometry": {"location": {"lat": 51.5248393, "lng": -0.173322}, "viewport": {"northeast": {"lat": 51.5261169802915, "lng": -0.171817019708498}, "southwest": {"lat": 51.52341901970851, "lng": -0.174514980291502}}}, "name": "Scrap My Car Marylebone Marble Arch Hampstead Heath Westminster Holloway Camden Paddington Mayfair", "place_id": "ChIJJULy1DUbdkgRG3ShwK3v2vM", "types": ["point_of_interest", "establishment"]}, "ChIJsZRVirAadkgREgM7GUa47CQ": {"geometry": {"location": {"lat": 51.524248, "lng": -0.17322}, "viewport": {"northeast": {"lat": 51.5254722802915, "lng": -0.1720380197084979}, "southwest": {"lat": 51.5227743197085, "lng": -0.174735980291502}}}, "name": "Melt Chocolate Fountains", "place_id": "ChIJsZRVirAadkgREgM7GUa47CQ", "types": ["point_of_interest", "store", "establishment"]}, "ChIJzSt11lEbdkgRTdPYQowtYwI": {"geometry": {"location": {"lat": 51.5245048, "lng": -0.1730087}, "viewport": {"northeast": {"lat": 51.5258876302915, "lng": -0.171733719708498}, "southwest": {"lat": 51.5231896697085, "lng": -0.174431680291502}}}, "name": "Billie's Room", "place_id": "ChIJzSt11lEbdkgRTdPYQowtYwI", "types": ["point_of_interest", "establishment"], "rating": 3.8, "user_ratings_total": 4}, "ChIJWcHf5oQbdkgRxr-K5klu8B4": {"geometry": {"location": {"lat": 51.5248724, "lng": -0.1742675}, "viewport": {"northeast": {"lat": 51.5262213802915, "lng": -0.172918519708498}, "southwest": {"lat": 51.5235234197085, "lng": -0.175616480291502}}}, "name": "Met Construction", "place_id": "ChIJWcHf5oQbdkgRxr-K5klu8B4", "types": ["point_of_interest", "establishment"]}, "ChIJs6lIRF4bdkgRRz1LdTNG2kg": {"geometry": {"location": {"lat": 51.525044, "lng": -0.173875}, "viewport": {"northeast": {"lat": 51.5264213802915, "lng": -0.172485619708498}, "southwest": {"lat": 51.5237234197085, "lng": -0.175183580291502}}}, "name": "SEA TECHNOLOGY UK LTD -SAFETY BOAT HIRE SERVICES", "place_id": "ChIJs6lIRF4bdkgRRz1LdTNG2kg", "types": ["point_of_interest", "establishment"]}, "ChIJb7nxRLAadkgRTpvcWErsP74": {"geometry": {"location": {"lat": 51.52369410041695, "lng": -0.1741771767580749}, "viewport": {"northeast": {"lat": 51.5250432302915, "lng": -0.172828519708498}, "southwest": {"lat": 51.5223452697085, "lng": -0.175526480291502}}}, "name": "89-99 Frampton St", "place_id": "ChIJb7nxRLAadkgRTpvcWErsP74", "types": ["route"]}, "ChIJvW08UrAadkgRhSkyqlsJf2g": {"geometry": {"location": {"lat": 51.52334869999999, "lng": -0.1744512}, "viewport": {"northeast": {"lat": 51.52462783029149, "lng": -0.1732041197084979}, "southwest": {"lat": 51.52192986970849, "lng": -0.175902080291502}}}, "name": "Comfort Inn Edgware Road", "place_id": "ChIJvW08UrAadkgRhSkyqlsJf2g", "types": ["lodging", "point_of_interest", "establishment"], "rating": 3.6, "user_ratings_total": 303}, "ChIJAQAwXLAadkgRczpLj3CA1bQ": {"geometry": {"location": {"lat": 51.5238734, "lng": -0.1737991}, "viewport": {"northeast": {"lat": 51.5252470802915, "lng": -0.172506869708498}, "southwest": {"lat": 51.5225491197085, "lng": -0.175204830291502}}}, "name": "Luxury Frampton Apartments", "place_id": "ChIJAQAwXLAadkgRczpLj3CA1bQ", "types": ["lodging", "point_of_interest", "establishment"], "rating": 2, "user_ratings_total": 1}, "ChIJSY4vWLAadkgRTQHRWWU-Oyw": {"geometry": {"location": {"lat": 51.5235085, "lng": -0.173429}, "viewport": {"northeast": {"lat": 51.52483283029149, "lng": -0.172124969708498}, "southwest": {"lat": 51.52213486970849, "lng": -0.174822930291502}}}, "name": "The Dune Group Head Office", "place_id": "ChIJSY4vWLAadkgRTQHRWWU-Oyw", "types": ["point_of_interest", "establishment"], "rating": 1, "user_ratings_total": 6}, "ChIJfSNG-bAadkgRbIKqZHBo1PY": {"geometry": {"location": {"lat": 51.5235618, "lng": -0.1735446}, "viewport": {"northeast": {"lat": 51.52489378029149, "lng": -0.172224519708498}, "southwest": {"lat": 51.5221958197085, "lng": -0.174922480291502}}}, "name": "Farrells", "place_id": "ChIJfSNG-bAadkgRbIKqZHBo1PY", "types": ["point_of_interest", "establishment"], "rating": 3.8, "user_ratings_total": 8}, "ChIJqYvQRLAadkgRJzRqiE3eVpc": {"geometry": {"location": {"lat": 51.5236014, "lng": -0.1741288}, "viewport": {"northeast": {"lat": 51.5249741802915, "lng": -0.172831069708498}, "southwest": {"lat": 51.5222762197085, "lng": -0.175529030291502}}}, "name": "Sheba Hair", "place_id": "ChIJqYvQRLAadkgRJzRqiE3eVpc", "types": ["hair_care", "point_of_interest", "establishment"], "rating": 4.7, "user_ratings_total": 35}, "ChIJm5vQRLAadkgR7E5zm_D9lho": {"geometry": {"location": {"lat": 51.52360589999999, "lng": -0.1741424}, "viewport": {"northeast": {"lat": 51.5249758302915, "lng": -0.172838569708498}, "southwest": {"lat": 51.5222778697085, "lng": -0.175536530291502}}}, "name": "Interior Designers London", "place_id": "ChIJm5vQRLAadkgR7E5zm_D9lho", "types": ["general_contractor", "point_of_interest", "establishment"]}, "ChIJwRpUqTMbdkgRulI858NLx_g": {"geometry": {"location": {"lat": 51.52344759999999, "lng": -0.1734236}, "viewport": {"northeast": {"lat": 51.52483343029151, "lng": -0.172130769708498}, "southwest": {"lat": 51.52213546970851, "lng": -0.174828730291502}}}, "name": "Kreod Architecture Ltd", "place_id": "ChIJwRpUqTMbdkgRulI858NLx_g", "types": ["local_government_office", "point_of_interest", "establishment"]}, "ChIJ1dERU5oadkgRi4NLmKk2PIk": {"geometry": {"location": {"lat": 51.52344759999999, "lng": -0.1734236}, "viewport": {"northeast": {"lat": 51.52483343029151, "lng": -0.172130769708498}, "southwest": {"lat": 51.52213546970851, "lng": -0.174828730291502}}}, "name": "Neckermann Strategic Advisors", "place_id": "ChIJ1dERU5oadkgRi4NLmKk2PIk", "types": ["point_of_interest", "establishment"]}, "ChIJK84RU5oadkgRRZ6D3jY5PRM": {"geometry": {"location": {"lat": 51.52344759999999, "lng": -0.1734236}, "viewport": {"northeast": {"lat": 51.52483343029151, "lng": -0.172130769708498}, "southwest": {"lat": 51.52213546970851, "lng": -0.174828730291502}}}, "name": "PROGENIUM GmbH & Co. KG", "place_id": "ChIJK84RU5oadkgRRZ6D3jY5PRM", "types": ["point_of_interest", "establishment"]}, "ChIJbdyG7K0adkgRUEHIKxTPnBw": {"geometry": {"location": {"lat": 51.52381949999999, "lng": -0.1737632}, "viewport": {"northeast": {"lat": 51.5252075302915, "lng": -0.172501769708498}, "southwest": {"lat": 51.5225095697085, "lng": -0.175199730291502}}}, "name": "Bikesoup Ltd", "place_id": "ChIJbdyG7K0adkgRUEHIKxTPnBw", "types": ["bicycle_store", "point_of_interest", "store", "establishment"], "rating": 4, "user_ratings_total": 26}, "ChIJLc2tXbAadkgRC4mHoJa_GRk": {"geometry": {"location": {"lat": 51.52381949999999, "lng": -0.1737632}, "viewport": {"northeast": {"lat": 51.5252072802915, "lng": -0.172503369708498}, "southwest": {"lat": 51.5225093197085, "lng": -0.175201330291502}}}, "name": "Search Engine Top 10.com", "place_id": "ChIJLc2tXbAadkgRC4mHoJa_GRk", "types": ["point_of_interest", "establishment"]}, "ChIJE_guqYAPdkgRWrG2tIyvSDE": {"geometry": {"location": {"lat": 51.5238123, "lng": -0.1739317}, "viewport": {"northeast": {"lat": 51.52517383029149, "lng": -0.172610919708498}, "southwest": {"lat": 51.52247586970849, "lng": -0.175308880291502}}}, "name": "Maids to Measure", "place_id": "ChIJE_guqYAPdkgRWrG2tIyvSDE", "types": ["point_of_interest", "establishment"], "rating": 4.1, "user_ratings_total": 25}, "ChIJLc2tXbAadkgRPhN3VId_pFQ": {"geometry": {"location": {"lat": 51.52383030000001, "lng": -0.1738779}, "viewport": {"northeast": {"lat": 51.5251995302915, "lng": -0.172575519708498}, "southwest": {"lat": 51.5225015697085, "lng": -0.175273480291502}}}, "name": "Matchstick Monkey Limited", "place_id": "ChIJLc2tXbAadkgRPhN3VId_pFQ", "types": ["point_of_interest", "store", "establishment"], "rating": 5, "user_ratings_total": 1}, "ChIJxVAQ9rAadkgRnh3HdkhLfWo": {"geometry": {"location": {"lat": 51.5238232, "lng": -0.1733562}, "viewport": {"northeast": {"lat": 51.5251981802915, "lng": -0.171999219708498}, "southwest": {"lat": 51.5225002197085, "lng": -0.174697180291502}}}, "name": "JM Cashmere Clothes & Amber Jewellery", "place_id": "ChIJxVAQ9rAadkgRnh3HdkhLfWo", "types": ["jewelry_store", "point_of_interest", "clothing_store", "store", "establishment"]}, "ChIJT-xFXLAadkgRD3qY3CWJ3fo": {"geometry": {"location": {"lat": 51.5238734, "lng": -0.1737991}, "viewport": {"northeast": {"lat": 51.5252469802915, "lng": -0.1725052697084979}, "southwest": {"lat": 51.5225490197085, "lng": -0.175203230291502}}}, "name": "Consolidated Roofing", "place_id": "ChIJT-xFXLAadkgRD3qY3CWJ3fo", "types": ["roofing_contractor", "general_contractor", "point_of_interest", "establishment"], "rating": 4.5, "user_ratings_total": 2}, "ChIJeaOw-bAadkgRGwSIX4GEylg": {"geometry": {"location": {"lat": 51.52331590000001, "lng": -0.1731539}, "viewport": {"northeast": {"lat": 51.52464823029149, "lng": -0.171866469708498}, "southwest": {"lat": 51.5219502697085, "lng": -0.174564430291502}}}, "name": "Theobald Barber", "place_id": "ChIJeaOw-bAadkgRGwSIX4GEylg", "types": ["travel_agency", "point_of_interest", "establishment"], "rating": 5, "user_ratings_total": 1}, "ChIJN3kQRbAadkgR5-rOg4KKBPM": {"geometry": {"location": {"lat": 51.52353910000001, "lng": -0.1742466}, "viewport": {"northeast": {"lat": 51.5249039802915, "lng": -0.172931819708498}, "southwest": {"lat": 51.52220601970851, "lng": -0.175629780291502}}}, "name": "Don Pepe", "place_id": "ChIJN3kQRbAadkgR5-rOg4KKBPM", "types": ["bar", "restaurant", "food", "point_of_interest", "establishment"], "rating": 4, "user_ratings_total": 50}, "ChIJHYbfjRoQdkgRGYLgBOua4iM": {"geometry": {"location": {"lat": 51.5229888, "lng": -0.1739592}, "viewport": {"northeast": {"lat": 51.5242797802915, "lng": -0.172723469708498}, "southwest": {"lat": 51.5215818197085, "lng": -0.175421430291502}}}, "name": "Arabic Curriculum House", "place_id": "ChIJHYbfjRoQdkgRGYLgBOua4iM", "types": ["point_of_interest", "establishment"]}, "ChIJpUrPSLAadkgRjaPx1SDgW-A": {"geometry": {"location": {"lat": 51.5233176, "lng": -0.174526}, "viewport": {"northeast": {"lat": 51.5247027302915, "lng": -0.173230519708498}, "southwest": {"lat": 51.52200476970851, "lng": -0.175928480291502}}}, "name": "Edgware Road - Burwood Pl", "place_id": "ChIJpUrPSLAadkgRjaPx1SDgW-A", "types": ["car_rental", "point_of_interest", "establishment"]}, "ChIJsWbzTrAadkgRcFMkZsx6j3k": {"geometry": {"location": {"lat": 51.52313029999999, "lng": -0.1743047}, "viewport": {"northeast": {"lat": 51.5244413302915, "lng": -0.173021119708498}, "southwest": {"lat": 51.5217433697085, "lng": -0.175719080291502}}}, "name": "Azmar", "place_id": "ChIJsWbzTrAadkgRcFMkZsx6j3k", "types": ["restaurant", "food", "point_of_interest", "establishment"], "rating": 4.4, "user_ratings_total": 986}, "ChIJAQAAALcadkgRDSzppO5ddUc": {"geometry": {"location": {"lat": 51.5233336, "lng": -0.1729001}, "viewport": {"northeast": {"lat": 51.52463103029149, "lng": -0.171524969708498}, "southwest": {"lat": 51.5219330697085, "lng": -0.174222930291502}}}, "name": "Prime Tutors", "place_id": "ChIJAQAAALcadkgRDSzppO5ddUc", "types": ["point_of_interest", "establishment"], "rating": 4.8, "user_ratings_total": 32}, "ChIJgzIckq0adkgREG2pt8zM44c": {"geometry": {"location": {"lat": 51.5238243, "lng": -0.173772}, "viewport": {"northeast": {"lat": 51.5252102302915, "lng": -0.172505819708498}, "southwest": {"lat": 51.5225122697085, "lng": -0.175203780291502}}}, "name": "Hawes & Curtis Ltd (Headquarters)", "place_id": "ChIJgzIckq0adkgREG2pt8zM44c", "types": ["point_of_interest", "establishment"], "rating": 3.4, "user_ratings_total": 7}, "ChIJ87BQaIEbdkgRcjQ92ZIDQZo": {"geometry": {"location": {"lat": 51.52347229999999, "lng": -0.1737213}, "viewport": {"northeast": {"lat": 51.52485068029149, "lng": -0.172319269708498}, "southwest": {"lat": 51.52215271970849, "lng": -0.175017230291502}}}, "name": "London Recovery Team LTD", "place_id": "ChIJ87BQaIEbdkgRcjQ92ZIDQZo", "types": ["moving_company", "storage", "point_of_interest", "establishment"]}, "ChIJPW_vQrAadkgR2VsPJUCZXl0": {"geometry": {"location": {"lat": 51.52340529999999, "lng": -0.1737009}, "viewport": {"northeast": {"lat": 51.52477693029149, "lng": -0.1723875197084979}, "southwest": {"lat": 51.52207896970849, "lng": -0.175085480291502}}}, "name": "C G Property Services", "place_id": "ChIJPW_vQrAadkgR2VsPJUCZXl0", "types": ["point_of_interest", "establishment"], "rating": 1, "user_ratings_total": 1}, "ChIJNaQAXz0bdkgR6fj3oLQBe_8": {"geometry": {"location": {"lat": 51.52357, "lng": -0.173789}, "viewport": {"northeast": {"lat": 51.5249189802915, "lng": -0.172440019708498}, "southwest": {"lat": 51.5222210197085, "lng": -0.175137980291502}}}, "name": "City Mobile", "place_id": "ChIJNaQAXz0bdkgR6fj3oLQBe_8", "types": ["point_of_interest", "establishment"]}, "ChIJFyMY-bAadkgRFp8KzvqS76A": {"geometry": {"location": {"lat": 51.5235587, "lng": -0.1735459}, "viewport": {"northeast": {"lat": 51.5248939802915, "lng": -0.172221569708498}, "southwest": {"lat": 51.5221960197085, "lng": -0.1749195302915021}}}, "name": "Argent Group Europe Ltd", "place_id": "ChIJFyMY-bAadkgRFp8KzvqS76A", "types": ["point_of_interest", "establishment"], "rating": 5, "user_ratings_total": 1}, "ChIJpwf9WLAadkgR7XWsJ_t7EOA": {"geometry": {"location": {"lat": 51.52361750000001, "lng": -0.1735582}, "viewport": {"northeast": {"lat": 51.5249185802915, "lng": -0.172222319708498}, "southwest": {"lat": 51.5222206197085, "lng": -0.174920280291502}}}, "name": "Hatton Street Studios", "place_id": "ChIJpwf9WLAadkgR7XWsJ_t7EOA", "types": ["real_estate_agency", "point_of_interest", "establishment"]}, "ChIJJxnjDV8bdkgR66A4-Jj8vGs": {"geometry": {"location": {"lat": 51.5235085, "lng": -0.173429}, "viewport": {"northeast": {"lat": 51.52483283029149, "lng": -0.172124969708498}, "southwest": {"lat": 51.52213486970849, "lng": -0.174822930291502}}}, "name": "Ectropy Technologies Ltd", "place_id": "ChIJJxnjDV8bdkgR66A4-Jj8vGs", "types": ["point_of_interest", "establishment"]}, "ChIJoeuu3L0bdkgRMcDFbnrYAjI": {"geometry": {"location": {"lat": 51.5235085, "lng": -0.173429}, "viewport": {"northeast": {"lat": 51.52485138029149, "lng": -0.172149269708498}, "southwest": {"lat": 51.5221534197085, "lng": -0.174847230291502}}}, "name": "Quantworth", "place_id": "ChIJoeuu3L0bdkgRMcDFbnrYAjI", "types": ["finance", "point_of_interest", "establishment"]}, "ChIJYbUT2pMbdkgRXEB43euRtoY": {"geometry": {"location": {"lat": 51.5235085, "lng": -0.173429}, "viewport": {"northeast": {"lat": 51.52483283029149, "lng": -0.172124969708498}, "southwest": {"lat": 51.52213486970849, "lng": -0.174822930291502}}}, "name": "LinkHalo", "place_id": "ChIJYbUT2pMbdkgRXEB43euRtoY", "types": ["point_of_interest", "establishment"]}, "ChIJ3bICiDMbdkgRgxpDUkr8DU8": {"geometry": {"location": {"lat": 51.52344759999999, "lng": -0.1734236}, "viewport": {"northeast": {"lat": 51.52483343029151, "lng": -0.172130769708498}, "southwest": {"lat": 51.52213546970851, "lng": -0.174828730291502}}}, "name": "BestBuilder 2019 Ltd", "place_id": "ChIJ3bICiDMbdkgRgxpDUkr8DU8", "types": ["general_contractor", "point_of_interest", "establishment"]}, "ChIJL6xBlbICdkgRqa4iEdoHVBc": {"geometry": {"location": {"lat": 51.52344759999999, "lng": -0.1734236}, "viewport": {"northeast": {"lat": 51.52483343029151, "lng": -0.172130769708498}, "southwest": {"lat": 51.52213546970851, "lng": -0.174828730291502}}}, "name": "Evexity", "place_id": "ChIJL6xBlbICdkgRqa4iEdoHVBc", "types": ["point_of_interest", "establishment"]}, "ChIJu-ERcpsbdkgRFBWDcrNWtFc": {"geometry": {"location": {"lat": 51.5232371, "lng": -0.1735421}, "viewport": {"northeast": {"lat": 51.52463813029151, "lng": -0.172098069708498}, "southwest": {"lat": 51.52194016970851, "lng": -0.174796030291502}}}, "name": "Marylebone Waste Management Ltd", "place_id": "ChIJu-ERcpsbdkgRFBWDcrNWtFc", "types": ["moving_company", "general_contractor", "point_of_interest", "establishment"], "rating": 5, "user_ratings_total": 13}, "ChIJxVAQ9rAadkgRMpB8VB6DIKM": {"geometry": {"location": {"lat": 51.52338940000001, "lng": -0.1733123}, "viewport": {"northeast": {"lat": 51.5247147802915, "lng": -0.171976369708498}, "southwest": {"lat": 51.5220168197085, "lng": -0.174674330291502}}}, "name": "Big Green Door", "place_id": "ChIJxVAQ9rAadkgRMpB8VB6DIKM", "types": ["point_of_interest", "establishment"], "rating": 5, "user_ratings_total": 1}, "ChIJDw7R6a0adkgR5Nvqc0AxUrc": {"geometry": {"location": {"lat": 51.5237713, "lng": -0.1737923}, "viewport": {"northeast": {"lat": 51.52516328029151, "lng": -0.172539569708498}, "southwest": {"lat": 51.52246531970851, "lng": -0.175237530291502}}}, "name": "Ghost", "place_id": "ChIJDw7R6a0adkgR5Nvqc0AxUrc", "types": ["point_of_interest", "establishment"]}, "ChIJHX_CTrAadkgRaSH4OWhg6yA": {"geometry": {"location": {"lat": 51.52356940000001, "lng": -0.1741788000000001}, "viewport": {"northeast": {"lat": 51.5247662302915, "lng": -0.1731076197084979}, "southwest": {"lat": 51.52206826970851, "lng": -0.175805580291502}}}, "name": "Smart Space Construction", "place_id": "ChIJHX_CTrAadkgRaSH4OWhg6yA", "types": ["general_contractor", "point_of_interest", "establishment"]}, "ChIJvQ4s-LAadkgR0tAcfWf5tMY": {"geometry": {"location": {"lat": 51.5234004, "lng": -0.173217}, "viewport": {"northeast": {"lat": 51.5247060302915, "lng": -0.171916019708498}, "southwest": {"lat": 51.5220080697085, "lng": -0.174613980291502}}}, "name": "The Old Aeroworks", "place_id": "ChIJvQ4s-LAadkgR0tAcfWf5tMY", "types": ["lodging", "point_of_interest", "establishment"], "rating": 3, "user_ratings_total": 2}, "ChIJHUYeXLAadkgRIDi_hwT4XJ8": {"geometry": {"location": {"lat": 51.52381949999999, "lng": -0.1737597}, "viewport": {"northeast": {"lat": 51.5252077802915, "lng": -0.172501069708498}, "southwest": {"lat": 51.5225098197085, "lng": -0.175199030291502}}}, "name": "Cablato", "place_id": "ChIJHUYeXLAadkgRIDi_hwT4XJ8", "types": ["point_of_interest", "establishment"]}, "ChIJZ_qgXrAadkgRlfWptsaa1us": {"geometry": {"location": {"lat": 51.5238203, "lng": -0.1737438}, "viewport": {"northeast": {"lat": 51.5252107802915, "lng": -0.172490169708498}, "southwest": {"lat": 51.5225128197085, "lng": -0.175188130291502}}}, "name": "Diviani Consulting", "place_id": "ChIJZ_qgXrAadkgRlfWptsaa1us", "types": ["point_of_interest", "establishment"]}, "ChIJRWKyXbAadkgROVFDAdz8zFk": {"geometry": {"location": {"lat": 51.52382960000001, "lng": -0.1737226}, "viewport": {"northeast": {"lat": 51.5252218802915, "lng": -0.172470719708498}, "southwest": {"lat": 51.5225239197085, "lng": -0.175168680291502}}}, "name": "Webcast Sport", "place_id": "ChIJRWKyXbAadkgROVFDAdz8zFk", "types": ["point_of_interest", "establishment"]}, "ChIJl_x-AiAbdkgRady2q49hGKI": {"geometry": {"location": {"lat": 51.52344169999999, "lng": -0.1743263}, "viewport": {"northeast": {"lat": 51.52482403029148, "lng": -0.173026069708498}, "southwest": {"lat": 51.52212606970849, "lng": -0.175724030291502}}}, "name": "M. Dasrath Beverage Supplies And Modern Tech", "place_id": "ChIJl_x-AiAbdkgRady2q49hGKI", "types": ["point_of_interest", "establishment"]}, "ChIJv_U6RbAadkgRF71dxtmHVNM": {"geometry": {"location": {"lat": 51.52344399999999, "lng": -0.174354}, "viewport": {"northeast": {"lat": 51.5248311302915, "lng": -0.173019769708498}, "southwest": {"lat": 51.5221331697085, "lng": -0.175717730291502}}}, "name": "Embassy Plumbing Supplies", "place_id": "ChIJv_U6RbAadkgRF71dxtmHVNM", "types": ["point_of_interest", "store", "establishment"], "rating": 4.4, "user_ratings_total": 30}, "ChIJAQAwXLAadkgRtuGbVMEhpmk": {"geometry": {"location": {"lat": 51.5238734, "lng": -0.1737991}, "viewport": {"northeast": {"lat": 51.5252469802915, "lng": -0.1725052697084979}, "southwest": {"lat": 51.5225490197085, "lng": -0.175203230291502}}}, "name": "Music In Hospices", "place_id": "ChIJAQAwXLAadkgRtuGbVMEhpmk", "types": ["point_of_interest", "establishment"]}, "ChIJAQAwXLAadkgRa8YJDh7amQY": {"geometry": {"location": {"lat": 51.5238734, "lng": -0.1737991}, "viewport": {"northeast": {"lat": 51.5252469802915, "lng": -0.1725052697084979}, "southwest": {"lat": 51.5225490197085, "lng": -0.175203230291502}}}, "name": "Low Profile Holdings Limited", "place_id": "ChIJAQAwXLAadkgRa8YJDh7amQY", "types": ["point_of_interest", "establishment"]}, "ChIJ62uoR-kddkgR9trJoXiSk08": {"geometry": {"location": {"lat": 51.5238734, "lng": -0.1737991}, "viewport": {"northeast": {"lat": 51.5252469802915, "lng": -0.1725052697084979}, "southwest": {"lat": 51.5225490197085, "lng": -0.175203230291502}}}, "name": "Silly Goose Coffee Company Ltd", "place_id": "ChIJ62uoR-kddkgR9trJoXiSk08", "types": ["food", "point_of_interest", "store", "establishment"], "rating": 5, "user_ratings_total": 2}, "ChIJJTH5LnEddkgRsyhj_0MQCCU": {"geometry": {"location": {"lat": 51.5238734, "lng": -0.1737991}, "viewport": {"northeast": {"lat": 51.5252469802915, "lng": -0.1725052697084979}, "southwest": {"lat": 51.5225490197085, "lng": -0.175203230291502}}}, "name": "Gener8 Ads", "place_id": "ChIJJTH5LnEddkgRsyhj_0MQCCU", "types": ["point_of_interest", "establishment"], "rating": 3, "user_ratings_total": 54}, "ChIJtzBneFsbdkgRJYBGP4c13SM": {"geometry": {"location": {"lat": 51.5238734, "lng": -0.1737991}, "viewport": {"northeast": {"lat": 51.5252470802915, "lng": -0.172506869708498}, "southwest": {"lat": 51.5225491197085, "lng": -0.175204830291502}}}, "name": "Pottiagogo", "place_id": "ChIJtzBneFsbdkgRJYBGP4c13SM", "types": ["point_of_interest", "clothing_store", "store", "establishment"]}, "ChIJAQAwXLAadkgRC8us9kzF1wI": {"geometry": {"location": {"lat": 51.5238734, "lng": -0.1737991}, "viewport": {"northeast": {"lat": 51.5252470802915, "lng": -0.172506869708498}, "southwest": {"lat": 51.5225491197085, "lng": -0.175204830291502}}}, "name": "PVM Content", "place_id": "ChIJAQAwXLAadkgRC8us9kzF1wI", "types": ["point_of_interest", "establishment"]}, "ChIJ98FfX7AadkgRtKJ_cJUQ-0w": {"geometry": {"location": {"lat": 51.523829, "lng": -0.1733908}, "viewport": {"northeast": {"lat": 51.5252030802915, "lng": -0.172008219708498}, "southwest": {"lat": 51.52250511970851, "lng": -0.174706180291502}}}, "name": "The Wallis Building", "place_id": "ChIJ98FfX7AadkgRtKJ_cJUQ-0w", "types": ["point_of_interest", "establishment"], "rating": 4.2, "user_ratings_total": 5}, "ChIJ9SykdskadkgRCjDb0t5wPfg": {"geometry": {"location": {"lat": 51.52327699999999, "lng": -0.173167}, "viewport": {"northeast": {"lat": 51.52463978029149, "lng": -0.171860919708498}, "southwest": {"lat": 51.52194181970849, "lng": -0.174558880291502}}}, "name": "The Belleville Collective", "place_id": "ChIJ9SykdskadkgRCjDb0t5wPfg", "types": ["point_of_interest", "establishment"]}, "ChIJE4wvwtobdkgRl_eLBSodE5Q": {"geometry": {"location": {"lat": 51.52315290000001, "lng": -0.1741374}, "viewport": {"northeast": {"lat": 51.52443378029151, "lng": -0.172910319708498}, "southwest": {"lat": 51.52173581970851, "lng": -0.175608280291502}}}, "name": "UPS Access Point", "place_id": "ChIJE4wvwtobdkgRl_eLBSodE5Q", "types": ["point_of_interest", "establishment"], "rating": 1, "user_ratings_total": 1}, "ChIJyRDaSLAadkgRH8n358xn46s": {"geometry": {"location": {"lat": 51.52328699999999, "lng": -0.1745199}, "viewport": {"northeast": {"lat": 51.52459808029149, "lng": -0.173240069708498}, "southwest": {"lat": 51.52190011970849, "lng": -0.175938030291502}}}, "name": "London Serviced Apartments - Book Apartments in London", "place_id": "ChIJyRDaSLAadkgRH8n358xn46s", "types": ["point_of_interest", "establishment"], "rating": 5, "user_ratings_total": 2}, "ChIJ45qX-bAadkgRbC68ylYt4c4": {"geometry": {"location": {"lat": 51.52330240000001, "lng": -0.1730962}, "viewport": {"northeast": {"lat": 51.5246356302915, "lng": -0.171837619708498}, "southwest": {"lat": 51.5219376697085, "lng": -0.174535580291502}}}, "name": "AIRMEARSK DELIVERY", "place_id": "ChIJ45qX-bAadkgRbC68ylYt4c4", "types": ["point_of_interest", "establishment"]}, "ChIJwVUATrAadkgRJT56GBA7NWk": {"geometry": {"location": {"lat": 51.5231018, "lng": -0.1741273}, "viewport": {"northeast": {"lat": 51.5243945302915, "lng": -0.172886169708498}, "southwest": {"lat": 51.5216965697085, "lng": -0.175584130291502}}}, "name": "Gotoalbania", "place_id": "ChIJwVUATrAadkgRJT56GBA7NWk", "types": ["point_of_interest", "establishment"]}, "ChIJOd30TrAadkgRPaAFETBEMC8": {"geometry": {"location": {"lat": 51.5231791, "lng": -0.1743149}, "viewport": {"northeast": {"lat": 51.5244821302915, "lng": -0.173049819708498}, "southwest": {"lat": 51.5217841697085, "lng": -0.175747780291502}}}, "name": "Mandalay Golden Myanmar", "place_id": "ChIJOd30TrAadkgRPaAFETBEMC8", "types": ["point_of_interest", "establishment"]}, "ChIJXTQ487YadkgRBnXgfCewTh4": {"geometry": {"location": {"lat": 51.52324369999999, "lng": -0.1744561}, "viewport": {"northeast": {"lat": 51.5245544302915, "lng": -0.1731770197084979}, "southwest": {"lat": 51.5218564697085, "lng": -0.175874980291502}}}, "name": "Secure Ltd", "place_id": "ChIJXTQ487YadkgRBnXgfCewTh4", "types": ["locksmith", "point_of_interest", "store", "establishment"], "rating": 4.6, "user_ratings_total": 18}, "ChIJ83FhTrAadkgRfTPRePDbqHM": {"geometry": {"location": {"lat": 51.5231275, "lng": -0.1742707}, "viewport": {"northeast": {"lat": 51.5244346802915, "lng": -0.1729965697084979}, "southwest": {"lat": 51.52173671970851, "lng": -0.175694530291502}}}, "name": "Marble Arch Flat", "place_id": "ChIJ83FhTrAadkgRfTPRePDbqHM", "types": ["lodging", "point_of_interest", "establishment"], "rating": 2, "user_ratings_total": 40}, "ChIJvW08UrAadkgRinbT01jyDwA": {"geometry": {"location": {"lat": 51.52309809999999, "lng": -0.1742417}, "viewport": {"northeast": {"lat": 51.5244095802915, "lng": -0.172967119708498}, "southwest": {"lat": 51.5217116197085, "lng": -0.175665080291502}}}, "name": "Ashra's News", "place_id": "ChIJvW08UrAadkgRinbT01jyDwA", "types": ["book_store", "point_of_interest", "store", "establishment"], "rating": 4.4, "user_ratings_total": 9}, "ChIJ8fz2q7EadkgRNyoanxjtdnI": {"geometry": {"location": {"lat": 51.52247227897914, "lng": -0.1736095599488863}, "viewport": {"northeast": {"lat": 51.52382188029149, "lng": -0.172259519708498}, "southwest": {"lat": 51.52112391970849, "lng": -0.174957480291502}}}, "name": "420-412 A5", "place_id": "ChIJ8fz2q7EadkgRNyoanxjtdnI", "types": ["route"]}, "ChIJvW08UrAadkgRiZp1tPV0Pmo": {"geometry": {"location": {"lat": 51.52275890000001, "lng": -0.1737321}, "viewport": {"northeast": {"lat": 51.52405263029149, "lng": -0.172270469708498}, "southwest": {"lat": 51.52135466970849, "lng": -0.174968430291502}}}, "name": "Dar Marrakesh", "place_id": "ChIJvW08UrAadkgRiZp1tPV0Pmo", "types": ["meal_takeaway", "bar", "restaurant", "food", "point_of_interest", "establishment"], "rating": 3.9, "user_ratings_total": 732}, "ChIJkedgrrEadkgRARoVzaCLQVQ": {"geometry": {"location": {"lat": 51.5224573, "lng": -0.173816}, "viewport": {"northeast": {"lat": 51.52384138029149, "lng": -0.172402869708498}, "southwest": {"lat": 51.52114341970849, "lng": -0.175100830291502}}}, "name": "R Agius Scooters Ltd", "place_id": "ChIJkedgrrEadkgRARoVzaCLQVQ", "types": ["point_of_interest", "store", "establishment"], "rating": 4.4, "user_ratings_total": 45}, "ChIJkedgrrEadkgRPnxmwJAwvEU": {"geometry": {"location": {"lat": 51.52260320000001, "lng": -0.1742195}, "viewport": {"northeast": {"lat": 51.5239521802915, "lng": -0.1728705197084979}, "southwest": {"lat": 51.5212542197085, "lng": -0.175568480291502}}}, "name": "Trust Money Transfer", "place_id": "ChIJkedgrrEadkgRPnxmwJAwvEU", "types": ["finance", "point_of_interest", "establishment"], "rating": 4.1, "user_ratings_total": 9}, "ChIJq2M0AbEadkgRW9REuVuufms": {"geometry": {"location": {"lat": 51.5224657, "lng": -0.1733018}, "viewport": {"northeast": {"lat": 51.5237656802915, "lng": -0.172031519708498}, "southwest": {"lat": 51.5210677197085, "lng": -0.174729480291502}}}, "name": "Venice Properties", "place_id": "ChIJq2M0AbEadkgRW9REuVuufms", "types": ["real_estate_agency", "point_of_interest", "establishment"], "rating": 4.8, "user_ratings_total": 54}, "ChIJoS3_qLEadkgR7BLWR32uyNw": {"geometry": {"location": {"lat": 51.5222797, "lng": -0.1735778}, "viewport": {"northeast": {"lat": 51.5236671802915, "lng": -0.172207869708498}, "southwest": {"lat": 51.5209692197085, "lng": -0.174905830291502}}}, "name": "Reem Jewellery", "place_id": "ChIJoS3_qLEadkgR7BLWR32uyNw", "types": ["jewelry_store", "finance", "point_of_interest", "store", "establishment"], "rating": 4.7, "user_ratings_total": 57}, "ChIJq2M0AbEadkgRfG-XxbYCj7g": {"geometry": {"location": {"lat": 51.5225608, "lng": -0.1734021}, "viewport": {"northeast": {"lat": 51.5238491802915, "lng": -0.172133719708498}, "southwest": {"lat": 51.5211512197085, "lng": -0.174831680291502}}}, "name": "Pharmocare - Dales Pharmacy", "place_id": "ChIJq2M0AbEadkgRfG-XxbYCj7g", "types": ["pharmacy", "health", "point_of_interest", "store", "establishment"], "rating": 5, "user_ratings_total": 1}, "ChIJqWM0AbEadkgRpzgFNiPKQ5o": {"geometry": {"location": {"lat": 51.52236850000001, "lng": -0.1731545}, "viewport": {"northeast": {"lat": 51.5236702802915, "lng": -0.171874869708498}, "southwest": {"lat": 51.52097231970851, "lng": -0.174572830291502}}}, "name": "Mathon Acupuncture Practice", "place_id": "ChIJqWM0AbEadkgRpzgFNiPKQ5o", "types": ["health", "point_of_interest", "establishment"], "rating": 5, "user_ratings_total": 2}, "ChIJ7_LDALEadkgRUwSh2JRo7b8": {"geometry": {"location": {"lat": 51.522465, "lng": -0.173307}, "viewport": {"northeast": {"lat": 51.5237658302915, "lng": -0.172034919708498}, "southwest": {"lat": 51.5210678697085, "lng": -0.1747328802915021}}}, "name": "Edgware P Consultancy Ltd", "place_id": "ChIJ7_LDALEadkgRUwSh2JRo7b8", "types": ["point_of_interest", "establishment"], "rating": 5, "user_ratings_total": 1}, "ChIJxZbGrLEadkgRhotzQXy5iTU": {"geometry": {"location": {"lat": 51.52223000000001, "lng": -0.1736191}, "viewport": {"northeast": {"lat": 51.5236351302915, "lng": -0.172171019708498}, "southwest": {"lat": 51.5209371697085, "lng": -0.1748689802915021}}}, "name": "www.cheapsexpills.com", "place_id": "ChIJxZbGrLEadkgRhotzQXy5iTU", "types": ["health", "point_of_interest", "store", "establishment"]}, "ChIJqWM0AbEadkgRipuLd_KzJcY": {"geometry": {"location": {"lat": 51.5225977, "lng": -0.1735284}, "viewport": {"northeast": {"lat": 51.5239070802915, "lng": -0.172251319708498}, "southwest": {"lat": 51.5212091197085, "lng": -0.174949280291502}}}, "name": "The New Cooker Centre (Euronics)", "place_id": "ChIJqWM0AbEadkgRipuLd_KzJcY", "types": ["home_goods_store", "point_of_interest", "store", "establishment"], "rating": 3, "user_ratings_total": 4}, "ChIJ6e3nsrEadkgR9vuZqPGuqvk": {"geometry": {"location": {"lat": 51.5222357, "lng": -0.1734477}, "viewport": {"northeast": {"lat": 51.5236129802915, "lng": -0.172048769708498}, "southwest": {"lat": 51.5209150197085, "lng": -0.174746730291502}}}, "name": "B G N Plumbing & Heating", "place_id": "ChIJ6e3nsrEadkgR9vuZqPGuqvk", "types": ["general_contractor", "point_of_interest", "establishment"]}, "ChIJCypdH7EadkgRzn_aCcLLh8E": {"geometry": {"location": {"lat": 51.52232559999999, "lng": -0.1731027}, "viewport": {"northeast": {"lat": 51.5236290802915, "lng": -0.1718339697084979}, "southwest": {"lat": 51.5209311197085, "lng": -0.174531930291502}}}, "name": "London Solicitors", "place_id": "ChIJCypdH7EadkgRzn_aCcLLh8E", "types": ["lawyer", "point_of_interest", "establishment"], "rating": 1, "user_ratings_total": 1}, "ChIJg3lSrbEadkgRuG7w70iFl08": {"geometry": {"location": {"lat": 51.52267250000001, "lng": -0.1741966}, "viewport": {"northeast": {"lat": 51.52406743029151, "lng": -0.172765169708498}, "southwest": {"lat": 51.52136946970851, "lng": -0.175463130291502}}}, "name": "Cooker Installers", "place_id": "ChIJg3lSrbEadkgRuG7w70iFl08", "types": ["electrician", "point_of_interest", "establishment"]}, "ChIJtQe3ALEadkgRZXxAUfEJPTM": {"geometry": {"location": {"lat": 51.5224696, "lng": -0.1732965}, "viewport": {"northeast": {"lat": 51.5237676302915, "lng": -0.172028869708498}, "southwest": {"lat": 51.5210696697085, "lng": -0.174726830291502}}}, "name": "AZ Luxe", "place_id": "ChIJtQe3ALEadkgRZXxAUfEJPTM", "types": ["car_rental", "point_of_interest", "establishment"], "rating": 5, "user_ratings_total": 172}, "ChIJtUUzB7EadkgRd-MBxVLUPmU": {"geometry": {"location": {"lat": 51.5224264, "lng": -0.1732496}, "viewport": {"northeast": {"lat": 51.5237297802915, "lng": -0.171981069708498}, "southwest": {"lat": 51.5210318197085, "lng": -0.1746790302915021}}}, "name": "Bureau for Migrant Advice & Policy Ltd", "place_id": "ChIJtUUzB7EadkgRd-MBxVLUPmU", "types": ["lawyer", "point_of_interest", "establishment"], "rating": 4, "user_ratings_total": 8}, "ChIJtQe3ALEadkgRrR_9nbMuIg8": {"geometry": {"location": {"lat": 51.5224948, "lng": -0.1732535}, "viewport": {"northeast": {"lat": 51.5237797802915, "lng": -0.172006669708498}, "southwest": {"lat": 51.5210818197085, "lng": -0.174704630291502}}}, "name": "London Host LTD", "place_id": "ChIJtQe3ALEadkgRrR_9nbMuIg8", "types": ["lodging", "point_of_interest", "establishment"], "rating": 4.5, "user_ratings_total": 11}, "ChIJyeonB7EadkgR7g8P93QBAO0": {"geometry": {"location": {"lat": 51.52239069999999, "lng": -0.1731972}, "viewport": {"northeast": {"lat": 51.52369408029149, "lng": -0.171928719708498}, "southwest": {"lat": 51.52099611970849, "lng": -0.174626680291502}}}, "name": "Western Union", "place_id": "ChIJyeonB7EadkgR7g8P93QBAO0", "types": ["finance", "point_of_interest", "establishment"], "rating": 2.3, "user_ratings_total": 3}, "ChIJr0caB7EadkgRrTYMkgRo1do": {"geometry": {"location": {"lat": 51.52239059999999, "lng": -0.1731971}, "viewport": {"northeast": {"lat": 51.52369398029149, "lng": -0.171928619708498}, "southwest": {"lat": 51.52099601970849, "lng": -0.174626580291502}}}, "name": "Albatool Ltd", "place_id": "ChIJr0caB7EadkgRrTYMkgRo1do", "types": ["finance", "point_of_interest", "establishment"], "rating": 5, "user_ratings_total": 2}, "ChIJJSfqpbUadkgRhO-vix8NltU": {"geometry": {"location": {"lat": 51.522819, "lng": -0.173816}, "viewport": {"northeast": {"lat": 51.5241224802915, "lng": -0.172548619708498}, "southwest": {"lat": 51.5214245197085, "lng": -0.175246580291502}}}, "name": "College 14", "place_id": "ChIJJSfqpbUadkgRhO-vix8NltU", "types": ["point_of_interest", "establishment"]}, "ChIJkedgrrEadkgRPlMp3Hxt1QY": {"geometry": {"location": {"lat": 51.52270679999999, "lng": -0.1742457}, "viewport": {"northeast": {"lat": 51.52410168029149, "lng": -0.172814369708498}, "southwest": {"lat": 51.52140371970849, "lng": -0.175512330291502}}}, "name": "Altaif Money Transfer", "place_id": "ChIJkedgrrEadkgRPlMp3Hxt1QY", "types": ["finance", "point_of_interest", "establishment"], "rating": 2.9, "user_ratings_total": 19}, "ChIJsQ2FsrEadkgRpj8JV_rgunI": {"geometry": {"location": {"lat": 51.522368, "lng": -0.173154}, "viewport": {"northeast": {"lat": 51.5236511302915, "lng": -0.171847219708498}, "southwest": {"lat": 51.5209531697085, "lng": -0.174545180291502}}}, "name": "Leyland SDM", "place_id": "ChIJsQ2FsrEadkgRpj8JV_rgunI", "types": ["hardware_store", "home_goods_store", "point_of_interest", "store", "establishment"], "rating": 4.4, "user_ratings_total": 187}, "ChIJd-vXAbEadkgRudRj1SosFww": {"geometry": {"location": {"lat": 51.5227697, "lng": -0.1732517}, "viewport": {"northeast": {"lat": 51.5241521802915, "lng": -0.171958369708498}, "southwest": {"lat": 51.5214542197085, "lng": -0.174656330291502}}}, "name": "Delta Pizza St Johns Wood", "place_id": "ChIJd-vXAbEadkgRudRj1SosFww", "types": ["meal_delivery", "meal_takeaway", "restaurant", "food", "point_of_interest", "establishment"], "rating": 2.8, "user_ratings_total": 75}, "ChIJq2M0AbEadkgR9VWd0UQ1JZY": {"geometry": {"location": {"lat": 51.5225005, "lng": -0.1733517}, "viewport": {"northeast": {"lat": 51.52380393029149, "lng": -0.172085419708498}, "southwest": {"lat": 51.5211059697085, "lng": -0.174783380291502}}}, "name": "Red Sea", "place_id": "ChIJq2M0AbEadkgR9VWd0UQ1JZY", "types": ["supermarket", "grocery_or_supermarket", "food", "point_of_interest", "store", "establishment"], "rating": 4.1, "user_ratings_total": 10}, "ChIJq2M0AbEadkgROUfp2Ayi5jw": {"geometry": {"location": {"lat": 51.52236850000001, "lng": -0.1731545}, "viewport": {"northeast": {"lat": 51.5236702802915, "lng": -0.171874869708498}, "southwest": {"lat": 51.52097231970851, "lng": -0.174572830291502}}}, "name": "Weight Medics", "place_id": "ChIJq2M0AbEadkgROUfp2Ayi5jw", "types": ["health", "point_of_interest", "establishment"], "rating": 4.9, "user_ratings_total": 14}, "ChIJMTXrqbEadkgRnIkdRAvmlXE": {"geometry": {"location": {"lat": 51.52236919999999, "lng": -0.1734676}, "viewport": {"northeast": {"lat": 51.5236997302915, "lng": -0.172152219708498}, "southwest": {"lat": 51.5210017697085, "lng": -0.174850180291502}}}, "name": "Church Street", "place_id": "ChIJMTXrqbEadkgRnIkdRAvmlXE", "types": ["transit_station", "point_of_interest", "establishment"]}, "ChIJHyatrrEadkgRQRRF9g_r7Ws": {"geometry": {"location": {"lat": 51.5224042, "lng": -0.1737469}, "viewport": {"northeast": {"lat": 51.5237898302915, "lng": -0.172331369708498}, "southwest": {"lat": 51.5210918697085, "lng": -0.175029330291502}}}, "name": "Hiba Jewellery", "place_id": "ChIJHyatrrEadkgRQRRF9g_r7Ws", "types": ["jewelry_store", "point_of_interest", "store", "establishment"], "rating": 5, "user_ratings_total": 1}, "ChIJKZq2rrEadkgRcjw6noTZYrc": {"geometry": {"location": {"lat": 51.5223678, "lng": -0.173769}, "viewport": {"northeast": {"lat": 51.5237648302915, "lng": -0.172332769708498}, "southwest": {"lat": 51.5210668697085, "lng": -0.175030730291502}}}, "name": "Hazarbuz Exchange LTD", "place_id": "ChIJKZq2rrEadkgRcjw6noTZYrc", "types": ["finance", "point_of_interest", "establishment"]}, "ChIJ_cWc5qAbdkgRIM4HQwNCfGA": {"geometry": {"location": {"lat": 51.52236190000001, "lng": -0.1736717}, "viewport": {"northeast": {"lat": 51.5237451802915, "lng": -0.172260419708498}, "southwest": {"lat": 51.5210472197085, "lng": -0.174958380291502}}}, "name": "Phone Care & Vape", "place_id": "ChIJ_cWc5qAbdkgRIM4HQwNCfGA", "types": ["point_of_interest", "establishment"], "rating": 5, "user_ratings_total": 11}, "ChIJAQeA6ksbdkgRulws2Sp-D38": {"geometry": {"location": {"lat": 51.52240500000001, "lng": -0.1738244}, "viewport": {"northeast": {"lat": 51.5238018302915, "lng": -0.172388069708498}, "southwest": {"lat": 51.5211038697085, "lng": -0.175086030291502}}}, "name": "Nails & Beauty", "place_id": "ChIJAQeA6ksbdkgRulws2Sp-D38", "types": ["beauty_salon", "point_of_interest", "establishment"]}, "ChIJ627wrrEadkgRlsW45QozS-c": {"geometry": {"location": {"lat": 51.5223319, "lng": -0.1736649}, "viewport": {"northeast": {"lat": 51.5237273802915, "lng": -0.172258119708498}, "southwest": {"lat": 51.5210294197085, "lng": -0.174956080291502}}}, "name": "Baraka Piri Piri", "place_id": "ChIJ627wrrEadkgRlsW45QozS-c", "types": ["meal_takeaway", "restaurant", "food", "point_of_interest", "establishment"], "rating": 4.3, "user_ratings_total": 119}, "ChIJqwAtr7EadkgR96ZIXS6_E9Q": {"geometry": {"location": {"lat": 51.5223013, "lng": -0.1736771}, "viewport": {"northeast": {"lat": 51.5236980302915, "lng": -0.172240969708498}, "southwest": {"lat": 51.5210000697085, "lng": -0.174938930291502}}}, "name": "china brush delay solution", "place_id": "ChIJqwAtr7EadkgR96ZIXS6_E9Q", "types": ["health", "point_of_interest", "store", "establishment"]}, "ChIJqwAtr7EadkgR7aUN879sdw0": {"geometry": {"location": {"lat": 51.5223013, "lng": -0.1736771}, "viewport": {"northeast": {"lat": 51.5236980302915, "lng": -0.172240969708498}, "southwest": {"lat": 51.5210000697085, "lng": -0.174938930291502}}}, "name": "Spanish gold fly", "place_id": "ChIJqwAtr7EadkgR7aUN879sdw0", "types": ["point_of_interest", "store", "establishment"], "rating": 5, "user_ratings_total": 1}, "ChIJ4xIoqbEadkgRE45ddnxdbcw": {"geometry": {"location": {"lat": 51.5222764, "lng": -0.1737007}, "viewport": {"northeast": {"lat": 51.5236798302915, "lng": -0.172244619708498}, "southwest": {"lat": 51.5209818697085, "lng": -0.174942580291502}}}, "name": "HAWLER Restaurant", "place_id": "ChIJ4xIoqbEadkgRE45ddnxdbcw", "types": ["restaurant", "food", "point_of_interest", "establishment"], "rating": 4.4, "user_ratings_total": 277}, "ChIJs2KTtgcbdkgRI9oUiPACimE": {"geometry": {"location": {"lat": 51.5223158, "lng": -0.173889}, "viewport": {"northeast": {"lat": 51.52374203029149, "lng": -0.1723989197084979}, "southwest": {"lat": 51.52104406970849, "lng": -0.175096880291502}}}, "name": "Hairstyle Solutions Co", "place_id": "ChIJs2KTtgcbdkgRI9oUiPACimE", "types": ["hair_care", "point_of_interest", "establishment"]}, "ChIJceF5blUbdkgRtSF_N6CuM_k": {"geometry": {"location": {"lat": 51.5223158, "lng": -0.173889}, "viewport": {"northeast": {"lat": 51.52374203029149, "lng": -0.1723989197084979}, "southwest": {"lat": 51.52104406970849, "lng": -0.175096880291502}}}, "name": "Hair on Demand", "place_id": "ChIJceF5blUbdkgRtSF_N6CuM_k", "types": ["hair_care", "health", "point_of_interest", "establishment"]}, "ChIJ8Tz3VNobdkgRC8x77MWUyUA": {"geometry": {"location": {"lat": 51.5223158, "lng": -0.173889}, "viewport": {"northeast": {"lat": 51.52374203029149, "lng": -0.1723989197084979}, "southwest": {"lat": 51.52104406970849, "lng": -0.175096880291502}}}, "name": "Keylet Property Management Ltd", "place_id": "ChIJ8Tz3VNobdkgRC8x77MWUyUA", "types": ["point_of_interest", "establishment"]}, "ChIJ927wrrEadkgRJBVf2gb1eek": {"geometry": {"location": {"lat": 51.5223158, "lng": -0.173889}, "viewport": {"northeast": {"lat": 51.52374203029149, "lng": -0.1723989197084979}, "southwest": {"lat": 51.52104406970849, "lng": -0.175096880291502}}}, "name": "Zilanshipping", "place_id": "ChIJ927wrrEadkgRJBVf2gb1eek", "types": ["point_of_interest", "establishment"]}, "ChIJ927wrrEadkgRKEv8XuyHHP0": {"geometry": {"location": {"lat": 51.5223158, "lng": -0.173889}, "viewport": {"northeast": {"lat": 51.5237427302915, "lng": -0.172398369708498}, "southwest": {"lat": 51.5210447697085, "lng": -0.175096330291502}}}, "name": "Meehanco", "place_id": "ChIJ927wrrEadkgRKEv8XuyHHP0", "types": ["point_of_interest", "establishment"]}, "ChIJ927wrrEadkgRSwBCzfWGWFY": {"geometry": {"location": {"lat": 51.5223158, "lng": -0.173889}, "viewport": {"northeast": {"lat": 51.5237427302915, "lng": -0.172398369708498}, "southwest": {"lat": 51.5210447697085, "lng": -0.175096330291502}}}, "name": "Easy Phone Technology", "place_id": "ChIJ927wrrEadkgRSwBCzfWGWFY", "types": ["point_of_interest", "store", "establishment"]}, "ChIJwTfgqLEadkgRaFR7MNpL2v4": {"geometry": {"location": {"lat": 51.522267, "lng": -0.173642}, "viewport": {"northeast": {"lat": 51.52366973029149, "lng": -0.172222019708498}, "southwest": {"lat": 51.5209717697085, "lng": -0.174919980291502}}}, "name": "Washing Machines , cookers , fridges , dryers", "place_id": "ChIJwTfgqLEadkgRaFR7MNpL2v4", "types": ["home_goods_store", "point_of_interest", "store", "establishment"], "rating": 5, "user_ratings_total": 5}, "ChIJRZrwFzMbdkgR0nmbUvF1JF4": {"geometry": {"location": {"lat": 51.5225075, "lng": -0.173963}, "viewport": {"northeast": {"lat": 51.5239057302915, "lng": -0.172533569708498}, "southwest": {"lat": 51.5212077697085, "lng": -0.175231530291502}}}, "name": "Edgware Mangal", "place_id": "ChIJRZrwFzMbdkgR0nmbUvF1JF4", "types": ["restaurant", "food", "point_of_interest", "establishment"], "rating": 4.9, "user_ratings_total": 46}, "ChIJoS3_qLEadkgRWvBEcMYvDDw": {"geometry": {"location": {"lat": 51.5222396, "lng": -0.1737543}, "viewport": {"northeast": {"lat": 51.5236616802915, "lng": -0.172271819708498}, "southwest": {"lat": 51.5209637197085, "lng": -0.174969780291502}}}, "name": "\u0634\u0642\u0647 \u0641\u0649 \u0634\u0627\u0631\u0639 \u0627\u0644\u0639\u0631\u0628 \u0644\u0646\u062f\u0646", "place_id": "ChIJoS3_qLEadkgRWvBEcMYvDDw", "types": ["travel_agency", "point_of_interest", "establishment"], "rating": 4.1, "user_ratings_total": 20}, "ChIJBwRhrLEadkgRjfqERQo8j_E": {"geometry": {"location": {"lat": 51.5225885, "lng": -0.1738241}, "viewport": {"northeast": {"lat": 51.5239307802915, "lng": -0.172486019708498}, "southwest": {"lat": 51.5212328197085, "lng": -0.175183980291502}}}, "name": "Istanbulounge Grill Doner Kebab", "place_id": "ChIJBwRhrLEadkgRjfqERQo8j_E", "types": ["restaurant", "food", "point_of_interest", "establishment"]}, "ChIJsY-yrbEadkgRTEZ882JuUik": {"geometry": {"location": {"lat": 51.5225631, "lng": -0.1739538}, "viewport": {"northeast": {"lat": 51.52394488029151, "lng": -0.172546019708498}, "southwest": {"lat": 51.52124691970851, "lng": -0.175243980291502}}}, "name": "Istanbul Lounge", "place_id": "ChIJsY-yrbEadkgRTEZ882JuUik", "types": ["point_of_interest", "establishment"]}, "ChIJtxajALEadkgRzibE8c0uLXw": {"geometry": {"location": {"lat": 51.522493, "lng": -0.1733592}, "viewport": {"northeast": {"lat": 51.52379923029149, "lng": -0.172087819708498}, "southwest": {"lat": 51.5211012697085, "lng": -0.174785780291502}}}, "name": "Edgware Road Serviced Apartment", "place_id": "ChIJtxajALEadkgRzibE8c0uLXw", "types": ["lodging", "point_of_interest", "establishment"], "rating": 3.1, "user_ratings_total": 18}, "ChIJETlUq5AbdkgRiUEt9uToX5A": {"geometry": {"location": {"lat": 51.5226214, "lng": -0.1735222}, "viewport": {"northeast": {"lat": 51.5239246302915, "lng": -0.172256319708498}, "southwest": {"lat": 51.5212266697085, "lng": -0.174954280291502}}}, "name": "CBBR Internet PPE Shop", "place_id": "ChIJETlUq5AbdkgRiUEt9uToX5A", "types": ["point_of_interest", "store", "establishment"], "rating": 4.2, "user_ratings_total": 21}, "ChIJTazuqrEadkgR3iD-qsR9RsY": {"geometry": {"location": {"lat": 51.5226214, "lng": -0.1735222}, "viewport": {"northeast": {"lat": 51.5239246302915, "lng": -0.172256319708498}, "southwest": {"lat": 51.5212266697085, "lng": -0.174954280291502}}}, "name": "The New Cooker Centre London", "place_id": "ChIJTazuqrEadkgR3iD-qsR9RsY", "types": ["electronics_store", "point_of_interest", "store", "establishment"], "rating": 4.3, "user_ratings_total": 4}, "ChIJ627wrrEadkgRPVPNXVMzzVo": {"geometry": {"location": {"lat": 51.52258, "lng": -0.174012}, "viewport": {"northeast": {"lat": 51.52396703029149, "lng": -0.1726075197084979}, "southwest": {"lat": 51.5212690697085, "lng": -0.175305480291502}}}, "name": "Al-Zumorrdah", "place_id": "ChIJ627wrrEadkgRPVPNXVMzzVo", "types": ["jewelry_store", "point_of_interest", "store", "establishment"], "rating": 5, "user_ratings_total": 2}, "ChIJhbwUqbEadkgRiTSp5v7hOkc": {"geometry": {"location": {"lat": 51.52223739999999, "lng": -0.1734509}, "viewport": {"northeast": {"lat": 51.5236163302915, "lng": -0.172054019708498}, "southwest": {"lat": 51.5209183697085, "lng": -0.174751980291502}}}, "name": "Church Street Market (Stop EN)", "place_id": "ChIJhbwUqbEadkgRiTSp5v7hOkc", "types": ["bus_station", "transit_station", "point_of_interest", "establishment"], "rating": 4, "user_ratings_total": 2}, "ChIJJZZqLjYbdkgRueIyA3yxSyI": {"geometry": {"location": {"lat": 51.5225312, "lng": -0.1740785}, "viewport": {"northeast": {"lat": 51.5239393802915, "lng": -0.172623419708498}, "southwest": {"lat": 51.5212414197085, "lng": -0.175321380291502}}}, "name": "Zayona Burgers", "place_id": "ChIJJZZqLjYbdkgRueIyA3yxSyI", "types": ["restaurant", "food", "point_of_interest", "establishment"], "rating": 5, "user_ratings_total": 3}, "ChIJzUdXB7EadkgRZzjGtYzKu3A": {"geometry": {"location": {"lat": 51.52239360000001, "lng": -0.1733028}, "viewport": {"northeast": {"lat": 51.52371058029151, "lng": -0.172003569708498}, "southwest": {"lat": 51.52101261970851, "lng": -0.174701530291502}}}, "name": "Church Street Market (Stop EB)", "place_id": "ChIJzUdXB7EadkgRZzjGtYzKu3A", "types": ["bus_station", "transit_station", "point_of_interest", "establishment"], "rating": 5, "user_ratings_total": 3}, "ChIJSyIAESYbdkgRRRvJK8EojmM": {"geometry": {"location": {"lat": 51.5224674, "lng": -0.1732958}, "viewport": {"northeast": {"lat": 51.5237658802915, "lng": -0.172027469708498}, "southwest": {"lat": 51.5210679197085, "lng": -0.1747254302915021}}}, "name": "ED World LTD", "place_id": "ChIJSyIAESYbdkgRRRvJK8EojmM", "types": ["point_of_interest", "establishment"]}, "ChIJg8JTDlcRdkgRG08ucXcdwkw": {"geometry": {"location": {"lat": 51.5224674, "lng": -0.1732958}, "viewport": {"northeast": {"lat": 51.5237658802915, "lng": -0.172027469708498}, "southwest": {"lat": 51.5210679197085, "lng": -0.1747254302915021}}}, "name": "Uni N Co", "place_id": "ChIJg8JTDlcRdkgRG08ucXcdwkw", "types": ["point_of_interest", "establishment"], "rating": 5, "user_ratings_total": 46}, "ChIJUyzaZJ0bdkgRHa6hwZmP-3g": {"geometry": {"location": {"lat": 51.5224674, "lng": -0.1732958}, "viewport": {"northeast": {"lat": 51.5237658802915, "lng": -0.172027469708498}, "southwest": {"lat": 51.5210679197085, "lng": -0.1747254302915021}}}, "name": "london liverpool street", "place_id": "ChIJUyzaZJ0bdkgRHa6hwZmP-3g", "types": ["point_of_interest", "establishment"]}, "ChIJKaMSVD8bdkgRoLKxTee0uZg": {"geometry": {"location": {"lat": 51.52257659999999, "lng": -0.1740777}, "viewport": {"northeast": {"lat": 51.5239745302915, "lng": -0.172640919708498}, "southwest": {"lat": 51.5212765697085, "lng": -0.175338880291502}}}, "name": "MyForeverYoung", "place_id": "ChIJKaMSVD8bdkgRoLKxTee0uZg", "types": ["beauty_salon", "point_of_interest", "establishment"]}, "ChIJLTiiELEadkgRojN2mKQ4wu0": {"geometry": {"location": {"lat": 51.5224188, "lng": -0.1732587}, "viewport": {"northeast": {"lat": 51.52373233029149, "lng": -0.171992569708498}, "southwest": {"lat": 51.5210343697085, "lng": -0.174690530291502}}}, "name": "BAGHDAD GATE TRADING LTD", "place_id": "ChIJLTiiELEadkgRojN2mKQ4wu0", "types": ["point_of_interest", "establishment"]}, "ChIJrUGOyLoadkgRwRNOkq2PTxY": {"geometry": {"location": {"lat": 51.52693095012451, "lng": -0.1756855503024086}, "viewport": {"northeast": {"lat": 51.5282799302915, "lng": -0.174336569708498}, "southwest": {"lat": 51.5255819697085, "lng": -0.177034530291502}}}, "name": "35-37 St John's Wood Rd", "place_id": "ChIJrUGOyLoadkgRwRNOkq2PTxY", "types": ["route"]}, "ChIJhUcttLoadkgR-jJ5jzMca7I": {"geometry": {"location": {"lat": 51.52653669999999, "lng": -0.1760183}, "viewport": {"northeast": {"lat": 51.5279577802915, "lng": -0.1747614197084979}, "southwest": {"lat": 51.5252598197085, "lng": -0.177459380291502}}}, "name": "Kwirk Ltd", "place_id": "ChIJhUcttLoadkgR-jJ5jzMca7I", "types": ["point_of_interest", "establishment"]}, "ChIJQ3QALaUadkgRXvBcFdmqc3E": {"geometry": {"location": {"lat": 51.52713370000001, "lng": -0.1756423}, "viewport": {"northeast": {"lat": 51.5284235802915, "lng": -0.174224769708498}, "southwest": {"lat": 51.5257256197085, "lng": -0.176922730291502}}}, "name": "Poshouse", "place_id": "ChIJQ3QALaUadkgRXvBcFdmqc3E", "types": ["point_of_interest", "establishment"]}, "ChIJuQ1lz7oadkgRYmnIXXzUua0": {"geometry": {"location": {"lat": 51.5270827, "lng": -0.1757428}, "viewport": {"northeast": {"lat": 51.5284465302915, "lng": -0.174369019708498}, "southwest": {"lat": 51.5257485697085, "lng": -0.177066980291502}}}, "name": "L'Unique Expert Dry Cleaners", "place_id": "ChIJuQ1lz7oadkgRYmnIXXzUua0", "types": ["laundry", "point_of_interest", "establishment"], "rating": 5, "user_ratings_total": 1}, "ChIJuQ1lz7oadkgRXI-CQMa9rw4": {"geometry": {"location": {"lat": 51.5270912, "lng": -0.1755837}, "viewport": {"northeast": {"lat": 51.52844123029151, "lng": -0.174220119708498}, "southwest": {"lat": 51.52574326970851, "lng": -0.176918080291502}}}, "name": "Woods Food & Wine", "place_id": "ChIJuQ1lz7oadkgRXI-CQMa9rw4", "types": ["convenience_store", "food", "point_of_interest", "store", "establishment"], "rating": 3, "user_ratings_total": 5}, "ChIJ5_EBaHcbdkgRTdUnps-JTQs": {"geometry": {"location": {"lat": 51.52656459999999, "lng": -0.1755178}, "viewport": {"northeast": {"lat": 51.5279009802915, "lng": -0.174194519708498}, "southwest": {"lat": 51.5252030197085, "lng": -0.176892480291502}}}, "name": "RT Addiction Therapy", "place_id": "ChIJ5_EBaHcbdkgRTdUnps-JTQs", "types": ["health", "point_of_interest", "establishment"], "rating": 5, "user_ratings_total": 1}, "ChIJ7YCHtLoadkgR6Q-9ftx0Pv0": {"geometry": {"location": {"lat": 51.52653669999999, "lng": -0.1760183}, "viewport": {"northeast": {"lat": 51.5279577802915, "lng": -0.1747614197084979}, "southwest": {"lat": 51.5252598197085, "lng": -0.177459380291502}}}, "name": "Aquarius X 1", "place_id": "ChIJ7YCHtLoadkgR6Q-9ftx0Pv0", "types": ["point_of_interest", "establishment"]}, "ChIJIZ2EvroadkgRZL7RMu-TSMc": {"geometry": {"location": {"lat": 51.526398, "lng": -0.1750946}, "viewport": {"northeast": {"lat": 51.5277729302915, "lng": -0.173777819708498}, "southwest": {"lat": 51.52507496970851, "lng": -0.176475780291502}}}, "name": "Hucknall Court", "place_id": "ChIJIZ2EvroadkgRZL7RMu-TSMc", "types": ["point_of_interest", "establishment"], "rating": 4, "user_ratings_total": 1}, "ChIJd92LTzAbdkgRUUchrIPXJM4": {"geometry": {"location": {"lat": 51.5271312, "lng": -0.1755906}, "viewport": {"northeast": {"lat": 51.5284295302915, "lng": -0.174182869708498}, "southwest": {"lat": 51.5257315697085, "lng": -0.176880830291502}}}, "name": "DPD Parcel Shop Location", "place_id": "ChIJd92LTzAbdkgRUUchrIPXJM4", "types": ["point_of_interest", "establishment"]}, "ChIJofxKp7oadkgR7lGjsfIw4ZU": {"geometry": {"location": {"lat": 51.52560485574006, "lng": -0.1749116358844857}, "viewport": {"northeast": {"lat": 51.5269636802915, "lng": -0.173582619708498}, "southwest": {"lat": 51.5242657197085, "lng": -0.176280580291502}}}, "name": "29-24 Aberdeen Pl", "place_id": "ChIJofxKp7oadkgR7lGjsfIw4ZU", "types": ["route"]}, "ChIJM2y6BrAadkgRb4nPrDPCSo0": {"geometry": {"location": {"lat": 51.525729, "lng": -0.175017}, "viewport": {"northeast": {"lat": 51.52717423029149, "lng": -0.173506169708498}, "southwest": {"lat": 51.52447626970849, "lng": -0.176204130291502}}}, "name": "Crocker's Folly", "place_id": "ChIJM2y6BrAadkgRb4nPrDPCSo0", "types": ["bar", "restaurant", "food", "point_of_interest", "establishment"], "rating": 4.3, "user_ratings_total": 466}, "ChIJBd-_8DgbdkgRK45fLiyuNes": {"geometry": {"location": {"lat": 51.5257261, "lng": -0.1756701}, "viewport": {"northeast": {"lat": 51.5270889802915, "lng": -0.174338119708498}, "southwest": {"lat": 51.5243910197085, "lng": -0.177036080291502}}}, "name": "British Library", "place_id": "ChIJBd-_8DgbdkgRK45fLiyuNes", "types": ["museum", "point_of_interest", "establishment"]}, "ChIJqS3sBrAadkgRCkcQMOKjrlU": {"geometry": {"location": {"lat": 51.52535930000001, "lng": -0.1755626}, "viewport": {"northeast": {"lat": 51.52669048029149, "lng": -0.174191419708498}, "southwest": {"lat": 51.5239925197085, "lng": -0.176889380291502}}}, "name": "Blue Plaque: Guy Gibson", "place_id": "ChIJqS3sBrAadkgRCkcQMOKjrlU", "types": ["point_of_interest", "establishment"], "rating": 4.8, "user_ratings_total": 10}, "ChIJ9zKQRg8bdkgRnnZVAW1V6Hc": {"geometry": {"location": {"lat": 51.526091, "lng": -0.1752682}, "viewport": {"northeast": {"lat": 51.5274948302915, "lng": -0.173804869708498}, "southwest": {"lat": 51.5247968697085, "lng": -0.176502830291502}}}, "name": "Williams Floorinig", "place_id": "ChIJ9zKQRg8bdkgRnnZVAW1V6Hc", "types": ["home_goods_store", "point_of_interest", "store", "establishment"]}, "ChIJrVrPALAadkgRcgDnnt3X9Es": {"geometry": {"location": {"lat": 51.5252844, "lng": -0.1760132}, "viewport": {"northeast": {"lat": 51.5266322802915, "lng": -0.174666519708498}, "southwest": {"lat": 51.5239343197085, "lng": -0.177364480291502}}}, "name": "Zipcar", "place_id": "ChIJrVrPALAadkgRcgDnnt3X9Es", "types": ["car_rental", "point_of_interest", "establishment"], "rating": 5, "user_ratings_total": 1}, "ChIJia-0CbAadkgRetApuwrXDhI": {"geometry": {"location": {"lat": 51.5252777, "lng": -0.1754064}, "viewport": {"northeast": {"lat": 51.52663901736812, "lng": -0.1740661595856951}, "southwest": {"lat": 51.52394105678512, "lng": -0.1767641201686991}}}, "name": "Parking lot", "place_id": "ChIJia-0CbAadkgRetApuwrXDhI", "types": ["parking", "premise", "point_of_interest", "establishment"]}, "ChIJLWKqH7AadkgRieIAVqWYniM": {"geometry": {"location": {"lat": 51.52416230002542, "lng": -0.1760428499198228}, "viewport": {"northeast": {"lat": 51.5255112802915, "lng": -0.174693869708498}, "southwest": {"lat": 51.5228133197085, "lng": -0.177391830291502}}}, "name": "492 A5", "place_id": "ChIJLWKqH7AadkgRieIAVqWYniM", "types": ["route"]}, "ChIJRx9oG7AadkgREse8uzBZetk": {"geometry": {"location": {"lat": 51.52470199999999, "lng": -0.1758859}, "viewport": {"northeast": {"lat": 51.5260729302915, "lng": -0.174494769708498}, "southwest": {"lat": 51.5233749697085, "lng": -0.177192730291502}}}, "name": "Humanitarian Dialogue Foundation", "place_id": "ChIJRx9oG7AadkgREse8uzBZetk", "types": ["point_of_interest", "establishment"]}, "ChIJf_3OF7AadkgRxZpg1UyYLLk": {"geometry": {"location": {"lat": 51.5244347, "lng": -0.1760682}, "viewport": {"northeast": {"lat": 51.5257182302915, "lng": -0.174822419708498}, "southwest": {"lat": 51.5230202697085, "lng": -0.1775203802915021}}}, "name": "Inspire Dental - Little Venice", "place_id": "ChIJf_3OF7AadkgRxZpg1UyYLLk", "types": ["dentist", "health", "point_of_interest", "establishment"], "rating": 4.9, "user_ratings_total": 44}, "ChIJbW7WArAadkgRTfIHUT9TifE": {"geometry": {"location": {"lat": 51.5248243, "lng": -0.1761406}, "viewport": {"northeast": {"lat": 51.52621998029149, "lng": -0.174848419708498}, "southwest": {"lat": 51.52352201970849, "lng": -0.177546380291502}}}, "name": "D1 Coffee", "place_id": "ChIJbW7WArAadkgRTfIHUT9TifE", "types": ["cafe", "food", "point_of_interest", "store", "establishment"], "rating": 4.6, "user_ratings_total": 218}, "ChIJTb8yHLAadkgRhfPCloch3Pg": {"geometry": {"location": {"lat": 51.52446940000001, "lng": -0.1760948}, "viewport": {"northeast": {"lat": 51.5257489302915, "lng": -0.174857669708498}, "southwest": {"lat": 51.52305096970851, "lng": -0.177555630291502}}}, "name": "Infinity Hair Stylist", "place_id": "ChIJTb8yHLAadkgRhfPCloch3Pg", "types": ["hair_care", "point_of_interest", "establishment"], "rating": 4.1, "user_ratings_total": 27}, "ChIJdXm2ArAadkgRy4PLeujaeh0": {"geometry": {"location": {"lat": 51.5247538, "lng": -0.1762521}, "viewport": {"northeast": {"lat": 51.52615518029149, "lng": -0.174966869708498}, "southwest": {"lat": 51.5234572197085, "lng": -0.177664830291502}}}, "name": "Octo Estates Ltd", "place_id": "ChIJdXm2ArAadkgRy4PLeujaeh0", "types": ["real_estate_agency", "point_of_interest", "establishment"], "rating": 5, "user_ratings_total": 2}, "ChIJmyHVRg6o2EcR6DYVj1EDPZM": {"geometry": {"location": {"lat": 51.5247538, "lng": -0.1762521}, "viewport": {"northeast": {"lat": 51.52615518029149, "lng": -0.174966869708498}, "southwest": {"lat": 51.5234572197085, "lng": -0.177664830291502}}}, "name": "Canary Properties", "place_id": "ChIJmyHVRg6o2EcR6DYVj1EDPZM", "types": ["real_estate_agency", "point_of_interest", "establishment"], "rating": 4.9, "user_ratings_total": 61}, "ChIJf_3OF7AadkgRePgb1w38OAg": {"geometry": {"location": {"lat": 51.52441890000001, "lng": -0.1761173}, "viewport": {"northeast": {"lat": 51.5257140802915, "lng": -0.174853169708498}, "southwest": {"lat": 51.5230161197085, "lng": -0.177551130291502}}}, "name": "Dr K L M Ooi - Inspire Dental", "place_id": "ChIJf_3OF7AadkgRePgb1w38OAg", "types": ["dentist", "health", "point_of_interest", "establishment"]}, "ChIJjWIuHLAadkgR9mFHbTJreLo": {"geometry": {"location": {"lat": 51.52441890000001, "lng": -0.1761173}, "viewport": {"northeast": {"lat": 51.5257140802915, "lng": -0.174853169708498}, "southwest": {"lat": 51.5230161197085, "lng": -0.177551130291502}}}, "name": "Clinica Health", "place_id": "ChIJjWIuHLAadkgR9mFHbTJreLo", "types": ["health", "point_of_interest", "establishment"], "rating": 5, "user_ratings_total": 4}, "ChIJf_3OF7AadkgROax2Zxj20DA": {"geometry": {"location": {"lat": 51.524423, "lng": -0.1761017}, "viewport": {"northeast": {"lat": 51.52577198029149, "lng": -0.174752719708498}, "southwest": {"lat": 51.5230740197085, "lng": -0.177450680291502}}}, "name": "Akash", "place_id": "ChIJf_3OF7AadkgROax2Zxj20DA", "types": ["meal_takeaway", "restaurant", "food", "point_of_interest", "establishment"], "rating": 4.3, "user_ratings_total": 88}, "ChIJd-yfGbAadkgRRpLJUYap9rk": {"geometry": {"location": {"lat": 51.5243839, "lng": -0.1757573}, "viewport": {"northeast": {"lat": 51.52579713029151, "lng": -0.174264869708498}, "southwest": {"lat": 51.52309916970851, "lng": -0.176962830291502}}}, "name": "St John's Wood Ambulance Station", "place_id": "ChIJd-yfGbAadkgRRpLJUYap9rk", "types": ["health", "point_of_interest", "establishment"], "rating": 5, "user_ratings_total": 4}, "ChIJQW1-vpYbdkgRdAzSDk2voJ4": {"geometry": {"location": {"lat": 51.52446620000001, "lng": -0.1754227}, "viewport": {"northeast": {"lat": 51.52580098029149, "lng": -0.174095719708498}, "southwest": {"lat": 51.5231030197085, "lng": -0.176793680291502}}}, "name": "My Rafly Scents", "place_id": "ChIJQW1-vpYbdkgRdAzSDk2voJ4", "types": ["point_of_interest", "clothing_store", "store", "establishment"]}, "ChIJa-6Ee80bdkgR6popds1YIfs": {"geometry": {"location": {"lat": 51.5248344, "lng": -0.1752778}, "viewport": {"northeast": {"lat": 51.5261681802915, "lng": -0.173910019708498}, "southwest": {"lat": 51.5234702197085, "lng": -0.176607980291502}}}, "name": "www.rtaddictiontherapy.com", "place_id": "ChIJa-6Ee80bdkgR6popds1YIfs", "types": ["health", "point_of_interest", "establishment"]}, "ChIJoYongVcbdkgRveAw777tizk": {"geometry": {"location": {"lat": 51.52417729999999, "lng": -0.1755822}, "viewport": {"northeast": {"lat": 51.52545243029149, "lng": -0.174361169708498}, "southwest": {"lat": 51.5227544697085, "lng": -0.177059130291502}}}, "name": "Aldi Little Venice", "place_id": "ChIJoYongVcbdkgRveAw777tizk", "types": ["grocery_or_supermarket", "food", "point_of_interest", "store", "establishment"], "rating": 5, "user_ratings_total": 1}, "ChIJSWbmtEgbdkgRjYff8xgM44o": {"geometry": {"location": {"lat": 51.5244659, "lng": -0.1761103}, "viewport": {"northeast": {"lat": 51.5257480302915, "lng": -0.174866769708498}, "southwest": {"lat": 51.5230500697085, "lng": -0.177564730291502}}}, "name": "The IPL Rooms at Infinity Salon", "place_id": "ChIJSWbmtEgbdkgRjYff8xgM44o", "types": ["beauty_salon", "point_of_interest", "establishment"], "rating": 5, "user_ratings_total": 1}, "ChIJjyK-HbAadkgR8QujJNfCoK4": {"geometry": {"location": {"lat": 51.524489, "lng": -0.1762073}, "viewport": {"northeast": {"lat": 51.52583798029151, "lng": -0.174858319708498}, "southwest": {"lat": 51.52314001970851, "lng": -0.177556280291502}}}, "name": "Mercury Dry Cleaners", "place_id": "ChIJjyK-HbAadkgR8QujJNfCoK4", "types": ["laundry", "point_of_interest", "establishment"], "rating": 4.5, "user_ratings_total": 31}, "ChIJexwDU6EbdkgRkl6HFbfWxMk": {"geometry": {"location": {"lat": 51.52441890000001, "lng": -0.1761173}, "viewport": {"northeast": {"lat": 51.5257140802915, "lng": -0.174853169708498}, "southwest": {"lat": 51.5230161197085, "lng": -0.177551130291502}}}, "name": "Medminders", "place_id": "ChIJexwDU6EbdkgRkl6HFbfWxMk", "types": ["doctor", "health", "point_of_interest", "establishment"], "rating": 5, "user_ratings_total": 4}, "ChIJlRcpHLAadkgROk5Nf5UE39c": {"geometry": {"location": {"lat": 51.52441890000001, "lng": -0.1761173}, "viewport": {"northeast": {"lat": 51.5257140802915, "lng": -0.174853169708498}, "southwest": {"lat": 51.5230161197085, "lng": -0.177551130291502}}}, "name": "Inspire Dental Health", "place_id": "ChIJlRcpHLAadkgROk5Nf5UE39c", "types": ["dentist", "health", "point_of_interest", "establishment"], "rating": 2.5, "user_ratings_total": 2}, "ChIJp5w8P5sbdkgRLaIquJDzZlk": {"geometry": {"location": {"lat": 51.52441890000001, "lng": -0.1761173}, "viewport": {"northeast": {"lat": 51.5257140802915, "lng": -0.174853169708498}, "southwest": {"lat": 51.5230161197085, "lng": -0.177551130291502}}}, "name": "Merit Clinic", "place_id": "ChIJp5w8P5sbdkgRLaIquJDzZlk", "types": ["health", "point_of_interest", "establishment"]}, "ChIJdVq3fpsQdkgRwdGG1fX7rq4": {"geometry": {"location": {"lat": 51.52441890000001, "lng": -0.1761173}, "viewport": {"northeast": {"lat": 51.5257678802915, "lng": -0.174768319708498}, "southwest": {"lat": 51.5230699197085, "lng": -0.177466280291502}}}, "name": "Merit Wellbeing & Laser Centre", "place_id": "ChIJdVq3fpsQdkgRwdGG1fX7rq4", "types": ["beauty_salon", "hair_care", "health", "point_of_interest", "establishment"], "rating": 4.6, "user_ratings_total": 68}, "ChIJDSKDHrAadkgR359SFFiItuw": {"geometry": {"location": {"lat": 51.52441890000001, "lng": -0.1761173}, "viewport": {"northeast": {"lat": 51.5257140802915, "lng": -0.174853169708498}, "southwest": {"lat": 51.5230161197085, "lng": -0.177551130291502}}}, "name": "Dr Qahir Manji", "place_id": "ChIJDSKDHrAadkgR359SFFiItuw", "types": ["dentist", "health", "point_of_interest", "establishment"]}, "ChIJK9Ovc5UbdkgR5sCywALMFuk": {"geometry": {"location": {"lat": 51.52496899999999, "lng": -0.175468}, "viewport": {"northeast": {"lat": 51.52635608029149, "lng": -0.174170769708498}, "southwest": {"lat": 51.52365811970849, "lng": -0.176868730291502}}}, "name": "Poynter House", "place_id": "ChIJK9Ovc5UbdkgR5sCywALMFuk", "types": ["point_of_interest", "establishment"]}, "ChIJjyK-HbAadkgRvTtKAyDSHWY": {"geometry": {"location": {"lat": 51.5244594, "lng": -0.1761791}, "viewport": {"northeast": {"lat": 51.5257501302915, "lng": -0.174910069708498}, "southwest": {"lat": 51.5230521697085, "lng": -0.177608030291502}}}, "name": "Notting Hill Electricians", "place_id": "ChIJjyK-HbAadkgRvTtKAyDSHWY", "types": ["electrician", "point_of_interest", "establishment"], "rating": 4.9, "user_ratings_total": 18}, "ChIJf3m8I2AbdkgR_ukrp1k38PQ": {"geometry": {"location": {"lat": 51.5244995, "lng": -0.1762639}, "viewport": {"northeast": {"lat": 51.5257916802915, "lng": -0.174992919708498}, "southwest": {"lat": 51.5230937197085, "lng": -0.177690880291502}}}, "name": "FTG FILMS", "place_id": "ChIJf3m8I2AbdkgR_ukrp1k38PQ", "types": ["point_of_interest", "establishment"], "rating": 5, "user_ratings_total": 1}, "ChIJ038BoE4bdkgR8HwnCiWAhnc": {"geometry": {"location": {"lat": 51.5247538, "lng": -0.1762521}, "viewport": {"northeast": {"lat": 51.52615518029149, "lng": -0.174966869708498}, "southwest": {"lat": 51.5234572197085, "lng": -0.177664830291502}}}, "name": "Property Fixers Ltd", "place_id": "ChIJ038BoE4bdkgR8HwnCiWAhnc", "types": ["point_of_interest", "establishment"]}, "ChIJnZ6ldfEbdkgRuBKGAdP4mq0": {"geometry": {"location": {"lat": 51.5247633, "lng": -0.1762535}, "viewport": {"northeast": {"lat": 51.5261614802915, "lng": -0.174964319708498}, "southwest": {"lat": 51.5234635197085, "lng": -0.177662280291502}}}, "name": "Alex og Micellas lejlighed", "place_id": "ChIJnZ6ldfEbdkgRuBKGAdP4mq0", "types": ["point_of_interest", "establishment"]}, "ChIJDSAoDbAadkgRBwTZkiiasMo": {"geometry": {"location": {"lat": 51.524878, "lng": -0.1748864}, "viewport": {"northeast": {"lat": 51.52624742251303, "lng": -0.1735544698806871}, "southwest": {"lat": 51.52354946193003, "lng": -0.1762524304636911}}}, "name": "Parking lot", "place_id": "ChIJDSAoDbAadkgRBwTZkiiasMo", "types": ["parking", "premise", "point_of_interest", "establishment"]}, "ChIJI0qhO7AadkgRbkQiRTJ-PQk": {"geometry": {"location": {"lat": 51.52368380007185, "lng": -0.175339399734784}, "viewport": {"northeast": {"lat": 51.5250327802915, "lng": -0.173990419708498}, "southwest": {"lat": 51.5223348197085, "lng": -0.176688380291502}}}, "name": "466-464 A5", "place_id": "ChIJI0qhO7AadkgRbkQiRTJ-PQk", "types": ["route"]}, "ChIJT8N3OLAadkgRKJVbLcBPHDc": {"geometry": {"location": {"lat": 51.52352980000001, "lng": -0.1748647}, "viewport": {"northeast": {"lat": 51.52485118029149, "lng": -0.173599119708498}, "southwest": {"lat": 51.5221532197085, "lng": -0.176297080291502}}}, "name": "Diyarbakir Sofrasi", "place_id": "ChIJT8N3OLAadkgRKJVbLcBPHDc", "types": ["restaurant", "food", "point_of_interest", "establishment"], "rating": 4.3, "user_ratings_total": 415}, "ChIJHWl_ObAadkgRtHcIZSU0uG0": {"geometry": {"location": {"lat": 51.52368689999999, "lng": -0.1749249}, "viewport": {"northeast": {"lat": 51.52504373029151, "lng": -0.173617869708498}, "southwest": {"lat": 51.52234576970851, "lng": -0.176315830291502}}}, "name": "Calibre Gold Ltd", "place_id": "ChIJHWl_ObAadkgRtHcIZSU0uG0", "types": ["health", "point_of_interest", "establishment"]}, "ChIJf_3OF7AadkgR3-E8FvS8KWo": {"geometry": {"location": {"lat": 51.52368689999999, "lng": -0.1749249}, "viewport": {"northeast": {"lat": 51.52504373029151, "lng": -0.173617869708498}, "southwest": {"lat": 51.52234576970851, "lng": -0.176315830291502}}}, "name": "Easy Removals Limited", "place_id": "ChIJf_3OF7AadkgR3-E8FvS8KWo", "types": ["moving_company", "storage", "point_of_interest", "establishment"]}, "ChIJV8OtMeal2EcRhHymsQEpSts": {"geometry": {"location": {"lat": 51.5231553, "lng": -0.1750784}, "viewport": {"northeast": {"lat": 51.5245827302915, "lng": -0.173590969708498}, "southwest": {"lat": 51.5218847697085, "lng": -0.176288930291502}}}, "name": "Mercedes-Benz Colindale Vans", "place_id": "ChIJV8OtMeal2EcRhHymsQEpSts", "types": ["car_dealer", "point_of_interest", "store", "establishment"], "rating": 4.2, "user_ratings_total": 51}, "ChIJVfeSR7AadkgRrr-rK-sg5Do": {"geometry": {"location": {"lat": 51.5235113, "lng": -0.1748001}, "viewport": {"northeast": {"lat": 51.52480738029149, "lng": -0.173520119708498}, "southwest": {"lat": 51.5221094197085, "lng": -0.176218080291502}}}, "name": "Ostora Fashion", "place_id": "ChIJVfeSR7AadkgRrr-rK-sg5Do", "types": ["point_of_interest", "store", "establishment"], "rating": 5, "user_ratings_total": 4}, "ChIJjVWmK7QadkgREC1PVzvvLZw": {"geometry": {"location": {"lat": 51.52348609999999, "lng": -0.1748017}, "viewport": {"northeast": {"lat": 51.52479568029149, "lng": -0.173522269708498}, "southwest": {"lat": 51.52209771970849, "lng": -0.176220230291502}}}, "name": "Pizza Hut Delivery", "place_id": "ChIJjVWmK7QadkgREC1PVzvvLZw", "types": ["meal_delivery", "meal_takeaway", "restaurant", "food", "point_of_interest", "establishment"], "rating": 2.8, "user_ratings_total": 102},